{"Response":{"MetaInfo":{"Timestamp":"2020-03-28T11:50:11.502+0000","NextPageInformation":"2"},"View":[{"_type":"SearchResultsViewType","ViewId":0,"Result":[{"Relevance":1.0,"Distance":-128.8,"MatchLevel":"landmark","MatchQuality":{"Country":1.0,"State":1.0,"Name":1.0},"Location":{"LocationId":"NT_rWqSp.WgYPUeZDy8eS36HD","LocationType":"island","Name":"Tahiti","DisplayPosition":{"Latitude":-17.68727,"Longitude":-149.44508},"MapView":{"TopLeft":{"Latitude":-17.49404,"Longitude":-149.6216},"BottomRight":{"Latitude":-17.8805,"Longitude":-149.12428}},"Address":{"Label":"Îles-du-Vent, Polynésie Française","Country":"PYF","State":"Îles-du-Vent","AdditionalData":[{"value":"Polynésie Française","key":"CountryName"},{"value":"Îles-du-Vent","key":"StateName"}]},"MapReference":{"CountryId":"23582217","StateId":"28031659","PlaceId":"1521333022"}}},{"Relevance":1.0,"Distance":0.0,"Direction":0.0,"MatchLevel":"district","MatchQuality":{"Country":1.0,"State":1.0,"City":1.0,"District":1.0},"Location":{"LocationId":"NT_PbHkJJrNMZgzFbGDsTacCA","LocationType":"point","DisplayPosition":{"Latitude":-17.618355,"Longitude":-149.6145615},"MapView":{"TopLeft":{"Latitude":-17.56919,"Longitude":-149.6216},"BottomRight":{"Latitude":-17.66301,"Longitude":-149.58612}},"Address":{"Label":"Punaauia, Îles-du-Vent, Polynésie Française","Country":"PYF","State":"Îles-du-Vent","City":"Punaauia","District":"Punaauia","AdditionalData":[{"value":"Polynésie Française","key":"CountryName"},{"value":"Îles-du-Vent","key":"StateName"}]},"MapReference":{"ReferenceId":"1212815707","SideOfStreet":"neither","CountryId":"23582217","StateId":"28031659","CityId":"28081572","DistrictId":"28081584"}}},{"Relevance":1.0,"Distance":35.3,"MatchLevel":"street","MatchQuality":{"Country":1.0,"State":1.0,"City":1.0,"District":1.0,"Street":[1.0]},"Location":{"LocationId":"NT_2dlHUGGBJLVmHJ0ahm7pWB_l_1194835679_R","LocationType":"point","DisplayPosition":{"Latitude":-17.6180388,"Longitude":-149.6145894},"MapView":{"TopLeft":{"Latitude":-17.61798,"Longitude":-149.61483},"BottomRight":{"Latitude":-17.61806,"Longitude":-149.61419}},"Address":{"Label":"Serv. Nordoff 1, Punaauia, Îles-du-Vent, Polynésie Française","Country":"PYF","State":"Îles-du-Vent","City":"Punaauia","District":"Punaauia","Street":"Serv. Nordoff 1","AdditionalData":[{"value":"Polynésie Française","key":"CountryName"},{"value":"Îles-du-Vent","key":"StateName"}]},"MapReference":{"ReferenceId":"1194835679","Spot":0.37,"SideOfStreet":"right","CountryId":"23582217","StateId":"28031659","CityId":"28081572","DistrictId":"28081584"}}},{"Relevance":1.0,"Distance":45.7,"MatchLevel":"street","MatchQuality":{"Country":1.0,"State":1.0,"City":1.0,"District":1.0,"Street":[1.0]},"Location":{"LocationId":"NT_7QwYsnlSlA3PhFOoIfK8RD_l_1194841470_L","LocationType":"point","DisplayPosition":{"Latitude":-17.618281,"Longitude":-149.6141375},"MapView":{"TopLeft":{"Latitude":-17.61798,"Longitude":-149.61419},"BottomRight":{"Latitude":-17.61884,"Longitude":-149.61404}},"Address":{"Label":"Rt 1, Punaauia, Îles-du-Vent, Polynésie Française","Country":"PYF","State":"Îles-du-Vent","City":"Punaauia","District":"Punaauia","Street":"Rt 1","AdditionalData":[{"value":"Polynésie Française","key":"CountryName"},{"value":"Îles-du-Vent","key":"StateName"}]},"MapReference":{"ReferenceId":"1194841470","Spot":0.65,"SideOfStreet":"left","CountryId":"23582217","StateId":"28031659","CityId":"28081572","DistrictId":"28081584"}}},{"Relevance":1.0,"Distance":57.3,"MatchLevel":"street","MatchQuality":{"Country":1.0,"State":1.0,"City":1.0,"District":1.0,"Street":[1.0]},"Location":{"LocationId":"NT_7QwYsnlSlA3PhFOoIfK8RD_l_1113438114_L","LocationType":"point","DisplayPosition":{"Latitude":-17.61798,"Longitude":-149.61419},"MapView":{"TopLeft":{"Latitude":-17.61734,"Longitude":-149.61429},"BottomRight":{"Latitude":-17.61798,"Longitude":-149.61419}},"Address":{"Label":"Rt 1, Punaauia, Îles-du-Vent, Polynésie Française","Country":"PYF","State":"Îles-du-Vent","City":"Punaauia","District":"Punaauia","Street":"Rt 1","AdditionalData":[{"value":"Polynésie Française","key":"CountryName"},{"value":"Îles-du-Vent","key":"StateName"}]},"MapReference":{"ReferenceId":"1113438114","Spot":0.0,"SideOfStreet":"left","CountryId":"23582217","StateId":"28031659","CityId":"28081572","DistrictId":"28081584"}}},{"Relevance":1.0,"Distance":57.3,"MatchLevel":"street","MatchQuality":{"Country":1.0,"State":1.0,"City":1.0,"District":1.0,"Street":[1.0]},"Location":{"LocationId":"NT_HpFJNQ.Te9Vu9Rw25KsXVC_l_1194841472_L","LocationType":"point","DisplayPosition":{"Latitude":-17.61798,"Longitude":-149.61419},"MapView":{"TopLeft":{"Latitude":-17.6179,"Longitude":-149.61419},"BottomRight":{"Latitude":-17.618,"Longitude":-149.61089}},"Address":{"Label":"Serv. Manotahi, Punaauia, Îles-du-Vent, Polynésie Française","Country":"PYF","State":"Îles-du-Vent","City":"Punaauia","District":"Punaauia","Street":"Serv. Manotahi","AdditionalData":[{"value":"Polynésie Française","key":"CountryName"},{"value":"Îles-du-Vent","key":"StateName"}]},"MapReference":{"ReferenceId":"1194841472","Spot":1.0,"SideOfStreet":"left","CountryId":"23582217","StateId":"28031659","CityId":"28081572","DistrictId":"28081584"}}},{"Relevance":1.0,"Distance":77.2,"MatchLevel":"street","MatchQuality":{"Country":1.0,"State":1.0,"City":1.0,"District":1.0,"Street":[1.0]},"Location":{"LocationId":"NT_7TN53Pvftskpf14FEqkFwA_l_1194841471_L","LocationType":"point","DisplayPosition":{"Latitude":-17.61884,"Longitude":-149.61404},"MapView":{"TopLeft":{"Latitude":-17.61854,"Longitude":-149.61404},"BottomRight":{"Latitude":-17.61884,"Longitude":-149.61158}},"Address":{"Label":"Serv. Deligny, Punaauia, Îles-du-Vent, Polynésie Française","Country":"PYF","State":"Îles-du-Vent","City":"Punaauia","District":"Punaauia","Street":"Serv. Deligny","AdditionalData":[{"value":"Polynésie Française","key":"CountryName"},{"value":"Îles-du-Vent","key":"StateName"}]},"MapReference":{"ReferenceId":"1194841471","Spot":0.0,"SideOfStreet":"left","CountryId":"23582217","StateId":"28031659","CityId":"28081572","DistrictId":"28081584"}}},{"Relevance":1.0,"Distance":77.2,"MatchLevel":"street","MatchQuality":{"Country":1.0,"State":1.0,"City":1.0,"District":1.0,"Street":[1.0]},"Location":{"LocationId":"NT_7QwYsnlSlA3PhFOoIfK8RD_l_1194841469_L","LocationType":"point","DisplayPosition":{"Latitude":-17.61884,"Longitude":-149.61404},"MapView":{"TopLeft":{"Latitude":-17.61884,"Longitude":-149.61404},"BottomRight":{"Latitude":-17.61912,"Longitude":-149.614}},"Address":{"Label":"Rt 1, Punaauia, Îles-du-Vent, Polynésie Française","Country":"PYF","State":"Îles-du-Vent","City":"Punaauia","District":"Punaauia","Street":"Rt 1","AdditionalData":[{"value":"Polynésie Française","key":"CountryName"},{"value":"Îles-du-Vent","key":"StateName"}]},"MapReference":{"ReferenceId":"1194841469","Spot":1.0,"SideOfStreet":"left","CountryId":"23582217","StateId":"28031659","CityId":"28081572","DistrictId":"28081584"}}},{"Relevance":1.0,"Distance":90.3,"MatchLevel":"street","MatchQuality":{"Country":1.0,"State":1.0,"City":1.0,"District":1.0,"Street":[1.0]},"Location":{"LocationId":"NT_tgQsyLOzc5ik2tdZRpWtBC_l_1161198518_L","LocationType":"point","DisplayPosition":{"Latitude":-17.6191666,"Longitude":-149.6145813},"MapView":{"TopLeft":{"Latitude":-17.61915,"Longitude":-149.61485},"BottomRight":{"Latitude":-17.61917,"Longitude":-149.614}},"Address":{"Label":"Serv. Avauta, Punaauia, Îles-du-Vent, Polynésie Française","Country":"PYF","State":"Îles-du-Vent","City":"Punaauia","District":"Punaauia","Street":"Serv. Avauta","AdditionalData":[{"value":"Polynésie Française","key":"CountryName"},{"value":"Îles-du-Vent","key":"StateName"}]},"MapReference":{"ReferenceId":"1161198518","Spot":0.32,"SideOfStreet":"left","CountryId":"23582217","StateId":"28031659","CityId":"28081572","DistrictId":"28081584"}}},{"Relevance":1.0,"Distance":103.8,"MatchLevel":"street","MatchQuality":{"Country":1.0,"State":1.0,"City":1.0,"District":1.0,"Street":[1.0]},"Location":{"LocationId":"NT_SH-D8fiEiurcx95bDO-fVC_l_1194841485_L","LocationType":"point","DisplayPosition":{"Latitude":-17.61912,"Longitude":-149.614},"MapView":{"TopLeft":{"Latitude":-17.61876,"Longitude":-149.614},"BottomRight":{"Latitude":-17.61912,"Longitude":-149.61118}},"Address":{"Label":"Serv. Avauta 2, Punaauia, Îles-du-Vent, Polynésie Française","Country":"PYF","State":"Îles-du-Vent","City":"Punaauia","District":"Punaauia","Street":"Serv. Avauta 2","AdditionalData":[{"value":"Polynésie Française","key":"CountryName"},{"value":"Îles-du-Vent","key":"StateName"}]},"MapReference":{"ReferenceId":"1194841485","Spot":0.0,"SideOfStreet":"left","CountryId":"23582217","StateId":"28031659","CityId":"28081572","DistrictId":"28081584"}}}]}]}}