{"Response":{"MetaInfo":{"Timestamp":"2020-03-28T11:47:02.280+0000","NextPageInformation":"2"},"View":[{"_type":"SearchResultsViewType","ViewId":0,"Result":[{"Relevance":1.0,"Distance":-118.6,"MatchLevel":"landmark","MatchQuality":{"Country":1.0,"State":1.0,"Name":1.0},"Location":{"LocationId":"NT_rWqSp.WgYPUeZDy8eS36HD","LocationType":"island","Name":"Tahiti","DisplayPosition":{"Latitude":-17.68727,"Longitude":-149.44508},"MapView":{"TopLeft":{"Latitude":-17.49404,"Longitude":-149.6216},"BottomRight":{"Latitude":-17.8805,"Longitude":-149.12428}},"Address":{"Label":"Îles-du-Vent, Polynésie Française","Country":"PYF","State":"Îles-du-Vent","AdditionalData":[{"value":"Polynésie Française","key":"CountryName"},{"value":"Îles-du-Vent","key":"StateName"}]},"MapReference":{"CountryId":"23582217","StateId":"28031659","PlaceId":"1521333022"}}},{"Relevance":1.0,"Distance":0.0,"Direction":0.0,"MatchLevel":"district","MatchQuality":{"Country":1.0,"State":1.0,"City":1.0,"District":1.0},"Location":{"LocationId":"NT_PbHkJJrNMZgzFbGDsTacCA","LocationType":"point","DisplayPosition":{"Latitude":-17.6054162,"Longitude":-149.6128854},"MapView":{"TopLeft":{"Latitude":-17.56919,"Longitude":-149.6216},"BottomRight":{"Latitude":-17.66301,"Longitude":-149.58612}},"Address":{"Label":"Punaauia, Îles-du-Vent, Polynésie Française","Country":"PYF","State":"Îles-du-Vent","City":"Punaauia","District":"Punaauia","AdditionalData":[{"value":"Polynésie Française","key":"CountryName"},{"value":"Îles-du-Vent","key":"StateName"}]},"MapReference":{"ReferenceId":"1212815707","SideOfStreet":"neither","CountryId":"23582217","StateId":"28031659","CityId":"28081572","DistrictId":"28081584"}}},{"Relevance":1.0,"Distance":10.5,"MatchLevel":"street","MatchQuality":{"Country":1.0,"State":1.0,"City":1.0,"District":1.0,"Street":[1.0]},"Location":{"LocationId":"NT_cwKnwN-yTPB.C7dGrVY03C_l_1113435847_L","LocationType":"point","DisplayPosition":{"Latitude":-17.6053222,"Longitude":-149.6128811},"MapView":{"TopLeft":{"Latitude":-17.60531,"Longitude":-149.61315},"BottomRight":{"Latitude":-17.60534,"Longitude":-149.61133}},"Address":{"Label":"Servitude Laux, Punaauia, Îles-du-Vent, Polynésie Française","Country":"PYF","State":"Îles-du-Vent","City":"Punaauia","District":"Punaauia","Street":"Servitude Laux","AdditionalData":[{"value":"Polynésie Française","key":"CountryName"},{"value":"Îles-du-Vent","key":"StateName"}]},"MapReference":{"ReferenceId":"1113435847","Spot":0.85,"SideOfStreet":"left","CountryId":"23582217","StateId":"28031659","CityId":"28081572","DistrictId":"28081584"}}},{"Relevance":1.0,"Distance":20.4,"MatchLevel":"street","MatchQuality":{"Country":1.0,"State":1.0,"City":1.0,"District":1.0,"Street":[1.0]},"Location":{"LocationId":"NT_lkNn3p9VqToniSqYwIPG9C_l_1113438649_L","LocationType":"point","DisplayPosition":{"Latitude":-17.6056,"Longitude":-149.6128854},"MapView":{"TopLeft":{"Latitude":-17.6054,"Longitude":-149.61318},"BottomRight":{"Latitude":-17.60568,"Longitude":-149.60985}},"Address":{"Label":"Servitude Tevahitua, Punaauia, Îles-du-Vent, Polynésie Française","Country":"PYF","State":"Îles-du-Vent","City":"Punaauia","District":"Punaauia","Street":"Servitude Tevahitua","AdditionalData":[{"value":"Polynésie Française","key":"CountryName"},{"value":"Îles-du-Vent","key":"StateName"}]},"MapReference":{"ReferenceId":"1113438649","Spot":0.09,"SideOfStreet":"left","CountryId":"23582217","StateId":"28031659","CityId":"28081572","DistrictId":"28081584"}}},{"Relevance":1.0,"Distance":29.1,"MatchLevel":"street","MatchQuality":{"Country":1.0,"State":1.0,"City":1.0,"District":1.0,"Street":[1.0]},"Location":{"LocationId":"NT_7QwYsnlSlA3PhFOoIfK8RD_l_1194835683_R","LocationType":"point","DisplayPosition":{"Latitude":-17.6053859,"Longitude":-149.6131584},"MapView":{"TopLeft":{"Latitude":-17.60531,"Longitude":-149.61317},"BottomRight":{"Latitude":-17.60549,"Longitude":-149.61315}},"Address":{"Label":"Rt 1, Punaauia, Îles-du-Vent, Polynésie Française","Country":"PYF","State":"Îles-du-Vent","City":"Punaauia","District":"Punaauia","Street":"Rt 1","AdditionalData":[{"value":"Polynésie Française","key":"CountryName"},{"value":"Îles-du-Vent","key":"StateName"}]},"MapReference":{"ReferenceId":"1194835683","Spot":0.58,"SideOfStreet":"right","CountryId":"23582217","StateId":"28031659","CityId":"28081572","DistrictId":"28081584"}}},{"Relevance":1.0,"Distance":30.4,"MatchLevel":"street","MatchQuality":{"Country":1.0,"State":1.0,"City":1.0,"District":1.0,"Street":[1.0]},"Location":{"LocationId":"NT_7QwYsnlSlA3PhFOoIfK8RD_l_1113436744_R","LocationType":"point","DisplayPosition":{"Latitude":-17.60531,"Longitude":-149.61315},"MapView":{"TopLeft":{"Latitude":-17.60465,"Longitude":-149.61315},"BottomRight":{"Latitude":-17.60531,"Longitude":-149.6131}},"Address":{"Label":"Rt 1, Punaauia, Îles-du-Vent, Polynésie Française","Country":"PYF","State":"Îles-du-Vent","City":"Punaauia","District":"Punaauia","Street":"Rt 1","AdditionalData":[{"value":"Polynésie Française","key":"CountryName"},{"value":"Îles-du-Vent","key":"StateName"}]},"MapReference":{"ReferenceId":"1113436744","Spot":0.0,"SideOfStreet":"right","CountryId":"23582217","StateId":"28031659","CityId":"28081572","DistrictId":"28081584"}}},{"Relevance":1.0,"Distance":31.3,"MatchLevel":"street","MatchQuality":{"Country":1.0,"State":1.0,"City":1.0,"District":1.0,"Street":[1.0]},"Location":{"LocationId":"NT_YAfBU0VRF6wx.pnWSW3QjB_l_1194835684_R","LocationType":"point","DisplayPosition":{"Latitude":-17.60549,"Longitude":-149.61317},"MapView":{"TopLeft":{"Latitude":-17.60547,"Longitude":-149.61369},"BottomRight":{"Latitude":-17.60549,"Longitude":-149.61317}},"Address":{"Label":"Aroa Teiriiri, Punaauia, Îles-du-Vent, Polynésie Française","Country":"PYF","State":"Îles-du-Vent","City":"Punaauia","District":"Punaauia","Street":"Aroa Teiriiri","AdditionalData":[{"value":"Polynésie Française","key":"CountryName"},{"value":"Îles-du-Vent","key":"StateName"}]},"MapReference":{"ReferenceId":"1194835684","Spot":0.0,"SideOfStreet":"right","CountryId":"23582217","StateId":"28031659","CityId":"28081572","DistrictId":"28081584"}}},{"Relevance":1.0,"Distance":31.3,"MatchLevel":"street","MatchQuality":{"Country":1.0,"State":1.0,"City":1.0,"District":1.0,"Street":[1.0]},"Location":{"LocationId":"NT_7QwYsnlSlA3PhFOoIfK8RD_l_1194835682_R","LocationType":"point","DisplayPosition":{"Latitude":-17.60549,"Longitude":-149.61317},"MapView":{"TopLeft":{"Latitude":-17.60549,"Longitude":-149.61318},"BottomRight":{"Latitude":-17.6056,"Longitude":-149.61317}},"Address":{"Label":"Rt 1, Punaauia, Îles-du-Vent, Polynésie Française","Country":"PYF","State":"Îles-du-Vent","City":"Punaauia","District":"Punaauia","Street":"Rt 1","AdditionalData":[{"value":"Polynésie Française","key":"CountryName"},{"value":"Îles-du-Vent","key":"StateName"}]},"MapReference":{"ReferenceId":"1194835682","Spot":1.0,"SideOfStreet":"right","CountryId":"23582217","StateId":"28031659","CityId":"28081572","DistrictId":"28081584"}}},{"Relevance":1.0,"Distance":37.3,"MatchLevel":"street","MatchQuality":{"Country":1.0,"State":1.0,"City":1.0,"District":1.0,"Street":[1.0]},"Location":{"LocationId":"NT_7QwYsnlSlA3PhFOoIfK8RD_l_1189002086_R","LocationType":"point","DisplayPosition":{"Latitude":-17.6056,"Longitude":-149.61318},"MapView":{"TopLeft":{"Latitude":-17.6056,"Longitude":-149.61318},"BottomRight":{"Latitude":-17.60585,"Longitude":-149.61318}},"Address":{"Label":"Rt 1, Punaauia, Îles-du-Vent, Polynésie Française","Country":"PYF","State":"Îles-du-Vent","City":"Punaauia","District":"Punaauia","Street":"Rt 1","AdditionalData":[{"value":"Polynésie Française","key":"CountryName"},{"value":"Îles-du-Vent","key":"StateName"}]},"MapReference":{"ReferenceId":"1189002086","Spot":1.0,"SideOfStreet":"right","CountryId":"23582217","StateId":"28031659","CityId":"28081572","DistrictId":"28081584"}}},{"Relevance":1.0,"Distance":50.5,"MatchLevel":"street","MatchQuality":{"Country":1.0,"State":1.0,"City":1.0,"District":1.0,"Street":[1.0]},"Location":{"LocationId":"NT_Rx8H0.7jwoVXcxMuUr04aA_l_1189002090_L","LocationType":"point","DisplayPosition":{"Latitude":-17.6058695,"Longitude":-149.6129194},"MapView":{"TopLeft":{"Latitude":-17.60582,"Longitude":-149.61318},"BottomRight":{"Latitude":-17.60588,"Longitude":-149.61122}},"Address":{"Label":"Servitude Otare, Punaauia, Îles-du-Vent, Polynésie Française","Country":"PYF","State":"Îles-du-Vent","City":"Punaauia","District":"Punaauia","Street":"Servitude Otare","AdditionalData":[{"value":"Polynésie Française","key":"CountryName"},{"value":"Îles-du-Vent","key":"StateName"}]},"MapReference":{"ReferenceId":"1189002090","Spot":0.13,"SideOfStreet":"left","CountryId":"23582217","StateId":"28031659","CityId":"28081572","DistrictId":"28081584"}}}]}]}}