{"Response":{"MetaInfo":{"Timestamp":"2020-03-28T10:28:00.597+0000","NextPageInformation":"2"},"View":[{"_type":"SearchResultsViewType","ViewId":0,"Result":[{"Relevance":1.0,"Distance":-11859.7,"MatchLevel":"landmark","MatchQuality":{"Country":1.0,"State":1.0,"County":1.0,"Name":1.0},"Location":{"LocationId":"NT_I9RQsjeglgDkpNoa003JGD","LocationType":"island","Name":"La Réunion","DisplayPosition":{"Latitude":-21.13077,"Longitude":55.53622},"MapView":{"TopLeft":{"Latitude":-20.8717,"Longitude":55.21674},"BottomRight":{"Latitude":-21.38985,"Longitude":55.83677}},"Address":{"Label":"Réunion-France","Country":"REU","State":"Réunion","County":"Réunion","AdditionalData":[{"value":"Réunion-France","key":"CountryName"},{"value":"Réunion","key":"StateName"},{"value":"Réunion","key":"CountyName"}]},"MapReference":{"CountryId":"23382345","StateId":"23382346","CountyId":"23382310","PlaceId":"1406812399"}}},{"Relevance":1.0,"Distance":0.0,"Direction":0.0,"MatchLevel":"city","MatchQuality":{"Country":1.0,"State":1.0,"County":1.0,"City":1.0,"PostalCode":1.0},"Location":{"LocationId":"NT_qhqs1C.MqAjAY2N.L9X1dC","LocationType":"point","DisplayPosition":{"Latitude":-21.2357618,"Longitude":55.505585},"MapView":{"TopLeft":{"Latitude":-21.13373,"Longitude":55.4797},"BottomRight":{"Latitude":-21.31654,"Longitude":55.66072}},"Address":{"Label":"Le Tampon, Réunion, Réunion-France","Country":"REU","State":"Réunion","County":"Réunion","City":"Le Tampon","PostalCode":"97430","AdditionalData":[{"value":"Réunion-France","key":"CountryName"},{"value":"Réunion","key":"StateName"},{"value":"Réunion","key":"CountyName"}]},"MapReference":{"ReferenceId":"768147155","SideOfStreet":"neither","CountryId":"23382345","StateId":"23382346","CountyId":"23382310","CityId":"23382350"}}},{"Relevance":1.0,"Distance":5.6,"MatchLevel":"houseNumber","MatchQuality":{"Country":1.0,"State":1.0,"County":1.0,"City":1.0,"Street":[1.0],"HouseNumber":1.0,"PostalCode":1.0},"MatchType":"interpolated","Location":{"LocationId":"NT_liKH-4x94MooXsia3MfPoA_1A","LocationType":"point","DisplayPosition":{"Latitude":-21.23588,"Longitude":55.50568},"MapView":{"TopLeft":{"Latitude":-21.2347558,"Longitude":55.504474},"BottomRight":{"Latitude":-21.2370042,"Longitude":55.506886}},"Address":{"Label":"Chemin des Longoses 5, 97430 Le Tampon, Réunion-France","Country":"REU","State":"Réunion","County":"Réunion","City":"Le Tampon","Street":"Chemin des Longoses","HouseNumber":"5","PostalCode":"97430","AdditionalData":[{"value":"Réunion-France","key":"CountryName"},{"value":"Réunion","key":"StateName"},{"value":"Réunion","key":"CountyName"}]},"MapReference":{"ReferenceId":"768216756","Spot":0.23,"SideOfStreet":"left","CountryId":"23382345","StateId":"23382346","CountyId":"23382310","CityId":"23382350","AddressId":"593430790","RoadLinkId":"161838899"}}},{"Relevance":1.0,"Distance":12.4,"MatchLevel":"houseNumber","MatchQuality":{"Country":1.0,"State":1.0,"County":1.0,"City":1.0,"Street":[1.0],"HouseNumber":1.0,"PostalCode":1.0},"MatchType":"interpolated","Location":{"LocationId":"NT_sY6Yjura7jemNwvmqmDWDA_4A","LocationType":"point","DisplayPosition":{"Latitude":-21.23551,"Longitude":55.5055},"MapView":{"TopLeft":{"Latitude":-21.2343858,"Longitude":55.504294},"BottomRight":{"Latitude":-21.2366342,"Longitude":55.506706}},"Address":{"Label":"Chemin Henri Cabeu 8, 97430 Le Tampon, Réunion-France","Country":"REU","State":"Réunion","County":"Réunion","City":"Le Tampon","Street":"Chemin Henri Cabeu","HouseNumber":"8","PostalCode":"97430","AdditionalData":[{"value":"Réunion-France","key":"CountryName"},{"value":"Réunion","key":"StateName"},{"value":"Réunion","key":"CountyName"}]},"MapReference":{"ReferenceId":"768191021","Spot":0.08,"SideOfStreet":"right","CountryId":"23382345","StateId":"23382346","CountyId":"23382310","CityId":"23382350","AddressId":"593447141","RoadLinkId":"161826183"}}},{"Relevance":1.0,"Distance":15.7,"MatchLevel":"street","MatchQuality":{"Country":1.0,"State":1.0,"County":1.0,"City":1.0,"PostalCode":1.0},"Location":{"LocationId":"NT_YH0d1grkptsGNs9e8ypdND_l_768202613_R","LocationType":"point","DisplayPosition":{"Latitude":-21.2358405,"Longitude":55.5054591},"MapView":{"TopLeft":{"Latitude":-21.23557,"Longitude":55.50539},"BottomRight":{"Latitude":-21.23597,"Longitude":55.50554}},"Address":{"Label":"97430 Le Tampon, Réunion-France","Country":"REU","State":"Réunion","County":"Réunion","City":"Le Tampon","PostalCode":"97430","AdditionalData":[{"value":"Réunion-France","key":"CountryName"},{"value":"Réunion","key":"StateName"},{"value":"Réunion","key":"CountyName"}]},"MapReference":{"ReferenceId":"768202613","Spot":0.35,"SideOfStreet":"right","CountryId":"23382345","StateId":"23382346","CountyId":"23382310","CityId":"23382350"}}},{"Relevance":1.0,"Distance":27.0,"MatchLevel":"houseNumber","MatchQuality":{"Country":1.0,"State":1.0,"County":1.0,"City":1.0,"Street":[1.0],"HouseNumber":1.0,"PostalCode":1.0},"MatchType":"interpolated","Location":{"LocationId":"NT_liKH-4x94MooXsia3MfPoA_zA","LocationType":"point","DisplayPosition":{"Latitude":-21.23602,"Longitude":55.50547},"MapView":{"TopLeft":{"Latitude":-21.2348958,"Longitude":55.504264},"BottomRight":{"Latitude":-21.2371442,"Longitude":55.506676}},"Address":{"Label":"Chemin des Longoses 3, 97430 Le Tampon, Réunion-France","Country":"REU","State":"Réunion","County":"Réunion","City":"Le Tampon","Street":"Chemin des Longoses","HouseNumber":"3","PostalCode":"97430","AdditionalData":[{"value":"Réunion-France","key":"CountryName"},{"value":"Réunion","key":"StateName"},{"value":"Réunion","key":"CountyName"}]},"MapReference":{"ReferenceId":"768189193","Spot":0.85,"SideOfStreet":"left","CountryId":"23382345","StateId":"23382346","CountyId":"23382310","CityId":"23382350","AddressId":"593387380","RoadLinkId":"161921968"}}},{"Relevance":1.0,"Distance":29.4,"MatchLevel":"street","MatchQuality":{"Country":1.0,"State":1.0,"County":1.0,"City":1.0,"Street":[1.0],"PostalCode":1.0},"Location":{"LocationId":"NT_sY6Yjura7jemNwvmqmDWDA_l_768165737_R","LocationType":"point","DisplayPosition":{"Latitude":-21.23557,"Longitude":55.50539},"MapView":{"TopLeft":{"Latitude":-21.23557,"Longitude":55.50483},"BottomRight":{"Latitude":-21.23592,"Longitude":55.50539}},"Address":{"Label":"Chemin Henri Cabeu, 97430 Le Tampon, Réunion-France","Country":"REU","State":"Réunion","County":"Réunion","City":"Le Tampon","Street":"Chemin Henri Cabeu","PostalCode":"97430","AdditionalData":[{"value":"Réunion-France","key":"CountryName"},{"value":"Réunion","key":"StateName"},{"value":"Réunion","key":"CountyName"}]},"MapReference":{"ReferenceId":"768165737","Spot":1.0,"SideOfStreet":"right","CountryId":"23382345","StateId":"23382346","CountyId":"23382310","CityId":"23382350"}}},{"Relevance":1.0,"Distance":29.4,"MatchLevel":"street","MatchQuality":{"Country":1.0,"State":1.0,"County":1.0,"City":1.0,"PostalCode":1.0},"Location":{"LocationId":"NT_YH0d1grkptsGNs9e8ypdND_l_768243519_R","LocationType":"point","DisplayPosition":{"Latitude":-21.23557,"Longitude":55.50539},"MapView":{"TopLeft":{"Latitude":-21.2345,"Longitude":55.50487},"BottomRight":{"Latitude":-21.23557,"Longitude":55.50539}},"Address":{"Label":"97430 Le Tampon, Réunion-France","Country":"REU","State":"Réunion","County":"Réunion","City":"Le Tampon","PostalCode":"97430","AdditionalData":[{"value":"Réunion-France","key":"CountryName"},{"value":"Réunion","key":"StateName"},{"value":"Réunion","key":"CountyName"}]},"MapReference":{"ReferenceId":"768243519","Spot":0.0,"SideOfStreet":"right","CountryId":"23382345","StateId":"23382346","CountyId":"23382310","CityId":"23382350"}}},{"Relevance":1.0,"Distance":53.4,"MatchLevel":"houseNumber","MatchQuality":{"Country":1.0,"State":1.0,"County":1.0,"City":1.0,"Street":[1.0],"HouseNumber":1.0,"PostalCode":1.0},"MatchType":"interpolated","Location":{"LocationId":"NT_zoL0u1tn4MGjSddvhG62VC_ygjN","LocationType":"point","DisplayPosition":{"Latitude":-21.23666,"Longitude":55.50569},"MapView":{"TopLeft":{"Latitude":-21.2355358,"Longitude":55.5044839},"BottomRight":{"Latitude":-21.2377842,"Longitude":55.5068961}},"Address":{"Label":"Chemin Neuf 286, 97430 Le Tampon, Réunion-France","Country":"REU","State":"Réunion","County":"Réunion","City":"Le Tampon","Street":"Chemin Neuf","HouseNumber":"286","PostalCode":"97430","AdditionalData":[{"value":"Réunion-France","key":"CountryName"},{"value":"Réunion","key":"StateName"},{"value":"Réunion","key":"CountyName"}]},"MapReference":{"ReferenceId":"768214067","Spot":0.53,"SideOfStreet":"right","CountryId":"23382345","StateId":"23382346","CountyId":"23382310","CityId":"23382350","AddressId":"593466896","RoadLinkId":"161929624"}}},{"Relevance":1.0,"Distance":72.4,"MatchLevel":"houseNumber","MatchQuality":{"Country":1.0,"State":1.0,"County":1.0,"City":1.0,"Street":[1.0],"HouseNumber":1.0,"PostalCode":1.0},"MatchType":"interpolated","Location":{"LocationId":"NT_liKH-4x94MooXsia3MfPoA_5A","LocationType":"point","DisplayPosition":{"Latitude":-21.23549,"Longitude":55.50624},"MapView":{"TopLeft":{"Latitude":-21.2343658,"Longitude":55.505034},"BottomRight":{"Latitude":-21.2366142,"Longitude":55.507446}},"Address":{"Label":"Chemin des Longoses 9, 97430 Le Tampon, Réunion-France","Country":"REU","State":"Réunion","County":"Réunion","City":"Le Tampon","Street":"Chemin des Longoses","HouseNumber":"9","PostalCode":"97430","AdditionalData":[{"value":"Réunion-France","key":"CountryName"},{"value":"Réunion","key":"StateName"},{"value":"Réunion","key":"CountyName"}]},"MapReference":{"ReferenceId":"768177532","Spot":0.11,"SideOfStreet":"left","CountryId":"23382345","StateId":"23382346","CountyId":"23382310","CityId":"23382350","AddressId":"593404507","RoadLinkId":"161847371"}}}]}]}}