{"Response":{"MetaInfo":{"Timestamp":"2020-03-28T11:11:57.958+0000","NextPageInformation":"2"},"View":[{"_type":"SearchResultsViewType","ViewId":0,"Result":[{"Relevance":1.0,"Distance":-394.2,"MatchLevel":"landmark","MatchQuality":{"Country":1.0,"State":1.0,"County":1.0,"Name":1.0},"Location":{"LocationId":"NT_Fka5GE5pql4V5LWd88GdTC","LocationType":"island","Name":"Martinique","DisplayPosition":{"Latitude":14.63667,"Longitude":-61.01574},"MapView":{"TopLeft":{"Latitude":14.87877,"Longitude":-61.22927},"BottomRight":{"Latitude":14.39456,"Longitude":-60.8095}},"Address":{"Label":"Martinique-France","Country":"MTQ","State":"Martinique","County":"Martinique","AdditionalData":[{"value":"Martinique-France","key":"CountryName"},{"value":"Martinique","key":"StateName"},{"value":"Martinique","key":"CountyName"}]},"MapReference":{"CountryId":"23410558","StateId":"23410505","CountyId":"23410660","PlaceId":"1406952023"}}},{"Relevance":1.0,"Distance":0.0,"Direction":0.0,"MatchLevel":"district","MatchQuality":{"Country":1.0,"State":1.0,"County":1.0,"City":1.0,"District":1.0,"PostalCode":1.0},"Location":{"LocationId":"NT_.vcZ7EBcXht.jpZh1dpmiD","LocationType":"point","DisplayPosition":{"Latitude":14.544987,"Longitude":-60.8398222},"MapView":{"TopLeft":{"Latitude":14.54968,"Longitude":-60.84447},"BottomRight":{"Latitude":14.53959,"Longitude":-60.8344}},"Address":{"Label":"Le Vauclin, Martinique, Martinique-France","Country":"MTQ","State":"Martinique","County":"Martinique","City":"Le Vauclin","District":"Le Vauclin","PostalCode":"97280","AdditionalData":[{"value":"Martinique-France","key":"CountryName"},{"value":"Martinique","key":"StateName"},{"value":"Martinique","key":"CountyName"}]},"MapReference":{"ReferenceId":"772306983","SideOfStreet":"neither","CountryId":"23410558","StateId":"23410505","CountyId":"23410660","CityId":"23410560","DistrictId":"23410502"}}},{"Relevance":1.0,"Distance":16.7,"MatchLevel":"houseNumber","MatchQuality":{"Country":1.0,"State":1.0,"County":1.0,"City":1.0,"District":1.0,"Street":[1.0],"HouseNumber":1.0,"PostalCode":1.0},"MatchType":"interpolated","Location":{"LocationId":"NT_vjsvBkJ3PlghwgczxxoyVC_2ID","LocationType":"point","DisplayPosition":{"Latitude":14.54482,"Longitude":-60.83974},"MapView":{"TopLeft":{"Latitude":14.5459442,"Longitude":-60.8409014},"BottomRight":{"Latitude":14.5436958,"Longitude":-60.8385786}},"Address":{"Label":"Rue Jean Jaurés 62, 97280 Le Vauclin, Martinique-France","Country":"MTQ","State":"Martinique","County":"Martinique","City":"Le Vauclin","District":"Le Vauclin","Street":"Rue Jean Jaurés","HouseNumber":"62","PostalCode":"97280","AdditionalData":[{"value":"Martinique-France","key":"CountryName"},{"value":"Martinique","key":"StateName"},{"value":"Martinique","key":"CountyName"}]},"MapReference":{"ReferenceId":"772307412","Spot":0.1,"SideOfStreet":"left","CountryId":"23410558","StateId":"23410505","CountyId":"23410660","CityId":"23410560","DistrictId":"23410502","AddressId":"597154767","RoadLinkId":"165898778"}}},{"Relevance":1.0,"Distance":22.8,"MatchLevel":"houseNumber","MatchQuality":{"Country":1.0,"State":1.0,"County":1.0,"City":1.0,"District":1.0,"Street":[1.0],"HouseNumber":1.0,"PostalCode":1.0},"MatchType":"interpolated","Location":{"LocationId":"NT_pzm2nowbsC7oqQs0NHnJHA_yA","LocationType":"point","DisplayPosition":{"Latitude":14.54481,"Longitude":-60.83997},"MapView":{"TopLeft":{"Latitude":14.5459342,"Longitude":-60.8411314},"BottomRight":{"Latitude":14.5436858,"Longitude":-60.8388086}},"Address":{"Label":"Rue de la République 2, 97280 Le Vauclin, Martinique-France","Country":"MTQ","State":"Martinique","County":"Martinique","City":"Le Vauclin","District":"Le Vauclin","Street":"Rue de la République","HouseNumber":"2","PostalCode":"97280","AdditionalData":[{"value":"Martinique-France","key":"CountryName"},{"value":"Martinique","key":"StateName"},{"value":"Martinique","key":"CountyName"}]},"MapReference":{"ReferenceId":"772221899","Spot":0.88,"SideOfStreet":"left","CountryId":"23410558","StateId":"23410505","CountyId":"23410660","CityId":"23410560","DistrictId":"23410502","AddressId":"597198401","RoadLinkId":"165824646"}}},{"Relevance":1.0,"Distance":37.9,"MatchLevel":"houseNumber","MatchQuality":{"Country":1.0,"State":1.0,"County":1.0,"City":1.0,"District":1.0,"Street":[1.0],"HouseNumber":1.0,"PostalCode":1.0},"MatchType":"interpolated","Location":{"LocationId":"NT_dfELei4COeLOMxqyKJdXAD_xUD","LocationType":"point","DisplayPosition":{"Latitude":14.54533,"Longitude":-60.83975},"MapView":{"TopLeft":{"Latitude":14.5464542,"Longitude":-60.8409114},"BottomRight":{"Latitude":14.5442058,"Longitude":-60.8385886}},"Address":{"Label":"Rue Collignon 15, 97280 Le Vauclin, Martinique-France","Country":"MTQ","State":"Martinique","County":"Martinique","City":"Le Vauclin","District":"Le Vauclin","Street":"Rue Collignon","HouseNumber":"15","PostalCode":"97280","AdditionalData":[{"value":"Martinique-France","key":"CountryName"},{"value":"Martinique","key":"StateName"},{"value":"Martinique","key":"CountyName"}]},"MapReference":{"ReferenceId":"772177738","Spot":0.59,"SideOfStreet":"right","CountryId":"23410558","StateId":"23410505","CountyId":"23410660","CityId":"23410560","DistrictId":"23410502","AddressId":"597141694","RoadLinkId":"165797230"}}},{"Relevance":1.0,"Distance":53.2,"MatchLevel":"houseNumber","MatchQuality":{"Country":1.0,"State":1.0,"County":1.0,"City":1.0,"District":1.0,"Street":[1.0],"HouseNumber":1.0,"PostalCode":1.0},"MatchType":"interpolated","Location":{"LocationId":"NT_uEqOkzYClumj9kw4gAvw6C_2A","LocationType":"point","DisplayPosition":{"Latitude":14.54436,"Longitude":-60.83994},"MapView":{"TopLeft":{"Latitude":14.5454842,"Longitude":-60.8411014},"BottomRight":{"Latitude":14.5432358,"Longitude":-60.8387786}},"Address":{"Label":"Rue Angelo Marie Joseph 6, 97280 Le Vauclin, Martinique-France","Country":"MTQ","State":"Martinique","County":"Martinique","City":"Le Vauclin","District":"Le Vauclin","Street":"Rue Angelo Marie Joseph","HouseNumber":"6","PostalCode":"97280","AdditionalData":[{"value":"Martinique-France","key":"CountryName"},{"value":"Martinique","key":"StateName"},{"value":"Martinique","key":"CountyName"}]},"MapReference":{"ReferenceId":"772282352","Spot":0.67,"SideOfStreet":"left","CountryId":"23410558","StateId":"23410505","CountyId":"23410660","CityId":"23410560","DistrictId":"23410502","AddressId":"597189636","RoadLinkId":"165818120"}}},{"Relevance":1.0,"Distance":61.5,"MatchLevel":"street","MatchQuality":{"Country":1.0,"State":1.0,"County":1.0,"City":1.0,"District":1.0,"Street":[1.0],"PostalCode":1.0},"Location":{"LocationId":"NT_ULyHnFIvAXRqOLqO5XRWDA_l_772209002_R","LocationType":"point","DisplayPosition":{"Latitude":14.54554,"Longitude":-60.8398},"MapView":{"TopLeft":{"Latitude":14.54567,"Longitude":-60.8398},"BottomRight":{"Latitude":14.54554,"Longitude":-60.83962}},"Address":{"Label":"Rue Victor Hugo, 97280 Le Vauclin, Martinique-France","Country":"MTQ","State":"Martinique","County":"Martinique","City":"Le Vauclin","District":"Le Vauclin","Street":"Rue Victor Hugo","PostalCode":"97280","AdditionalData":[{"value":"Martinique-France","key":"CountryName"},{"value":"Martinique","key":"StateName"},{"value":"Martinique","key":"CountyName"}]},"MapReference":{"ReferenceId":"772209002","Spot":0.0,"SideOfStreet":"right","CountryId":"23410558","StateId":"23410505","CountyId":"23410660","CityId":"23410560","DistrictId":"23410502"}}},{"Relevance":1.0,"Distance":61.6,"MatchLevel":"houseNumber","MatchQuality":{"Country":1.0,"State":1.0,"County":1.0,"City":1.0,"District":1.0,"Street":[1.0],"HouseNumber":1.0,"PostalCode":1.0},"MatchType":"interpolated","Location":{"LocationId":"NT_P3o9318zgtbtNIS6Zj.7dD_zUD","LocationType":"point","DisplayPosition":{"Latitude":14.54471,"Longitude":-60.83929},"MapView":{"TopLeft":{"Latitude":14.5458342,"Longitude":-60.8404514},"BottomRight":{"Latitude":14.5435858,"Longitude":-60.8381286}},"Address":{"Label":"Boulevard Charles de Gaulle 35, 97280 Le Vauclin, Martinique-France","Country":"MTQ","State":"Martinique","County":"Martinique","City":"Le Vauclin","District":"Le Vauclin","Street":"Boulevard Charles de Gaulle","HouseNumber":"35","PostalCode":"97280","AdditionalData":[{"value":"Martinique-France","key":"CountryName"},{"value":"Martinique","key":"StateName"},{"value":"Martinique","key":"CountyName"}]},"MapReference":{"ReferenceId":"772242730","Spot":0.39,"SideOfStreet":"left","CountryId":"23410558","StateId":"23410505","CountyId":"23410660","CityId":"23410560","DistrictId":"23410502","AddressId":"597129843","RoadLinkId":"165796111"}}},{"Relevance":1.0,"Distance":67.9,"MatchLevel":"houseNumber","MatchQuality":{"Country":1.0,"State":1.0,"County":1.0,"City":1.0,"District":1.0,"Street":[1.0],"HouseNumber":1.0,"PostalCode":1.0},"MatchType":"interpolated","Location":{"LocationId":"NT_ULyHnFIvAXRqOLqO5XRWDA_1A","LocationType":"point","DisplayPosition":{"Latitude":14.54515,"Longitude":-60.84046},"MapView":{"TopLeft":{"Latitude":14.5462742,"Longitude":-60.8416214},"BottomRight":{"Latitude":14.5440258,"Longitude":-60.8392986}},"Address":{"Label":"Rue Victor Hugo 5, 97280 Le Vauclin, Martinique-France","Country":"MTQ","State":"Martinique","County":"Martinique","City":"Le Vauclin","District":"Le Vauclin","Street":"Rue Victor Hugo","HouseNumber":"5","PostalCode":"97280","AdditionalData":[{"value":"Martinique-France","key":"CountryName"},{"value":"Martinique","key":"StateName"},{"value":"Martinique","key":"CountyName"}]},"MapReference":{"ReferenceId":"772251627","Spot":0.62,"SideOfStreet":"right","CountryId":"23410558","StateId":"23410505","CountyId":"23410660","CityId":"23410560","DistrictId":"23410502","AddressId":"597162021","RoadLinkId":"165902075"}}},{"Relevance":1.0,"Distance":82.8,"MatchLevel":"houseNumber","MatchQuality":{"Country":1.0,"State":1.0,"County":1.0,"City":1.0,"District":1.0,"Street":[1.0],"HouseNumber":1.0,"PostalCode":1.0},"MatchType":"interpolated","Location":{"LocationId":"NT_mfsPewoWLfP9fqbDrZ6ChA_2ED","LocationType":"point","DisplayPosition":{"Latitude":14.54572,"Longitude":-60.83955},"MapView":{"TopLeft":{"Latitude":14.5468442,"Longitude":-60.8407114},"BottomRight":{"Latitude":14.5445958,"Longitude":-60.8383886}},"Address":{"Label":"Rue Schoelcher 61, 97280 Le Vauclin, Martinique-France","Country":"MTQ","State":"Martinique","County":"Martinique","City":"Le Vauclin","District":"Le Vauclin","Street":"Rue Schoelcher","HouseNumber":"61","PostalCode":"97280","AdditionalData":[{"value":"Martinique-France","key":"CountryName"},{"value":"Martinique","key":"StateName"},{"value":"Martinique","key":"CountyName"}]},"MapReference":{"ReferenceId":"772295631","Spot":0.04,"SideOfStreet":"right","CountryId":"23410558","StateId":"23410505","CountyId":"23410660","CityId":"23410560","DistrictId":"23410502","AddressId":"597197688","RoadLinkId":"165820538"}}}]}]}}