{"Response":{"MetaInfo":{"Timestamp":"2020-03-28T11:46:51.735+0000","NextPageInformation":"2"},"View":[{"_type":"SearchResultsViewType","ViewId":0,"Result":[{"Relevance":1.0,"Distance":-34.4,"MatchLevel":"landmark","MatchQuality":{"Country":1.0,"State":1.0,"County":1.0,"Name":1.0},"Location":{"LocationId":"NT_nXowKYqTyLhIW12Kd8EhpD","LocationType":"island","Name":"Basse Terre","DisplayPosition":{"Latitude":16.15429,"Longitude":-61.6778},"MapView":{"TopLeft":{"Latitude":16.362,"Longitude":-61.80959},"BottomRight":{"Latitude":15.94659,"Longitude":-61.54175}},"Address":{"Label":"Guadeloupe-France","Country":"GLP","State":"Guadeloupe","County":"Guadeloupe","AdditionalData":[{"value":"Guadeloupe-France","key":"CountryName"},{"value":"Guadeloupe","key":"StateName"},{"value":"Guadeloupe","key":"CountyName"}]},"MapReference":{"CountryId":"23410565","StateId":"23410662","CountyId":"23410627","PlaceId":"1406952014"}}},{"Relevance":1.0,"Distance":0.0,"Direction":0.0,"MatchLevel":"district","MatchQuality":{"Country":1.0,"State":1.0,"County":1.0,"City":1.0,"District":1.0,"PostalCode":1.0},"Location":{"LocationId":"NT_YcyW6dBJUtopAPZgIO9hQA","LocationType":"point","DisplayPosition":{"Latitude":16.018851,"Longitude":-61.7468589},"MapView":{"TopLeft":{"Latitude":16.0248,"Longitude":-61.74719},"BottomRight":{"Latitude":16.01009,"Longitude":-61.73561}},"Address":{"Label":"Baillif, Guadeloupe, Guadeloupe-France","Country":"GLP","State":"Guadeloupe","County":"Guadeloupe","City":"Baillif","District":"Baillif","PostalCode":"97123","AdditionalData":[{"value":"Guadeloupe-France","key":"CountryName"},{"value":"Guadeloupe","key":"StateName"},{"value":"Guadeloupe","key":"CountyName"}]},"MapReference":{"ReferenceId":"772237210","SideOfStreet":"neither","CountryId":"23410565","StateId":"23410662","CountyId":"23410627","CityId":"23410654","DistrictId":"23410639"}}},{"Relevance":1.0,"Distance":2.4,"MatchLevel":"houseNumber","MatchQuality":{"Country":1.0,"State":1.0,"County":1.0,"City":1.0,"District":1.0,"Street":[1.0],"HouseNumber":1.0,"PostalCode":1.0},"MatchType":"interpolated","Location":{"LocationId":"NT_OSz5bG21ecDXPV34pf2ZfB_0QTN","LocationType":"point","DisplayPosition":{"Latitude":16.01888,"Longitude":-61.74692},"MapView":{"TopLeft":{"Latitude":16.0200042,"Longitude":-61.7480896},"BottomRight":{"Latitude":16.0177558,"Longitude":-61.7457504}},"Address":{"Label":"Avenue du Père-Labat 445, 97123 Baillif, Guadeloupe-France","Country":"GLP","State":"Guadeloupe","County":"Guadeloupe","City":"Baillif","District":"Baillif","Street":"Avenue du Père-Labat","HouseNumber":"445","PostalCode":"97123","AdditionalData":[{"value":"Guadeloupe-France","key":"CountryName"},{"value":"Guadeloupe","key":"StateName"},{"value":"Guadeloupe","key":"CountyName"}]},"MapReference":{"ReferenceId":"772192309","Spot":0.73,"SideOfStreet":"right","CountryId":"23410565","StateId":"23410662","CountyId":"23410627","CityId":"23410654","DistrictId":"23410639","AddressId":"597199872","RoadLinkId":"194449887"}}},{"Relevance":1.0,"Distance":13.3,"MatchLevel":"houseNumber","MatchQuality":{"Country":1.0,"State":1.0,"County":1.0,"City":1.0,"District":1.0,"Street":[1.0],"HouseNumber":1.0,"PostalCode":1.0},"MatchType":"interpolated","Location":{"LocationId":"NT_cFQxJF77Yf5jwCeEUHW3PC_xYD","LocationType":"point","DisplayPosition":{"Latitude":16.01897,"Longitude":-61.74687},"MapView":{"TopLeft":{"Latitude":16.0200942,"Longitude":-61.7480396},"BottomRight":{"Latitude":16.0178458,"Longitude":-61.7457004}},"Address":{"Label":"Rue Henri Blandin 16, 97123 Baillif, Guadeloupe-France","Country":"GLP","State":"Guadeloupe","County":"Guadeloupe","City":"Baillif","District":"Baillif","Street":"Rue Henri Blandin","HouseNumber":"16","PostalCode":"97123","AdditionalData":[{"value":"Guadeloupe-France","key":"CountryName"},{"value":"Guadeloupe","key":"StateName"},{"value":"Guadeloupe","key":"CountyName"}]},"MapReference":{"ReferenceId":"772247597","Spot":0.08,"SideOfStreet":"right","CountryId":"23410565","StateId":"23410662","CountyId":"23410627","CityId":"23410654","DistrictId":"23410639","AddressId":"597116837","RoadLinkId":"165880244"}}},{"Relevance":1.0,"Distance":14.8,"MatchLevel":"street","MatchQuality":{"Country":1.0,"State":1.0,"County":1.0,"City":1.0,"District":1.0,"Street":[1.0],"PostalCode":1.0},"Location":{"LocationId":"NT_.x21Kgb9mFyNYvUxU6xDwC_l_772273477_R","LocationType":"point","DisplayPosition":{"Latitude":16.01897,"Longitude":-61.74692},"MapView":{"TopLeft":{"Latitude":16.01918,"Longitude":-61.74692},"BottomRight":{"Latitude":16.01897,"Longitude":-61.74691}},"Address":{"Label":"Avenue du Père-Labat, 97123 Baillif, Guadeloupe-France","Country":"GLP","State":"Guadeloupe","County":"Guadeloupe","City":"Baillif","District":"Baillif","Street":"Avenue du Père-Labat","PostalCode":"97123","AdditionalData":[{"value":"Guadeloupe-France","key":"CountryName"},{"value":"Guadeloupe","key":"StateName"},{"value":"Guadeloupe","key":"CountyName"}]},"MapReference":{"ReferenceId":"772273477","Spot":0.0,"SideOfStreet":"right","CountryId":"23410565","StateId":"23410662","CountyId":"23410627","CityId":"23410654","DistrictId":"23410639"}}},{"Relevance":1.0,"Distance":20.4,"MatchLevel":"houseNumber","MatchQuality":{"Country":1.0,"State":1.0,"County":1.0,"City":1.0,"District":1.0,"Street":[1.0],"HouseNumber":1.0,"PostalCode":1.0},"MatchType":"interpolated","Location":{"LocationId":"NT_xV1j.w3nkAr9twTCjSwHhA_zUD","LocationType":"point","DisplayPosition":{"Latitude":16.01866,"Longitude":-61.74683},"MapView":{"TopLeft":{"Latitude":16.0197842,"Longitude":-61.7479996},"BottomRight":{"Latitude":16.0175358,"Longitude":-61.7456604}},"Address":{"Label":"Rue Delgres 35, 97123 Baillif, Guadeloupe-France","Country":"GLP","State":"Guadeloupe","County":"Guadeloupe","City":"Baillif","District":"Baillif","Street":"Rue Delgres","HouseNumber":"35","PostalCode":"97123","AdditionalData":[{"value":"Guadeloupe-France","key":"CountryName"},{"value":"Guadeloupe","key":"StateName"},{"value":"Guadeloupe","key":"CountyName"}]},"MapReference":{"ReferenceId":"772267881","Spot":0.15,"SideOfStreet":"left","CountryId":"23410565","StateId":"23410662","CountyId":"23410627","CityId":"23410654","DistrictId":"23410639","AddressId":"597194309","RoadLinkId":"165814317"}}},{"Relevance":1.0,"Distance":22.2,"MatchLevel":"street","MatchQuality":{"Country":1.0,"State":1.0,"County":1.0,"City":1.0,"District":1.0,"PostalCode":1.0},"Location":{"LocationId":"NT_bphNJhZ66OxDGPj43w756A_l_772208920_R","LocationType":"point","DisplayPosition":{"Latitude":16.0188584,"Longitude":-61.7470665},"MapView":{"TopLeft":{"Latitude":16.02074,"Longitude":-61.74709},"BottomRight":{"Latitude":16.01808,"Longitude":-61.74691}},"Address":{"Label":"97123 Baillif, Guadeloupe-France","Country":"GLP","State":"Guadeloupe","County":"Guadeloupe","City":"Baillif","District":"Baillif","PostalCode":"97123","AdditionalData":[{"value":"Guadeloupe-France","key":"CountryName"},{"value":"Guadeloupe","key":"StateName"},{"value":"Guadeloupe","key":"CountyName"}]},"MapReference":{"ReferenceId":"772208920","Spot":0.32,"SideOfStreet":"right","CountryId":"23410565","StateId":"23410662","CountyId":"23410627","CityId":"23410654","DistrictId":"23410639"}}},{"Relevance":1.0,"Distance":41.6,"MatchLevel":"houseNumber","MatchQuality":{"Country":1.0,"State":1.0,"County":1.0,"City":1.0,"District":1.0,"Street":[1.0],"HouseNumber":1.0,"PostalCode":1.0},"MatchType":"interpolated","Location":{"LocationId":"NT_cPBtj1c0dy8NrwDwg65-dC_zID","LocationType":"point","DisplayPosition":{"Latitude":16.01919,"Longitude":-61.7466},"MapView":{"TopLeft":{"Latitude":16.0203142,"Longitude":-61.7477696},"BottomRight":{"Latitude":16.0180658,"Longitude":-61.7454304}},"Address":{"Label":"Ruelle de la Fraternité 32, 97123 Baillif, Guadeloupe-France","Country":"GLP","State":"Guadeloupe","County":"Guadeloupe","City":"Baillif","District":"Baillif","Street":"Ruelle de la Fraternité","HouseNumber":"32","PostalCode":"97123","AdditionalData":[{"value":"Guadeloupe-France","key":"CountryName"},{"value":"Guadeloupe","key":"StateName"},{"value":"Guadeloupe","key":"CountyName"}]},"MapReference":{"ReferenceId":"772314560","Spot":0.52,"SideOfStreet":"right","CountryId":"23410565","StateId":"23410662","CountyId":"23410627","CityId":"23410654","DistrictId":"23410639","AddressId":"597164102","RoadLinkId":"165821114"}}},{"Relevance":1.0,"Distance":42.9,"MatchLevel":"houseNumber","MatchQuality":{"Country":1.0,"State":1.0,"County":1.0,"City":1.0,"District":1.0,"Street":[1.0],"HouseNumber":1.0,"PostalCode":1.0},"MatchType":"interpolated","Location":{"LocationId":"NT_OSz5bG21ecDXPV34pf2ZfB_0gzN","LocationType":"point","DisplayPosition":{"Latitude":16.01847,"Longitude":-61.74692},"MapView":{"TopLeft":{"Latitude":16.0195942,"Longitude":-61.7480896},"BottomRight":{"Latitude":16.0173458,"Longitude":-61.7457504}},"Address":{"Label":"Avenue du Père-Labat 487, 97123 Baillif, Guadeloupe-France","Country":"GLP","State":"Guadeloupe","County":"Guadeloupe","City":"Baillif","District":"Baillif","Street":"Avenue du Père-Labat","HouseNumber":"487","PostalCode":"97123","AdditionalData":[{"value":"Guadeloupe-France","key":"CountryName"},{"value":"Guadeloupe","key":"StateName"},{"value":"Guadeloupe","key":"CountyName"}]},"MapReference":{"ReferenceId":"772311271","Spot":0.32,"SideOfStreet":"right","CountryId":"23410565","StateId":"23410662","CountyId":"23410627","CityId":"23410654","DistrictId":"23410639","AddressId":"597168666","RoadLinkId":"194449867"}}},{"Relevance":1.0,"Distance":44.5,"MatchLevel":"houseNumber","MatchQuality":{"Country":1.0,"State":1.0,"County":1.0,"City":1.0,"District":1.0,"Street":[1.0],"HouseNumber":1.0,"PostalCode":1.0},"MatchType":"interpolated","Location":{"LocationId":"NT_OSz5bG21ecDXPV34pf2ZfB_0ATN","LocationType":"point","DisplayPosition":{"Latitude":16.01925,"Longitude":-61.74691},"MapView":{"TopLeft":{"Latitude":16.0203742,"Longitude":-61.7480796},"BottomRight":{"Latitude":16.0181258,"Longitude":-61.7457404}},"Address":{"Label":"Avenue du Père-Labat 405, 97123 Baillif, Guadeloupe-France","Country":"GLP","State":"Guadeloupe","County":"Guadeloupe","City":"Baillif","District":"Baillif","Street":"Avenue du Père-Labat","HouseNumber":"405","PostalCode":"97123","AdditionalData":[{"value":"Guadeloupe-France","key":"CountryName"},{"value":"Guadeloupe","key":"StateName"},{"value":"Guadeloupe","key":"CountyName"}]},"MapReference":{"ReferenceId":"772201990","Spot":0.37,"SideOfStreet":"right","CountryId":"23410565","StateId":"23410662","CountyId":"23410627","CityId":"23410654","DistrictId":"23410639","AddressId":"597160714","RoadLinkId":"194449848"}}}]}]}}