{"Response":{"MetaInfo":{"Timestamp":"2020-03-28T10:06:35.086+0000","NextPageInformation":"2"},"View":[{"_type":"SearchResultsViewType","ViewId":0,"Result":[{"Relevance":1.0,"Distance":-485.6,"MatchLevel":"landmark","MatchQuality":{"Country":1.0,"State":1.0,"County":1.0,"Name":1.0},"Location":{"LocationId":"NT_S8J-3EnsxmJuHwSkcW6O-D","LocationType":"island","Name":"Grande Terre","DisplayPosition":{"Latitude":16.35548,"Longitude":-61.44383},"MapView":{"TopLeft":{"Latitude":16.51442,"Longitude":-61.55449},"BottomRight":{"Latitude":16.19654,"Longitude":-61.17171}},"Address":{"Label":"Guadeloupe-France","Country":"GLP","State":"Guadeloupe","County":"Guadeloupe","AdditionalData":[{"value":"Guadeloupe-France","key":"CountryName"},{"value":"Guadeloupe","key":"StateName"},{"value":"Guadeloupe","key":"CountyName"}]},"MapReference":{"CountryId":"23410565","StateId":"23410662","CountyId":"23410627","PlaceId":"1406951989"}}},{"Relevance":1.0,"Distance":0.0,"Direction":0.0,"MatchLevel":"city","MatchQuality":{"Country":1.0,"State":1.0,"County":1.0,"City":1.0,"PostalCode":1.0},"Location":{"LocationId":"NT_I-o73q1fJypr3hSUTjd2tD","LocationType":"point","DisplayPosition":{"Latitude":16.257012,"Longitude":-61.2703845},"MapView":{"TopLeft":{"Latitude":16.31682,"Longitude":-61.33613},"BottomRight":{"Latitude":16.24025,"Longitude":-61.17171}},"Address":{"Label":"Saint-François, Guadeloupe, Guadeloupe-France","Country":"GLP","State":"Guadeloupe","County":"Guadeloupe","City":"Saint-François","PostalCode":"97118","AdditionalData":[{"value":"Guadeloupe-France","key":"CountryName"},{"value":"Guadeloupe","key":"StateName"},{"value":"Guadeloupe","key":"CountyName"}]},"MapReference":{"ReferenceId":"772265639","SideOfStreet":"neither","CountryId":"23410565","StateId":"23410662","CountyId":"23410627","CityId":"23410498"}}},{"Relevance":1.0,"Distance":17.7,"MatchLevel":"landmark","MatchQuality":{"Country":1.0,"State":1.0,"County":1.0,"City":1.0,"PostalCode":1.0,"Name":1.0},"Location":{"LocationId":"NT_jw2NLaRVjzSsRK65Xn2ZIC_p_LlHc8BponjWPnrDzFeJFeA","LocationType":"golfCourse","Name":"Golf de Saint-François","DisplayPosition":{"Latitude":16.25644,"Longitude":-61.26694},"MapView":{"TopLeft":{"Latitude":16.26115,"Longitude":-61.27249},"BottomRight":{"Latitude":16.25277,"Longitude":-61.25695}},"Address":{"Label":"97118 Saint-François, Guadeloupe-France","Country":"GLP","State":"Guadeloupe","County":"Guadeloupe","City":"Saint-François","PostalCode":"97118","AdditionalData":[{"value":"Guadeloupe-France","key":"CountryName"},{"value":"Guadeloupe","key":"StateName"},{"value":"Guadeloupe","key":"CountyName"}]},"MapReference":{"CountryId":"23410565","StateId":"23410662","CountyId":"23410627","CityId":"23410498","PlaceId":"1011019576"}}},{"Relevance":1.0,"Distance":17.7,"MatchLevel":"street","MatchQuality":{"Country":1.0,"State":1.0,"County":1.0,"City":1.0,"Street":[1.0],"PostalCode":1.0},"Location":{"LocationId":"NT_.yzBQpBZeMP8et9rj9rWeD_l_772253539_L","LocationType":"point","DisplayPosition":{"Latitude":16.2571562,"Longitude":-61.2703146},"MapView":{"TopLeft":{"Latitude":16.25739,"Longitude":-61.27079},"BottomRight":{"Latitude":16.25703,"Longitude":-61.27004}},"Address":{"Label":"Avenue Martin Luther King, 97118 Saint-François, Guadeloupe-France","Country":"GLP","State":"Guadeloupe","County":"Guadeloupe","City":"Saint-François","Street":"Avenue Martin Luther King","PostalCode":"97118","AdditionalData":[{"value":"Guadeloupe-France","key":"CountryName"},{"value":"Guadeloupe","key":"StateName"},{"value":"Guadeloupe","key":"CountyName"}]},"MapReference":{"ReferenceId":"772253539","Spot":0.36,"SideOfStreet":"left","CountryId":"23410565","StateId":"23410662","CountyId":"23410627","CityId":"23410498"}}},{"Relevance":1.0,"Distance":36.8,"MatchLevel":"street","MatchQuality":{"Country":1.0,"State":1.0,"County":1.0,"City":1.0,"Street":[1.0],"PostalCode":1.0},"Location":{"LocationId":"NT_8qAfRjDtH6.L.Tgn02HLiD_l_772206474_L","LocationType":"point","DisplayPosition":{"Latitude":16.25703,"Longitude":-61.27004},"MapView":{"TopLeft":{"Latitude":16.25703,"Longitude":-61.27004},"BottomRight":{"Latitude":16.25687,"Longitude":-61.26982}},"Address":{"Label":"Avenue Martin Luther King, 97118 Saint-François, Guadeloupe-France","Country":"GLP","State":"Guadeloupe","County":"Guadeloupe","City":"Saint-François","Street":"Avenue Martin Luther King","PostalCode":"97118","AdditionalData":[{"value":"Guadeloupe-France","key":"CountryName"},{"value":"Guadeloupe","key":"StateName"},{"value":"Guadeloupe","key":"CountyName"}]},"MapReference":{"ReferenceId":"772206474","Spot":1.0,"SideOfStreet":"left","CountryId":"23410565","StateId":"23410662","CountyId":"23410627","CityId":"23410498"}}},{"Relevance":1.0,"Distance":36.8,"MatchLevel":"street","MatchQuality":{"Country":1.0,"State":1.0,"County":1.0,"City":1.0,"PostalCode":1.0},"Location":{"LocationId":"NT_Wa4oAk0UhQ.hq6WvMj7c4C_l_772270805_L","LocationType":"point","DisplayPosition":{"Latitude":16.25703,"Longitude":-61.27004},"MapView":{"TopLeft":{"Latitude":16.25703,"Longitude":-61.27004},"BottomRight":{"Latitude":16.2566,"Longitude":-61.26997}},"Address":{"Label":"97118 Saint-François, Guadeloupe-France","Country":"GLP","State":"Guadeloupe","County":"Guadeloupe","City":"Saint-François","PostalCode":"97118","AdditionalData":[{"value":"Guadeloupe-France","key":"CountryName"},{"value":"Guadeloupe","key":"StateName"},{"value":"Guadeloupe","key":"CountyName"}]},"MapReference":{"ReferenceId":"772270805","Spot":1.0,"SideOfStreet":"left","CountryId":"23410565","StateId":"23410662","CountyId":"23410627","CityId":"23410498"}}},{"Relevance":1.0,"Distance":36.8,"MatchLevel":"street","MatchQuality":{"Country":1.0,"State":1.0,"County":1.0,"City":1.0,"PostalCode":1.0},"Location":{"LocationId":"NT_Wa4oAk0UhQ.hq6WvMj7c4C_l_772313192_R","LocationType":"point","DisplayPosition":{"Latitude":16.25703,"Longitude":-61.27004},"MapView":{"TopLeft":{"Latitude":16.25712,"Longitude":-61.27004},"BottomRight":{"Latitude":16.25702,"Longitude":-61.26963}},"Address":{"Label":"97118 Saint-François, Guadeloupe-France","Country":"GLP","State":"Guadeloupe","County":"Guadeloupe","City":"Saint-François","PostalCode":"97118","AdditionalData":[{"value":"Guadeloupe-France","key":"CountryName"},{"value":"Guadeloupe","key":"StateName"},{"value":"Guadeloupe","key":"CountyName"}]},"MapReference":{"ReferenceId":"772313192","Spot":0.0,"SideOfStreet":"right","CountryId":"23410565","StateId":"23410662","CountyId":"23410627","CityId":"23410498"}}},{"Relevance":1.0,"Distance":57.2,"MatchLevel":"street","MatchQuality":{"Country":1.0,"State":1.0,"County":1.0,"City":1.0,"PostalCode":1.0},"Location":{"LocationId":"NT_Wa4oAk0UhQ.hq6WvMj7c4C_l_772302733_R","LocationType":"point","DisplayPosition":{"Latitude":16.2572498,"Longitude":-61.2708601},"MapView":{"TopLeft":{"Latitude":16.25739,"Longitude":-61.27194},"BottomRight":{"Latitude":16.2567,"Longitude":-61.27079}},"Address":{"Label":"97118 Saint-François, Guadeloupe-France","Country":"GLP","State":"Guadeloupe","County":"Guadeloupe","City":"Saint-François","PostalCode":"97118","AdditionalData":[{"value":"Guadeloupe-France","key":"CountryName"},{"value":"Guadeloupe","key":"StateName"},{"value":"Guadeloupe","key":"CountyName"}]},"MapReference":{"ReferenceId":"772302733","Spot":0.89,"SideOfStreet":"right","CountryId":"23410565","StateId":"23410662","CountyId":"23410627","CityId":"23410498"}}},{"Relevance":1.0,"Distance":58.5,"MatchLevel":"street","MatchQuality":{"Country":1.0,"State":1.0,"County":1.0,"City":1.0,"PostalCode":1.0},"Location":{"LocationId":"NT_Wa4oAk0UhQ.hq6WvMj7c4C_l_772270356_L","LocationType":"point","DisplayPosition":{"Latitude":16.2567333,"Longitude":-61.26992},"MapView":{"TopLeft":{"Latitude":16.25687,"Longitude":-61.27},"BottomRight":{"Latitude":16.2566,"Longitude":-61.26982}},"Address":{"Label":"97118 Saint-François, Guadeloupe-France","Country":"GLP","State":"Guadeloupe","County":"Guadeloupe","City":"Saint-François","PostalCode":"97118","AdditionalData":[{"value":"Guadeloupe-France","key":"CountryName"},{"value":"Guadeloupe","key":"StateName"},{"value":"Guadeloupe","key":"CountyName"}]},"MapReference":{"ReferenceId":"772270356","Spot":0.48,"SideOfStreet":"left","CountryId":"23410565","StateId":"23410662","CountyId":"23410627","CityId":"23410498"}}},{"Relevance":1.0,"Distance":60.3,"MatchLevel":"street","MatchQuality":{"Country":1.0,"State":1.0,"County":1.0,"City":1.0,"Street":[1.0],"PostalCode":1.0},"Location":{"LocationId":"NT_.yzBQpBZeMP8et9rj9rWeD_l_791166923_L","LocationType":"point","DisplayPosition":{"Latitude":16.25739,"Longitude":-61.27079},"MapView":{"TopLeft":{"Latitude":16.25782,"Longitude":-61.27187},"BottomRight":{"Latitude":16.25739,"Longitude":-61.27079}},"Address":{"Label":"Avenue Martin Luther King, 97118 Saint-François, Guadeloupe-France","Country":"GLP","State":"Guadeloupe","County":"Guadeloupe","City":"Saint-François","Street":"Avenue Martin Luther King","PostalCode":"97118","AdditionalData":[{"value":"Guadeloupe-France","key":"CountryName"},{"value":"Guadeloupe","key":"StateName"},{"value":"Guadeloupe","key":"CountyName"}]},"MapReference":{"ReferenceId":"791166923","Spot":0.0,"SideOfStreet":"left","CountryId":"23410565","StateId":"23410662","CountyId":"23410627","CityId":"23410498"}}}]}]}}