{"Response":{"MetaInfo":{"Timestamp":"2020-03-28T11:11:59.372+0000","NextPageInformation":"2"},"View":[{"_type":"SearchResultsViewType","ViewId":0,"Result":[{"Relevance":1.0,"Distance":-128.5,"MatchLevel":"landmark","MatchQuality":{"Country":1.0,"State":1.0,"County":1.0,"Name":1.0},"Location":{"LocationId":"NT_nXowKYqTyLhIW12Kd8EhpD","LocationType":"island","Name":"Basse Terre","DisplayPosition":{"Latitude":16.15429,"Longitude":-61.6778},"MapView":{"TopLeft":{"Latitude":16.362,"Longitude":-61.80959},"BottomRight":{"Latitude":15.94659,"Longitude":-61.54175}},"Address":{"Label":"Guadeloupe-France","Country":"GLP","State":"Guadeloupe","County":"Guadeloupe","AdditionalData":[{"value":"Guadeloupe-France","key":"CountryName"},{"value":"Guadeloupe","key":"StateName"},{"value":"Guadeloupe","key":"CountyName"}]},"MapReference":{"CountryId":"23410565","StateId":"23410662","CountyId":"23410627","PlaceId":"1406952014"}}},{"Relevance":1.0,"Distance":0.0,"Direction":0.0,"MatchLevel":"district","MatchQuality":{"Country":1.0,"State":1.0,"County":1.0,"City":1.0,"District":1.0,"PostalCode":1.0},"Location":{"LocationId":"NT_8iV6bUItTLxJ94PBFsK-HA","LocationType":"point","DisplayPosition":{"Latitude":16.2343661,"Longitude":-61.7901557},"MapView":{"TopLeft":{"Latitude":16.24029,"Longitude":-61.79541},"BottomRight":{"Latitude":16.22403,"Longitude":-61.78251}},"Address":{"Label":"Pointe-Noire, Guadeloupe, Guadeloupe-France","Country":"GLP","State":"Guadeloupe","County":"Guadeloupe","City":"Pointe-Noire","District":"Pointe-Noire","PostalCode":"97116","AdditionalData":[{"value":"Guadeloupe-France","key":"CountryName"},{"value":"Guadeloupe","key":"StateName"},{"value":"Guadeloupe","key":"CountyName"}]},"MapReference":{"ReferenceId":"1037620700","SideOfStreet":"neither","CountryId":"23410565","StateId":"23410662","CountyId":"23410627","CityId":"23410506","DistrictId":"23410650"}}},{"Relevance":1.0,"Distance":8.9,"MatchLevel":"houseNumber","MatchQuality":{"Country":1.0,"State":1.0,"County":1.0,"City":1.0,"District":1.0,"Street":[1.0],"HouseNumber":1.0,"PostalCode":1.0},"MatchType":"interpolated","Location":{"LocationId":"NT_8ZJw7fNjLN1DWCmACzPqzC_xQDM","LocationType":"point","DisplayPosition":{"Latitude":16.23429,"Longitude":-61.79009},"MapView":{"TopLeft":{"Latitude":16.2354142,"Longitude":-61.7912608},"BottomRight":{"Latitude":16.2331658,"Longitude":-61.7889192}},"Address":{"Label":"Route de Mountecari 140, 97116 Pointe-Noire, Guadeloupe-France","Country":"GLP","State":"Guadeloupe","County":"Guadeloupe","City":"Pointe-Noire","District":"Pointe-Noire","Street":"Route de Mountecari","HouseNumber":"140","PostalCode":"97116","AdditionalData":[{"value":"Guadeloupe-France","key":"CountryName"},{"value":"Guadeloupe","key":"StateName"},{"value":"Guadeloupe","key":"CountyName"}]},"MapReference":{"ReferenceId":"1037522578","Spot":0.44,"SideOfStreet":"left","CountryId":"23410565","StateId":"23410662","CountyId":"23410627","CityId":"23410506","DistrictId":"23410650","AddressId":"597181804","RoadLinkId":"359427988"}}},{"Relevance":1.0,"Distance":13.5,"MatchLevel":"street","MatchQuality":{"Country":1.0,"State":1.0,"County":1.0,"City":1.0,"District":1.0,"Street":[1.0],"PostalCode":1.0},"Location":{"LocationId":"NT_OTqtOARglaLRvtQn.3SdvB_l_772313850_L","LocationType":"point","DisplayPosition":{"Latitude":16.23447,"Longitude":-61.79009},"MapView":{"TopLeft":{"Latitude":16.23455,"Longitude":-61.79009},"BottomRight":{"Latitude":16.23447,"Longitude":-61.79009}},"Address":{"Label":"Route de Mountecari, 97116 Pointe-Noire, Guadeloupe-France","Country":"GLP","State":"Guadeloupe","County":"Guadeloupe","City":"Pointe-Noire","District":"Pointe-Noire","Street":"Route de Mountecari","PostalCode":"97116","AdditionalData":[{"value":"Guadeloupe-France","key":"CountryName"},{"value":"Guadeloupe","key":"StateName"},{"value":"Guadeloupe","key":"CountyName"}]},"MapReference":{"ReferenceId":"772313850","Spot":0.0,"SideOfStreet":"left","CountryId":"23410565","StateId":"23410662","CountyId":"23410627","CityId":"23410506","DistrictId":"23410650"}}},{"Relevance":1.0,"Distance":17.6,"MatchLevel":"houseNumber","MatchQuality":{"Country":1.0,"State":1.0,"County":1.0,"City":1.0,"District":1.0,"Street":[1.0],"HouseNumber":1.0,"PostalCode":1.0},"MatchType":"interpolated","Location":{"LocationId":"NT_IGMyGmOdJ9xBaXjB4gX7aA_0IzN","LocationType":"point","DisplayPosition":{"Latitude":16.23446,"Longitude":-61.79032},"MapView":{"TopLeft":{"Latitude":16.2355842,"Longitude":-61.7914908},"BottomRight":{"Latitude":16.2333358,"Longitude":-61.7891492}},"Address":{"Label":"Ruelle Branton 427, 97116 Pointe-Noire, Guadeloupe-France","Country":"GLP","State":"Guadeloupe","County":"Guadeloupe","City":"Pointe-Noire","District":"Pointe-Noire","Street":"Ruelle Branton","HouseNumber":"427","PostalCode":"97116","AdditionalData":[{"value":"Guadeloupe-France","key":"CountryName"},{"value":"Guadeloupe","key":"StateName"},{"value":"Guadeloupe","key":"CountyName"}]},"MapReference":{"ReferenceId":"772176759","Spot":0.36,"SideOfStreet":"left","CountryId":"23410565","StateId":"23410662","CountyId":"23410627","CityId":"23410506","DistrictId":"23410650","AddressId":"597112541","RoadLinkId":"165861351"}}},{"Relevance":1.0,"Distance":25.0,"MatchLevel":"street","MatchQuality":{"Country":1.0,"State":1.0,"County":1.0,"City":1.0,"District":1.0,"PostalCode":1.0},"Location":{"LocationId":"NT_W6eWEKK6LOtw0WjPEkKkXC_l_1037522579_R","LocationType":"point","DisplayPosition":{"Latitude":16.23415,"Longitude":-61.79009},"MapView":{"TopLeft":{"Latitude":16.23416,"Longitude":-61.79009},"BottomRight":{"Latitude":16.23399,"Longitude":-61.78984}},"Address":{"Label":"97116 Pointe-Noire, Guadeloupe-France","Country":"GLP","State":"Guadeloupe","County":"Guadeloupe","City":"Pointe-Noire","District":"Pointe-Noire","PostalCode":"97116","AdditionalData":[{"value":"Guadeloupe-France","key":"CountryName"},{"value":"Guadeloupe","key":"StateName"},{"value":"Guadeloupe","key":"CountyName"}]},"MapReference":{"ReferenceId":"1037522579","Spot":1.0,"SideOfStreet":"right","CountryId":"23410565","StateId":"23410662","CountyId":"23410627","CityId":"23410506","DistrictId":"23410650"}}},{"Relevance":1.0,"Distance":31.1,"MatchLevel":"houseNumber","MatchQuality":{"Country":1.0,"State":1.0,"County":1.0,"City":1.0,"District":1.0,"Street":[1.0],"HouseNumber":1.0,"PostalCode":1.0},"MatchType":"interpolated","Location":{"LocationId":"NT_57Hfrp-ZMN6fBxtdHB.RQD_yA","LocationType":"point","DisplayPosition":{"Latitude":16.23457,"Longitude":-61.78992},"MapView":{"TopLeft":{"Latitude":16.2356942,"Longitude":-61.7910908},"BottomRight":{"Latitude":16.2334458,"Longitude":-61.7887492}},"Address":{"Label":"Rue Loius del Gres 18, 97116 Pointe-Noire, Guadeloupe-France","Country":"GLP","State":"Guadeloupe","County":"Guadeloupe","City":"Pointe-Noire","District":"Pointe-Noire","Street":"Rue Loius del Gres","HouseNumber":"18","PostalCode":"97116","AdditionalData":[{"value":"Guadeloupe-France","key":"CountryName"},{"value":"Guadeloupe","key":"StateName"},{"value":"Guadeloupe","key":"CountyName"}]},"MapReference":{"ReferenceId":"808215405","Spot":0.16,"SideOfStreet":"right","CountryId":"23410565","StateId":"23410662","CountyId":"23410627","CityId":"23410506","DistrictId":"23410650","AddressId":"597186439","RoadLinkId":"195562249"}}},{"Relevance":1.0,"Distance":38.3,"MatchLevel":"houseNumber","MatchQuality":{"Country":1.0,"State":1.0,"County":1.0,"City":1.0,"District":1.0,"Street":[1.0],"HouseNumber":1.0,"PostalCode":1.0},"MatchType":"interpolated","Location":{"LocationId":"NT_8ZJw7fNjLN1DWCmACzPqzC_5ID","LocationType":"point","DisplayPosition":{"Latitude":16.23471,"Longitude":-61.79013},"MapView":{"TopLeft":{"Latitude":16.2358342,"Longitude":-61.7913008},"BottomRight":{"Latitude":16.2335858,"Longitude":-61.7889592}},"Address":{"Label":"Route de Mountecari 92, 97116 Pointe-Noire, Guadeloupe-France","Country":"GLP","State":"Guadeloupe","County":"Guadeloupe","City":"Pointe-Noire","District":"Pointe-Noire","Street":"Route de Mountecari","HouseNumber":"92","PostalCode":"97116","AdditionalData":[{"value":"Guadeloupe-France","key":"CountryName"},{"value":"Guadeloupe","key":"StateName"},{"value":"Guadeloupe","key":"CountyName"}]},"MapReference":{"ReferenceId":"772265234","Spot":0.27,"SideOfStreet":"left","CountryId":"23410565","StateId":"23410662","CountyId":"23410627","CityId":"23410506","DistrictId":"23410650","AddressId":"597145516","RoadLinkId":"244017376"}}},{"Relevance":1.0,"Distance":45.7,"MatchLevel":"houseNumber","MatchQuality":{"Country":1.0,"State":1.0,"County":1.0,"City":1.0,"District":1.0,"Street":[1.0],"HouseNumber":1.0,"PostalCode":1.0},"MatchType":"interpolated","Location":{"LocationId":"NT_8ZJw7fNjLN1DWCmACzPqzC_xcDO","LocationType":"point","DisplayPosition":{"Latitude":16.23396,"Longitude":-61.79009},"MapView":{"TopLeft":{"Latitude":16.2350842,"Longitude":-61.7912608},"BottomRight":{"Latitude":16.2328358,"Longitude":-61.7889192}},"Address":{"Label":"Route de Mountecari 178, 97116 Pointe-Noire, Guadeloupe-France","Country":"GLP","State":"Guadeloupe","County":"Guadeloupe","City":"Pointe-Noire","District":"Pointe-Noire","Street":"Route de Mountecari","HouseNumber":"178","PostalCode":"97116","AdditionalData":[{"value":"Guadeloupe-France","key":"CountryName"},{"value":"Guadeloupe","key":"StateName"},{"value":"Guadeloupe","key":"CountyName"}]},"MapReference":{"ReferenceId":"1037522577","Spot":0.59,"SideOfStreet":"left","CountryId":"23410565","StateId":"23410662","CountyId":"23410627","CityId":"23410506","DistrictId":"23410650","AddressId":"597198539","RoadLinkId":"359427987"}}},{"Relevance":1.0,"Distance":83.7,"MatchLevel":"houseNumber","MatchQuality":{"Country":1.0,"State":1.0,"County":1.0,"City":1.0,"District":1.0,"Street":[1.0],"HouseNumber":1.0,"PostalCode":1.0},"MatchType":"interpolated","Location":{"LocationId":"NT_uHTexYJqhGDjDLglhsoojB_2ID","LocationType":"point","DisplayPosition":{"Latitude":16.23371,"Longitude":-61.79062},"MapView":{"TopLeft":{"Latitude":16.2348342,"Longitude":-61.7917908},"BottomRight":{"Latitude":16.2325858,"Longitude":-61.7894492}},"Address":{"Label":"Rue Saint Cyr Pagesy 62, 97116 Pointe-Noire, Guadeloupe-France","Country":"GLP","State":"Guadeloupe","County":"Guadeloupe","City":"Pointe-Noire","District":"Pointe-Noire","Street":"Rue Saint Cyr Pagesy","HouseNumber":"62","PostalCode":"97116","AdditionalData":[{"value":"Guadeloupe-France","key":"CountryName"},{"value":"Guadeloupe","key":"StateName"},{"value":"Guadeloupe","key":"CountyName"}]},"MapReference":{"ReferenceId":"772304889","Spot":0.26,"SideOfStreet":"left","CountryId":"23410565","StateId":"23410662","CountyId":"23410627","CityId":"23410506","DistrictId":"23410650","AddressId":"597161380","RoadLinkId":"165790035"}}}]}]}}