{"Response":{"MetaInfo":{"Timestamp":"2020-03-28T11:54:26.872+0000","NextPageInformation":"2"},"View":[{"_type":"SearchResultsViewType","ViewId":0,"Result":[{"Relevance":1.0,"Distance":-3882.6,"MatchLevel":"landmark","MatchQuality":{"Country":1.0,"State":1.0,"County":1.0,"Name":1.0},"Location":{"LocationId":"NT_S8J-3EnsxmJuHwSkcW6O-D","LocationType":"island","Name":"Grande Terre","DisplayPosition":{"Latitude":16.35548,"Longitude":-61.44383},"MapView":{"TopLeft":{"Latitude":16.51442,"Longitude":-61.55449},"BottomRight":{"Latitude":16.19654,"Longitude":-61.17171}},"Address":{"Label":"Guadeloupe-France","Country":"GLP","State":"Guadeloupe","County":"Guadeloupe","AdditionalData":[{"value":"Guadeloupe-France","key":"CountryName"},{"value":"Guadeloupe","key":"StateName"},{"value":"Guadeloupe","key":"CountyName"}]},"MapReference":{"CountryId":"23410565","StateId":"23410662","CountyId":"23410627","PlaceId":"1406951989"}}},{"Relevance":1.0,"Distance":0.0,"Direction":0.0,"MatchLevel":"city","MatchQuality":{"Country":1.0,"State":1.0,"County":1.0,"City":1.0,"PostalCode":1.0},"Location":{"LocationId":"NT_04f.Ap2sB8cDw3AZDbwUWA","LocationType":"point","DisplayPosition":{"Latitude":16.3700742,"Longitude":-61.4590503},"MapView":{"TopLeft":{"Latitude":16.4461,"Longitude":-61.51137},"BottomRight":{"Latitude":16.33817,"Longitude":-61.39791}},"Address":{"Label":"Petit-Canal, Guadeloupe, Guadeloupe-France","Country":"GLP","State":"Guadeloupe","County":"Guadeloupe","City":"Petit-Canal","PostalCode":"97131","AdditionalData":[{"value":"Guadeloupe-France","key":"CountryName"},{"value":"Guadeloupe","key":"StateName"},{"value":"Guadeloupe","key":"CountyName"}]},"MapReference":{"ReferenceId":"772269852","SideOfStreet":"neither","CountryId":"23410565","StateId":"23410662","CountyId":"23410627","CityId":"23410597"}}},{"Relevance":1.0,"Distance":8.1,"MatchLevel":"street","MatchQuality":{"Country":1.0,"State":1.0,"County":1.0,"City":1.0,"PostalCode":1.0},"Location":{"LocationId":"NT_yyI-abRiYS5s02iLcYmNaB_l_772259367_L","LocationType":"point","DisplayPosition":{"Latitude":16.3700817,"Longitude":-61.4589752},"MapView":{"TopLeft":{"Latitude":16.37181,"Longitude":-61.45916},"BottomRight":{"Latitude":16.36939,"Longitude":-61.45885}},"Address":{"Label":"97131 Petit-Canal, Guadeloupe-France","Country":"GLP","State":"Guadeloupe","County":"Guadeloupe","City":"Petit-Canal","PostalCode":"97131","AdditionalData":[{"value":"Guadeloupe-France","key":"CountryName"},{"value":"Guadeloupe","key":"StateName"},{"value":"Guadeloupe","key":"CountyName"}]},"MapReference":{"ReferenceId":"772259367","Spot":0.28,"SideOfStreet":"left","CountryId":"23410565","StateId":"23410662","CountyId":"23410627","CityId":"23410597"}}},{"Relevance":1.0,"Distance":32.2,"MatchLevel":"street","MatchQuality":{"Country":1.0,"State":1.0,"County":1.0,"City":1.0,"PostalCode":1.0},"Location":{"LocationId":"NT_yyI-abRiYS5s02iLcYmNaB_l_772288512_R","LocationType":"point","DisplayPosition":{"Latitude":16.3700473,"Longitude":-61.4593507},"MapView":{"TopLeft":{"Latitude":16.37082,"Longitude":-61.45942},"BottomRight":{"Latitude":16.36937,"Longitude":-61.45929}},"Address":{"Label":"97131 Petit-Canal, Guadeloupe-France","Country":"GLP","State":"Guadeloupe","County":"Guadeloupe","City":"Petit-Canal","PostalCode":"97131","AdditionalData":[{"value":"Guadeloupe-France","key":"CountryName"},{"value":"Guadeloupe","key":"StateName"},{"value":"Guadeloupe","key":"CountyName"}]},"MapReference":{"ReferenceId":"772288512","Spot":0.47,"SideOfStreet":"right","CountryId":"23410565","StateId":"23410662","CountyId":"23410627","CityId":"23410597"}}},{"Relevance":1.0,"Distance":76.8,"MatchLevel":"street","MatchQuality":{"Country":1.0,"State":1.0,"County":1.0,"City":1.0,"Street":[1.0],"PostalCode":1.0},"Location":{"LocationId":"NT_T9kgUCraitnuBNHBQPAJuC_l_772237170_L","LocationType":"point","DisplayPosition":{"Latitude":16.36939,"Longitude":-61.45895},"MapView":{"TopLeft":{"Latitude":16.36939,"Longitude":-61.45907},"BottomRight":{"Latitude":16.36931,"Longitude":-61.45885}},"Address":{"Label":"N8, 97131 Petit-Canal, Guadeloupe-France","Country":"GLP","State":"Guadeloupe","County":"Guadeloupe","City":"Petit-Canal","Street":"N8","PostalCode":"97131","AdditionalData":[{"value":"Guadeloupe-France","key":"CountryName"},{"value":"Guadeloupe","key":"StateName"},{"value":"Guadeloupe","key":"CountyName"}]},"MapReference":{"ReferenceId":"772237170","Spot":0.61,"SideOfStreet":"left","CountryId":"23410565","StateId":"23410662","CountyId":"23410627","CityId":"23410597"}}},{"Relevance":1.0,"Distance":79.0,"MatchLevel":"street","MatchQuality":{"Country":1.0,"State":1.0,"County":1.0,"City":1.0,"Street":[1.0],"PostalCode":1.0},"Location":{"LocationId":"NT_T9kgUCraitnuBNHBQPAJuC_l_772251161_R","LocationType":"point","DisplayPosition":{"Latitude":16.36939,"Longitude":-61.45885},"MapView":{"TopLeft":{"Latitude":16.36939,"Longitude":-61.45885},"BottomRight":{"Latitude":16.36937,"Longitude":-61.45878}},"Address":{"Label":"N8, 97131 Petit-Canal, Guadeloupe-France","Country":"GLP","State":"Guadeloupe","County":"Guadeloupe","City":"Petit-Canal","Street":"N8","PostalCode":"97131","AdditionalData":[{"value":"Guadeloupe-France","key":"CountryName"},{"value":"Guadeloupe","key":"StateName"},{"value":"Guadeloupe","key":"CountyName"}]},"MapReference":{"ReferenceId":"772251161","Spot":1.0,"SideOfStreet":"right","CountryId":"23410565","StateId":"23410662","CountyId":"23410627","CityId":"23410597"}}},{"Relevance":1.0,"Distance":81.7,"MatchLevel":"street","MatchQuality":{"Country":1.0,"State":1.0,"County":1.0,"City":1.0,"Street":[1.0],"PostalCode":1.0},"Location":{"LocationId":"NT_SFjoh1BZO6PTanpWHs0rBC_l_772217948_R","LocationType":"point","DisplayPosition":{"Latitude":16.3693503,"Longitude":-61.4591819},"MapView":{"TopLeft":{"Latitude":16.36937,"Longitude":-61.45929},"BottomRight":{"Latitude":16.36931,"Longitude":-61.45907}},"Address":{"Label":"Boulevard de Balin, 97131 Petit-Canal, Guadeloupe-France","Country":"GLP","State":"Guadeloupe","County":"Guadeloupe","City":"Petit-Canal","Street":"Boulevard de Balin","PostalCode":"97131","AdditionalData":[{"value":"Guadeloupe-France","key":"CountryName"},{"value":"Guadeloupe","key":"StateName"},{"value":"Guadeloupe","key":"CountyName"}]},"MapReference":{"ReferenceId":"772217948","Spot":0.52,"SideOfStreet":"right","CountryId":"23410565","StateId":"23410662","CountyId":"23410627","CityId":"23410597"}}},{"Relevance":1.0,"Distance":82.4,"MatchLevel":"street","MatchQuality":{"Country":1.0,"State":1.0,"County":1.0,"City":1.0,"Street":[1.0],"PostalCode":1.0},"Location":{"LocationId":"NT_SFjoh1BZO6PTanpWHs0rBC_l_772214825_L","LocationType":"point","DisplayPosition":{"Latitude":16.36937,"Longitude":-61.45929},"MapView":{"TopLeft":{"Latitude":16.36937,"Longitude":-61.45956},"BottomRight":{"Latitude":16.36935,"Longitude":-61.45929}},"Address":{"Label":"Boulevard de Balin, 97131 Petit-Canal, Guadeloupe-France","Country":"GLP","State":"Guadeloupe","County":"Guadeloupe","City":"Petit-Canal","Street":"Boulevard de Balin","PostalCode":"97131","AdditionalData":[{"value":"Guadeloupe-France","key":"CountryName"},{"value":"Guadeloupe","key":"StateName"},{"value":"Guadeloupe","key":"CountyName"}]},"MapReference":{"ReferenceId":"772214825","Spot":1.0,"SideOfStreet":"left","CountryId":"23410565","StateId":"23410662","CountyId":"23410627","CityId":"23410597"}}},{"Relevance":1.0,"Distance":83.4,"MatchLevel":"street","MatchQuality":{"Country":1.0,"State":1.0,"County":1.0,"City":1.0,"Street":[1.0],"PostalCode":1.0},"Location":{"LocationId":"NT_Om44n3w201yzK.Qk6jsvqD_l_772260270_L","LocationType":"point","DisplayPosition":{"Latitude":16.36937,"Longitude":-61.45878},"MapView":{"TopLeft":{"Latitude":16.36944,"Longitude":-61.45878},"BottomRight":{"Latitude":16.36937,"Longitude":-61.45792}},"Address":{"Label":"Rue de Balin, 97131 Petit-Canal, Guadeloupe-France","Country":"GLP","State":"Guadeloupe","County":"Guadeloupe","City":"Petit-Canal","Street":"Rue de Balin","PostalCode":"97131","AdditionalData":[{"value":"Guadeloupe-France","key":"CountryName"},{"value":"Guadeloupe","key":"StateName"},{"value":"Guadeloupe","key":"CountyName"}]},"MapReference":{"ReferenceId":"772260270","Spot":0.0,"SideOfStreet":"left","CountryId":"23410565","StateId":"23410662","CountyId":"23410627","CityId":"23410597"}}},{"Relevance":1.0,"Distance":83.4,"MatchLevel":"street","MatchQuality":{"Country":1.0,"State":1.0,"County":1.0,"City":1.0,"Street":[1.0],"PostalCode":1.0},"Location":{"LocationId":"NT_T9kgUCraitnuBNHBQPAJuC_l_772226424_L","LocationType":"point","DisplayPosition":{"Latitude":16.36937,"Longitude":-61.45878},"MapView":{"TopLeft":{"Latitude":16.36937,"Longitude":-61.45892},"BottomRight":{"Latitude":16.36919,"Longitude":-61.45878}},"Address":{"Label":"N8, 97131 Petit-Canal, Guadeloupe-France","Country":"GLP","State":"Guadeloupe","County":"Guadeloupe","City":"Petit-Canal","Street":"N8","PostalCode":"97131","AdditionalData":[{"value":"Guadeloupe-France","key":"CountryName"},{"value":"Guadeloupe","key":"StateName"},{"value":"Guadeloupe","key":"CountyName"}]},"MapReference":{"ReferenceId":"772226424","Spot":1.0,"SideOfStreet":"left","CountryId":"23410565","StateId":"23410662","CountyId":"23410627","CityId":"23410597"}}}]}]}}