{"Response":{"MetaInfo":{"Timestamp":"2020-03-28T11:03:35.394+0000","NextPageInformation":"2"},"View":[{"_type":"SearchResultsViewType","ViewId":0,"Result":[{"Relevance":1.0,"Distance":-3401.3,"MatchLevel":"landmark","MatchQuality":{"Country":1.0,"State":1.0,"County":1.0,"Name":1.0},"Location":{"LocationId":"NT_.XiwCg0LOHgLKMKi.T6UkA","LocationType":"island","Name":"Tenerife","DisplayPosition":{"Latitude":28.29328,"Longitude":-16.62147},"MapView":{"TopLeft":{"Latitude":28.58862,"Longitude":-16.92598},"BottomRight":{"Latitude":27.99793,"Longitude":-16.11934}},"Address":{"Label":"(Santa Cruz de Tenerife), España","Country":"ESP","State":"Islas Canarias","County":"Santa Cruz de Tenerife","AdditionalData":[{"value":"España","key":"CountryName"},{"value":"Islas Canarias","key":"StateName"},{"value":"Santa Cruz de Tenerife","key":"CountyName"}]},"MapReference":{"CountryId":"20215059","StateId":"20221898","CountyId":"20221900","PlaceId":"546571990"}}},{"Relevance":1.0,"Distance":0.0,"Direction":0.0,"MatchLevel":"city","MatchQuality":{"Country":1.0,"State":1.0,"County":1.0,"City":1.0,"PostalCode":1.0},"Location":{"LocationId":"NT_i.LZTeWa3sSSEUMzsnikCD","LocationType":"point","DisplayPosition":{"Latitude":28.1183824,"Longitude":-16.7271976},"MapView":{"TopLeft":{"Latitude":28.21299,"Longitude":-16.80224},"BottomRight":{"Latitude":28.06645,"Longitude":-16.66019}},"Address":{"Label":"Adeje, Islas Canarias, España","Country":"ESP","State":"Islas Canarias","County":"Santa Cruz de Tenerife","City":"Adeje","PostalCode":"38670","AdditionalData":[{"value":"España","key":"CountryName"},{"value":"Islas Canarias","key":"StateName"},{"value":"Santa Cruz de Tenerife","key":"CountyName"}]},"MapReference":{"ReferenceId":"877820794","SideOfStreet":"neither","CountryId":"20215059","StateId":"20221898","CountyId":"20221900","CityId":"20272674"}}},{"Relevance":1.0,"Distance":8.5,"MatchLevel":"street","MatchQuality":{"Country":1.0,"State":1.0,"County":1.0,"City":1.0,"Street":[1.0],"PostalCode":1.0},"Location":{"LocationId":"NT_LsY98-CLUfRmdyLqy150cD_l_778365621_L","LocationType":"point","DisplayPosition":{"Latitude":28.1184565,"Longitude":-16.7271772},"MapView":{"TopLeft":{"Latitude":28.11846,"Longitude":-16.72719},"BottomRight":{"Latitude":28.11838,"Longitude":-16.7269}},"Address":{"Label":"Calle Tinerfe El Grande, 38670 Adeje (Santa Cruz de Tenerife), España","Country":"ESP","State":"Islas Canarias","County":"Santa Cruz de Tenerife","City":"Adeje","Street":"Calle Tinerfe El Grande","PostalCode":"38670","AdditionalData":[{"value":"España","key":"CountryName"},{"value":"Islas Canarias","key":"StateName"},{"value":"Santa Cruz de Tenerife","key":"CountyName"}]},"MapReference":{"ReferenceId":"778365621","Spot":0.96,"SideOfStreet":"left","CountryId":"20215059","StateId":"20221898","CountyId":"20221900","CityId":"20272674"}}},{"Relevance":1.0,"Distance":8.7,"MatchLevel":"street","MatchQuality":{"Country":1.0,"State":1.0,"County":1.0,"City":1.0,"Street":[1.0],"PostalCode":1.0},"Location":{"LocationId":"NT_.lTak8qSE-0lcZwC43S4iA_l_954768252_L","LocationType":"point","DisplayPosition":{"Latitude":28.11846,"Longitude":-16.72719},"MapView":{"TopLeft":{"Latitude":28.11849,"Longitude":-16.7273},"BottomRight":{"Latitude":28.11846,"Longitude":-16.72719}},"Address":{"Label":"Plaza El Cerco, 38670 Adeje (Santa Cruz de Tenerife), España","Country":"ESP","State":"Islas Canarias","County":"Santa Cruz de Tenerife","City":"Adeje","Street":"Plaza El Cerco","PostalCode":"38670","AdditionalData":[{"value":"España","key":"CountryName"},{"value":"Islas Canarias","key":"StateName"},{"value":"Santa Cruz de Tenerife","key":"CountyName"}]},"MapReference":{"ReferenceId":"954768252","Spot":0.0,"SideOfStreet":"left","CountryId":"20215059","StateId":"20221898","CountyId":"20221900","CityId":"20272674"}}},{"Relevance":1.0,"Distance":12.0,"MatchLevel":"houseNumber","MatchQuality":{"Country":1.0,"State":1.0,"County":1.0,"City":1.0,"Street":[1.0],"HouseNumber":1.0,"PostalCode":1.0},"MatchType":"interpolated","Location":{"LocationId":"NT_FL7clLgl.905SQDwCzEvBB_yMD","LocationType":"point","DisplayPosition":{"Latitude":28.11834,"Longitude":-16.72733},"MapView":{"TopLeft":{"Latitude":28.1194642,"Longitude":-16.7286046},"BottomRight":{"Latitude":28.1172158,"Longitude":-16.7260554}},"Address":{"Label":"Calle Manuel Bello Ramos, 23, 38670 Adeje (Santa Cruz de Tenerife), España","Country":"ESP","State":"Islas Canarias","County":"Santa Cruz de Tenerife","City":"Adeje","Street":"Calle Manuel Bello Ramos","HouseNumber":"23","PostalCode":"38670","AdditionalData":[{"value":"España","key":"CountryName"},{"value":"Islas Canarias","key":"StateName"},{"value":"Santa Cruz de Tenerife","key":"CountyName"}]},"MapReference":{"ReferenceId":"954768308","Spot":0.72,"SideOfStreet":"right","CountryId":"20215059","StateId":"20221898","CountyId":"20221900","CityId":"20272674","AddressId":"799710460","RoadLinkId":"298009851"}}},{"Relevance":1.0,"Distance":15.6,"MatchLevel":"street","MatchQuality":{"Country":1.0,"State":1.0,"County":1.0,"City":1.0,"PostalCode":1.0},"Location":{"LocationId":"NT_de9kEFNoKX8upZW1ULVEIC_l_954768312_L","LocationType":"point","DisplayPosition":{"Latitude":28.11849,"Longitude":-16.7273},"MapView":{"TopLeft":{"Latitude":28.11851,"Longitude":-16.72737},"BottomRight":{"Latitude":28.11849,"Longitude":-16.7273}},"Address":{"Label":"38670 Adeje (Santa Cruz de Tenerife), España","Country":"ESP","State":"Islas Canarias","County":"Santa Cruz de Tenerife","City":"Adeje","PostalCode":"38670","AdditionalData":[{"value":"España","key":"CountryName"},{"value":"Islas Canarias","key":"StateName"},{"value":"Santa Cruz de Tenerife","key":"CountyName"}]},"MapReference":{"ReferenceId":"954768312","Spot":0.0,"SideOfStreet":"left","CountryId":"20215059","StateId":"20221898","CountyId":"20221900","CityId":"20272674"}}},{"Relevance":1.0,"Distance":20.1,"MatchLevel":"street","MatchQuality":{"Country":1.0,"State":1.0,"County":1.0,"City":1.0,"PostalCode":1.0},"Location":{"LocationId":"NT_de9kEFNoKX8upZW1ULVEIC_l_954768311_R","LocationType":"point","DisplayPosition":{"Latitude":28.1184435,"Longitude":-16.727391},"MapView":{"TopLeft":{"Latitude":28.11851,"Longitude":-16.72743},"BottomRight":{"Latitude":28.11832,"Longitude":-16.72737}},"Address":{"Label":"38670 Adeje (Santa Cruz de Tenerife), España","Country":"ESP","State":"Islas Canarias","County":"Santa Cruz de Tenerife","City":"Adeje","PostalCode":"38670","AdditionalData":[{"value":"España","key":"CountryName"},{"value":"Islas Canarias","key":"StateName"},{"value":"Santa Cruz de Tenerife","key":"CountyName"}]},"MapReference":{"ReferenceId":"954768311","Spot":0.65,"SideOfStreet":"right","CountryId":"20215059","StateId":"20221898","CountyId":"20221900","CityId":"20272674"}}},{"Relevance":1.0,"Distance":21.7,"MatchLevel":"houseNumber","MatchQuality":{"Country":1.0,"State":1.0,"County":1.0,"City":1.0,"Street":[1.0],"HouseNumber":1.0,"PostalCode":1.0},"MatchType":"interpolated","Location":{"LocationId":"NT_FL7clLgl.905SQDwCzEvBB_xkD","LocationType":"point","DisplayPosition":{"Latitude":28.11856,"Longitude":-16.72729},"MapView":{"TopLeft":{"Latitude":28.1196842,"Longitude":-16.7285646},"BottomRight":{"Latitude":28.1174358,"Longitude":-16.7260154}},"Address":{"Label":"Calle Manuel Bello Ramos, 19, 38670 Adeje (Santa Cruz de Tenerife), España","Country":"ESP","State":"Islas Canarias","County":"Santa Cruz de Tenerife","City":"Adeje","Street":"Calle Manuel Bello Ramos","HouseNumber":"19","PostalCode":"38670","AdditionalData":[{"value":"España","key":"CountryName"},{"value":"Islas Canarias","key":"StateName"},{"value":"Santa Cruz de Tenerife","key":"CountyName"}]},"MapReference":{"ReferenceId":"954768253","Spot":0.28,"SideOfStreet":"left","CountryId":"20215059","StateId":"20221898","CountyId":"20221900","CityId":"20272674","AddressId":"266057735","RoadLinkId":"298009795"}}},{"Relevance":1.0,"Distance":22.1,"MatchLevel":"street","MatchQuality":{"Country":1.0,"State":1.0,"County":1.0,"City":1.0,"PostalCode":1.0},"Location":{"LocationId":"NT_de9kEFNoKX8upZW1ULVEIC_l_954768310_L","LocationType":"point","DisplayPosition":{"Latitude":28.11851,"Longitude":-16.72737},"MapView":{"TopLeft":{"Latitude":28.11855,"Longitude":-16.72746},"BottomRight":{"Latitude":28.11851,"Longitude":-16.72737}},"Address":{"Label":"38670 Adeje (Santa Cruz de Tenerife), España","Country":"ESP","State":"Islas Canarias","County":"Santa Cruz de Tenerife","City":"Adeje","PostalCode":"38670","AdditionalData":[{"value":"España","key":"CountryName"},{"value":"Islas Canarias","key":"StateName"},{"value":"Santa Cruz de Tenerife","key":"CountyName"}]},"MapReference":{"ReferenceId":"954768310","Spot":0.0,"SideOfStreet":"left","CountryId":"20215059","StateId":"20221898","CountyId":"20221900","CityId":"20272674"}}},{"Relevance":1.0,"Distance":23.8,"MatchLevel":"street","MatchQuality":{"Country":1.0,"State":1.0,"County":1.0,"City":1.0,"PostalCode":1.0},"Location":{"LocationId":"NT_de9kEFNoKX8upZW1ULVEIC_l_954768306_R","LocationType":"point","DisplayPosition":{"Latitude":28.11832,"Longitude":-16.72743},"MapView":{"TopLeft":{"Latitude":28.11837,"Longitude":-16.72755},"BottomRight":{"Latitude":28.11832,"Longitude":-16.72743}},"Address":{"Label":"38670 Adeje (Santa Cruz de Tenerife), España","Country":"ESP","State":"Islas Canarias","County":"Santa Cruz de Tenerife","City":"Adeje","PostalCode":"38670","AdditionalData":[{"value":"España","key":"CountryName"},{"value":"Islas Canarias","key":"StateName"},{"value":"Santa Cruz de Tenerife","key":"CountyName"}]},"MapReference":{"ReferenceId":"954768306","Spot":0.0,"SideOfStreet":"right","CountryId":"20215059","StateId":"20221898","CountyId":"20221900","CityId":"20272674"}}}]}]}}