{"Response":{"MetaInfo":{"Timestamp":"2020-03-28T11:05:10.769+0000","NextPageInformation":"2"},"View":[{"_type":"SearchResultsViewType","ViewId":0,"Result":[{"Relevance":1.0,"Distance":-1896.5,"MatchLevel":"landmark","MatchQuality":{"Country":1.0,"State":1.0,"County":1.0,"Name":1.0},"Location":{"LocationId":"NT_JcQxCOH-ZTGTs0M71fgojB","LocationType":"island","Name":"Gran Canaria","DisplayPosition":{"Latitude":27.95774,"Longitude":-15.60651},"MapView":{"TopLeft":{"Latitude":28.1809,"Longitude":-15.83472},"BottomRight":{"Latitude":27.73457,"Longitude":-15.35841}},"Address":{"Label":"(Las Palmas), España","Country":"ESP","State":"Islas Canarias","County":"Las Palmas","AdditionalData":[{"value":"España","key":"CountryName"},{"value":"Islas Canarias","key":"StateName"},{"value":"Las Palmas","key":"CountyName"}]},"MapReference":{"CountryId":"20215059","StateId":"20221898","CountyId":"20221899","PlaceId":"546575242"}}},{"Relevance":1.0,"Distance":0.0,"Direction":0.0,"MatchLevel":"district","MatchQuality":{"Country":1.0,"State":1.0,"County":1.0,"City":1.0,"District":1.0,"PostalCode":1.0},"Location":{"LocationId":"NT_gfdcYbH0eJAYKPtXBeMGXB","LocationType":"point","DisplayPosition":{"Latitude":28.140941,"Longitude":-15.6338445},"MapView":{"TopLeft":{"Latitude":28.14411,"Longitude":-15.63739},"BottomRight":{"Latitude":28.13519,"Longitude":-15.62314}},"Address":{"Label":"Santa María de Guía, Sta. María de Guía de G.C., Islas Canarias, España","Country":"ESP","State":"Islas Canarias","County":"Las Palmas","City":"Sta. María de Guía de G.C.","District":"Santa María de Guía","PostalCode":"35450","AdditionalData":[{"value":"España","key":"CountryName"},{"value":"Islas Canarias","key":"StateName"},{"value":"Las Palmas","key":"CountyName"}]},"MapReference":{"ReferenceId":"578301727","SideOfStreet":"neither","CountryId":"20215059","StateId":"20221898","CountyId":"20221899","CityId":"20272290","DistrictId":"20272315"}}},{"Relevance":1.0,"Distance":4.7,"MatchLevel":"street","MatchQuality":{"Country":1.0,"State":1.0,"County":1.0,"City":1.0,"District":1.0,"Street":[1.0],"PostalCode":1.0},"Location":{"LocationId":"NT_0XYLhpq3U-WejTR15.pboD_l_578304571_R","LocationType":"point","DisplayPosition":{"Latitude":28.1409685,"Longitude":-15.6338811},"MapView":{"TopLeft":{"Latitude":28.14101,"Longitude":-15.63442},"BottomRight":{"Latitude":28.14025,"Longitude":-15.63385}},"Address":{"Label":"Plaza Residencial Las Huertas, 35450 Sta. María de Guía de G.C. (Las Palmas), España","Country":"ESP","State":"Islas Canarias","County":"Las Palmas","City":"Sta. María de Guía de G.C.","District":"Santa María de Guía","Street":"Plaza Residencial Las Huertas","PostalCode":"35450","AdditionalData":[{"value":"España","key":"CountryName"},{"value":"Islas Canarias","key":"StateName"},{"value":"Las Palmas","key":"CountyName"}]},"MapReference":{"ReferenceId":"578304571","Spot":0.95,"SideOfStreet":"right","CountryId":"20215059","StateId":"20221898","CountyId":"20221899","CityId":"20272290","DistrictId":"20272315"}}},{"Relevance":1.0,"Distance":6.4,"MatchLevel":"street","MatchQuality":{"Country":1.0,"State":1.0,"County":1.0,"City":1.0,"District":1.0,"Street":[1.0],"PostalCode":1.0},"Location":{"LocationId":"NT_RXZevwGGhpq8uoO4fDaaiA_l_578304563_L","LocationType":"point","DisplayPosition":{"Latitude":28.140994,"Longitude":-15.633818},"MapView":{"TopLeft":{"Latitude":28.14101,"Longitude":-15.63385},"BottomRight":{"Latitude":28.14083,"Longitude":-15.63349}},"Address":{"Label":"Calle Lomo Guillén, 35450 Sta. María de Guía de G.C. (Las Palmas), España","Country":"ESP","State":"Islas Canarias","County":"Las Palmas","City":"Sta. María de Guía de G.C.","District":"Santa María de Guía","Street":"Calle Lomo Guillén","PostalCode":"35450","AdditionalData":[{"value":"España","key":"CountryName"},{"value":"Islas Canarias","key":"StateName"},{"value":"Las Palmas","key":"CountyName"}]},"MapReference":{"ReferenceId":"578304563","Spot":0.91,"SideOfStreet":"left","CountryId":"20215059","StateId":"20221898","CountyId":"20221899","CityId":"20272290","DistrictId":"20272315"}}},{"Relevance":1.0,"Distance":7.7,"MatchLevel":"street","MatchQuality":{"Country":1.0,"State":1.0,"County":1.0,"City":1.0,"District":1.0,"Street":[1.0],"PostalCode":1.0},"Location":{"LocationId":"NT_RXZevwGGhpq8uoO4fDaaiA_l_584580744_L","LocationType":"point","DisplayPosition":{"Latitude":28.14101,"Longitude":-15.63385},"MapView":{"TopLeft":{"Latitude":28.14124,"Longitude":-15.6343},"BottomRight":{"Latitude":28.14101,"Longitude":-15.63385}},"Address":{"Label":"Calle Lomo Guillén, 35450 Sta. María de Guía de G.C. (Las Palmas), España","Country":"ESP","State":"Islas Canarias","County":"Las Palmas","City":"Sta. María de Guía de G.C.","District":"Santa María de Guía","Street":"Calle Lomo Guillén","PostalCode":"35450","AdditionalData":[{"value":"España","key":"CountryName"},{"value":"Islas Canarias","key":"StateName"},{"value":"Las Palmas","key":"CountyName"}]},"MapReference":{"ReferenceId":"584580744","Spot":0.0,"SideOfStreet":"left","CountryId":"20215059","StateId":"20221898","CountyId":"20221899","CityId":"20272290","DistrictId":"20272315"}}},{"Relevance":1.0,"Distance":18.5,"MatchLevel":"houseNumber","MatchQuality":{"Country":1.0,"State":1.0,"County":1.0,"City":1.0,"District":1.0,"Street":[1.0],"HouseNumber":1.0,"PostalCode":1.0},"MatchType":"interpolated","Location":{"LocationId":"NT_RXZevwGGhpq8uoO4fDaaiA_yAD","LocationType":"point","DisplayPosition":{"Latitude":28.14108,"Longitude":-15.63374},"MapView":{"TopLeft":{"Latitude":28.1422042,"Longitude":-15.6350149},"BottomRight":{"Latitude":28.1399558,"Longitude":-15.6324651}},"Address":{"Label":"Calle Lomo Guillén, 20, 35450 Sta. María de Guía de G.C. (Las Palmas), España","Country":"ESP","State":"Islas Canarias","County":"Las Palmas","City":"Sta. María de Guía de G.C.","District":"Santa María de Guía","Street":"Calle Lomo Guillén","HouseNumber":"20","PostalCode":"35450","AdditionalData":[{"value":"España","key":"CountryName"},{"value":"Islas Canarias","key":"StateName"},{"value":"Las Palmas","key":"CountyName"}]},"MapReference":{"ReferenceId":"977673386","Spot":0.34,"SideOfStreet":"right","CountryId":"20215059","StateId":"20221898","CountyId":"20221899","CityId":"20272290","DistrictId":"20272315","AddressId":"351197275","RoadLinkId":"312083456"}}},{"Relevance":1.0,"Distance":35.9,"MatchLevel":"street","MatchQuality":{"Country":1.0,"State":1.0,"County":1.0,"City":1.0,"District":1.0,"Street":[1.0],"PostalCode":1.0},"Location":{"LocationId":"NT_0XYLhpq3U-WejTR15.pboD_l_578321365_L","LocationType":"point","DisplayPosition":{"Latitude":28.1407277,"Longitude":-15.6335693},"MapView":{"TopLeft":{"Latitude":28.14083,"Longitude":-15.6341},"BottomRight":{"Latitude":28.14017,"Longitude":-15.63349}},"Address":{"Label":"Plaza Residencial Las Huertas, 35450 Sta. María de Guía de G.C. (Las Palmas), España","Country":"ESP","State":"Islas Canarias","County":"Las Palmas","City":"Sta. María de Guía de G.C.","District":"Santa María de Guía","Street":"Plaza Residencial Las Huertas","PostalCode":"35450","AdditionalData":[{"value":"España","key":"CountryName"},{"value":"Islas Canarias","key":"StateName"},{"value":"Las Palmas","key":"CountyName"}]},"MapReference":{"ReferenceId":"578321365","Spot":0.86,"SideOfStreet":"left","CountryId":"20215059","StateId":"20221898","CountyId":"20221899","CityId":"20272290","DistrictId":"20272315"}}},{"Relevance":1.0,"Distance":36.7,"MatchLevel":"houseNumber","MatchQuality":{"Country":1.0,"State":1.0,"County":1.0,"City":1.0,"District":1.0,"Street":[1.0],"HouseNumber":1.0,"PostalCode":1.0},"MatchType":"interpolated","Location":{"LocationId":"NT_RXZevwGGhpq8uoO4fDaaiA_xQD","LocationType":"point","DisplayPosition":{"Latitude":28.14095,"Longitude":-15.63347},"MapView":{"TopLeft":{"Latitude":28.1420742,"Longitude":-15.6347449},"BottomRight":{"Latitude":28.1398258,"Longitude":-15.6321951}},"Address":{"Label":"Calle Lomo Guillén, 14, 35450 Sta. María de Guía de G.C. (Las Palmas), España","Country":"ESP","State":"Islas Canarias","County":"Las Palmas","City":"Sta. María de Guía de G.C.","District":"Santa María de Guía","Street":"Calle Lomo Guillén","HouseNumber":"14","PostalCode":"35450","AdditionalData":[{"value":"España","key":"CountryName"},{"value":"Islas Canarias","key":"StateName"},{"value":"Las Palmas","key":"CountyName"}]},"MapReference":{"ReferenceId":"977673385","Spot":0.96,"SideOfStreet":"right","CountryId":"20215059","StateId":"20221898","CountyId":"20221899","CityId":"20272290","DistrictId":"20272315","AddressId":"351197271","RoadLinkId":"312083455"}}},{"Relevance":1.0,"Distance":55.7,"MatchLevel":"street","MatchQuality":{"Country":1.0,"State":1.0,"County":1.0,"City":1.0,"District":1.0,"Street":[1.0],"PostalCode":1.0},"Location":{"LocationId":"NT_hVQjlO47S3mBiaF51ASVYB_l_578303079_R","LocationType":"point","DisplayPosition":{"Latitude":28.14124,"Longitude":-15.6343},"MapView":{"TopLeft":{"Latitude":28.14124,"Longitude":-15.63486},"BottomRight":{"Latitude":28.14052,"Longitude":-15.6343}},"Address":{"Label":"Calle Alcalde José Carlos González, 35450 Sta. María de Guía de G.C. (Las Palmas), España","Country":"ESP","State":"Islas Canarias","County":"Las Palmas","City":"Sta. María de Guía de G.C.","District":"Santa María de Guía","Street":"Calle Alcalde José Carlos González","PostalCode":"35450","AdditionalData":[{"value":"España","key":"CountryName"},{"value":"Islas Canarias","key":"StateName"},{"value":"Las Palmas","key":"CountyName"}]},"MapReference":{"ReferenceId":"578303079","Spot":1.0,"SideOfStreet":"right","CountryId":"20215059","StateId":"20221898","CountyId":"20221899","CityId":"20272290","DistrictId":"20272315"}}},{"Relevance":1.0,"Distance":56.1,"MatchLevel":"street","MatchQuality":{"Country":1.0,"State":1.0,"County":1.0,"City":1.0,"District":1.0,"Street":[1.0],"PostalCode":1.0},"Location":{"LocationId":"NT_hVQjlO47S3mBiaF51ASVYB_l_926633162_R","LocationType":"point","DisplayPosition":{"Latitude":28.1412744,"Longitude":-15.6342732},"MapView":{"TopLeft":{"Latitude":28.14133,"Longitude":-15.6343},"BottomRight":{"Latitude":28.14124,"Longitude":-15.63423}},"Address":{"Label":"Calle Alcalde José Carlos González, 35450 Sta. María de Guía de G.C. (Las Palmas), España","Country":"ESP","State":"Islas Canarias","County":"Las Palmas","City":"Sta. María de Guía de G.C.","District":"Santa María de Guía","Street":"Calle Alcalde José Carlos González","PostalCode":"35450","AdditionalData":[{"value":"España","key":"CountryName"},{"value":"Islas Canarias","key":"StateName"},{"value":"Las Palmas","key":"CountyName"}]},"MapReference":{"ReferenceId":"926633162","Spot":0.38,"SideOfStreet":"right","CountryId":"20215059","StateId":"20221898","CountyId":"20221899","CityId":"20272290","DistrictId":"20272315"}}}]}]}}