{"Response":{"MetaInfo":{"Timestamp":"2020-03-28T09:47:37.978+0000","NextPageInformation":"2"},"View":[{"_type":"SearchResultsViewType","ViewId":0,"Result":[{"Relevance":1.0,"Distance":-209.0,"MatchLevel":"landmark","MatchQuality":{"Country":1.0,"State":1.0,"County":1.0,"Name":1.0},"Location":{"LocationId":"NT_JcQxCOH-ZTGTs0M71fgojB","LocationType":"island","Name":"Gran Canaria","DisplayPosition":{"Latitude":27.95774,"Longitude":-15.60651},"MapView":{"TopLeft":{"Latitude":28.1809,"Longitude":-15.83472},"BottomRight":{"Latitude":27.73457,"Longitude":-15.35841}},"Address":{"Label":"(Las Palmas), España","Country":"ESP","State":"Islas Canarias","County":"Las Palmas","AdditionalData":[{"value":"España","key":"CountryName"},{"value":"Islas Canarias","key":"StateName"},{"value":"Las Palmas","key":"CountyName"}]},"MapReference":{"CountryId":"20215059","StateId":"20221898","CountyId":"20221899","PlaceId":"546575242"}}},{"Relevance":1.0,"Distance":0.0,"Direction":0.0,"MatchLevel":"district","MatchQuality":{"Country":1.0,"State":1.0,"County":1.0,"City":1.0,"District":1.0,"PostalCode":1.0},"Location":{"LocationId":"NT_bymC61k4XvKINePZlpD.cC","LocationType":"point","DisplayPosition":{"Latitude":28.1270536,"Longitude":-15.4297784},"MapView":{"TopLeft":{"Latitude":28.1296,"Longitude":-15.43566},"BottomRight":{"Latitude":28.11836,"Longitude":-15.42304}},"Address":{"Label":"Ciudad Jardín, Las Palmas de Gran Canaria, Islas Canarias, España","Country":"ESP","State":"Islas Canarias","County":"Las Palmas","City":"Las Palmas de Gran Canaria","District":"Ciudad Jardín","PostalCode":"35005","AdditionalData":[{"value":"España","key":"CountryName"},{"value":"Islas Canarias","key":"StateName"},{"value":"Las Palmas","key":"CountyName"}]},"MapReference":{"ReferenceId":"578296786","SideOfStreet":"neither","CountryId":"20215059","StateId":"20221898","CountyId":"20221899","CityId":"20271985"}}},{"Relevance":1.0,"Distance":8.5,"MatchLevel":"houseNumber","MatchQuality":{"Country":1.0,"State":1.0,"County":1.0,"City":1.0,"District":1.0,"Street":[1.0],"HouseNumber":1.0,"PostalCode":1.0},"MatchType":"interpolated","Location":{"LocationId":"NT_KEXwFHFsNC.v-O0ES9bWwD_ykDN","LocationType":"point","DisplayPosition":{"Latitude":28.1271,"Longitude":-15.42993},"MapView":{"TopLeft":{"Latitude":28.1282242,"Longitude":-15.4312047},"BottomRight":{"Latitude":28.1259758,"Longitude":-15.4286553}},"Address":{"Label":"Calle León y Castillo, 294, 35005 Las Palmas de Gran Canaria (Las Palmas), España","Country":"ESP","State":"Islas Canarias","County":"Las Palmas","City":"Las Palmas de Gran Canaria","District":"Ciudad Jardín","Street":"Calle León y Castillo","HouseNumber":"294","PostalCode":"35005","AdditionalData":[{"value":"España","key":"CountryName"},{"value":"Islas Canarias","key":"StateName"},{"value":"Las Palmas","key":"CountyName"}]},"MapReference":{"ReferenceId":"578296731","Spot":0.49,"SideOfStreet":"right","CountryId":"20215059","StateId":"20221898","CountyId":"20221899","CityId":"20271985","AddressId":"266120449","RoadLinkId":"71139794"}}},{"Relevance":1.0,"Distance":22.1,"MatchLevel":"houseNumber","MatchQuality":{"Country":1.0,"State":1.0,"County":1.0,"City":1.0,"District":1.0,"Street":[1.0],"HouseNumber":1.0,"PostalCode":1.0},"MatchType":"interpolated","Location":{"LocationId":"NT_KEXwFHFsNC.v-O0ES9bWwD_ykjN","LocationType":"point","DisplayPosition":{"Latitude":28.12738,"Longitude":-15.42986},"MapView":{"TopLeft":{"Latitude":28.1285042,"Longitude":-15.4311347},"BottomRight":{"Latitude":28.1262558,"Longitude":-15.4285853}},"Address":{"Label":"Calle León y Castillo, 296, 35005 Las Palmas de Gran Canaria (Las Palmas), España","Country":"ESP","State":"Islas Canarias","County":"Las Palmas","City":"Las Palmas de Gran Canaria","District":"Ciudad Jardín","Street":"Calle León y Castillo","HouseNumber":"296","PostalCode":"35005","AdditionalData":[{"value":"España","key":"CountryName"},{"value":"Islas Canarias","key":"StateName"},{"value":"Las Palmas","key":"CountyName"}]},"MapReference":{"ReferenceId":"842250659","Spot":0.2,"SideOfStreet":"right","CountryId":"20215059","StateId":"20221898","CountyId":"20221899","CityId":"20271985","AddressId":"757181669","RoadLinkId":"224192043"}}},{"Relevance":1.0,"Distance":24.9,"MatchLevel":"houseNumber","MatchQuality":{"Country":1.0,"State":1.0,"County":1.0,"City":1.0,"District":1.0,"Street":[1.0],"HouseNumber":1.0,"PostalCode":1.0},"MatchType":"interpolated","Location":{"LocationId":"NT_KEXwFHFsNC.v-O0ES9bWwD_ykjM","LocationType":"point","DisplayPosition":{"Latitude":28.1268,"Longitude":-15.42985},"MapView":{"TopLeft":{"Latitude":28.1279242,"Longitude":-15.4311247},"BottomRight":{"Latitude":28.1256758,"Longitude":-15.4285753}},"Address":{"Label":"Calle León y Castillo, 292, 35005 Las Palmas de Gran Canaria (Las Palmas), España","Country":"ESP","State":"Islas Canarias","County":"Las Palmas","City":"Las Palmas de Gran Canaria","District":"Ciudad Jardín","Street":"Calle León y Castillo","HouseNumber":"292","PostalCode":"35005","AdditionalData":[{"value":"España","key":"CountryName"},{"value":"Islas Canarias","key":"StateName"},{"value":"Las Palmas","key":"CountyName"}]},"MapReference":{"ReferenceId":"578293963","Spot":0.74,"SideOfStreet":"right","CountryId":"20215059","StateId":"20221898","CountyId":"20221899","CityId":"20271985","AddressId":"266235359","RoadLinkId":"71114246"}}},{"Relevance":1.0,"Distance":37.3,"MatchLevel":"houseNumber","MatchQuality":{"Country":1.0,"State":1.0,"County":1.0,"City":1.0,"District":1.0,"Street":[1.0],"HouseNumber":1.0,"PostalCode":1.0},"MatchType":"interpolated","Location":{"LocationId":"NT_eQcD-0rHcZ5Q5Zjwp77oOC_yA","LocationType":"point","DisplayPosition":{"Latitude":28.12683,"Longitude":-15.43009},"MapView":{"TopLeft":{"Latitude":28.1279542,"Longitude":-15.4313647},"BottomRight":{"Latitude":28.1257058,"Longitude":-15.4288153}},"Address":{"Label":"Calle Maestro Valle, 2, 35005 Las Palmas de Gran Canaria (Las Palmas), España","Country":"ESP","State":"Islas Canarias","County":"Las Palmas","City":"Las Palmas de Gran Canaria","District":"Ciudad Jardín","Street":"Calle Maestro Valle","HouseNumber":"2","PostalCode":"35005","AdditionalData":[{"value":"España","key":"CountryName"},{"value":"Islas Canarias","key":"StateName"},{"value":"Las Palmas","key":"CountyName"}]},"MapReference":{"ReferenceId":"578296735","Spot":0.86,"SideOfStreet":"left","CountryId":"20215059","StateId":"20221898","CountyId":"20221899","CityId":"20271985","AddressId":"266198356","RoadLinkId":"71054411"}}},{"Relevance":1.0,"Distance":49.6,"MatchLevel":"houseNumber","MatchQuality":{"Country":1.0,"State":1.0,"County":1.0,"City":1.0,"District":1.0,"Street":[1.0],"HouseNumber":1.0,"PostalCode":1.0},"MatchType":"interpolated","Location":{"LocationId":"NT_fBGwQg6LpyVr7bAXkNTsnC_0A","LocationType":"point","DisplayPosition":{"Latitude":28.12678,"Longitude":-15.42937},"MapView":{"TopLeft":{"Latitude":28.1279042,"Longitude":-15.4306447},"BottomRight":{"Latitude":28.1256558,"Longitude":-15.4280953}},"Address":{"Label":"Calle Graciliano Afonso, 4, 35005 Las Palmas de Gran Canaria (Las Palmas), España","Country":"ESP","State":"Islas Canarias","County":"Las Palmas","City":"Las Palmas de Gran Canaria","District":"Ciudad Jardín","Street":"Calle Graciliano Afonso","HouseNumber":"4","PostalCode":"35005","AdditionalData":[{"value":"España","key":"CountryName"},{"value":"Islas Canarias","key":"StateName"},{"value":"Las Palmas","key":"CountyName"}]},"MapReference":{"ReferenceId":"578296718","Spot":0.47,"SideOfStreet":"left","CountryId":"20215059","StateId":"20221898","CountyId":"20221899","CityId":"20271985","AddressId":"757180722","RoadLinkId":"71036458"}}},{"Relevance":1.0,"Distance":50.0,"MatchLevel":"houseNumber","MatchQuality":{"Country":1.0,"State":1.0,"County":1.0,"City":1.0,"District":1.0,"Street":[1.0],"HouseNumber":1.0,"PostalCode":1.0},"MatchType":"interpolated","Location":{"LocationId":"NT_sSUSOMnp2JZiDL4C.me6BC_xA","LocationType":"point","DisplayPosition":{"Latitude":28.12737,"Longitude":-15.43017},"MapView":{"TopLeft":{"Latitude":28.1284942,"Longitude":-15.4314447},"BottomRight":{"Latitude":28.1262458,"Longitude":-15.4288953}},"Address":{"Label":"Calle Hermanos García de la Torre, 1, 35005 Las Palmas de Gran Canaria (Las Palmas), España","Country":"ESP","State":"Islas Canarias","County":"Las Palmas","City":"Las Palmas de Gran Canaria","District":"Ciudad Jardín","Street":"Calle Hermanos García de la Torre","HouseNumber":"1","PostalCode":"35005","AdditionalData":[{"value":"España","key":"CountryName"},{"value":"Islas Canarias","key":"StateName"},{"value":"Las Palmas","key":"CountyName"}]},"MapReference":{"ReferenceId":"578296724","Spot":0.22,"SideOfStreet":"left","CountryId":"20215059","StateId":"20221898","CountyId":"20221899","CityId":"20271985","AddressId":"266214358","RoadLinkId":"71106755"}}},{"Relevance":1.0,"Distance":50.4,"MatchLevel":"street","MatchQuality":{"Country":1.0,"State":1.0,"County":1.0,"City":1.0,"District":1.0,"Street":[1.0],"PostalCode":1.0},"Location":{"LocationId":"NT_KEXwFHFsNC.v-O0ES9bWwD_l_578293964_R","LocationType":"point","DisplayPosition":{"Latitude":28.1266,"Longitude":-15.42978},"MapView":{"TopLeft":{"Latitude":28.1266,"Longitude":-15.42978},"BottomRight":{"Latitude":28.12643,"Longitude":-15.42974}},"Address":{"Label":"Calle León y Castillo, 35005 Las Palmas de Gran Canaria (Las Palmas), España","Country":"ESP","State":"Islas Canarias","County":"Las Palmas","City":"Las Palmas de Gran Canaria","District":"Ciudad Jardín","Street":"Calle León y Castillo","PostalCode":"35005","AdditionalData":[{"value":"España","key":"CountryName"},{"value":"Islas Canarias","key":"StateName"},{"value":"Las Palmas","key":"CountyName"}]},"MapReference":{"ReferenceId":"578293964","Spot":1.0,"SideOfStreet":"right","CountryId":"20215059","StateId":"20221898","CountyId":"20221899","CityId":"20271985"}}},{"Relevance":1.0,"Distance":54.5,"MatchLevel":"houseNumber","MatchQuality":{"Country":1.0,"State":1.0,"County":1.0,"City":1.0,"District":1.0,"Street":[1.0],"HouseNumber":1.0,"PostalCode":1.0},"MatchType":"interpolated","Location":{"LocationId":"NT_KEXwFHFsNC.v-O0ES9bWwD_zADM","LocationType":"point","DisplayPosition":{"Latitude":28.12754,"Longitude":-15.42999},"MapView":{"TopLeft":{"Latitude":28.1286642,"Longitude":-15.4312647},"BottomRight":{"Latitude":28.1264158,"Longitude":-15.4287153}},"Address":{"Label":"Calle León y Castillo, 300, 35005 Las Palmas de Gran Canaria (Las Palmas), España","Country":"ESP","State":"Islas Canarias","County":"Las Palmas","City":"Las Palmas de Gran Canaria","District":"Ciudad Jardín","Street":"Calle León y Castillo","HouseNumber":"300","PostalCode":"35005","AdditionalData":[{"value":"España","key":"CountryName"},{"value":"Islas Canarias","key":"StateName"},{"value":"Las Palmas","key":"CountyName"}]},"MapReference":{"ReferenceId":"578290470","Spot":0.24,"SideOfStreet":"right","CountryId":"20215059","StateId":"20221898","CountyId":"20221899","CityId":"20271985","AddressId":"757182607","RoadLinkId":"71009695"}}}]}]}}