{"Response":{"MetaInfo":{"Timestamp":"2020-03-28T09:38:49.828+0000","NextPageInformation":"2"},"View":[{"_type":"SearchResultsViewType","ViewId":0,"Result":[{"Relevance":1.0,"Distance":-1908.0,"MatchLevel":"landmark","MatchQuality":{"Country":1.0,"State":1.0,"County":1.0,"Name":1.0},"Location":{"LocationId":"NT_.XiwCg0LOHgLKMKi.T6UkA","LocationType":"island","Name":"Tenerife","DisplayPosition":{"Latitude":28.29328,"Longitude":-16.62147},"MapView":{"TopLeft":{"Latitude":28.58862,"Longitude":-16.92598},"BottomRight":{"Latitude":27.99793,"Longitude":-16.11934}},"Address":{"Label":"(Santa Cruz de Tenerife), España","Country":"ESP","State":"Islas Canarias","County":"Santa Cruz de Tenerife","AdditionalData":[{"value":"España","key":"CountryName"},{"value":"Islas Canarias","key":"StateName"},{"value":"Santa Cruz de Tenerife","key":"CountyName"}]},"MapReference":{"CountryId":"20215059","StateId":"20221898","CountyId":"20221900","PlaceId":"546571990"}}},{"Relevance":1.0,"Distance":0.0,"Direction":0.0,"MatchLevel":"district","MatchQuality":{"Country":1.0,"State":1.0,"County":1.0,"City":1.0,"District":1.0,"PostalCode":1.0},"Location":{"LocationId":"NT_s51ovuxdiqxoHN.BSDRVGC","LocationType":"point","DisplayPosition":{"Latitude":28.4640486,"Longitude":-16.2768433},"MapView":{"TopLeft":{"Latitude":28.46472,"Longitude":-16.28191},"BottomRight":{"Latitude":28.45841,"Longitude":-16.27559}},"Address":{"Label":"Ballester, Santa Cruz de Tenerife, Islas Canarias, España","Country":"ESP","State":"Islas Canarias","County":"Santa Cruz de Tenerife","City":"Santa Cruz de Tenerife","District":"Ballester","PostalCode":"38009","AdditionalData":[{"value":"España","key":"CountryName"},{"value":"Islas Canarias","key":"StateName"},{"value":"Santa Cruz de Tenerife","key":"CountyName"}]},"MapReference":{"ReferenceId":"826396928","SideOfStreet":"neither","CountryId":"20215059","StateId":"20221898","CountyId":"20221900","CityId":"20273433"}}},{"Relevance":1.0,"Distance":3.5,"MatchLevel":"houseNumber","MatchQuality":{"Country":1.0,"State":1.0,"County":1.0,"City":1.0,"District":1.0,"Street":[1.0],"HouseNumber":1.0,"PostalCode":1.0},"MatchType":"interpolated","Location":{"LocationId":"NT_nWFjDDJchlREiJ6Yi1Xo0D_xAD","LocationType":"point","DisplayPosition":{"Latitude":28.46408,"Longitude":-16.27684},"MapView":{"TopLeft":{"Latitude":28.4652042,"Longitude":-16.2781187},"BottomRight":{"Latitude":28.4629558,"Longitude":-16.2755613}},"Address":{"Label":"Calle Claudio F. Sarmiento, 10, 38009 Santa Cruz de Tenerife (Santa Cruz de Tenerife), España","Country":"ESP","State":"Islas Canarias","County":"Santa Cruz de Tenerife","City":"Santa Cruz de Tenerife","District":"Ballester","Street":"Calle Claudio F. Sarmiento","HouseNumber":"10","PostalCode":"38009","AdditionalData":[{"value":"España","key":"CountryName"},{"value":"Islas Canarias","key":"StateName"},{"value":"Santa Cruz de Tenerife","key":"CountyName"}]},"MapReference":{"ReferenceId":"566036444","Spot":0.88,"SideOfStreet":"left","CountryId":"20215059","StateId":"20221898","CountyId":"20221900","CityId":"20273433","AddressId":"351342481","RoadLinkId":"71044487"}}},{"Relevance":1.0,"Distance":11.3,"MatchLevel":"houseNumber","MatchQuality":{"Country":1.0,"State":1.0,"County":1.0,"City":1.0,"District":1.0,"Street":[1.0],"HouseNumber":1.0,"PostalCode":1.0},"MatchType":"interpolated","Location":{"LocationId":"NT_nWFjDDJchlREiJ6Yi1Xo0D_xA","LocationType":"point","DisplayPosition":{"Latitude":28.46402,"Longitude":-16.27671},"MapView":{"TopLeft":{"Latitude":28.4651442,"Longitude":-16.2779887},"BottomRight":{"Latitude":28.4628958,"Longitude":-16.2754313}},"Address":{"Label":"Calle Claudio F. Sarmiento, 1, 38009 Santa Cruz de Tenerife (Santa Cruz de Tenerife), España","Country":"ESP","State":"Islas Canarias","County":"Santa Cruz de Tenerife","City":"Santa Cruz de Tenerife","District":"Ballester","Street":"Calle Claudio F. Sarmiento","HouseNumber":"1","PostalCode":"38009","AdditionalData":[{"value":"España","key":"CountryName"},{"value":"Islas Canarias","key":"StateName"},{"value":"Santa Cruz de Tenerife","key":"CountyName"}]},"MapReference":{"ReferenceId":"566036462","Spot":0.56,"SideOfStreet":"left","CountryId":"20215059","StateId":"20221898","CountyId":"20221900","CityId":"20273433","AddressId":"351194599","RoadLinkId":"71074288"}}},{"Relevance":1.0,"Distance":13.7,"MatchLevel":"houseNumber","MatchQuality":{"Country":1.0,"State":1.0,"County":1.0,"City":1.0,"District":1.0,"Street":[1.0],"HouseNumber":1.0,"PostalCode":1.0},"MatchType":"interpolated","Location":{"LocationId":"NT_nWFjDDJchlREiJ6Yi1Xo0D_1A","LocationType":"point","DisplayPosition":{"Latitude":28.46414,"Longitude":-16.27675},"MapView":{"TopLeft":{"Latitude":28.4652642,"Longitude":-16.2780287},"BottomRight":{"Latitude":28.4630158,"Longitude":-16.2754713}},"Address":{"Label":"Calle Claudio F. Sarmiento, 5, 38009 Santa Cruz de Tenerife (Santa Cruz de Tenerife), España","Country":"ESP","State":"Islas Canarias","County":"Santa Cruz de Tenerife","City":"Santa Cruz de Tenerife","District":"Ballester","Street":"Calle Claudio F. Sarmiento","HouseNumber":"5","PostalCode":"38009","AdditionalData":[{"value":"España","key":"CountryName"},{"value":"Islas Canarias","key":"StateName"},{"value":"Santa Cruz de Tenerife","key":"CountyName"}]},"MapReference":{"ReferenceId":"566036458","Spot":0.29,"SideOfStreet":"right","CountryId":"20215059","StateId":"20221898","CountyId":"20221900","CityId":"20273433","AddressId":"351202316","RoadLinkId":"71084833"}}},{"Relevance":1.0,"Distance":19.0,"MatchLevel":"houseNumber","MatchQuality":{"Country":1.0,"State":1.0,"County":1.0,"City":1.0,"District":1.0,"Street":[1.0],"HouseNumber":1.0,"PostalCode":1.0},"MatchType":"interpolated","Location":{"LocationId":"NT_VB-xHKRFeHnxcI3gkquvRB_yYjQ","LocationType":"point","DisplayPosition":{"Latitude":28.4641,"Longitude":-16.27711},"MapView":{"TopLeft":{"Latitude":28.4652242,"Longitude":-16.2783887},"BottomRight":{"Latitude":28.4629758,"Longitude":-16.2758313}},"Address":{"Label":"Avenida Ángel Romero, 26B, 38009 Santa Cruz de Tenerife (Santa Cruz de Tenerife), España","Country":"ESP","State":"Islas Canarias","County":"Santa Cruz de Tenerife","City":"Santa Cruz de Tenerife","District":"Ballester","Street":"Avenida Ángel Romero","HouseNumber":"26B","PostalCode":"38009","AdditionalData":[{"value":"España","key":"CountryName"},{"value":"Islas Canarias","key":"StateName"},{"value":"Santa Cruz de Tenerife","key":"CountyName"}]},"MapReference":{"ReferenceId":"1082930709","Spot":0.23,"SideOfStreet":"right","CountryId":"20215059","StateId":"20221898","CountyId":"20221900","CityId":"20273433","AddressId":"773736616","RoadLinkId":"399485928"}}},{"Relevance":1.0,"Distance":24.9,"MatchLevel":"houseNumber","MatchQuality":{"Country":1.0,"State":1.0,"County":1.0,"City":1.0,"District":1.0,"Street":[1.0],"HouseNumber":1.0,"PostalCode":1.0},"MatchType":"interpolated","Location":{"LocationId":"NT_Of.kTQ77DyYxnVtT3iyUVC_xA","LocationType":"point","DisplayPosition":{"Latitude":28.46381,"Longitude":-16.27671},"MapView":{"TopLeft":{"Latitude":28.4649342,"Longitude":-16.2779887},"BottomRight":{"Latitude":28.4626858,"Longitude":-16.2754313}},"Address":{"Label":"Carretera Santa Cruz La Laguna, 1, 38009 Santa Cruz de Tenerife (Santa Cruz de Tenerife), España","Country":"ESP","State":"Islas Canarias","County":"Santa Cruz de Tenerife","City":"Santa Cruz de Tenerife","District":"Ballester","Street":"Carretera Santa Cruz La Laguna","HouseNumber":"1","PostalCode":"38009","AdditionalData":[{"value":"España","key":"CountryName"},{"value":"Islas Canarias","key":"StateName"},{"value":"Santa Cruz de Tenerife","key":"CountyName"}]},"MapReference":{"ReferenceId":"566046314","Spot":0.56,"SideOfStreet":"left","CountryId":"20215059","StateId":"20221898","CountyId":"20221900","CityId":"20273433","AddressId":"351338599","RoadLinkId":"71042632"}}},{"Relevance":1.0,"Distance":25.0,"MatchLevel":"houseNumber","MatchQuality":{"Country":1.0,"State":1.0,"County":1.0,"City":1.0,"District":1.0,"Street":[1.0],"HouseNumber":1.0,"PostalCode":1.0},"MatchType":"interpolated","Location":{"LocationId":"NT_hDX-BZ3PnnN7rVDNa09TuC_zA","LocationType":"point","DisplayPosition":{"Latitude":28.46429,"Longitude":-16.27667},"MapView":{"TopLeft":{"Latitude":28.4654142,"Longitude":-16.2779487},"BottomRight":{"Latitude":28.4631658,"Longitude":-16.2753913}},"Address":{"Label":"Calle María Rosa Alonso Rodríguez, 3, 38009 Santa Cruz de Tenerife (Santa Cruz de Tenerife), España","Country":"ESP","State":"Islas Canarias","County":"Santa Cruz de Tenerife","City":"Santa Cruz de Tenerife","District":"Ballester","Street":"Calle María Rosa Alonso Rodríguez","HouseNumber":"3","PostalCode":"38009","AdditionalData":[{"value":"España","key":"CountryName"},{"value":"Islas Canarias","key":"StateName"},{"value":"Santa Cruz de Tenerife","key":"CountyName"}]},"MapReference":{"ReferenceId":"566036452","Spot":0.15,"SideOfStreet":"left","CountryId":"20215059","StateId":"20221898","CountyId":"20221900","CityId":"20273433","AddressId":"417079741","RoadLinkId":"71072889"}}},{"Relevance":1.0,"Distance":25.6,"MatchLevel":"street","MatchQuality":{"Country":1.0,"State":1.0,"County":1.0,"City":1.0,"District":1.0,"Street":[1.0],"PostalCode":1.0},"Location":{"LocationId":"NT_nWFjDDJchlREiJ6Yi1Xo0D_l_566036454_R","LocationType":"point","DisplayPosition":{"Latitude":28.46395,"Longitude":-16.27708},"MapView":{"TopLeft":{"Latitude":28.46395,"Longitude":-16.27728},"BottomRight":{"Latitude":28.46386,"Longitude":-16.27708}},"Address":{"Label":"Calle Claudio F. Sarmiento, 38009 Santa Cruz de Tenerife (Santa Cruz de Tenerife), España","Country":"ESP","State":"Islas Canarias","County":"Santa Cruz de Tenerife","City":"Santa Cruz de Tenerife","District":"Ballester","Street":"Calle Claudio F. Sarmiento","PostalCode":"38009","AdditionalData":[{"value":"España","key":"CountryName"},{"value":"Islas Canarias","key":"StateName"},{"value":"Santa Cruz de Tenerife","key":"CountyName"}]},"MapReference":{"ReferenceId":"566036454","Spot":1.0,"SideOfStreet":"right","CountryId":"20215059","StateId":"20221898","CountyId":"20221900","CityId":"20273433"}}},{"Relevance":1.0,"Distance":25.6,"MatchLevel":"street","MatchQuality":{"Country":1.0,"State":1.0,"County":1.0,"City":1.0,"District":1.0,"Street":[1.0],"PostalCode":1.0},"Location":{"LocationId":"NT_VB-xHKRFeHnxcI3gkquvRB_l_981560801_R","LocationType":"point","DisplayPosition":{"Latitude":28.46395,"Longitude":-16.27708},"MapView":{"TopLeft":{"Latitude":28.46395,"Longitude":-16.27708},"BottomRight":{"Latitude":28.46385,"Longitude":-16.27706}},"Address":{"Label":"Avenida Ángel Romero, 38009 Santa Cruz de Tenerife (Santa Cruz de Tenerife), España","Country":"ESP","State":"Islas Canarias","County":"Santa Cruz de Tenerife","City":"Santa Cruz de Tenerife","District":"Ballester","Street":"Avenida Ángel Romero","PostalCode":"38009","AdditionalData":[{"value":"España","key":"CountryName"},{"value":"Islas Canarias","key":"StateName"},{"value":"Santa Cruz de Tenerife","key":"CountyName"}]},"MapReference":{"ReferenceId":"981560801","Spot":1.0,"SideOfStreet":"right","CountryId":"20215059","StateId":"20221898","CountyId":"20221900","CityId":"20273433"}}}]}]}}