{"Response":{"MetaInfo":{"Timestamp":"2020-03-28T11:04:13.985+0000","NextPageInformation":"2"},"View":[{"_type":"SearchResultsViewType","ViewId":0,"Result":[{"Relevance":1.0,"Distance":-444.3,"MatchLevel":"landmark","MatchQuality":{"Country":1.0,"State":1.0,"County":1.0,"Name":1.0},"Location":{"LocationId":"NT_gN33nffYwwoAdHDyVbnT2B","LocationType":"island","Name":"Lanzarote","DisplayPosition":{"Latitude":29.03848,"Longitude":-13.63683},"MapView":{"TopLeft":{"Latitude":29.23866,"Longitude":-13.88177},"BottomRight":{"Latitude":28.8383,"Longitude":-13.41905}},"Address":{"Label":"(Las Palmas), España","Country":"ESP","State":"Islas Canarias","County":"Las Palmas","AdditionalData":[{"value":"España","key":"CountryName"},{"value":"Islas Canarias","key":"StateName"},{"value":"Las Palmas","key":"CountyName"}]},"MapReference":{"CountryId":"20215059","StateId":"20221898","CountyId":"20221899","PlaceId":"546575235"}}},{"Relevance":1.0,"Distance":0.0,"Direction":0.0,"MatchLevel":"district","MatchQuality":{"Country":1.0,"State":1.0,"County":1.0,"City":1.0,"District":1.0,"PostalCode":1.0},"Location":{"LocationId":"NT_rMUhWEYGPKTZrWnbQB9AdA","LocationType":"point","DisplayPosition":{"Latitude":28.866195,"Longitude":-13.8318629},"MapView":{"TopLeft":{"Latitude":28.87159,"Longitude":-13.84464},"BottomRight":{"Latitude":28.85551,"Longitude":-13.81726}},"Address":{"Label":"Playa Blanca, Yaiza, Islas Canarias, España","Country":"ESP","State":"Islas Canarias","County":"Las Palmas","City":"Yaiza","District":"Playa Blanca","PostalCode":"35580","AdditionalData":[{"value":"España","key":"CountryName"},{"value":"Islas Canarias","key":"StateName"},{"value":"Las Palmas","key":"CountyName"}]},"MapReference":{"ReferenceId":"584575243","SideOfStreet":"neither","CountryId":"20215059","StateId":"20221898","CountyId":"20221899","CityId":"20272649","DistrictId":"20272656"}}},{"Relevance":1.0,"Distance":23.8,"MatchLevel":"street","MatchQuality":{"Country":1.0,"State":1.0,"County":1.0,"City":1.0,"District":1.0,"PostalCode":1.0},"Location":{"LocationId":"NT_Jp5yu6fWkxv2VucmPdp8lB_l_941833080_L","LocationType":"point","DisplayPosition":{"Latitude":28.8659866,"Longitude":-13.8318058},"MapView":{"TopLeft":{"Latitude":28.86618,"Longitude":-13.83183},"BottomRight":{"Latitude":28.86598,"Longitude":-13.8311}},"Address":{"Label":"35580 Yaiza (Las Palmas), España","Country":"ESP","State":"Islas Canarias","County":"Las Palmas","City":"Yaiza","District":"Playa Blanca","PostalCode":"35580","AdditionalData":[{"value":"España","key":"CountryName"},{"value":"Islas Canarias","key":"StateName"},{"value":"Las Palmas","key":"CountyName"}]},"MapReference":{"ReferenceId":"941833080","Spot":0.03,"SideOfStreet":"left","CountryId":"20215059","StateId":"20221898","CountyId":"20221899","CityId":"20272649","DistrictId":"20272656"}}},{"Relevance":1.0,"Distance":24.1,"MatchLevel":"street","MatchQuality":{"Country":1.0,"State":1.0,"County":1.0,"City":1.0,"District":1.0,"Street":[1.0],"PostalCode":1.0},"Location":{"LocationId":"NT_zo08O3rF6887p2Lk2bbu8B_l_778564183_L","LocationType":"point","DisplayPosition":{"Latitude":28.86598,"Longitude":-13.83183},"MapView":{"TopLeft":{"Latitude":28.86598,"Longitude":-13.83291},"BottomRight":{"Latitude":28.86554,"Longitude":-13.83183}},"Address":{"Label":"Calle Azores, 35580 Yaiza (Las Palmas), España","Country":"ESP","State":"Islas Canarias","County":"Las Palmas","City":"Yaiza","District":"Playa Blanca","Street":"Calle Azores","PostalCode":"35580","AdditionalData":[{"value":"España","key":"CountryName"},{"value":"Islas Canarias","key":"StateName"},{"value":"Las Palmas","key":"CountyName"}]},"MapReference":{"ReferenceId":"778564183","Spot":1.0,"SideOfStreet":"left","CountryId":"20215059","StateId":"20221898","CountyId":"20221899","CityId":"20272649","DistrictId":"20272656"}}},{"Relevance":1.0,"Distance":52.8,"MatchLevel":"street","MatchQuality":{"Country":1.0,"State":1.0,"County":1.0,"City":1.0,"District":1.0,"PostalCode":1.0},"Location":{"LocationId":"NT_Jp5yu6fWkxv2VucmPdp8lB_l_941833082_L","LocationType":"point","DisplayPosition":{"Latitude":28.8657267,"Longitude":-13.8317723},"MapView":{"TopLeft":{"Latitude":28.86594,"Longitude":-13.83224},"BottomRight":{"Latitude":28.8656,"Longitude":-13.83114}},"Address":{"Label":"35580 Yaiza (Las Palmas), España","Country":"ESP","State":"Islas Canarias","County":"Las Palmas","City":"Yaiza","District":"Playa Blanca","PostalCode":"35580","AdditionalData":[{"value":"España","key":"CountryName"},{"value":"Islas Canarias","key":"StateName"},{"value":"Las Palmas","key":"CountyName"}]},"MapReference":{"ReferenceId":"941833082","Spot":0.42,"SideOfStreet":"left","CountryId":"20215059","StateId":"20221898","CountyId":"20221899","CityId":"20272649","DistrictId":"20272656"}}},{"Relevance":1.0,"Distance":54.9,"MatchLevel":"houseNumber","MatchQuality":{"Country":1.0,"State":1.0,"County":1.0,"City":1.0,"District":1.0,"Street":[1.0],"HouseNumber":1.0,"PostalCode":1.0},"MatchType":"interpolated","Location":{"LocationId":"NT_oiKWCmXaUyfLekFI5uDAqD_3QD","LocationType":"point","DisplayPosition":{"Latitude":28.86668,"Longitude":-13.83176},"MapView":{"TopLeft":{"Latitude":28.8678042,"Longitude":-13.8330437},"BottomRight":{"Latitude":28.8655558,"Longitude":-13.8304763}},"Address":{"Label":"Urbanización Los Calamares, 74, 35580 Yaiza (Las Palmas), España","Country":"ESP","State":"Islas Canarias","County":"Las Palmas","City":"Yaiza","District":"Playa Blanca","Street":"Urbanización Los Calamares","HouseNumber":"74","PostalCode":"35580","AdditionalData":[{"value":"España","key":"CountryName"},{"value":"Islas Canarias","key":"StateName"},{"value":"Las Palmas","key":"CountyName"}]},"MapReference":{"ReferenceId":"584559461","Spot":0.0,"SideOfStreet":"right","CountryId":"20215059","StateId":"20221898","CountyId":"20221899","CityId":"20272649","DistrictId":"20272656","AddressId":"351174336","RoadLinkId":"71112325"}}},{"Relevance":1.0,"Distance":64.0,"MatchLevel":"houseNumber","MatchQuality":{"Country":1.0,"State":1.0,"County":1.0,"City":1.0,"District":1.0,"Street":[1.0],"HouseNumber":1.0,"PostalCode":1.0},"MatchType":"interpolated","Location":{"LocationId":"NT_oiKWCmXaUyfLekFI5uDAqD_3MD","LocationType":"point","DisplayPosition":{"Latitude":28.8668,"Longitude":-13.83201},"MapView":{"TopLeft":{"Latitude":28.8679242,"Longitude":-13.8332937},"BottomRight":{"Latitude":28.8656758,"Longitude":-13.8307263}},"Address":{"Label":"Urbanización Los Calamares, 73, 35580 Yaiza (Las Palmas), España","Country":"ESP","State":"Islas Canarias","County":"Las Palmas","City":"Yaiza","District":"Playa Blanca","Street":"Urbanización Los Calamares","HouseNumber":"73","PostalCode":"35580","AdditionalData":[{"value":"España","key":"CountryName"},{"value":"Islas Canarias","key":"StateName"},{"value":"Las Palmas","key":"CountyName"}]},"MapReference":{"ReferenceId":"584560527","Spot":0.88,"SideOfStreet":"right","CountryId":"20215059","StateId":"20221898","CountyId":"20221899","CityId":"20272649","DistrictId":"20272656","AddressId":"351277913","RoadLinkId":"71100440"}}},{"Relevance":1.0,"Distance":74.3,"MatchLevel":"street","MatchQuality":{"Country":1.0,"State":1.0,"County":1.0,"City":1.0,"District":1.0,"PostalCode":1.0},"Location":{"LocationId":"NT_Jp5yu6fWkxv2VucmPdp8lB_l_941833083_L","LocationType":"point","DisplayPosition":{"Latitude":28.86618,"Longitude":-13.8311},"MapView":{"TopLeft":{"Latitude":28.86618,"Longitude":-13.83114},"BottomRight":{"Latitude":28.86594,"Longitude":-13.83109}},"Address":{"Label":"35580 Yaiza (Las Palmas), España","Country":"ESP","State":"Islas Canarias","County":"Las Palmas","City":"Yaiza","District":"Playa Blanca","PostalCode":"35580","AdditionalData":[{"value":"España","key":"CountryName"},{"value":"Islas Canarias","key":"StateName"},{"value":"Las Palmas","key":"CountyName"}]},"MapReference":{"ReferenceId":"941833083","Spot":1.0,"SideOfStreet":"left","CountryId":"20215059","StateId":"20221898","CountyId":"20221899","CityId":"20272649","DistrictId":"20272656"}}},{"Relevance":1.0,"Distance":74.3,"MatchLevel":"street","MatchQuality":{"Country":1.0,"State":1.0,"County":1.0,"City":1.0,"District":1.0,"PostalCode":1.0},"Location":{"LocationId":"NT_Jp5yu6fWkxv2VucmPdp8lB_l_941833081_L","LocationType":"point","DisplayPosition":{"Latitude":28.86618,"Longitude":-13.8311},"MapView":{"TopLeft":{"Latitude":28.86622,"Longitude":-13.8311},"BottomRight":{"Latitude":28.86618,"Longitude":-13.83092}},"Address":{"Label":"35580 Yaiza (Las Palmas), España","Country":"ESP","State":"Islas Canarias","County":"Las Palmas","City":"Yaiza","District":"Playa Blanca","PostalCode":"35580","AdditionalData":[{"value":"España","key":"CountryName"},{"value":"Islas Canarias","key":"StateName"},{"value":"Las Palmas","key":"CountyName"}]},"MapReference":{"ReferenceId":"941833081","Spot":0.0,"SideOfStreet":"left","CountryId":"20215059","StateId":"20221898","CountyId":"20221899","CityId":"20272649","DistrictId":"20272656"}}},{"Relevance":1.0,"Distance":75.9,"MatchLevel":"street","MatchQuality":{"Country":1.0,"State":1.0,"County":1.0,"City":1.0,"District":1.0,"PostalCode":1.0},"Location":{"LocationId":"NT_Jp5yu6fWkxv2VucmPdp8lB_l_941833084_L","LocationType":"point","DisplayPosition":{"Latitude":28.86594,"Longitude":-13.83114},"MapView":{"TopLeft":{"Latitude":28.86594,"Longitude":-13.83163},"BottomRight":{"Latitude":28.86487,"Longitude":-13.83095}},"Address":{"Label":"35580 Yaiza (Las Palmas), España","Country":"ESP","State":"Islas Canarias","County":"Las Palmas","City":"Yaiza","District":"Playa Blanca","PostalCode":"35580","AdditionalData":[{"value":"España","key":"CountryName"},{"value":"Islas Canarias","key":"StateName"},{"value":"Las Palmas","key":"CountyName"}]},"MapReference":{"ReferenceId":"941833084","Spot":1.0,"SideOfStreet":"left","CountryId":"20215059","StateId":"20221898","CountyId":"20221899","CityId":"20272649","DistrictId":"20272656"}}}]}]}}