{"Response":{"MetaInfo":{"Timestamp":"2020-03-28T09:59:14.148+0000","NextPageInformation":"2"},"View":[{"_type":"SearchResultsViewType","ViewId":0,"Result":[{"Relevance":1.0,"Distance":-942.0,"MatchLevel":"landmark","MatchQuality":{"Country":1.0,"County":1.0,"Name":1.0},"Location":{"LocationId":"NT_QiGAVUK0XT.r26BlTOT4FA","LocationType":"island","Name":"Madeira","DisplayPosition":{"Latitude":32.75171,"Longitude":-16.98179},"MapView":{"TopLeft":{"Latitude":32.8707,"Longitude":-17.26605},"BottomRight":{"Latitude":32.63272,"Longitude":-16.66243}},"Address":{"Label":"Portugal","Country":"PRT","County":"Ilha da Madeira","AdditionalData":[{"value":"Portugal","key":"CountryName"},{"value":"Ilha da Madeira","key":"CountyName"}]},"MapReference":{"CountryId":"20317122","CountyId":"22912159","PlaceId":"1401360972"}}},{"Relevance":1.0,"Distance":0.0,"Direction":0.0,"MatchLevel":"district","MatchQuality":{"Country":1.0,"County":1.0,"City":1.0,"District":1.0,"PostalCode":1.0},"Location":{"LocationId":"NT_dr5CwHCz3aleeNsksusiUD","LocationType":"point","DisplayPosition":{"Latitude":32.6546583,"Longitude":-16.9112775},"MapView":{"TopLeft":{"Latitude":32.66703,"Longitude":-16.96053},"BottomRight":{"Latitude":32.63272,"Longitude":-16.88678}},"Address":{"Label":"Funchal, Portugal","Country":"PRT","County":"Ilha da Madeira","City":"Funchal","District":"Funchal","PostalCode":"9000-054","AdditionalData":[{"value":"Portugal","key":"CountryName"},{"value":"Ilha da Madeira","key":"CountyName"}]},"MapReference":{"ReferenceId":"958085657","SideOfStreet":"neither","CountryId":"20317122","CountyId":"22912159","CityId":"22921062","DistrictId":"22913829"}}},{"Relevance":1.0,"Distance":15.3,"MatchLevel":"houseNumber","MatchQuality":{"Country":1.0,"County":1.0,"City":1.0,"District":1.0,"Street":[1.0],"HouseNumber":1.0,"PostalCode":1.0},"MatchType":"interpolated","Location":{"LocationId":"NT_QYiRNHUy77Vji9Ys72TzrB_1EE","LocationType":"point","DisplayPosition":{"Latitude":32.65465,"Longitude":-16.91093},"MapView":{"TopLeft":{"Latitude":32.6557742,"Longitude":-16.9122652},"BottomRight":{"Latitude":32.6535258,"Longitude":-16.9095948}},"Address":{"Label":"Rua da Torrinha 5A, 9050-429 Funchal, Portugal","Country":"PRT","County":"Ilha da Madeira","City":"Funchal","District":"Funchal","Street":"Rua da Torrinha","HouseNumber":"5A","PostalCode":"9050-429","AdditionalData":[{"value":"Portugal","key":"CountryName"},{"value":"Ilha da Madeira","key":"CountyName"}]},"MapReference":{"ReferenceId":"938158057","Spot":0.39,"SideOfStreet":"left","CountryId":"20317122","CountyId":"22912159","CityId":"22921062","DistrictId":"22913829","AddressId":"343352599","RoadLinkId":"288133356"}}},{"Relevance":1.0,"Distance":33.0,"MatchLevel":"houseNumber","MatchQuality":{"Country":1.0,"County":1.0,"City":1.0,"District":1.0,"Street":[1.0],"HouseNumber":1.0,"PostalCode":1.0},"MatchType":"interpolated","Location":{"LocationId":"NT_9aCIHTFNl7Bi5xO5jFrUIC_yA","LocationType":"point","DisplayPosition":{"Latitude":32.65457,"Longitude":-16.91176},"MapView":{"TopLeft":{"Latitude":32.6556942,"Longitude":-16.9130952},"BottomRight":{"Latitude":32.6534458,"Longitude":-16.9104248}},"Address":{"Label":"Rua da Carne Azeda 2, 9050-062 Funchal, Portugal","Country":"PRT","County":"Ilha da Madeira","City":"Funchal","District":"Funchal","Street":"Rua da Carne Azeda","HouseNumber":"2","PostalCode":"9050-062","AdditionalData":[{"value":"Portugal","key":"CountryName"},{"value":"Ilha da Madeira","key":"CountyName"}]},"MapReference":{"ReferenceId":"1200924783","Spot":0.84,"SideOfStreet":"right","CountryId":"20317122","CountyId":"22912159","CityId":"22921062","DistrictId":"22913829","AddressId":"343357115","RoadLinkId":"513365836"}}},{"Relevance":1.0,"Distance":40.7,"MatchLevel":"landmark","MatchQuality":{"Country":1.0,"County":1.0,"City":1.0,"District":1.0,"Street":[1.0],"PostalCode":1.0,"Name":1.0},"Location":{"LocationId":"NT_qX6v.OY29CPsZSvvErXWeD_p_yYj.Puqo1NckATcEgrRrcD","LocationType":"park","Name":"Jardim de Santa LÃºzia","DisplayPosition":{"Latitude":32.65364,"Longitude":-16.91221},"MapView":{"TopLeft":{"Latitude":32.65484,"Longitude":-16.91271},"BottomRight":{"Latitude":32.65299,"Longitude":-16.91074}},"Address":{"Label":"Rua 31 de Janeiro, 9050 Funchal, Portugal","Country":"PRT","County":"Ilha da Madeira","City":"Funchal","District":"Funchal","Street":"Rua 31 de Janeiro","PostalCode":"9050","AdditionalData":[{"value":"Portugal","key":"CountryName"},{"value":"Ilha da Madeira","key":"CountyName"}]},"MapReference":{"CountryId":"20317122","CountyId":"22912159","CityId":"22921062","DistrictId":"22913829","PlaceId":"1110508913"}}},{"Relevance":1.0,"Distance":54.0,"MatchLevel":"houseNumber","MatchQuality":{"Country":1.0,"County":1.0,"City":1.0,"District":1.0,"Street":[1.0],"HouseNumber":1.0,"PostalCode":1.0},"MatchType":"interpolated","Location":{"LocationId":"NT_9aCIHTFNl7Bi5xO5jFrUIC_0A","LocationType":"point","DisplayPosition":{"Latitude":32.65498,"Longitude":-16.91181},"MapView":{"TopLeft":{"Latitude":32.6561042,"Longitude":-16.9131452},"BottomRight":{"Latitude":32.6538558,"Longitude":-16.9104748}},"Address":{"Label":"Rua da Carne Azeda 4, 9050-062 Funchal, Portugal","Country":"PRT","County":"Ilha da Madeira","City":"Funchal","District":"Funchal","Street":"Rua da Carne Azeda","HouseNumber":"4","PostalCode":"9050-062","AdditionalData":[{"value":"Portugal","key":"CountryName"},{"value":"Ilha da Madeira","key":"CountyName"}]},"MapReference":{"ReferenceId":"936486052","Spot":0.44,"SideOfStreet":"right","CountryId":"20317122","CountyId":"22912159","CityId":"22921062","DistrictId":"22913829","AddressId":"343357119","RoadLinkId":"287455317"}}},{"Relevance":1.0,"Distance":54.4,"MatchLevel":"street","MatchQuality":{"Country":1.0,"County":1.0,"City":1.0,"District":1.0,"PostalCode":1.0},"Location":{"LocationId":"NT_Co-xqwyZz3JZosJoVwE46A_l_1205185310_R","LocationType":"point","DisplayPosition":{"Latitude":32.6543225,"Longitude":-16.9116997},"MapView":{"TopLeft":{"Latitude":32.65476,"Longitude":-16.91219},"BottomRight":{"Latitude":32.65396,"Longitude":-16.91133}},"Address":{"Label":"9050-062 Funchal, Portugal","Country":"PRT","County":"Ilha da Madeira","City":"Funchal","District":"Funchal","PostalCode":"9050-062","AdditionalData":[{"value":"Portugal","key":"CountryName"},{"value":"Ilha da Madeira","key":"CountyName"}]},"MapReference":{"ReferenceId":"1205185310","Spot":0.43,"SideOfStreet":"right","CountryId":"20317122","CountyId":"22912159","CityId":"22921062","DistrictId":"22913829"}}},{"Relevance":1.0,"Distance":68.2,"MatchLevel":"houseNumber","MatchQuality":{"Country":1.0,"County":1.0,"City":1.0,"District":1.0,"Street":[1.0],"HouseNumber":1.0,"PostalCode":1.0},"MatchType":"interpolated","Location":{"LocationId":"NT_434bsY0.kLHB7CLfr1fd.C_zcD","LocationType":"point","DisplayPosition":{"Latitude":32.65426,"Longitude":-16.91027},"MapView":{"TopLeft":{"Latitude":32.6553842,"Longitude":-16.9116052},"BottomRight":{"Latitude":32.6531358,"Longitude":-16.9089348}},"Address":{"Label":"Rua dos Arrependidos 37, 9050-059 Funchal, Portugal","Country":"PRT","County":"Ilha da Madeira","City":"Funchal","District":"Funchal","Street":"Rua dos Arrependidos","HouseNumber":"37","PostalCode":"9050-059","AdditionalData":[{"value":"Portugal","key":"CountryName"},{"value":"Ilha da Madeira","key":"CountyName"}]},"MapReference":{"ReferenceId":"720157590","Spot":0.5,"SideOfStreet":"left","CountryId":"20317122","CountyId":"22912159","CityId":"22921062","DistrictId":"22913829","AddressId":"606507218","RoadLinkId":"125057101"}}},{"Relevance":1.0,"Distance":77.8,"MatchLevel":"street","MatchQuality":{"Country":1.0,"County":1.0,"City":1.0,"District":1.0,"PostalCode":1.0},"Location":{"LocationId":"NT_Co-xqwyZz3JZosJoVwE46A_l_1205184780_R","LocationType":"point","DisplayPosition":{"Latitude":32.65396,"Longitude":-16.91133},"MapView":{"TopLeft":{"Latitude":32.65396,"Longitude":-16.91133},"BottomRight":{"Latitude":32.65389,"Longitude":-16.91114}},"Address":{"Label":"9050-062 Funchal, Portugal","Country":"PRT","County":"Ilha da Madeira","City":"Funchal","District":"Funchal","PostalCode":"9050-062","AdditionalData":[{"value":"Portugal","key":"CountryName"},{"value":"Ilha da Madeira","key":"CountyName"}]},"MapReference":{"ReferenceId":"1205184780","Spot":1.0,"SideOfStreet":"right","CountryId":"20317122","CountyId":"22912159","CityId":"22921062","DistrictId":"22913829"}}},{"Relevance":1.0,"Distance":86.4,"MatchLevel":"street","MatchQuality":{"Country":1.0,"County":1.0,"City":1.0,"District":1.0,"Street":[1.0],"PostalCode":1.0},"Location":{"LocationId":"NT_9aCIHTFNl7Bi5xO5jFrUIC_l_1200924782_R","LocationType":"point","DisplayPosition":{"Latitude":32.65389,"Longitude":-16.91114},"MapView":{"TopLeft":{"Latitude":32.65389,"Longitude":-16.91114},"BottomRight":{"Latitude":32.65355,"Longitude":-16.91074}},"Address":{"Label":"Rua da Carne Azeda, 9050-062 Funchal, Portugal","Country":"PRT","County":"Ilha da Madeira","City":"Funchal","District":"Funchal","Street":"Rua da Carne Azeda","PostalCode":"9050-062","AdditionalData":[{"value":"Portugal","key":"CountryName"},{"value":"Ilha da Madeira","key":"CountyName"}]},"MapReference":{"ReferenceId":"1200924782","Spot":1.0,"SideOfStreet":"right","CountryId":"20317122","CountyId":"22912159","CityId":"22921062","DistrictId":"22913829"}}}]}]}}