{"Response":{"MetaInfo":{"Timestamp":"2020-03-28T09:34:20.611+0000","NextPageInformation":"2"},"View":[{"_type":"SearchResultsViewType","ViewId":0,"Result":[{"Relevance":1.0,"Distance":0.0,"Direction":0.0,"MatchLevel":"district","MatchQuality":{"Country":1.0,"County":1.0,"City":1.0,"District":1.0,"PostalCode":1.0},"Location":{"LocationId":"NT_Yh0zHplbHH34yykr2wZx-C","LocationType":"point","DisplayPosition":{"Latitude":34.930202,"Longitude":33.5995328},"MapView":{"TopLeft":{"Latitude":34.9557,"Longitude":33.55504},"BottomRight":{"Latitude":34.91905,"Longitude":33.61136}},"Address":{"Label":"Άγιος Φανούριος, Αραδίππου, Κύπρος","Country":"CYP","County":"Λάρνακα","City":"Αραδίππου","District":"Άγιος Φανούριος","PostalCode":"7101","AdditionalData":[{"value":"Κύπρος","key":"CountryName"},{"value":"Λάρνακα","key":"CountyName"}]},"MapReference":{"ReferenceId":"971070321","SideOfStreet":"neither","CountryId":"26569034","CountyId":"26570048","CityId":"26569486","DistrictId":"26570756"}}},{"Relevance":1.0,"Distance":22.1,"MatchLevel":"houseNumber","MatchQuality":{"Country":1.0,"County":1.0,"City":1.0,"District":1.0,"Street":[1.0],"HouseNumber":1.0,"PostalCode":1.0},"MatchType":"interpolated","Location":{"LocationId":"NT_2kmAnAxYkzRBFLehrih1gC_l_971041339_R_zA","LocationType":"point","DisplayPosition":{"Latitude":34.92988,"Longitude":33.59944},"MapView":{"TopLeft":{"Latitude":34.9310042,"Longitude":33.5980688},"BottomRight":{"Latitude":34.9287559,"Longitude":33.6008111}},"Address":{"Label":"Οδός Ναυπλίου 3, 7101 Αραδίππου, Κύπρος","Country":"CYP","County":"Λάρνακα","City":"Αραδίππου","District":"Άγιος Φανούριος","Street":"Οδός Ναυπλίου","HouseNumber":"3","PostalCode":"7101","AdditionalData":[{"value":"Κύπρος","key":"CountryName"},{"value":"Λάρνακα","key":"CountyName"}]},"MapReference":{"ReferenceId":"971041339","Spot":0.2,"SideOfStreet":"right","CountryId":"26569034","CountyId":"26570048","CityId":"26569486","DistrictId":"26570756"}}},{"Relevance":1.0,"Distance":27.2,"MatchLevel":"street","MatchQuality":{"Country":1.0,"County":1.0,"City":1.0,"District":1.0,"Street":[1.0],"PostalCode":1.0},"Location":{"LocationId":"NT_f5ZBl9WebWMQHFjBMbHkuD_l_971041251_L","LocationType":"point","DisplayPosition":{"Latitude":34.9304303,"Longitude":33.5996413},"MapView":{"TopLeft":{"Latitude":34.93064,"Longitude":33.5992},"BottomRight":{"Latitude":34.92998,"Longitude":33.60059}},"Address":{"Label":"Λεωφόρος Ελευθερίας, 7101 Αραδίππου, Κύπρος","Country":"CYP","County":"Λάρνακα","City":"Αραδίππου","District":"Άγιος Φανούριος","Street":"Λεωφόρος Ελευθερίας","PostalCode":"7101","AdditionalData":[{"value":"Κύπρος","key":"CountryName"},{"value":"Λάρνακα","key":"CountyName"}]},"MapReference":{"ReferenceId":"971041251","Spot":0.68,"SideOfStreet":"left","CountryId":"26569034","CountyId":"26570048","CityId":"26569486","DistrictId":"26570756"}}},{"Relevance":1.0,"Distance":33.4,"MatchLevel":"street","MatchQuality":{"Country":1.0,"County":1.0,"City":1.0,"District":1.0,"Street":[1.0],"PostalCode":1.0},"Location":{"LocationId":"NT_QyWWqINi7CcMbtxcFi4rIC_l_1053436052_L","LocationType":"point","DisplayPosition":{"Latitude":34.9304836,"Longitude":33.59966},"MapView":{"TopLeft":{"Latitude":34.93075,"Longitude":33.59907},"BottomRight":{"Latitude":34.93019,"Longitude":33.60031}},"Address":{"Label":"Λεωφόρος Ελευθερίας, 7101 Αραδίππου, Κύπρος","Country":"CYP","County":"Λάρνακα","City":"Αραδίππου","District":"Άγιος Φανούριος","Street":"Λεωφόρος Ελευθερίας","PostalCode":"7101","AdditionalData":[{"value":"Κύπρος","key":"CountryName"},{"value":"Λάρνακα","key":"CountyName"}]},"MapReference":{"ReferenceId":"1053436052","Spot":0.52,"SideOfStreet":"left","CountryId":"26569034","CountyId":"26570048","CityId":"26569486","DistrictId":"26570756"}}},{"Relevance":1.0,"Distance":36.3,"MatchLevel":"houseNumber","MatchQuality":{"Country":1.0,"County":1.0,"City":1.0,"District":1.0,"Street":[1.0],"HouseNumber":1.0,"PostalCode":1.0},"MatchType":"interpolated","Location":{"LocationId":"NT_0Qh9yQ0Ql5a8wxUTQF4mJD_l_971041239_R_xA","LocationType":"point","DisplayPosition":{"Latitude":34.9304625,"Longitude":33.59907},"MapView":{"TopLeft":{"Latitude":34.9315867,"Longitude":33.5976988},"BottomRight":{"Latitude":34.9293384,"Longitude":33.6004412}},"Address":{"Label":"Οδός Αργολίδος 1, 7101 Αραδίππου, Κύπρος","Country":"CYP","County":"Λάρνακα","City":"Αραδίππου","District":"Άγιος Φανούριος","Street":"Οδός Αργολίδος","HouseNumber":"1","PostalCode":"7101","AdditionalData":[{"value":"Κύπρος","key":"CountryName"},{"value":"Λάρνακα","key":"CountyName"}]},"MapReference":{"ReferenceId":"971041239","Spot":0.61,"SideOfStreet":"right","CountryId":"26569034","CountyId":"26570048","CityId":"26569486","DistrictId":"26570756"}}},{"Relevance":1.0,"Distance":50.0,"MatchLevel":"street","MatchQuality":{"Country":1.0,"County":1.0,"City":1.0,"District":1.0,"Street":[1.0],"PostalCode":1.0},"Location":{"LocationId":"NT_O-LurfsXtAHUJjgR4E5y0A_l_971037380_L","LocationType":"point","DisplayPosition":{"Latitude":34.9306202,"Longitude":33.5997342},"MapView":{"TopLeft":{"Latitude":34.93094,"Longitude":33.59907},"BottomRight":{"Latitude":34.93029,"Longitude":33.60042}},"Address":{"Label":"Λεωφόρος Ελευθερίας, 7102 Αραδίππου, Κύπρος","Country":"CYP","County":"Λάρνακα","City":"Αραδίππου","District":"Άγιος Φανούριος","Street":"Λεωφόρος Ελευθερίας","PostalCode":"7102","AdditionalData":[{"value":"Κύπρος","key":"CountryName"},{"value":"Λάρνακα","key":"CountyName"}]},"MapReference":{"ReferenceId":"971037380","Spot":0.51,"SideOfStreet":"left","CountryId":"26569034","CountyId":"26570048","CityId":"26569486","DistrictId":"26570756"}}},{"Relevance":1.0,"Distance":52.2,"MatchLevel":"houseNumber","MatchQuality":{"Country":1.0,"County":1.0,"City":1.0,"District":1.0,"Street":[1.0],"HouseNumber":1.0,"PostalCode":1.0},"MatchType":"interpolated","Location":{"LocationId":"NT_2kmAnAxYkzRBFLehrih1gC_l_971041509_R_1A","LocationType":"point","DisplayPosition":{"Latitude":34.9296975,"Longitude":33.5998175},"MapView":{"TopLeft":{"Latitude":34.9308217,"Longitude":33.5984463},"BottomRight":{"Latitude":34.9285734,"Longitude":33.6011886}},"Address":{"Label":"Οδός Ναυπλίου 5, 7101 Αραδίππου, Κύπρος","Country":"CYP","County":"Λάρνακα","City":"Αραδίππου","District":"Άγιος Φανούριος","Street":"Οδός Ναυπλίου","HouseNumber":"5","PostalCode":"7101","AdditionalData":[{"value":"Κύπρος","key":"CountryName"},{"value":"Λάρνακα","key":"CountyName"}]},"MapReference":{"ReferenceId":"971041509","Spot":0.65,"SideOfStreet":"right","CountryId":"26569034","CountyId":"26570048","CityId":"26569486","DistrictId":"26570756"}}},{"Relevance":1.0,"Distance":55.5,"MatchLevel":"houseNumber","MatchQuality":{"Country":1.0,"County":1.0,"City":1.0,"District":1.0,"Street":[1.0],"HouseNumber":1.0,"PostalCode":1.0},"MatchType":"interpolated","Location":{"LocationId":"NT_IvyYm1XTCQzHMQfK1cF65A_yA","LocationType":"point","DisplayPosition":{"Latitude":34.92969,"Longitude":33.59947},"MapView":{"TopLeft":{"Latitude":34.9308142,"Longitude":33.5980988},"BottomRight":{"Latitude":34.9285658,"Longitude":33.6008412}},"Address":{"Label":"Οδός Αράχωβας 2, 7101 Αραδίππου, Κύπρος","Country":"CYP","County":"Λάρνακα","City":"Αραδίππου","District":"Άγιος Φανούριος","Street":"Οδός Αράχωβας","HouseNumber":"2","PostalCode":"7101","AdditionalData":[{"value":"Κύπρος","key":"CountryName"},{"value":"Λάρνακα","key":"CountyName"}]},"MapReference":{"ReferenceId":"971072511","Spot":0.83,"SideOfStreet":"left","CountryId":"26569034","CountyId":"26570048","CityId":"26569486","DistrictId":"26570756","AddressId":"764388122","RoadLinkId":"307364926"}}},{"Relevance":1.0,"Distance":57.4,"MatchLevel":"street","MatchQuality":{"Country":1.0,"County":1.0,"City":1.0,"District":1.0,"Street":[1.0],"PostalCode":1.0},"Location":{"LocationId":"NT_f5ZBl9WebWMQHFjBMbHkuD_l_971041037_L","LocationType":"point","DisplayPosition":{"Latitude":34.93064,"Longitude":33.5992},"MapView":{"TopLeft":{"Latitude":34.93094,"Longitude":33.59848},"BottomRight":{"Latitude":34.93064,"Longitude":33.5992}},"Address":{"Label":"Λεωφόρος Ελευθερίας, 7101 Αραδίππου, Κύπρος","Country":"CYP","County":"Λάρνακα","City":"Αραδίππου","District":"Άγιος Φανούριος","Street":"Λεωφόρος Ελευθερίας","PostalCode":"7101","AdditionalData":[{"value":"Κύπρος","key":"CountryName"},{"value":"Λάρνακα","key":"CountyName"}]},"MapReference":{"ReferenceId":"971041037","Spot":0.0,"SideOfStreet":"left","CountryId":"26569034","CountyId":"26570048","CityId":"26569486","DistrictId":"26570756"}}},{"Relevance":1.0,"Distance":60.8,"MatchLevel":"street","MatchQuality":{"Country":1.0,"County":1.0,"City":1.0,"District":1.0,"PostalCode":1.0},"Location":{"LocationId":"NT_WOEt0YUCB6V9BpDWH8YP8C_l_971057963_L","LocationType":"point","DisplayPosition":{"Latitude":34.9307121,"Longitude":33.5997721},"MapView":{"TopLeft":{"Latitude":34.93107,"Longitude":33.59915},"BottomRight":{"Latitude":34.93023,"Longitude":33.6008}},"Address":{"Label":"7102 Αραδίππου, Κύπρος","Country":"CYP","County":"Λάρνακα","City":"Αραδίππου","District":"Άγιος Φανούριος","PostalCode":"7102","AdditionalData":[{"value":"Κύπρος","key":"CountryName"},{"value":"Λάρνακα","key":"CountyName"}]},"MapReference":{"ReferenceId":"971057963","Spot":0.61,"SideOfStreet":"left","CountryId":"26569034","CountyId":"26570048","CityId":"26569486","DistrictId":"26570756"}}}]}]}}