{"Response":{"MetaInfo":{"Timestamp":"2020-03-28T10:53:43.037+0000","NextPageInformation":"2"},"View":[{"_type":"SearchResultsViewType","ViewId":0,"Result":[{"Relevance":1.0,"Distance":0.0,"Direction":0.0,"MatchLevel":"district","MatchQuality":{"Country":1.0,"County":1.0,"City":1.0,"District":1.0,"PostalCode":1.0},"Location":{"LocationId":"NT_QeljoOBu2cj1m1zP757uRC","LocationType":"point","DisplayPosition":{"Latitude":35.3337947,"Longitude":33.3272244},"MapView":{"TopLeft":{"Latitude":35.34503,"Longitude":33.3005},"BottomRight":{"Latitude":35.31167,"Longitude":33.33785}},"Address":{"Label":"Girne, Kıbrıs Türk Yönetimi","Country":"NCY","County":"Girne","City":"Girne","District":"Girne","PostalCode":"99300","AdditionalData":[{"value":"Kıbrıs Türk Yönetimi","key":"CountryName"},{"value":"Girne","key":"CountyName"}]},"MapReference":{"ReferenceId":"971062280","SideOfStreet":"neither","CountryId":"26569036","CountyId":"26569041","CityId":"26568983","DistrictId":"26570291"}}},{"Relevance":1.0,"Distance":6.8,"MatchLevel":"street","MatchQuality":{"Country":1.0,"County":1.0,"City":1.0,"District":1.0,"Street":[1.0],"PostalCode":1.0},"Location":{"LocationId":"NT_3Wkq5Jbr-A38NMfLWmfs2C_l_971062652_R","LocationType":"point","DisplayPosition":{"Latitude":35.3338547,"Longitude":33.3272111},"MapView":{"TopLeft":{"Latitude":35.33387,"Longitude":33.32708},"BottomRight":{"Latitude":35.33331,"Longitude":33.3279}},"Address":{"Label":"Adalet Sokak, 99300 Girne, Kıbrıs Türk Yönetimi","Country":"NCY","County":"Girne","City":"Girne","District":"Girne","Street":"Adalet Sokak","PostalCode":"99300","AdditionalData":[{"value":"Kıbrıs Türk Yönetimi","key":"CountryName"},{"value":"Girne","key":"CountyName"}]},"MapReference":{"ReferenceId":"971062652","Spot":0.46,"SideOfStreet":"right","CountryId":"26569036","CountyId":"26569041","CityId":"26568983","DistrictId":"26570291"}}},{"Relevance":1.0,"Distance":55.5,"MatchLevel":"street","MatchQuality":{"Country":1.0,"County":1.0,"City":1.0,"District":1.0,"Street":[1.0],"PostalCode":1.0},"Location":{"LocationId":"NT_3Wkq5Jbr-A38NMfLWmfs2C_l_971062658_R","LocationType":"point","DisplayPosition":{"Latitude":35.33331,"Longitude":33.32708},"MapView":{"TopLeft":{"Latitude":35.33331,"Longitude":33.32704},"BottomRight":{"Latitude":35.33287,"Longitude":33.32708}},"Address":{"Label":"Adalet Sokak, 99300 Girne, Kıbrıs Türk Yönetimi","Country":"NCY","County":"Girne","City":"Girne","District":"Girne","Street":"Adalet Sokak","PostalCode":"99300","AdditionalData":[{"value":"Kıbrıs Türk Yönetimi","key":"CountryName"},{"value":"Girne","key":"CountyName"}]},"MapReference":{"ReferenceId":"971062658","Spot":1.0,"SideOfStreet":"right","CountryId":"26569036","CountyId":"26569041","CityId":"26568983","DistrictId":"26570291"}}},{"Relevance":1.0,"Distance":55.6,"MatchLevel":"houseNumber","MatchQuality":{"Country":1.0,"County":1.0,"City":1.0,"District":1.0,"Street":[1.0],"HouseNumber":1.0,"PostalCode":1.0},"MatchType":"interpolated","Location":{"LocationId":"NT_mNfh8wnbgqwLTVtEhoff-D_1A","LocationType":"point","DisplayPosition":{"Latitude":35.33326,"Longitude":33.32767},"MapView":{"TopLeft":{"Latitude":35.3343842,"Longitude":33.326292},"BottomRight":{"Latitude":35.3321358,"Longitude":33.329048}},"Address":{"Label":"Bahçelievler Sokak 5, 99300 Girne, Kıbrıs Türk Yönetimi","Country":"NCY","County":"Girne","City":"Girne","District":"Girne","Street":"Bahçelievler Sokak","HouseNumber":"5","PostalCode":"99300","AdditionalData":[{"value":"Kıbrıs Türk Yönetimi","key":"CountryName"},{"value":"Girne","key":"CountyName"}]},"MapReference":{"ReferenceId":"970890469","Spot":0.27,"SideOfStreet":"right","CountryId":"26569036","CountyId":"26569041","CityId":"26568983","DistrictId":"26570291","AddressId":"775024721","RoadLinkId":"307422687"}}},{"Relevance":1.0,"Distance":61.3,"MatchLevel":"street","MatchQuality":{"Country":1.0,"County":1.0,"City":1.0,"District":1.0,"Street":[1.0],"PostalCode":1.0},"Location":{"LocationId":"NT_chZ1Be1hu8JavtLQllfiQD_l_971066664_L","LocationType":"point","DisplayPosition":{"Latitude":35.3337947,"Longitude":33.3279},"MapView":{"TopLeft":{"Latitude":35.33388,"Longitude":33.3279},"BottomRight":{"Latitude":35.33378,"Longitude":33.3279}},"Address":{"Label":"Kurtuluş Caddesi, 99300 Girne, Kıbrıs Türk Yönetimi","Country":"NCY","County":"Girne","City":"Girne","District":"Girne","Street":"Kurtuluş Caddesi","PostalCode":"99300","AdditionalData":[{"value":"Kıbrıs Türk Yönetimi","key":"CountryName"},{"value":"Girne","key":"CountyName"}]},"MapReference":{"ReferenceId":"971066664","Spot":0.15,"SideOfStreet":"left","CountryId":"26569036","CountyId":"26569041","CityId":"26568983","DistrictId":"26570291"}}},{"Relevance":1.0,"Distance":61.3,"MatchLevel":"street","MatchQuality":{"Country":1.0,"County":1.0,"City":1.0,"District":1.0,"Street":[1.0],"PostalCode":1.0},"Location":{"LocationId":"NT_chZ1Be1hu8JavtLQllfiQD_l_971062654_L","LocationType":"point","DisplayPosition":{"Latitude":35.33378,"Longitude":33.3279},"MapView":{"TopLeft":{"Latitude":35.33378,"Longitude":33.32789},"BottomRight":{"Latitude":35.33324,"Longitude":33.32793}},"Address":{"Label":"Kurtuluş Caddesi, 99300 Girne, Kıbrıs Türk Yönetimi","Country":"NCY","County":"Girne","City":"Girne","District":"Girne","Street":"Kurtuluş Caddesi","PostalCode":"99300","AdditionalData":[{"value":"Kıbrıs Türk Yönetimi","key":"CountryName"},{"value":"Girne","key":"CountyName"}]},"MapReference":{"ReferenceId":"971062654","Spot":1.0,"SideOfStreet":"left","CountryId":"26569036","CountyId":"26569041","CityId":"26568983","DistrictId":"26570291"}}},{"Relevance":1.0,"Distance":62.0,"MatchLevel":"street","MatchQuality":{"Country":1.0,"County":1.0,"City":1.0,"District":1.0,"Street":[1.0],"PostalCode":1.0},"Location":{"LocationId":"NT_chZ1Be1hu8JavtLQllfiQD_l_1230162176_L","LocationType":"point","DisplayPosition":{"Latitude":35.33388,"Longitude":33.3279},"MapView":{"TopLeft":{"Latitude":35.33388,"Longitude":33.3279},"BottomRight":{"Latitude":35.33352,"Longitude":33.32818}},"Address":{"Label":"Kurtuluş Caddesi, 99300 Girne, Kıbrıs Türk Yönetimi","Country":"NCY","County":"Girne","City":"Girne","District":"Girne","Street":"Kurtuluş Caddesi","PostalCode":"99300","AdditionalData":[{"value":"Kıbrıs Türk Yönetimi","key":"CountryName"},{"value":"Girne","key":"CountyName"}]},"MapReference":{"ReferenceId":"1230162176","Spot":1.0,"SideOfStreet":"left","CountryId":"26569036","CountyId":"26569041","CityId":"26568983","DistrictId":"26570291"}}},{"Relevance":1.0,"Distance":62.2,"MatchLevel":"street","MatchQuality":{"Country":1.0,"County":1.0,"City":1.0,"District":1.0,"Street":[1.0],"PostalCode":1.0},"Location":{"LocationId":"NT_chZ1Be1hu8JavtLQllfiQD_l_971023921_L","LocationType":"point","DisplayPosition":{"Latitude":35.33392,"Longitude":33.3278925},"MapView":{"TopLeft":{"Latitude":35.33433,"Longitude":33.32787},"BottomRight":{"Latitude":35.33388,"Longitude":33.32791}},"Address":{"Label":"Kurtuluş Caddesi, 99300 Girne, Kıbrıs Türk Yönetimi","Country":"NCY","County":"Girne","City":"Girne","District":"Girne","Street":"Kurtuluş Caddesi","PostalCode":"99300","AdditionalData":[{"value":"Kıbrıs Türk Yönetimi","key":"CountryName"},{"value":"Girne","key":"CountyName"}]},"MapReference":{"ReferenceId":"971023921","Spot":0.09,"SideOfStreet":"left","CountryId":"26569036","CountyId":"26569041","CityId":"26568983","DistrictId":"26570291"}}},{"Relevance":1.0,"Distance":71.2,"MatchLevel":"street","MatchQuality":{"Country":1.0,"County":1.0,"City":1.0,"District":1.0,"Street":[1.0],"PostalCode":1.0},"Location":{"LocationId":"NT_t.rrn5FUbyVshsmbIhxsFA_l_971064146_L","LocationType":"point","DisplayPosition":{"Latitude":35.3344291,"Longitude":33.3273334},"MapView":{"TopLeft":{"Latitude":35.33444,"Longitude":33.32727},"BottomRight":{"Latitude":35.33433,"Longitude":33.32791}},"Address":{"Label":"Mustafa Çağatay Caddesi, 99300 Girne, Kıbrıs Türk Yönetimi","Country":"NCY","County":"Girne","City":"Girne","District":"Girne","Street":"Mustafa Çağatay Caddesi","PostalCode":"99300","AdditionalData":[{"value":"Kıbrıs Türk Yönetimi","key":"CountryName"},{"value":"Girne","key":"CountyName"}]},"MapReference":{"ReferenceId":"971064146","Spot":0.9,"SideOfStreet":"left","CountryId":"26569036","CountyId":"26569041","CityId":"26568983","DistrictId":"26570291"}}},{"Relevance":1.0,"Distance":105.5,"MatchLevel":"houseNumber","MatchQuality":{"Country":1.0,"County":1.0,"City":1.0,"District":1.0,"Street":[1.0],"HouseNumber":1.0,"PostalCode":1.0},"MatchType":"interpolated","Location":{"LocationId":"NT_CbLdl7-2HcvEfekUzMXJWD_l_971062996_L_yA","LocationType":"point","DisplayPosition":{"Latitude":35.3343002,"Longitude":33.3283012},"MapView":{"TopLeft":{"Latitude":35.3354243,"Longitude":33.3269232},"BottomRight":{"Latitude":35.333176,"Longitude":33.3296792}},"Address":{"Label":"İskenderun Caddesi 2, 99300 Girne, Kıbrıs Türk Yönetimi","Country":"NCY","County":"Girne","City":"Girne","District":"Girne","Street":"İskenderun Caddesi","HouseNumber":"2","PostalCode":"99300","AdditionalData":[{"value":"Kıbrıs Türk Yönetimi","key":"CountryName"},{"value":"Girne","key":"CountyName"}]},"MapReference":{"ReferenceId":"971062996","Spot":0.51,"SideOfStreet":"left","CountryId":"26569036","CountyId":"26569041","CityId":"26568983","DistrictId":"26570291"}}}]}]}}