{"Response":{"MetaInfo":{"Timestamp":"2020-03-28T11:46:11.428+0000","NextPageInformation":"2"},"View":[{"_type":"SearchResultsViewType","ViewId":0,"Result":[{"Relevance":1.0,"Distance":0.0,"Direction":0.0,"MatchLevel":"city","MatchQuality":{"Country":1.0,"State":1.0,"County":1.0,"City":1.0,"PostalCode":1.0},"Location":{"LocationId":"NT_tlT9M7YbyEDjQuHFXXTymD","LocationType":"point","DisplayPosition":{"Latitude":36.3944658,"Longitude":-6.1531508},"MapView":{"TopLeft":{"Latitude":36.47192,"Longitude":-6.21125},"BottomRight":{"Latitude":36.32984,"Longitude":-5.99355}},"Address":{"Label":"Chiclana de la Frontera, Andalucía, España","Country":"ESP","State":"Andalucía","County":"Cádiz","City":"Chiclana de la Frontera","PostalCode":"11130","AdditionalData":[{"value":"España","key":"CountryName"},{"value":"Andalucía","key":"StateName"},{"value":"Cádiz","key":"CountyName"}]},"MapReference":{"ReferenceId":"575083513","SideOfStreet":"neither","CountryId":"20215059","StateId":"20221885","CountyId":"20221887","CityId":"20233697"}}},{"Relevance":1.0,"Distance":28.4,"MatchLevel":"street","MatchQuality":{"Country":1.0,"State":1.0,"County":1.0,"City":1.0,"Street":[1.0],"PostalCode":1.0},"Location":{"LocationId":"NT_.UTYqLXnVA2-kBt7bL0FhC_l_539316455_L","LocationType":"point","DisplayPosition":{"Latitude":36.3943,"Longitude":-6.15291},"MapView":{"TopLeft":{"Latitude":36.3943,"Longitude":-6.15294},"BottomRight":{"Latitude":36.3941,"Longitude":-6.15291}},"Address":{"Label":"Camino Almíbar, 11139 Chiclana de la Frontera (Cádiz), España","Country":"ESP","State":"Andalucía","County":"Cádiz","City":"Chiclana de la Frontera","Street":"Camino Almíbar","PostalCode":"11139","AdditionalData":[{"value":"España","key":"CountryName"},{"value":"Andalucía","key":"StateName"},{"value":"Cádiz","key":"CountyName"}]},"MapReference":{"ReferenceId":"539316455","Spot":1.0,"SideOfStreet":"left","CountryId":"20215059","StateId":"20221885","CountyId":"20221887","CityId":"20233697"}}},{"Relevance":1.0,"Distance":39.4,"MatchLevel":"street","MatchQuality":{"Country":1.0,"State":1.0,"County":1.0,"City":1.0,"Street":[1.0],"PostalCode":1.0},"Location":{"LocationId":"NT_HDpp.0iSWj9URzgMk5786C_l_1002618277_R","LocationType":"point","DisplayPosition":{"Latitude":36.3941117,"Longitude":-6.1531673},"MapView":{"TopLeft":{"Latitude":36.39413,"Longitude":-6.15356},"BottomRight":{"Latitude":36.39411,"Longitude":-6.15313}},"Address":{"Label":"Carretera de las Lagunas, 11139 Chiclana de la Frontera (Cádiz), España","Country":"ESP","State":"Andalucía","County":"Cádiz","City":"Chiclana de la Frontera","Street":"Carretera de las Lagunas","PostalCode":"11139","AdditionalData":[{"value":"España","key":"CountryName"},{"value":"Andalucía","key":"StateName"},{"value":"Cádiz","key":"CountyName"}]},"MapReference":{"ReferenceId":"1002618277","Spot":0.09,"SideOfStreet":"right","CountryId":"20215059","StateId":"20221885","CountyId":"20221887","CityId":"20233697"}}},{"Relevance":1.0,"Distance":39.6,"MatchLevel":"street","MatchQuality":{"Country":1.0,"State":1.0,"County":1.0,"City":1.0,"Street":[1.0],"PostalCode":1.0},"Location":{"LocationId":"NT_HDpp.0iSWj9URzgMk5786C_l_1002618276_R","LocationType":"point","DisplayPosition":{"Latitude":36.39411,"Longitude":-6.15313},"MapView":{"TopLeft":{"Latitude":36.39411,"Longitude":-6.15313},"BottomRight":{"Latitude":36.3941,"Longitude":-6.15294}},"Address":{"Label":"Carretera de las Lagunas, 11139 Chiclana de la Frontera (Cádiz), España","Country":"ESP","State":"Andalucía","County":"Cádiz","City":"Chiclana de la Frontera","Street":"Carretera de las Lagunas","PostalCode":"11139","AdditionalData":[{"value":"España","key":"CountryName"},{"value":"Andalucía","key":"StateName"},{"value":"Cádiz","key":"CountyName"}]},"MapReference":{"ReferenceId":"1002618276","Spot":1.0,"SideOfStreet":"right","CountryId":"20215059","StateId":"20221885","CountyId":"20221887","CityId":"20233697"}}},{"Relevance":1.0,"Distance":44.8,"MatchLevel":"street","MatchQuality":{"Country":1.0,"State":1.0,"County":1.0,"City":1.0,"Street":[1.0],"PostalCode":1.0},"Location":{"LocationId":"NT_HDpp.0iSWj9URzgMk5786C_l_539316453_L","LocationType":"point","DisplayPosition":{"Latitude":36.3941,"Longitude":-6.15294},"MapView":{"TopLeft":{"Latitude":36.3941,"Longitude":-6.15294},"BottomRight":{"Latitude":36.3941,"Longitude":-6.15255}},"Address":{"Label":"Carretera de las Lagunas, 11139 Chiclana de la Frontera (Cádiz), España","Country":"ESP","State":"Andalucía","County":"Cádiz","City":"Chiclana de la Frontera","Street":"Carretera de las Lagunas","PostalCode":"11139","AdditionalData":[{"value":"España","key":"CountryName"},{"value":"Andalucía","key":"StateName"},{"value":"Cádiz","key":"CountyName"}]},"MapReference":{"ReferenceId":"539316453","Spot":0.0,"SideOfStreet":"left","CountryId":"20215059","StateId":"20221885","CountyId":"20221887","CityId":"20233697"}}},{"Relevance":1.0,"Distance":47.4,"MatchLevel":"houseNumber","MatchQuality":{"Country":1.0,"State":1.0,"County":1.0,"City":1.0,"Street":[1.0],"HouseNumber":1.0,"PostalCode":1.0},"MatchType":"interpolated","Location":{"LocationId":"NT_ntpEF3qbISovC6gtdtEPfB_l_1169687950_L_xMD","LocationType":"point","DisplayPosition":{"Latitude":36.39423,"Longitude":-6.15253},"MapView":{"TopLeft":{"Latitude":36.3953542,"Longitude":-6.1539265},"BottomRight":{"Latitude":36.3931059,"Longitude":-6.1511335}},"Address":{"Label":"Callejón de la Pedrera, 13, 11130 Chiclana de la Frontera (Cádiz), España","Country":"ESP","State":"Andalucía","County":"Cádiz","City":"Chiclana de la Frontera","Street":"Callejón de la Pedrera","HouseNumber":"13","PostalCode":"11130","AdditionalData":[{"value":"España","key":"CountryName"},{"value":"Andalucía","key":"StateName"},{"value":"Cádiz","key":"CountyName"}]},"MapReference":{"ReferenceId":"1169687950","Spot":0.11,"SideOfStreet":"left","CountryId":"20215059","StateId":"20221885","CountyId":"20221887","CityId":"20233697"}}},{"Relevance":1.0,"Distance":52.3,"MatchLevel":"street","MatchQuality":{"Country":1.0,"State":1.0,"County":1.0,"City":1.0,"Street":[1.0],"PostalCode":1.0},"Location":{"LocationId":"NT_HDpp.0iSWj9URzgMk5786C_l_1220169065_R","LocationType":"point","DisplayPosition":{"Latitude":36.39413,"Longitude":-6.15356},"MapView":{"TopLeft":{"Latitude":36.39414,"Longitude":-6.15381},"BottomRight":{"Latitude":36.39413,"Longitude":-6.15356}},"Address":{"Label":"Carretera de las Lagunas, 11139 Chiclana de la Frontera (Cádiz), España","Country":"ESP","State":"Andalucía","County":"Cádiz","City":"Chiclana de la Frontera","Street":"Carretera de las Lagunas","PostalCode":"11139","AdditionalData":[{"value":"España","key":"CountryName"},{"value":"Andalucía","key":"StateName"},{"value":"Cádiz","key":"CountyName"}]},"MapReference":{"ReferenceId":"1220169065","Spot":0.0,"SideOfStreet":"right","CountryId":"20215059","StateId":"20221885","CountyId":"20221887","CityId":"20233697"}}},{"Relevance":1.0,"Distance":67.4,"MatchLevel":"street","MatchQuality":{"Country":1.0,"State":1.0,"County":1.0,"City":1.0,"Street":[1.0],"PostalCode":1.0},"Location":{"LocationId":"NT_HDpp.0iSWj9URzgMk5786C_l_575084071_L","LocationType":"point","DisplayPosition":{"Latitude":36.3941,"Longitude":-6.15255},"MapView":{"TopLeft":{"Latitude":36.3941,"Longitude":-6.15255},"BottomRight":{"Latitude":36.3941,"Longitude":-6.1522}},"Address":{"Label":"Carretera de las Lagunas, 11139 Chiclana de la Frontera (Cádiz), España","Country":"ESP","State":"Andalucía","County":"Cádiz","City":"Chiclana de la Frontera","Street":"Carretera de las Lagunas","PostalCode":"11139","AdditionalData":[{"value":"España","key":"CountryName"},{"value":"Andalucía","key":"StateName"},{"value":"Cádiz","key":"CountyName"}]},"MapReference":{"ReferenceId":"575084071","Spot":0.0,"SideOfStreet":"left","CountryId":"20215059","StateId":"20221885","CountyId":"20221887","CityId":"20233697"}}},{"Relevance":1.0,"Distance":69.2,"MatchLevel":"street","MatchQuality":{"Country":1.0,"State":1.0,"County":1.0,"City":1.0,"Street":[1.0],"PostalCode":1.0},"Location":{"LocationId":"NT_HDpp.0iSWj9URzgMk5786C_l_1220169066_R","LocationType":"point","DisplayPosition":{"Latitude":36.39414,"Longitude":-6.15381},"MapView":{"TopLeft":{"Latitude":36.39416,"Longitude":-6.15403},"BottomRight":{"Latitude":36.39414,"Longitude":-6.15381}},"Address":{"Label":"Carretera de las Lagunas, 11139 Chiclana de la Frontera (Cádiz), España","Country":"ESP","State":"Andalucía","County":"Cádiz","City":"Chiclana de la Frontera","Street":"Carretera de las Lagunas","PostalCode":"11139","AdditionalData":[{"value":"España","key":"CountryName"},{"value":"Andalucía","key":"StateName"},{"value":"Cádiz","key":"CountyName"}]},"MapReference":{"ReferenceId":"1220169066","Spot":0.0,"SideOfStreet":"right","CountryId":"20215059","StateId":"20221885","CountyId":"20221887","CityId":"20233697"}}},{"Relevance":1.0,"Distance":71.1,"MatchLevel":"houseNumber","MatchQuality":{"Country":1.0,"State":1.0,"County":1.0,"City":1.0,"Street":[1.0],"HouseNumber":1.0,"PostalCode":1.0},"MatchType":"interpolated","Location":{"LocationId":"NT_p09XHdZXhFfU5c..ej5PnD_xA","LocationType":"point","DisplayPosition":{"Latitude":36.39392,"Longitude":-6.15363},"MapView":{"TopLeft":{"Latitude":36.3950442,"Longitude":-6.1550265},"BottomRight":{"Latitude":36.3927958,"Longitude":-6.1522335}},"Address":{"Label":"Calle Alerce, 1, 11139 Chiclana de la Frontera (Cádiz), España","Country":"ESP","State":"Andalucía","County":"Cádiz","City":"Chiclana de la Frontera","Street":"Calle Alerce","HouseNumber":"1","PostalCode":"11139","AdditionalData":[{"value":"España","key":"CountryName"},{"value":"Andalucía","key":"StateName"},{"value":"Cádiz","key":"CountyName"}]},"MapReference":{"ReferenceId":"575084427","Spot":0.97,"SideOfStreet":"right","CountryId":"20215059","StateId":"20221885","CountyId":"20221887","CityId":"20233697","AddressId":"203778085","RoadLinkId":"67301489"}}}]}]}}