{"Response":{"MetaInfo":{"Timestamp":"2020-03-28T11:04:45.296+0000","NextPageInformation":"2"},"View":[{"_type":"SearchResultsViewType","ViewId":0,"Result":[{"Relevance":1.0,"Distance":0.0,"Direction":0.0,"MatchLevel":"city","MatchQuality":{"Country":1.0,"State":1.0,"County":1.0,"City":1.0,"PostalCode":1.0},"Location":{"LocationId":"NT_ORfSCXtH6TW05XbTh3VW0A","LocationType":"point","DisplayPosition":{"Latitude":36.6370747,"Longitude":-4.48586},"MapView":{"TopLeft":{"Latitude":36.65212,"Longitude":-4.56139},"BottomRight":{"Latitude":36.59946,"Longitude":-4.47555}},"Address":{"Label":"Torremolinos, Andalucía, España","Country":"ESP","State":"Andalucía","County":"Málaga","City":"Torremolinos","PostalCode":"29620","AdditionalData":[{"value":"España","key":"CountryName"},{"value":"Andalucía","key":"StateName"},{"value":"Málaga","key":"CountyName"}]},"MapReference":{"ReferenceId":"76653808","SideOfStreet":"neither","CountryId":"20215059","StateId":"20221885","CountyId":"20221892","CityId":"20236219"}}},{"Relevance":1.0,"Distance":16.7,"MatchLevel":"houseNumber","MatchQuality":{"Country":1.0,"State":1.0,"County":1.0,"City":1.0,"Street":[1.0],"HouseNumber":1.0,"PostalCode":1.0},"MatchType":"interpolated","Location":{"LocationId":"NT_x854BkH43qzBVdR-PJngxA_3QD","LocationType":"point","DisplayPosition":{"Latitude":36.63715,"Longitude":-4.48601},"MapView":{"TopLeft":{"Latitude":36.6382742,"Longitude":-4.4874109},"BottomRight":{"Latitude":36.6360258,"Longitude":-4.4846091}},"Address":{"Label":"Calle Hotel Pontinental, 74, 29620 Torremolinos (Málaga), España","Country":"ESP","State":"Andalucía","County":"Málaga","City":"Torremolinos","Street":"Calle Hotel Pontinental","HouseNumber":"74","PostalCode":"29620","AdditionalData":[{"value":"España","key":"CountryName"},{"value":"Andalucía","key":"StateName"},{"value":"Málaga","key":"CountyName"}]},"MapReference":{"ReferenceId":"905798121","Spot":0.34,"SideOfStreet":"right","CountryId":"20215059","StateId":"20221885","CountyId":"20221892","CityId":"20236219","AddressId":"747459580","RoadLinkId":"266737449"}}},{"Relevance":1.0,"Distance":110.4,"MatchLevel":"street","MatchQuality":{"Country":1.0,"State":1.0,"County":1.0,"City":1.0,"Street":[1.0],"PostalCode":1.0},"Location":{"LocationId":"NT_nX61ctk41itZ1xxGyUomoC_l_1203613857_L","LocationType":"point","DisplayPosition":{"Latitude":36.63662,"Longitude":-4.48476},"MapView":{"TopLeft":{"Latitude":36.63702,"Longitude":-4.48476},"BottomRight":{"Latitude":36.63662,"Longitude":-4.48455}},"Address":{"Label":"Paseo Marítimo, 29620 Torremolinos (Málaga), España","Country":"ESP","State":"Andalucía","County":"Málaga","City":"Torremolinos","Street":"Paseo Marítimo","PostalCode":"29620","AdditionalData":[{"value":"España","key":"CountryName"},{"value":"Andalucía","key":"StateName"},{"value":"Málaga","key":"CountyName"}]},"MapReference":{"ReferenceId":"1203613857","Spot":0.0,"SideOfStreet":"left","CountryId":"20215059","StateId":"20221885","CountyId":"20221892","CityId":"20236219"}}},{"Relevance":1.0,"Distance":111.1,"MatchLevel":"street","MatchQuality":{"Country":1.0,"State":1.0,"County":1.0,"City":1.0,"Street":[1.0],"PostalCode":1.0},"Location":{"LocationId":"NT_nX61ctk41itZ1xxGyUomoC_l_1203084197_L","LocationType":"point","DisplayPosition":{"Latitude":36.63636,"Longitude":-4.48499},"MapView":{"TopLeft":{"Latitude":36.63662,"Longitude":-4.48499},"BottomRight":{"Latitude":36.63636,"Longitude":-4.48476}},"Address":{"Label":"Paseo Marítimo, 29620 Torremolinos (Málaga), España","Country":"ESP","State":"Andalucía","County":"Málaga","City":"Torremolinos","Street":"Paseo Marítimo","PostalCode":"29620","AdditionalData":[{"value":"España","key":"CountryName"},{"value":"Andalucía","key":"StateName"},{"value":"Málaga","key":"CountyName"}]},"MapReference":{"ReferenceId":"1203084197","Spot":0.0,"SideOfStreet":"left","CountryId":"20215059","StateId":"20221885","CountyId":"20221892","CityId":"20236219"}}},{"Relevance":1.0,"Distance":111.3,"MatchLevel":"landmark","MatchQuality":{"Country":1.0,"State":1.0,"County":1.0,"City":1.0,"Street":[1.0],"PostalCode":1.0,"Name":1.0},"Location":{"LocationId":"NT_mQBOa8A-PphNa.MMm1nDRB_p_pU9glc6Slyw-72hE5fw7EC","LocationType":"beach","Name":"Playa de los Álamos","DisplayPosition":{"Latitude":36.6409,"Longitude":-4.48118},"MapView":{"TopLeft":{"Latitude":36.64287,"Longitude":-4.48628},"BottomRight":{"Latitude":36.63432,"Longitude":-4.47866}},"Address":{"Label":"Paseo Marítimo, 29620 Torremolinos (Málaga), España","Country":"ESP","State":"Andalucía","County":"Málaga","City":"Torremolinos","Street":"Paseo Marítimo","PostalCode":"29620","AdditionalData":[{"value":"España","key":"CountryName"},{"value":"Andalucía","key":"StateName"},{"value":"Málaga","key":"CountyName"}]},"MapReference":{"CountryId":"20215059","StateId":"20221885","CountyId":"20221892","CityId":"20236219","PlaceId":"58596949"}}},{"Relevance":1.0,"Distance":111.7,"MatchLevel":"houseNumber","MatchQuality":{"Country":1.0,"State":1.0,"County":1.0,"City":1.0,"Street":[1.0],"HouseNumber":1.0,"PostalCode":1.0},"MatchType":"interpolated","Location":{"LocationId":"NT_nX61ctk41itZ1xxGyUomoC_xUjU","LocationType":"point","DisplayPosition":{"Latitude":36.63636,"Longitude":-4.48498},"MapView":{"TopLeft":{"Latitude":36.6374842,"Longitude":-4.4863809},"BottomRight":{"Latitude":36.6352358,"Longitude":-4.4835791}},"Address":{"Label":"Paseo Marítimo, 15R, 29620 Torremolinos (Málaga), España","Country":"ESP","State":"Andalucía","County":"Málaga","City":"Torremolinos","Street":"Paseo Marítimo","HouseNumber":"15R","PostalCode":"29620","AdditionalData":[{"value":"España","key":"CountryName"},{"value":"Andalucía","key":"StateName"},{"value":"Málaga","key":"CountyName"}]},"MapReference":{"ReferenceId":"1203084199","Spot":1.0,"SideOfStreet":"right","CountryId":"20215059","StateId":"20221885","CountyId":"20221892","CityId":"20236219","AddressId":"347226864","RoadLinkId":"516025882"}}},{"Relevance":1.0,"Distance":152.4,"MatchLevel":"houseNumber","MatchQuality":{"Country":1.0,"State":1.0,"County":1.0,"City":1.0,"Street":[1.0],"HouseNumber":1.0,"PostalCode":1.0},"MatchType":"interpolated","Location":{"LocationId":"NT_nX61ctk41itZ1xxGyUomoC_xMzS","LocationType":"point","DisplayPosition":{"Latitude":36.63573,"Longitude":-4.48553},"MapView":{"TopLeft":{"Latitude":36.6368542,"Longitude":-4.4869309},"BottomRight":{"Latitude":36.6346058,"Longitude":-4.4841291}},"Address":{"Label":"Paseo Marítimo, 13K, 29620 Torremolinos (Málaga), España","Country":"ESP","State":"Andalucía","County":"Málaga","City":"Torremolinos","Street":"Paseo Marítimo","HouseNumber":"13K","PostalCode":"29620","AdditionalData":[{"value":"España","key":"CountryName"},{"value":"Andalucía","key":"StateName"},{"value":"Málaga","key":"CountyName"}]},"MapReference":{"ReferenceId":"1203084198","Spot":0.25,"SideOfStreet":"right","CountryId":"20215059","StateId":"20221885","CountyId":"20221892","CityId":"20236219","AddressId":"347226863","RoadLinkId":"516025881"}}},{"Relevance":1.0,"Distance":164.2,"MatchLevel":"houseNumber","MatchQuality":{"Country":1.0,"State":1.0,"County":1.0,"City":1.0,"Street":[1.0],"HouseNumber":1.0,"PostalCode":1.0},"MatchType":"interpolated","Location":{"LocationId":"NT_nX61ctk41itZ1xxGyUomoC_3kD","LocationType":"point","DisplayPosition":{"Latitude":36.63759,"Longitude":-4.4841},"MapView":{"TopLeft":{"Latitude":36.6387142,"Longitude":-4.4855009},"BottomRight":{"Latitude":36.6364658,"Longitude":-4.4826991}},"Address":{"Label":"Paseo Marítimo, 79, 29620 Torremolinos (Málaga), España","Country":"ESP","State":"Andalucía","County":"Málaga","City":"Torremolinos","Street":"Paseo Marítimo","HouseNumber":"79","PostalCode":"29620","AdditionalData":[{"value":"España","key":"CountryName"},{"value":"Andalucía","key":"StateName"},{"value":"Málaga","key":"CountyName"}]},"MapReference":{"ReferenceId":"1203613858","Spot":0.7,"SideOfStreet":"left","CountryId":"20215059","StateId":"20221885","CountyId":"20221892","CityId":"20236219","AddressId":"347328209","RoadLinkId":"516676486"}}},{"Relevance":1.0,"Distance":169.3,"MatchLevel":"street","MatchQuality":{"Country":1.0,"State":1.0,"County":1.0,"City":1.0,"Street":[1.0],"PostalCode":1.0},"Location":{"LocationId":"NT_nX61ctk41itZ1xxGyUomoC_l_1203612322_L","LocationType":"point","DisplayPosition":{"Latitude":36.63556,"Longitude":-4.48567},"MapView":{"TopLeft":{"Latitude":36.63556,"Longitude":-4.48583},"BottomRight":{"Latitude":36.63537,"Longitude":-4.48567}},"Address":{"Label":"Paseo Marítimo, 29620 Torremolinos (Málaga), España","Country":"ESP","State":"Andalucía","County":"Málaga","City":"Torremolinos","Street":"Paseo Marítimo","PostalCode":"29620","AdditionalData":[{"value":"España","key":"CountryName"},{"value":"Andalucía","key":"StateName"},{"value":"Málaga","key":"CountyName"}]},"MapReference":{"ReferenceId":"1203612322","Spot":1.0,"SideOfStreet":"left","CountryId":"20215059","StateId":"20221885","CountyId":"20221892","CityId":"20236219"}}},{"Relevance":1.0,"Distance":189.6,"MatchLevel":"street","MatchQuality":{"Country":1.0,"State":1.0,"County":1.0,"City":1.0,"Street":[1.0],"PostalCode":1.0},"Location":{"LocationId":"NT_nX61ctk41itZ1xxGyUomoC_l_1203612324_L","LocationType":"point","DisplayPosition":{"Latitude":36.63537,"Longitude":-4.48583},"MapView":{"TopLeft":{"Latitude":36.63537,"Longitude":-4.48621},"BottomRight":{"Latitude":36.63494,"Longitude":-4.48583}},"Address":{"Label":"Paseo Marítimo, 29620 Torremolinos (Málaga), España","Country":"ESP","State":"Andalucía","County":"Málaga","City":"Torremolinos","Street":"Paseo Marítimo","PostalCode":"29620","AdditionalData":[{"value":"España","key":"CountryName"},{"value":"Andalucía","key":"StateName"},{"value":"Málaga","key":"CountyName"}]},"MapReference":{"ReferenceId":"1203612324","Spot":1.0,"SideOfStreet":"left","CountryId":"20215059","StateId":"20221885","CountyId":"20221892","CityId":"20236219"}}}]}]}}