{"Response":{"MetaInfo":{"Timestamp":"2020-03-28T09:41:38.821+0000","NextPageInformation":"2"},"View":[{"_type":"SearchResultsViewType","ViewId":0,"Result":[{"Relevance":1.0,"Distance":0.0,"Direction":0.0,"MatchLevel":"district","MatchQuality":{"Country":1.0,"State":1.0,"County":1.0,"City":1.0,"District":1.0,"PostalCode":1.0},"Location":{"LocationId":"NT_RMLWnZUngbO-VbCrxRjwkD","LocationType":"point","DisplayPosition":{"Latitude":36.7105659,"Longitude":-4.4390167},"MapView":{"TopLeft":{"Latitude":36.71275,"Longitude":-4.4441},"BottomRight":{"Latitude":36.70672,"Longitude":-4.43477}},"Address":{"Label":"La Unión, Málaga, Andalucía, España","Country":"ESP","State":"Andalucía","County":"Málaga","City":"Málaga","District":"La Unión","PostalCode":"29006","AdditionalData":[{"value":"España","key":"CountryName"},{"value":"Andalucía","key":"StateName"},{"value":"Málaga","key":"CountyName"}]},"MapReference":{"ReferenceId":"1075511636","SideOfStreet":"neither","CountryId":"20215059","StateId":"20221885","CountyId":"20221892","CityId":"20236082"}}},{"Relevance":1.0,"Distance":15.0,"MatchLevel":"houseNumber","MatchQuality":{"Country":1.0,"State":1.0,"County":1.0,"City":1.0,"District":1.0,"Street":[1.0],"HouseNumber":1.0,"PostalCode":1.0},"MatchType":"interpolated","Location":{"LocationId":"NT_LlVK1ZqAbynBwUgWrfwCeC_4A","LocationType":"point","DisplayPosition":{"Latitude":36.7106,"Longitude":-4.43918},"MapView":{"TopLeft":{"Latitude":36.7117242,"Longitude":-4.4405823},"BottomRight":{"Latitude":36.7094758,"Longitude":-4.4377777}},"Address":{"Label":"Calle Reboul, 8, 29006 Málaga (Málaga), España","Country":"ESP","State":"Andalucía","County":"Málaga","City":"Málaga","District":"La Unión","Street":"Calle Reboul","HouseNumber":"8","PostalCode":"29006","AdditionalData":[{"value":"España","key":"CountryName"},{"value":"Andalucía","key":"StateName"},{"value":"Málaga","key":"CountyName"}]},"MapReference":{"ReferenceId":"1075511636","Spot":0.77,"SideOfStreet":"left","CountryId":"20215059","StateId":"20221885","CountyId":"20221892","CityId":"20236082","AddressId":"595164464","RoadLinkId":"395689021"}}},{"Relevance":1.0,"Distance":21.8,"MatchLevel":"street","MatchQuality":{"Country":1.0,"State":1.0,"County":1.0,"City":1.0,"District":1.0,"Street":[1.0],"PostalCode":1.0},"Location":{"LocationId":"NT_LlVK1ZqAbynBwUgWrfwCeC_l_1075511640_R","LocationType":"point","DisplayPosition":{"Latitude":36.71055,"Longitude":-4.43926},"MapView":{"TopLeft":{"Latitude":36.71064,"Longitude":-4.43937},"BottomRight":{"Latitude":36.71055,"Longitude":-4.43926}},"Address":{"Label":"Calle Reboul, 29006 Málaga (Málaga), España","Country":"ESP","State":"Andalucía","County":"Málaga","City":"Málaga","District":"La Unión","Street":"Calle Reboul","PostalCode":"29006","AdditionalData":[{"value":"España","key":"CountryName"},{"value":"Andalucía","key":"StateName"},{"value":"Málaga","key":"CountyName"}]},"MapReference":{"ReferenceId":"1075511640","Spot":0.0,"SideOfStreet":"right","CountryId":"20215059","StateId":"20221885","CountyId":"20221892","CityId":"20236082"}}},{"Relevance":1.0,"Distance":21.8,"MatchLevel":"houseNumber","MatchQuality":{"Country":1.0,"State":1.0,"County":1.0,"City":1.0,"District":1.0,"Street":[1.0],"HouseNumber":1.0,"PostalCode":1.0},"MatchType":"interpolated","Location":{"LocationId":"NT_LlVK1ZqAbynBwUgWrfwCeC_zA","LocationType":"point","DisplayPosition":{"Latitude":36.71076,"Longitude":-4.43898},"MapView":{"TopLeft":{"Latitude":36.7118842,"Longitude":-4.4403823},"BottomRight":{"Latitude":36.7096358,"Longitude":-4.4375777}},"Address":{"Label":"Calle Reboul, 3, 29006 Málaga (Málaga), España","Country":"ESP","State":"Andalucía","County":"Málaga","City":"Málaga","District":"La Unión","Street":"Calle Reboul","HouseNumber":"3","PostalCode":"29006","AdditionalData":[{"value":"España","key":"CountryName"},{"value":"Andalucía","key":"StateName"},{"value":"Málaga","key":"CountyName"}]},"MapReference":{"ReferenceId":"709534181","Spot":0.31,"SideOfStreet":"right","CountryId":"20215059","StateId":"20221885","CountyId":"20221892","CityId":"20236082","AddressId":"595185734","RoadLinkId":"114894370"}}},{"Relevance":1.0,"Distance":31.6,"MatchLevel":"houseNumber","MatchQuality":{"Country":1.0,"State":1.0,"County":1.0,"City":1.0,"District":1.0,"Street":[1.0],"HouseNumber":1.0,"PostalCode":1.0},"MatchType":"interpolated","Location":{"LocationId":"NT_n6YKJPhXLRNYwOPJ19wZ1B_yA","LocationType":"point","DisplayPosition":{"Latitude":36.71033,"Longitude":-4.43882},"MapView":{"TopLeft":{"Latitude":36.7114542,"Longitude":-4.4402223},"BottomRight":{"Latitude":36.7092058,"Longitude":-4.4374177}},"Address":{"Label":"Calle Dulce Chacón, 2, 29006 Málaga (Málaga), España","Country":"ESP","State":"Andalucía","County":"Málaga","City":"Málaga","District":"La Unión","Street":"Calle Dulce Chacón","HouseNumber":"2","PostalCode":"29006","AdditionalData":[{"value":"España","key":"CountryName"},{"value":"Andalucía","key":"StateName"},{"value":"Málaga","key":"CountyName"}]},"MapReference":{"ReferenceId":"854797664","Spot":0.36,"SideOfStreet":"right","CountryId":"20215059","StateId":"20221885","CountyId":"20221892","CityId":"20236082","AddressId":"595208719","RoadLinkId":"232920249"}}},{"Relevance":1.0,"Distance":32.6,"MatchLevel":"street","MatchQuality":{"Country":1.0,"State":1.0,"County":1.0,"City":1.0,"District":1.0,"PostalCode":1.0},"Location":{"LocationId":"NT_Nd1xy3aT7XHGgFczSIlRjB_l_1075511639_R","LocationType":"point","DisplayPosition":{"Latitude":36.71064,"Longitude":-4.43937},"MapView":{"TopLeft":{"Latitude":36.71064,"Longitude":-4.43977},"BottomRight":{"Latitude":36.71029,"Longitude":-4.43937}},"Address":{"Label":"29006 Málaga (Málaga), España","Country":"ESP","State":"Andalucía","County":"Málaga","City":"Málaga","District":"La Unión","PostalCode":"29006","AdditionalData":[{"value":"España","key":"CountryName"},{"value":"Andalucía","key":"StateName"},{"value":"Málaga","key":"CountyName"}]},"MapReference":{"ReferenceId":"1075511639","Spot":1.0,"SideOfStreet":"right","CountryId":"20215059","StateId":"20221885","CountyId":"20221892","CityId":"20236082"}}},{"Relevance":1.0,"Distance":39.8,"MatchLevel":"houseNumber","MatchQuality":{"Country":1.0,"State":1.0,"County":1.0,"City":1.0,"District":1.0,"Street":[1.0],"HouseNumber":1.0,"PostalCode":1.0},"MatchType":"interpolated","Location":{"LocationId":"NT_LlVK1ZqAbynBwUgWrfwCeC_1A","LocationType":"point","DisplayPosition":{"Latitude":36.71041,"Longitude":-4.43944},"MapView":{"TopLeft":{"Latitude":36.7115342,"Longitude":-4.4408423},"BottomRight":{"Latitude":36.7092858,"Longitude":-4.4380377}},"Address":{"Label":"Calle Reboul, 5, 29006 Málaga (Málaga), España","Country":"ESP","State":"Andalucía","County":"Málaga","City":"Málaga","District":"La Unión","Street":"Calle Reboul","HouseNumber":"5","PostalCode":"29006","AdditionalData":[{"value":"España","key":"CountryName"},{"value":"Andalucía","key":"StateName"},{"value":"Málaga","key":"CountyName"}]},"MapReference":{"ReferenceId":"1075511635","Spot":0.76,"SideOfStreet":"right","CountryId":"20215059","StateId":"20221885","CountyId":"20221892","CityId":"20236082","AddressId":"595164458","RoadLinkId":"395689020"}}},{"Relevance":1.0,"Distance":44.2,"MatchLevel":"houseNumber","MatchQuality":{"Country":1.0,"State":1.0,"County":1.0,"City":1.0,"District":1.0,"Street":[1.0],"HouseNumber":1.0,"PostalCode":1.0},"MatchType":"interpolated","Location":{"LocationId":"NT_LlVK1ZqAbynBwUgWrfwCeC_xAD","LocationType":"point","DisplayPosition":{"Latitude":36.71061,"Longitude":-4.43951},"MapView":{"TopLeft":{"Latitude":36.7117342,"Longitude":-4.4409123},"BottomRight":{"Latitude":36.7094858,"Longitude":-4.4381077}},"Address":{"Label":"Calle Reboul, 10, 29006 Málaga (Málaga), España","Country":"ESP","State":"Andalucía","County":"Málaga","City":"Málaga","District":"La Unión","Street":"Calle Reboul","HouseNumber":"10","PostalCode":"29006","AdditionalData":[{"value":"España","key":"CountryName"},{"value":"Andalucía","key":"StateName"},{"value":"Málaga","key":"CountyName"}]},"MapReference":{"ReferenceId":"1075511643","Spot":0.78,"SideOfStreet":"left","CountryId":"20215059","StateId":"20221885","CountyId":"20221892","CityId":"20236082","AddressId":"595164463","RoadLinkId":"395689028"}}},{"Relevance":1.0,"Distance":52.9,"MatchLevel":"houseNumber","MatchQuality":{"Country":1.0,"State":1.0,"County":1.0,"City":1.0,"District":1.0,"Street":[1.0],"HouseNumber":1.0,"PostalCode":1.0},"MatchType":"interpolated","Location":{"LocationId":"NT_HHBeEwGQkWLJOJlQk0FJ2B_0MD","LocationType":"point","DisplayPosition":{"Latitude":36.71109,"Longitude":-4.43907},"MapView":{"TopLeft":{"Latitude":36.7122142,"Longitude":-4.4404723},"BottomRight":{"Latitude":36.7099658,"Longitude":-4.4376677}},"Address":{"Label":"Calle La Unión, 43, 29006 Málaga (Málaga), España","Country":"ESP","State":"Andalucía","County":"Málaga","City":"Málaga","District":"La Unión","Street":"Calle La Unión","HouseNumber":"43","PostalCode":"29006","AdditionalData":[{"value":"España","key":"CountryName"},{"value":"Andalucía","key":"StateName"},{"value":"Málaga","key":"CountyName"}]},"MapReference":{"ReferenceId":"549134142","Spot":0.3,"SideOfStreet":"right","CountryId":"20215059","StateId":"20221885","CountyId":"20221892","CityId":"20236082","AddressId":"595209576","RoadLinkId":"67100124"}}},{"Relevance":1.0,"Distance":54.1,"MatchLevel":"houseNumber","MatchQuality":{"Country":1.0,"State":1.0,"County":1.0,"City":1.0,"District":1.0,"Street":[1.0],"HouseNumber":1.0,"PostalCode":1.0},"MatchType":"interpolated","Location":{"LocationId":"NT_HHBeEwGQkWLJOJlQk0FJ2B_0cD","LocationType":"point","DisplayPosition":{"Latitude":36.711,"Longitude":-4.43943},"MapView":{"TopLeft":{"Latitude":36.7121242,"Longitude":-4.4408323},"BottomRight":{"Latitude":36.7098758,"Longitude":-4.4380277}},"Address":{"Label":"Calle La Unión, 47, 29006 Málaga (Málaga), España","Country":"ESP","State":"Andalucía","County":"Málaga","City":"Málaga","District":"La Unión","Street":"Calle La Unión","HouseNumber":"47","PostalCode":"29006","AdditionalData":[{"value":"España","key":"CountryName"},{"value":"Andalucía","key":"StateName"},{"value":"Málaga","key":"CountyName"}]},"MapReference":{"ReferenceId":"549134159","Spot":0.61,"SideOfStreet":"right","CountryId":"20215059","StateId":"20221885","CountyId":"20221892","CityId":"20236082","AddressId":"595155373","RoadLinkId":"66719419"}}}]}]}}