{"Response":{"MetaInfo":{"Timestamp":"2020-03-28T09:41:48.019+0000","NextPageInformation":"2"},"View":[{"_type":"SearchResultsViewType","ViewId":0,"Result":[{"Relevance":1.0,"Distance":0.0,"Direction":0.0,"MatchLevel":"district","MatchQuality":{"Country":1.0,"State":1.0,"County":1.0,"City":1.0,"District":1.0,"PostalCode":1.0},"Location":{"LocationId":"NT_fGLug0FZnAqaWALYzjjLvA","LocationType":"point","DisplayPosition":{"Latitude":36.7013433,"Longitude":-4.4474512},"MapView":{"TopLeft":{"Latitude":36.70241,"Longitude":-4.45009},"BottomRight":{"Latitude":36.69795,"Longitude":-4.44557}},"Address":{"Label":"El Torcal, Málaga, Andalucía, España","Country":"ESP","State":"Andalucía","County":"Málaga","City":"Málaga","District":"El Torcal","PostalCode":"29003","AdditionalData":[{"value":"España","key":"CountryName"},{"value":"Andalucía","key":"StateName"},{"value":"Málaga","key":"CountyName"}]},"MapReference":{"ReferenceId":"888338814","SideOfStreet":"neither","CountryId":"20215059","StateId":"20221885","CountyId":"20221892","CityId":"20236082"}}},{"Relevance":1.0,"Distance":6.0,"MatchLevel":"street","MatchQuality":{"Country":1.0,"State":1.0,"County":1.0,"City":1.0,"District":1.0,"Street":[1.0],"PostalCode":1.0},"Location":{"LocationId":"NT_gRvUHM8GGjrRbkjOUSFgbC_l_854942862_R","LocationType":"point","DisplayPosition":{"Latitude":36.7013967,"Longitude":-4.4474601},"MapView":{"TopLeft":{"Latitude":36.70145,"Longitude":-4.4475},"BottomRight":{"Latitude":36.70139,"Longitude":-4.4472}},"Address":{"Label":"Calle José Palanca, 29003 Málaga (Málaga), España","Country":"ESP","State":"Andalucía","County":"Málaga","City":"Málaga","District":"El Torcal","Street":"Calle José Palanca","PostalCode":"29003","AdditionalData":[{"value":"España","key":"CountryName"},{"value":"Andalucía","key":"StateName"},{"value":"Málaga","key":"CountyName"}]},"MapReference":{"ReferenceId":"854942862","Spot":0.13,"SideOfStreet":"right","CountryId":"20215059","StateId":"20221885","CountyId":"20221892","CityId":"20236082"}}},{"Relevance":1.0,"Distance":6.8,"MatchLevel":"street","MatchQuality":{"Country":1.0,"State":1.0,"County":1.0,"City":1.0,"District":1.0,"Street":[1.0],"PostalCode":1.0},"Location":{"LocationId":"NT_gRvUHM8GGjrRbkjOUSFgbC_l_549145740_R","LocationType":"point","DisplayPosition":{"Latitude":36.70139,"Longitude":-4.4475},"MapView":{"TopLeft":{"Latitude":36.7015,"Longitude":-4.44755},"BottomRight":{"Latitude":36.70139,"Longitude":-4.4475}},"Address":{"Label":"Calle José Palanca, 29003 Málaga (Málaga), España","Country":"ESP","State":"Andalucía","County":"Málaga","City":"Málaga","District":"El Torcal","Street":"Calle José Palanca","PostalCode":"29003","AdditionalData":[{"value":"España","key":"CountryName"},{"value":"Andalucía","key":"StateName"},{"value":"Málaga","key":"CountyName"}]},"MapReference":{"ReferenceId":"549145740","Spot":0.0,"SideOfStreet":"right","CountryId":"20215059","StateId":"20221885","CountyId":"20221892","CityId":"20236082"}}},{"Relevance":1.0,"Distance":19.4,"MatchLevel":"street","MatchQuality":{"Country":1.0,"State":1.0,"County":1.0,"City":1.0,"District":1.0,"Street":[1.0],"PostalCode":1.0},"Location":{"LocationId":"NT_gRvUHM8GGjrRbkjOUSFgbC_l_549145788_R","LocationType":"point","DisplayPosition":{"Latitude":36.7015142,"Longitude":-4.4474972},"MapView":{"TopLeft":{"Latitude":36.70157,"Longitude":-4.44755},"BottomRight":{"Latitude":36.7015,"Longitude":-4.44729}},"Address":{"Label":"Calle José Palanca, 29003 Málaga (Málaga), España","Country":"ESP","State":"Andalucía","County":"Málaga","City":"Málaga","District":"El Torcal","Street":"Calle José Palanca","PostalCode":"29003","AdditionalData":[{"value":"España","key":"CountryName"},{"value":"Andalucía","key":"StateName"},{"value":"Málaga","key":"CountyName"}]},"MapReference":{"ReferenceId":"549145788","Spot":0.2,"SideOfStreet":"right","CountryId":"20215059","StateId":"20221885","CountyId":"20221892","CityId":"20236082"}}},{"Relevance":1.0,"Distance":23.8,"MatchLevel":"houseNumber","MatchQuality":{"Country":1.0,"State":1.0,"County":1.0,"City":1.0,"District":1.0,"Street":[1.0],"HouseNumber":1.0,"PostalCode":1.0},"MatchType":"interpolated","Location":{"LocationId":"NT_gRvUHM8GGjrRbkjOUSFgbC_1A","LocationType":"point","DisplayPosition":{"Latitude":36.70133,"Longitude":-4.44772},"MapView":{"TopLeft":{"Latitude":36.7024542,"Longitude":-4.4491221},"BottomRight":{"Latitude":36.7002058,"Longitude":-4.4463179}},"Address":{"Label":"Calle José Palanca, 5, 29003 Málaga (Málaga), España","Country":"ESP","State":"Andalucía","County":"Málaga","City":"Málaga","District":"El Torcal","Street":"Calle José Palanca","HouseNumber":"5","PostalCode":"29003","AdditionalData":[{"value":"España","key":"CountryName"},{"value":"Andalucía","key":"StateName"},{"value":"Málaga","key":"CountyName"}]},"MapReference":{"ReferenceId":"549145739","Spot":0.64,"SideOfStreet":"right","CountryId":"20215059","StateId":"20221885","CountyId":"20221892","CityId":"20236082","AddressId":"595161270","RoadLinkId":"67119239"}}},{"Relevance":1.0,"Distance":24.8,"MatchLevel":"street","MatchQuality":{"Country":1.0,"State":1.0,"County":1.0,"City":1.0,"District":1.0,"PostalCode":1.0},"Location":{"LocationId":"NT_u709LGwRO8.q9f8dIPXYID_l_854942863_L","LocationType":"point","DisplayPosition":{"Latitude":36.7014251,"Longitude":-4.4471921},"MapView":{"TopLeft":{"Latitude":36.70145,"Longitude":-4.4472},"BottomRight":{"Latitude":36.7011,"Longitude":-4.44706}},"Address":{"Label":"29003 Málaga (Málaga), España","Country":"ESP","State":"Andalucía","County":"Málaga","City":"Málaga","District":"El Torcal","PostalCode":"29003","AdditionalData":[{"value":"España","key":"CountryName"},{"value":"Andalucía","key":"StateName"},{"value":"Málaga","key":"CountyName"}]},"MapReference":{"ReferenceId":"854942863","Spot":0.93,"SideOfStreet":"left","CountryId":"20215059","StateId":"20221885","CountyId":"20221892","CityId":"20236082"}}},{"Relevance":1.0,"Distance":25.3,"MatchLevel":"street","MatchQuality":{"Country":1.0,"State":1.0,"County":1.0,"City":1.0,"District":1.0,"Street":[1.0],"PostalCode":1.0},"Location":{"LocationId":"NT_gRvUHM8GGjrRbkjOUSFgbC_l_854942861_L","LocationType":"point","DisplayPosition":{"Latitude":36.70145,"Longitude":-4.4472},"MapView":{"TopLeft":{"Latitude":36.70149,"Longitude":-4.4472},"BottomRight":{"Latitude":36.70132,"Longitude":-4.44661}},"Address":{"Label":"Calle José Palanca, 29003 Málaga (Málaga), España","Country":"ESP","State":"Andalucía","County":"Málaga","City":"Málaga","District":"El Torcal","Street":"Calle José Palanca","PostalCode":"29003","AdditionalData":[{"value":"España","key":"CountryName"},{"value":"Andalucía","key":"StateName"},{"value":"Málaga","key":"CountyName"}]},"MapReference":{"ReferenceId":"854942861","Spot":1.0,"SideOfStreet":"left","CountryId":"20215059","StateId":"20221885","CountyId":"20221892","CityId":"20236082"}}},{"Relevance":1.0,"Distance":33.7,"MatchLevel":"houseNumber","MatchQuality":{"Country":1.0,"State":1.0,"County":1.0,"City":1.0,"District":1.0,"Street":[1.0],"HouseNumber":1.0,"PostalCode":1.0},"MatchType":"interpolated","Location":{"LocationId":"NT_gRvUHM8GGjrRbkjOUSFgbC_yAD","LocationType":"point","DisplayPosition":{"Latitude":36.70146,"Longitude":-4.4478},"MapView":{"TopLeft":{"Latitude":36.7025842,"Longitude":-4.4492021},"BottomRight":{"Latitude":36.7003358,"Longitude":-4.4463979}},"Address":{"Label":"Calle José Palanca, 20, 29003 Málaga (Málaga), España","Country":"ESP","State":"Andalucía","County":"Málaga","City":"Málaga","District":"El Torcal","Street":"Calle José Palanca","HouseNumber":"20","PostalCode":"29003","AdditionalData":[{"value":"España","key":"CountryName"},{"value":"Andalucía","key":"StateName"},{"value":"Málaga","key":"CountyName"}]},"MapReference":{"ReferenceId":"549145785","Spot":0.56,"SideOfStreet":"left","CountryId":"20215059","StateId":"20221885","CountyId":"20221892","CityId":"20236082","AddressId":"595157139","RoadLinkId":"66746589"}}},{"Relevance":1.0,"Distance":34.6,"MatchLevel":"street","MatchQuality":{"Country":1.0,"State":1.0,"County":1.0,"City":1.0,"District":1.0,"PostalCode":1.0},"Location":{"LocationId":"NT_u709LGwRO8.q9f8dIPXYID_l_854942868_L","LocationType":"point","DisplayPosition":{"Latitude":36.7010325,"Longitude":-4.4474432},"MapView":{"TopLeft":{"Latitude":36.70104,"Longitude":-4.44772},"BottomRight":{"Latitude":36.70089,"Longitude":-4.44715}},"Address":{"Label":"29003 Málaga (Málaga), España","Country":"ESP","State":"Andalucía","County":"Málaga","City":"Málaga","District":"El Torcal","PostalCode":"29003","AdditionalData":[{"value":"España","key":"CountryName"},{"value":"Andalucía","key":"StateName"},{"value":"Málaga","key":"CountyName"}]},"MapReference":{"ReferenceId":"854942868","Spot":0.53,"SideOfStreet":"left","CountryId":"20215059","StateId":"20221885","CountyId":"20221892","CityId":"20236082"}}},{"Relevance":1.0,"Distance":42.2,"MatchLevel":"street","MatchQuality":{"Country":1.0,"State":1.0,"County":1.0,"City":1.0,"District":1.0,"PostalCode":1.0},"Location":{"LocationId":"NT_u709LGwRO8.q9f8dIPXYID_l_854942865_L","LocationType":"point","DisplayPosition":{"Latitude":36.70105,"Longitude":-4.44715},"MapView":{"TopLeft":{"Latitude":36.7011,"Longitude":-4.44715},"BottomRight":{"Latitude":36.70104,"Longitude":-4.44706}},"Address":{"Label":"29003 Málaga (Málaga), España","Country":"ESP","State":"Andalucía","County":"Málaga","City":"Málaga","District":"El Torcal","PostalCode":"29003","AdditionalData":[{"value":"España","key":"CountryName"},{"value":"Andalucía","key":"StateName"},{"value":"Málaga","key":"CountyName"}]},"MapReference":{"ReferenceId":"854942865","Spot":0.09,"SideOfStreet":"left","CountryId":"20215059","StateId":"20221885","CountyId":"20221892","CityId":"20236082"}}}]}]}}