{"Response":{"MetaInfo":{"Timestamp":"2020-03-28T09:39:06.312+0000","NextPageInformation":"2"},"View":[{"_type":"SearchResultsViewType","ViewId":0,"Result":[{"Relevance":1.0,"Distance":0.0,"Direction":0.0,"MatchLevel":"district","MatchQuality":{"Country":1.0,"State":1.0,"County":1.0,"City":1.0,"District":1.0,"PostalCode":1.0},"Location":{"LocationId":"NT_5RiV4Nu4bl5e4HLHy1waXD","LocationType":"point","DisplayPosition":{"Latitude":36.7724216,"Longitude":-3.1870524},"MapView":{"TopLeft":{"Latitude":36.77428,"Longitude":-3.18897},"BottomRight":{"Latitude":36.77101,"Longitude":-3.18426}},"Address":{"Label":"La Herradura, Albuñol, Andalucía, España","Country":"ESP","State":"Andalucía","County":"Granada","City":"Albuñol","District":"La Herradura","PostalCode":"18700","AdditionalData":[{"value":"España","key":"CountryName"},{"value":"Andalucía","key":"StateName"},{"value":"Granada","key":"CountyName"}]},"MapReference":{"ReferenceId":"1185481736","SideOfStreet":"neither","CountryId":"20215059","StateId":"20221885","CountyId":"20221889","CityId":"20234366","DistrictId":"26624505"}}},{"Relevance":1.0,"Distance":8.3,"MatchLevel":"houseNumber","MatchQuality":{"Country":1.0,"State":1.0,"County":1.0,"City":1.0,"District":1.0,"Street":[1.0],"HouseNumber":1.0,"PostalCode":1.0},"MatchType":"interpolated","Location":{"LocationId":"NT_4tPIepqJ6-ajHlt-FvSQvD_3kD","LocationType":"point","DisplayPosition":{"Latitude":36.77231,"Longitude":-3.18704},"MapView":{"TopLeft":{"Latitude":36.7734342,"Longitude":-3.1884434},"BottomRight":{"Latitude":36.7711858,"Longitude":-3.1856366}},"Address":{"Label":"Calle La Ermita, 79, 18700 Albuñol (Granada), España","Country":"ESP","State":"Andalucía","County":"Granada","City":"Albuñol","District":"La Herradura","Street":"Calle La Ermita","HouseNumber":"79","PostalCode":"18700","AdditionalData":[{"value":"España","key":"CountryName"},{"value":"Andalucía","key":"StateName"},{"value":"Granada","key":"CountyName"}]},"MapReference":{"ReferenceId":"984204644","Spot":1.0,"SideOfStreet":"right","CountryId":"20215059","StateId":"20221885","CountyId":"20221889","CityId":"20234366","DistrictId":"26624505","AddressId":"746008938","RoadLinkId":"562139051"}}},{"Relevance":1.0,"Distance":11.1,"MatchLevel":"street","MatchQuality":{"Country":1.0,"State":1.0,"County":1.0,"City":1.0,"District":1.0,"PostalCode":1.0},"Location":{"LocationId":"NT_AyqgnxpqqpY4M7NtnE443B_l_585567014_R","LocationType":"point","DisplayPosition":{"Latitude":36.7724882,"Longitude":-3.1871456},"MapView":{"TopLeft":{"Latitude":36.77258,"Longitude":-3.18723},"BottomRight":{"Latitude":36.77237,"Longitude":-3.18708}},"Address":{"Label":"18700 Albuñol (Granada), España","Country":"ESP","State":"Andalucía","County":"Granada","City":"Albuñol","District":"La Herradura","PostalCode":"18700","AdditionalData":[{"value":"España","key":"CountryName"},{"value":"Andalucía","key":"StateName"},{"value":"Granada","key":"CountyName"}]},"MapReference":{"ReferenceId":"585567014","Spot":0.56,"SideOfStreet":"right","CountryId":"20215059","StateId":"20221885","CountyId":"20221889","CityId":"20234366","DistrictId":"26624505"}}},{"Relevance":1.0,"Distance":11.6,"MatchLevel":"street","MatchQuality":{"Country":1.0,"State":1.0,"County":1.0,"City":1.0,"District":1.0,"Street":[1.0],"PostalCode":1.0},"Location":{"LocationId":"NT_4tPIepqJ6-ajHlt-FvSQvD_l_585566996_R","LocationType":"point","DisplayPosition":{"Latitude":36.7723195,"Longitude":-3.1870779},"MapView":{"TopLeft":{"Latitude":36.77237,"Longitude":-3.18723},"BottomRight":{"Latitude":36.77231,"Longitude":-3.18704}},"Address":{"Label":"Calle La Ermita, 18700 Albuñol (Granada), España","Country":"ESP","State":"Andalucía","County":"Granada","City":"Albuñol","District":"La Herradura","Street":"Calle La Ermita","PostalCode":"18700","AdditionalData":[{"value":"España","key":"CountryName"},{"value":"Andalucía","key":"StateName"},{"value":"Granada","key":"CountyName"}]},"MapReference":{"ReferenceId":"585566996","Spot":0.2,"SideOfStreet":"right","CountryId":"20215059","StateId":"20221885","CountyId":"20221889","CityId":"20234366","DistrictId":"26624505"}}},{"Relevance":1.0,"Distance":13.0,"MatchLevel":"houseNumber","MatchQuality":{"Country":1.0,"State":1.0,"County":1.0,"City":1.0,"District":1.0,"Street":[1.0],"HouseNumber":1.0,"PostalCode":1.0},"MatchType":"interpolated","Location":{"LocationId":"NT_4tPIepqJ6-ajHlt-FvSQvD_3gD","LocationType":"point","DisplayPosition":{"Latitude":36.77246,"Longitude":-3.18686},"MapView":{"TopLeft":{"Latitude":36.7735842,"Longitude":-3.1882634},"BottomRight":{"Latitude":36.7713358,"Longitude":-3.1854566}},"Address":{"Label":"Calle La Ermita, 78, 18700 Albuñol (Granada), España","Country":"ESP","State":"Andalucía","County":"Granada","City":"Albuñol","District":"La Herradura","Street":"Calle La Ermita","HouseNumber":"78","PostalCode":"18700","AdditionalData":[{"value":"España","key":"CountryName"},{"value":"Andalucía","key":"StateName"},{"value":"Granada","key":"CountyName"}]},"MapReference":{"ReferenceId":"1185481730","Spot":0.6,"SideOfStreet":"left","CountryId":"20215059","StateId":"20221885","CountyId":"20221889","CityId":"20234366","DistrictId":"26624505","AddressId":"745936020","RoadLinkId":"493831245"}}},{"Relevance":1.0,"Distance":16.8,"MatchLevel":"street","MatchQuality":{"Country":1.0,"State":1.0,"County":1.0,"City":1.0,"District":1.0,"Street":[1.0],"PostalCode":1.0},"Location":{"LocationId":"NT_4tPIepqJ6-ajHlt-FvSQvD_l_585567016_R","LocationType":"point","DisplayPosition":{"Latitude":36.77237,"Longitude":-3.18723},"MapView":{"TopLeft":{"Latitude":36.7724,"Longitude":-3.18728},"BottomRight":{"Latitude":36.77237,"Longitude":-3.18723}},"Address":{"Label":"Calle La Ermita, 18700 Albuñol (Granada), España","Country":"ESP","State":"Andalucía","County":"Granada","City":"Albuñol","District":"La Herradura","Street":"Calle La Ermita","PostalCode":"18700","AdditionalData":[{"value":"España","key":"CountryName"},{"value":"Andalucía","key":"StateName"},{"value":"Granada","key":"CountyName"}]},"MapReference":{"ReferenceId":"585567016","Spot":0.0,"SideOfStreet":"right","CountryId":"20215059","StateId":"20221885","CountyId":"20221889","CityId":"20234366","DistrictId":"26624505"}}},{"Relevance":1.0,"Distance":17.8,"MatchLevel":"street","MatchQuality":{"Country":1.0,"State":1.0,"County":1.0,"City":1.0,"District":1.0,"Street":[1.0],"PostalCode":1.0},"Location":{"LocationId":"NT_.2YxjhquUTCdKq1h8p8W8D_l_984204648_L","LocationType":"point","DisplayPosition":{"Latitude":36.77258,"Longitude":-3.18708},"MapView":{"TopLeft":{"Latitude":36.77272,"Longitude":-3.18746},"BottomRight":{"Latitude":36.77258,"Longitude":-3.18708}},"Address":{"Label":"Calle Viñolo, 18700 Albuñol (Granada), España","Country":"ESP","State":"Andalucía","County":"Granada","City":"Albuñol","District":"La Herradura","Street":"Calle Viñolo","PostalCode":"18700","AdditionalData":[{"value":"España","key":"CountryName"},{"value":"Andalucía","key":"StateName"},{"value":"Granada","key":"CountyName"}]},"MapReference":{"ReferenceId":"984204648","Spot":0.0,"SideOfStreet":"left","CountryId":"20215059","StateId":"20221885","CountyId":"20221889","CityId":"20234366","DistrictId":"26624505"}}},{"Relevance":1.0,"Distance":18.4,"MatchLevel":"houseNumber","MatchQuality":{"Country":1.0,"State":1.0,"County":1.0,"City":1.0,"District":1.0,"Street":[1.0],"HouseNumber":1.0,"PostalCode":1.0},"MatchType":"interpolated","Location":{"LocationId":"NT_5AMscsd0HdUMt7xN-sl.RC_3cD","LocationType":"point","DisplayPosition":{"Latitude":36.77234,"Longitude":-3.18677},"MapView":{"TopLeft":{"Latitude":36.7734642,"Longitude":-3.1881734},"BottomRight":{"Latitude":36.7712158,"Longitude":-3.1853666}},"Address":{"Label":"Plaza San Pedro, 77, 18700 Albuñol (Granada), España","Country":"ESP","State":"Andalucía","County":"Granada","City":"Albuñol","District":"La Herradura","Street":"Plaza San Pedro","HouseNumber":"77","PostalCode":"18700","AdditionalData":[{"value":"España","key":"CountryName"},{"value":"Andalucía","key":"StateName"},{"value":"Granada","key":"CountyName"}]},"MapReference":{"ReferenceId":"1185481732","Spot":0.0,"SideOfStreet":"left","CountryId":"20215059","StateId":"20221885","CountyId":"20221889","CityId":"20234366","DistrictId":"26624505","AddressId":"746030824","RoadLinkId":"493831247"}}},{"Relevance":1.0,"Distance":20.7,"MatchLevel":"houseNumber","MatchQuality":{"Country":1.0,"State":1.0,"County":1.0,"City":1.0,"District":1.0,"Street":[1.0],"HouseNumber":1.0,"PostalCode":1.0},"MatchType":"interpolated","Location":{"LocationId":"NT_4tPIepqJ6-ajHlt-FvSQvD_4AD","LocationType":"point","DisplayPosition":{"Latitude":36.77242,"Longitude":-3.18731},"MapView":{"TopLeft":{"Latitude":36.7735442,"Longitude":-3.1887134},"BottomRight":{"Latitude":36.7712958,"Longitude":-3.1859066}},"Address":{"Label":"Calle La Ermita, 80, 18700 Albuñol (Granada), España","Country":"ESP","State":"Andalucía","County":"Granada","City":"Albuñol","District":"La Herradura","Street":"Calle La Ermita","HouseNumber":"80","PostalCode":"18700","AdditionalData":[{"value":"España","key":"CountryName"},{"value":"Andalucía","key":"StateName"},{"value":"Granada","key":"CountyName"}]},"MapReference":{"ReferenceId":"585567009","Spot":0.12,"SideOfStreet":"right","CountryId":"20215059","StateId":"20221885","CountyId":"20221889","CityId":"20234366","DistrictId":"26624505","AddressId":"777044585","RoadLinkId":"67421328"}}},{"Relevance":1.0,"Distance":21.0,"MatchLevel":"houseNumber","MatchQuality":{"Country":1.0,"State":1.0,"County":1.0,"City":1.0,"District":1.0,"Street":[1.0],"HouseNumber":1.0,"PostalCode":1.0},"MatchType":"interpolated","Location":{"LocationId":"NT_Nwgo7nw30HPDag0XPSNFpB_1ED","LocationType":"point","DisplayPosition":{"Latitude":36.77222,"Longitude":-3.18707},"MapView":{"TopLeft":{"Latitude":36.7733442,"Longitude":-3.1884734},"BottomRight":{"Latitude":36.7710958,"Longitude":-3.1856666}},"Address":{"Label":"Barrio Los Castillas, 51, 18700 Albuñol (Granada), España","Country":"ESP","State":"Andalucía","County":"Granada","City":"Albuñol","District":"La Herradura","Street":"Barrio Los Castillas","HouseNumber":"51","PostalCode":"18700","AdditionalData":[{"value":"España","key":"CountryName"},{"value":"Andalucía","key":"StateName"},{"value":"Granada","key":"CountyName"}]},"MapReference":{"ReferenceId":"585566992","Spot":0.79,"SideOfStreet":"left","CountryId":"20215059","StateId":"20221885","CountyId":"20221889","CityId":"20234366","DistrictId":"26624505","AddressId":"404703350","RoadLinkId":"324190562"}}}]}]}}