{"Response":{"MetaInfo":{"Timestamp":"2020-03-28T09:45:03.383+0000","NextPageInformation":"2"},"View":[{"_type":"SearchResultsViewType","ViewId":0,"Result":[{"Relevance":1.0,"Distance":0.0,"Direction":0.0,"MatchLevel":"district","MatchQuality":{"Country":1.0,"State":1.0,"County":1.0,"City":1.0,"District":1.0,"PostalCode":1.0},"Location":{"LocationId":"NT_No2vOmmp-EcmC6EKsOMwhB","LocationType":"point","DisplayPosition":{"Latitude":36.7220631,"Longitude":-4.4042943},"MapView":{"TopLeft":{"Latitude":36.72586,"Longitude":-4.40632},"BottomRight":{"Latitude":36.72136,"Longitude":-4.39935}},"Address":{"Label":"Monte Sancha, Málaga, Andalucía, España","Country":"ESP","State":"Andalucía","County":"Málaga","City":"Málaga","District":"Monte Sancha","PostalCode":"29016","AdditionalData":[{"value":"España","key":"CountryName"},{"value":"Andalucía","key":"StateName"},{"value":"Málaga","key":"CountyName"}]},"MapReference":{"ReferenceId":"549128592","SideOfStreet":"neither","CountryId":"20215059","StateId":"20221885","CountyId":"20221892","CityId":"20236082"}}},{"Relevance":1.0,"Distance":1.9,"MatchLevel":"houseNumber","MatchQuality":{"Country":1.0,"State":1.0,"County":1.0,"City":1.0,"District":1.0,"Street":[1.0],"HouseNumber":1.0,"PostalCode":1.0},"MatchType":"interpolated","Location":{"LocationId":"NT_yhpBvzGr.XtZFssEHM7-1D_zYD","LocationType":"point","DisplayPosition":{"Latitude":36.72208,"Longitude":-4.4043},"MapView":{"TopLeft":{"Latitude":36.7232042,"Longitude":-4.4057025},"BottomRight":{"Latitude":36.7209558,"Longitude":-4.4028975}},"Address":{"Label":"Calle Monte de Sancha, 36, 29016 Málaga (Málaga), España","Country":"ESP","State":"Andalucía","County":"Málaga","City":"Málaga","District":"Monte Sancha","Street":"Calle Monte de Sancha","HouseNumber":"36","PostalCode":"29016","AdditionalData":[{"value":"España","key":"CountryName"},{"value":"Andalucía","key":"StateName"},{"value":"Málaga","key":"CountyName"}]},"MapReference":{"ReferenceId":"888079248","Spot":0.71,"SideOfStreet":"right","CountryId":"20215059","StateId":"20221885","CountyId":"20221892","CityId":"20236082","AddressId":"595173887","RoadLinkId":"254208499"}}},{"Relevance":1.0,"Distance":28.4,"MatchLevel":"houseNumber","MatchQuality":{"Country":1.0,"State":1.0,"County":1.0,"City":1.0,"District":1.0,"Street":[1.0],"HouseNumber":1.0,"PostalCode":1.0},"MatchType":"interpolated","Location":{"LocationId":"NT_yhpBvzGr.XtZFssEHM7-1D_l_888079249_R_zgD","LocationType":"point","DisplayPosition":{"Latitude":36.7221812,"Longitude":-4.4045769},"MapView":{"TopLeft":{"Latitude":36.7233054,"Longitude":-4.4059794},"BottomRight":{"Latitude":36.7210571,"Longitude":-4.4031744}},"Address":{"Label":"Calle Monte de Sancha, 38, 29016 Málaga (Málaga), España","Country":"ESP","State":"Andalucía","County":"Málaga","City":"Málaga","District":"Monte Sancha","Street":"Calle Monte de Sancha","HouseNumber":"38","PostalCode":"29016","AdditionalData":[{"value":"España","key":"CountryName"},{"value":"Andalucía","key":"StateName"},{"value":"Málaga","key":"CountyName"}]},"MapReference":{"ReferenceId":"888079249","Spot":0.52,"SideOfStreet":"right","CountryId":"20215059","StateId":"20221885","CountyId":"20221892","CityId":"20236082"}}},{"Relevance":1.0,"Distance":45.1,"MatchLevel":"houseNumber","MatchQuality":{"Country":1.0,"State":1.0,"County":1.0,"City":1.0,"District":1.0,"Street":[1.0],"HouseNumber":1.0,"PostalCode":1.0},"MatchType":"interpolated","Location":{"LocationId":"NT_MPZLpb4izLPmhWDPt5Vq9D_xUD","LocationType":"point","DisplayPosition":{"Latitude":36.72163,"Longitude":-4.40416},"MapView":{"TopLeft":{"Latitude":36.7227542,"Longitude":-4.4055625},"BottomRight":{"Latitude":36.7205058,"Longitude":-4.4027575}},"Address":{"Label":"Paseo de Sancha, 15, 29016 Málaga (Málaga), España","Country":"ESP","State":"Andalucía","County":"Málaga","City":"Málaga","District":"Monte Sancha","Street":"Paseo de Sancha","HouseNumber":"15","PostalCode":"29016","AdditionalData":[{"value":"España","key":"CountryName"},{"value":"Andalucía","key":"StateName"},{"value":"Málaga","key":"CountyName"}]},"MapReference":{"ReferenceId":"549129737","Spot":0.95,"SideOfStreet":"right","CountryId":"20215059","StateId":"20221885","CountyId":"20221892","CityId":"20236082","AddressId":"595176382","RoadLinkId":"67126315"}}},{"Relevance":1.0,"Distance":46.0,"MatchLevel":"houseNumber","MatchQuality":{"Country":1.0,"State":1.0,"County":1.0,"City":1.0,"District":1.0,"Street":[1.0],"HouseNumber":1.0,"PostalCode":1.0},"MatchType":"interpolated","Location":{"LocationId":"NT_MPZLpb4izLPmhWDPt5Vq9D_xMD","LocationType":"point","DisplayPosition":{"Latitude":36.72162,"Longitude":-4.4044},"MapView":{"TopLeft":{"Latitude":36.7227442,"Longitude":-4.4058025},"BottomRight":{"Latitude":36.7204958,"Longitude":-4.4029975}},"Address":{"Label":"Paseo de Sancha, 13, 29016 Málaga (Málaga), España","Country":"ESP","State":"Andalucía","County":"Málaga","City":"Málaga","District":"Monte Sancha","Street":"Paseo de Sancha","HouseNumber":"13","PostalCode":"29016","AdditionalData":[{"value":"España","key":"CountryName"},{"value":"Andalucía","key":"StateName"},{"value":"Málaga","key":"CountyName"}]},"MapReference":{"ReferenceId":"786742533","Spot":0.68,"SideOfStreet":"left","CountryId":"20215059","StateId":"20221885","CountyId":"20221892","CityId":"20236082","AddressId":"595167394","RoadLinkId":"179379039"}}},{"Relevance":1.0,"Distance":53.0,"MatchLevel":"street","MatchQuality":{"Country":1.0,"State":1.0,"County":1.0,"City":1.0,"District":1.0,"Street":[1.0],"PostalCode":1.0},"Location":{"LocationId":"NT_dyStkDnaXzLELqqZLI7OGB_l_549128763_L","LocationType":"point","DisplayPosition":{"Latitude":36.72208,"Longitude":-4.4037},"MapView":{"TopLeft":{"Latitude":36.72251,"Longitude":-4.4037},"BottomRight":{"Latitude":36.72208,"Longitude":-4.40365}},"Address":{"Label":"Calle Badis, 29016 Málaga (Málaga), España","Country":"ESP","State":"Andalucía","County":"Málaga","City":"Málaga","District":"Monte Sancha","Street":"Calle Badis","PostalCode":"29016","AdditionalData":[{"value":"España","key":"CountryName"},{"value":"Andalucía","key":"StateName"},{"value":"Málaga","key":"CountyName"}]},"MapReference":{"ReferenceId":"549128763","Spot":0.0,"SideOfStreet":"left","CountryId":"20215059","StateId":"20221885","CountyId":"20221892","CityId":"20236082"}}},{"Relevance":1.0,"Distance":55.1,"MatchLevel":"houseNumber","MatchQuality":{"Country":1.0,"State":1.0,"County":1.0,"City":1.0,"District":1.0,"Street":[1.0],"HouseNumber":1.0,"PostalCode":1.0},"MatchType":"interpolated","Location":{"LocationId":"NT_dyStkDnaXzLELqqZLI7OGB_xA","LocationType":"point","DisplayPosition":{"Latitude":36.72185,"Longitude":-4.40372},"MapView":{"TopLeft":{"Latitude":36.7229742,"Longitude":-4.4051225},"BottomRight":{"Latitude":36.7207258,"Longitude":-4.4023175}},"Address":{"Label":"Calle Badis, 1, 29016 Málaga (Málaga), España","Country":"ESP","State":"Andalucía","County":"Málaga","City":"Málaga","District":"Monte Sancha","Street":"Calle Badis","HouseNumber":"1","PostalCode":"29016","AdditionalData":[{"value":"España","key":"CountryName"},{"value":"Andalucía","key":"StateName"},{"value":"Málaga","key":"CountyName"}]},"MapReference":{"ReferenceId":"549128832","Spot":0.52,"SideOfStreet":"left","CountryId":"20215059","StateId":"20221885","CountyId":"20221892","CityId":"20236082","AddressId":"595205730","RoadLinkId":"67538112"}}},{"Relevance":1.0,"Distance":65.7,"MatchLevel":"houseNumber","MatchQuality":{"Country":1.0,"State":1.0,"County":1.0,"City":1.0,"District":1.0,"Street":[1.0],"HouseNumber":1.0,"PostalCode":1.0},"MatchType":"interpolated","Location":{"LocationId":"NT_yhpBvzGr.XtZFssEHM7-1D_zUD","LocationType":"point","DisplayPosition":{"Latitude":36.72204,"Longitude":-4.40354},"MapView":{"TopLeft":{"Latitude":36.7231642,"Longitude":-4.4049425},"BottomRight":{"Latitude":36.7209158,"Longitude":-4.4021375}},"Address":{"Label":"Calle Monte de Sancha, 35, 29016 Málaga (Málaga), España","Country":"ESP","State":"Andalucía","County":"Málaga","City":"Málaga","District":"Monte Sancha","Street":"Calle Monte de Sancha","HouseNumber":"35","PostalCode":"29016","AdditionalData":[{"value":"España","key":"CountryName"},{"value":"Andalucía","key":"StateName"},{"value":"Málaga","key":"CountyName"}]},"MapReference":{"ReferenceId":"549128772","Spot":0.19,"SideOfStreet":"left","CountryId":"20215059","StateId":"20221885","CountyId":"20221892","CityId":"20236082","AddressId":"595208291","RoadLinkId":"66762826"}}},{"Relevance":1.0,"Distance":69.9,"MatchLevel":"houseNumber","MatchQuality":{"Country":1.0,"State":1.0,"County":1.0,"City":1.0,"District":1.0,"Street":[1.0],"HouseNumber":1.0,"PostalCode":1.0},"MatchType":"interpolated","Location":{"LocationId":"NT_hLOxjLnHTTjHKGLt7NriKD_xUD","LocationType":"point","DisplayPosition":{"Latitude":36.72265,"Longitude":-4.4039},"MapView":{"TopLeft":{"Latitude":36.7237742,"Longitude":-4.4053025},"BottomRight":{"Latitude":36.7215258,"Longitude":-4.4024975}},"Address":{"Label":"Camino Monte, 15, 29016 Málaga (Málaga), España","Country":"ESP","State":"Andalucía","County":"Málaga","City":"Málaga","District":"Monte Sancha","Street":"Camino Monte","HouseNumber":"15","PostalCode":"29016","AdditionalData":[{"value":"España","key":"CountryName"},{"value":"Andalucía","key":"StateName"},{"value":"Málaga","key":"CountyName"}]},"MapReference":{"ReferenceId":"888079084","Spot":0.34,"SideOfStreet":"left","CountryId":"20215059","StateId":"20221885","CountyId":"20221892","CityId":"20236082","AddressId":"595173218","RoadLinkId":"254208262"}}},{"Relevance":1.0,"Distance":71.1,"MatchLevel":"houseNumber","MatchQuality":{"Country":1.0,"State":1.0,"County":1.0,"City":1.0,"District":1.0,"Street":[1.0],"HouseNumber":1.0,"PostalCode":1.0},"MatchType":"interpolated","Location":{"LocationId":"NT_RWigey7OyavCsRWVRD6u1D_yA","LocationType":"point","DisplayPosition":{"Latitude":36.72143,"Longitude":-4.40416},"MapView":{"TopLeft":{"Latitude":36.7225542,"Longitude":-4.4055625},"BottomRight":{"Latitude":36.7203058,"Longitude":-4.4027575}},"Address":{"Label":"Calle Canaan, 2, 29016 Málaga (Málaga), España","Country":"ESP","State":"Andalucía","County":"Málaga","City":"Málaga","District":"La Caleta","Street":"Calle Canaan","HouseNumber":"2","PostalCode":"29016","AdditionalData":[{"value":"España","key":"CountryName"},{"value":"Andalucía","key":"StateName"},{"value":"Málaga","key":"CountyName"}]},"MapReference":{"ReferenceId":"79851089","Spot":0.75,"SideOfStreet":"left","CountryId":"20215059","StateId":"20221885","CountyId":"20221892","CityId":"20236082","AddressId":"595190956","RoadLinkId":"67333425"}}}]}]}}