{"Response":{"MetaInfo":{"Timestamp":"2020-03-28T12:01:49.134+0000","NextPageInformation":"2"},"View":[{"_type":"SearchResultsViewType","ViewId":0,"Result":[{"Relevance":1.0,"Distance":0.0,"Direction":0.0,"MatchLevel":"district","MatchQuality":{"Country":1.0,"State":1.0,"County":1.0,"City":1.0,"District":1.0,"PostalCode":1.0},"Location":{"LocationId":"NT_5PxTPrT03OxZ2HhSDKFULC","LocationType":"point","DisplayPosition":{"Latitude":36.8505337,"Longitude":22.2618717},"MapView":{"TopLeft":{"Latitude":37.05398,"Longitude":22.12816},"BottomRight":{"Latitude":36.74133,"Longitude":22.38788}},"Address":{"Label":"Δυτική Μάνη, Μεσσηνία, Πελοπόννησος, Ελληνικη Δημοκρατια","Country":"GRC","State":"Πελοπόννησος","County":"Μεσσηνία","City":"Μεσσηνία","District":"Δυτική Μάνη","PostalCode":"240 22","AdditionalData":[{"value":"Ελληνικη Δημοκρατια","key":"CountryName"},{"value":"Πελοπόννησος","key":"StateName"},{"value":"Μεσσηνία","key":"CountyName"}]},"MapReference":{"ReferenceId":"990151163","SideOfStreet":"neither","CountryId":"20448870","StateId":"20563669","CountyId":"20651119","CityId":"20651119"}}},{"Relevance":1.0,"Distance":17.8,"MatchLevel":"street","MatchQuality":{"Country":1.0,"State":1.0,"County":1.0,"City":1.0,"Street":[1.0],"PostalCode":1.0},"Location":{"LocationId":"NT_QhE8GOQl6NgJzFZBd7XwRC_l_766593628_L","LocationType":"point","DisplayPosition":{"Latitude":36.8506104,"Longitude":22.2620474},"MapView":{"TopLeft":{"Latitude":36.8512,"Longitude":22.26179},"BottomRight":{"Latitude":36.85007,"Longitude":22.26231}},"Address":{"Label":"Επ. Οδός 1-ΚΑΛΑΜΆΤΑΣ-ΑΡΕΌΠΟΛΗΣ, 240 22 Λευκτρο, Ελληνικη Δημοκρατια","Country":"GRC","State":"Πελοπόννησος","County":"Μεσσηνία","City":"Λευκτρο","Street":"Επ. Οδός 1-ΚΑΛΑΜΆΤΑΣ-ΑΡΕΌΠΟΛΗΣ","PostalCode":"240 22","AdditionalData":[{"value":"Ελληνικη Δημοκρατια","key":"CountryName"},{"value":"Πελοπόννησος","key":"StateName"},{"value":"Μεσσηνία","key":"CountyName"}]},"MapReference":{"ReferenceId":"766593628","Spot":0.48,"SideOfStreet":"left","CountryId":"20448870","StateId":"20563669","CountyId":"20651119","CityId":"20668849"}}},{"Relevance":1.0,"Distance":64.6,"MatchLevel":"street","MatchQuality":{"Country":1.0,"State":1.0,"County":1.0,"City":1.0,"Street":[1.0],"PostalCode":1.0},"Location":{"LocationId":"NT_QhE8GOQl6NgJzFZBd7XwRC_l_766593629_L","LocationType":"point","DisplayPosition":{"Latitude":36.85007,"Longitude":22.26231},"MapView":{"TopLeft":{"Latitude":36.85007,"Longitude":22.26231},"BottomRight":{"Latitude":36.84995,"Longitude":22.26238}},"Address":{"Label":"Επ. Οδός 1-ΚΑΛΑΜΆΤΑΣ-ΑΡΕΌΠΟΛΗΣ, 240 22 Λευκτρο, Ελληνικη Δημοκρατια","Country":"GRC","State":"Πελοπόννησος","County":"Μεσσηνία","City":"Λευκτρο","Street":"Επ. Οδός 1-ΚΑΛΑΜΆΤΑΣ-ΑΡΕΌΠΟΛΗΣ","PostalCode":"240 22","AdditionalData":[{"value":"Ελληνικη Δημοκρατια","key":"CountryName"},{"value":"Πελοπόννησος","key":"StateName"},{"value":"Μεσσηνία","key":"CountyName"}]},"MapReference":{"ReferenceId":"766593629","Spot":1.0,"SideOfStreet":"left","CountryId":"20448870","StateId":"20563669","CountyId":"20651119","CityId":"20668849"}}},{"Relevance":1.0,"Distance":65.2,"MatchLevel":"street","MatchQuality":{"Country":1.0,"State":1.0,"County":1.0,"City":1.0,"PostalCode":1.0},"Location":{"LocationId":"NT_xJ.Wmg1pgjEtUDq8cpqyEC_l_766593642_L","LocationType":"point","DisplayPosition":{"Latitude":36.8499854,"Longitude":22.2621314},"MapView":{"TopLeft":{"Latitude":36.85007,"Longitude":22.26109},"BottomRight":{"Latitude":36.84888,"Longitude":22.26231}},"Address":{"Label":"240 22 Λευκτρο, Ελληνικη Δημοκρατια","Country":"GRC","State":"Πελοπόννησος","County":"Μεσσηνία","City":"Λευκτρο","PostalCode":"240 22","AdditionalData":[{"value":"Ελληνικη Δημοκρατια","key":"CountryName"},{"value":"Πελοπόννησος","key":"StateName"},{"value":"Μεσσηνία","key":"CountyName"}]},"MapReference":{"ReferenceId":"766593642","Spot":0.89,"SideOfStreet":"left","CountryId":"20448870","StateId":"20563669","CountyId":"20651119","CityId":"20668849"}}},{"Relevance":1.0,"Distance":74.2,"MatchLevel":"street","MatchQuality":{"Country":1.0,"State":1.0,"County":1.0,"City":1.0,"PostalCode":1.0},"Location":{"LocationId":"NT_xJ.Wmg1pgjEtUDq8cpqyEC_l_722733883_R","LocationType":"point","DisplayPosition":{"Latitude":36.8511959,"Longitude":22.2617649},"MapView":{"TopLeft":{"Latitude":36.8512,"Longitude":22.26053},"BottomRight":{"Latitude":36.85082,"Longitude":22.26179}},"Address":{"Label":"240 22 Λευκτρο, Ελληνικη Δημοκρατια","Country":"GRC","State":"Πελοπόννησος","County":"Μεσσηνία","City":"Λευκτρο","PostalCode":"240 22","AdditionalData":[{"value":"Ελληνικη Δημοκρατια","key":"CountryName"},{"value":"Πελοπόννησος","key":"StateName"},{"value":"Μεσσηνία","key":"CountyName"}]},"MapReference":{"ReferenceId":"722733883","Spot":0.98,"SideOfStreet":"right","CountryId":"20448870","StateId":"20563669","CountyId":"20651119","CityId":"20668849"}}},{"Relevance":1.0,"Distance":74.4,"MatchLevel":"street","MatchQuality":{"Country":1.0,"State":1.0,"County":1.0,"City":1.0,"Street":[1.0],"PostalCode":1.0},"Location":{"LocationId":"NT_EYZT9IprdD2ic3h-MX5maC_l_766593630_L","LocationType":"point","DisplayPosition":{"Latitude":36.8512,"Longitude":22.26179},"MapView":{"TopLeft":{"Latitude":36.85136,"Longitude":22.26172},"BottomRight":{"Latitude":36.8512,"Longitude":22.26179}},"Address":{"Label":"Επ. Οδός 1-ΚΑΛΑΜΆΤΑΣ-ΑΡΕΌΠΟΛΗΣ, 240 22 Λευκτρο, Ελληνικη Δημοκρατια","Country":"GRC","State":"Πελοπόννησος","County":"Μεσσηνία","City":"Λευκτρο","Street":"Επ. Οδός 1-ΚΑΛΑΜΆΤΑΣ-ΑΡΕΌΠΟΛΗΣ","PostalCode":"240 22","AdditionalData":[{"value":"Ελληνικη Δημοκρατια","key":"CountryName"},{"value":"Πελοπόννησος","key":"StateName"},{"value":"Μεσσηνία","key":"CountyName"}]},"MapReference":{"ReferenceId":"766593630","Spot":0.0,"SideOfStreet":"left","CountryId":"20448870","StateId":"20563669","CountyId":"20651119","CityId":"20668849"}}},{"Relevance":1.0,"Distance":79.1,"MatchLevel":"street","MatchQuality":{"Country":1.0,"State":1.0,"County":1.0,"City":1.0,"Street":[1.0],"PostalCode":1.0},"Location":{"LocationId":"NT_QhE8GOQl6NgJzFZBd7XwRC_l_766593645_L","LocationType":"point","DisplayPosition":{"Latitude":36.84995,"Longitude":22.26238},"MapView":{"TopLeft":{"Latitude":36.84995,"Longitude":22.26238},"BottomRight":{"Latitude":36.84959,"Longitude":22.26262}},"Address":{"Label":"Επ. Οδός 1-ΚΑΛΑΜΆΤΑΣ-ΑΡΕΌΠΟΛΗΣ, 240 22 Λευκτρο, Ελληνικη Δημοκρατια","Country":"GRC","State":"Πελοπόννησος","County":"Μεσσηνία","City":"Λευκτρο","Street":"Επ. Οδός 1-ΚΑΛΑΜΆΤΑΣ-ΑΡΕΌΠΟΛΗΣ","PostalCode":"240 22","AdditionalData":[{"value":"Ελληνικη Δημοκρατια","key":"CountryName"},{"value":"Πελοπόννησος","key":"StateName"},{"value":"Μεσσηνία","key":"CountyName"}]},"MapReference":{"ReferenceId":"766593645","Spot":1.0,"SideOfStreet":"left","CountryId":"20448870","StateId":"20563669","CountyId":"20651119","CityId":"20668849"}}},{"Relevance":1.0,"Distance":79.1,"MatchLevel":"street","MatchQuality":{"Country":1.0,"State":1.0,"County":1.0,"City":1.0,"PostalCode":1.0},"Location":{"LocationId":"NT_xJ.Wmg1pgjEtUDq8cpqyEC_l_766593631_L","LocationType":"point","DisplayPosition":{"Latitude":36.84995,"Longitude":22.26238},"MapView":{"TopLeft":{"Latitude":36.85101,"Longitude":22.26238},"BottomRight":{"Latitude":36.84995,"Longitude":22.26376}},"Address":{"Label":"240 22 Λευκτρο, Ελληνικη Δημοκρατια","Country":"GRC","State":"Πελοπόννησος","County":"Μεσσηνία","City":"Λευκτρο","PostalCode":"240 22","AdditionalData":[{"value":"Ελληνικη Δημοκρατια","key":"CountryName"},{"value":"Πελοπόννησος","key":"StateName"},{"value":"Μεσσηνία","key":"CountyName"}]},"MapReference":{"ReferenceId":"766593631","Spot":0.0,"SideOfStreet":"left","CountryId":"20448870","StateId":"20563669","CountyId":"20651119","CityId":"20668849"}}},{"Relevance":1.0,"Distance":92.9,"MatchLevel":"street","MatchQuality":{"Country":1.0,"State":1.0,"County":1.0,"City":1.0,"Street":[1.0],"PostalCode":1.0},"Location":{"LocationId":"NT_EYZT9IprdD2ic3h-MX5maC_l_1121585496_L","LocationType":"point","DisplayPosition":{"Latitude":36.85136,"Longitude":22.26172},"MapView":{"TopLeft":{"Latitude":36.85291,"Longitude":22.26085},"BottomRight":{"Latitude":36.85136,"Longitude":22.26172}},"Address":{"Label":"Επ. Οδός 1-ΚΑΛΑΜΆΤΑΣ-ΑΡΕΌΠΟΛΗΣ, 240 22 Λευκτρο, Ελληνικη Δημοκρατια","Country":"GRC","State":"Πελοπόννησος","County":"Μεσσηνία","City":"Λευκτρο","Street":"Επ. Οδός 1-ΚΑΛΑΜΆΤΑΣ-ΑΡΕΌΠΟΛΗΣ","PostalCode":"240 22","AdditionalData":[{"value":"Ελληνικη Δημοκρατια","key":"CountryName"},{"value":"Πελοπόννησος","key":"StateName"},{"value":"Μεσσηνία","key":"CountyName"}]},"MapReference":{"ReferenceId":"1121585496","Spot":0.0,"SideOfStreet":"left","CountryId":"20448870","StateId":"20563669","CountyId":"20651119","CityId":"20668849"}}},{"Relevance":1.0,"Distance":92.9,"MatchLevel":"street","MatchQuality":{"Country":1.0,"State":1.0,"County":1.0,"City":1.0,"PostalCode":1.0},"Location":{"LocationId":"NT_xJ.Wmg1pgjEtUDq8cpqyEC_l_766593632_R","LocationType":"point","DisplayPosition":{"Latitude":36.85136,"Longitude":22.26172},"MapView":{"TopLeft":{"Latitude":36.85193,"Longitude":22.26172},"BottomRight":{"Latitude":36.85136,"Longitude":22.26287}},"Address":{"Label":"240 22 Λευκτρο, Ελληνικη Δημοκρατια","Country":"GRC","State":"Πελοπόννησος","County":"Μεσσηνία","City":"Λευκτρο","PostalCode":"240 22","AdditionalData":[{"value":"Ελληνικη Δημοκρατια","key":"CountryName"},{"value":"Πελοπόννησος","key":"StateName"},{"value":"Μεσσηνία","key":"CountyName"}]},"MapReference":{"ReferenceId":"766593632","Spot":0.0,"SideOfStreet":"right","CountryId":"20448870","StateId":"20563669","CountyId":"20651119","CityId":"20668849"}}}]}]}}