{"Response":{"MetaInfo":{"Timestamp":"2020-03-28T11:03:40.229+0000","NextPageInformation":"2"},"View":[{"_type":"SearchResultsViewType","ViewId":0,"Result":[{"Relevance":1.0,"Distance":0.0,"Direction":0.0,"MatchLevel":"city","MatchQuality":{"Country":1.0,"State":1.0,"County":1.0,"City":1.0,"PostalCode":1.0},"Location":{"LocationId":"NT_rghsVhpU1FQ1Up8777O3ZC","LocationType":"point","DisplayPosition":{"Latitude":36.8574163,"Longitude":-2.4460653},"MapView":{"TopLeft":{"Latitude":37.0001,"Longitude":-2.54434},"BottomRight":{"Latitude":36.73825,"Longitude":-2.20359}},"Address":{"Label":"Almería, Andalucía, España","Country":"ESP","State":"Andalucía","County":"Almería","City":"Almería","PostalCode":"04003","AdditionalData":[{"value":"España","key":"CountryName"},{"value":"Andalucía","key":"StateName"},{"value":"Almería","key":"CountyName"}]},"MapReference":{"ReferenceId":"1047318899","SideOfStreet":"neither","CountryId":"20215059","StateId":"20221885","CountyId":"20221886","CityId":"20232759"}}},{"Relevance":1.0,"Distance":27.0,"MatchLevel":"street","MatchQuality":{"Country":1.0,"State":1.0,"County":1.0,"City":1.0,"Street":[1.0],"PostalCode":1.0},"Location":{"LocationId":"NT_BQRgAoLkLCDPCPmBF63EUA_l_591944986_L","LocationType":"point","DisplayPosition":{"Latitude":36.8573682,"Longitude":-2.4457684},"MapView":{"TopLeft":{"Latitude":36.85742,"Longitude":-2.44582},"BottomRight":{"Latitude":36.85705,"Longitude":-2.44576}},"Address":{"Label":"Calle Ramiro de Maeztu, 04009 Almería (Almería), España","Country":"ESP","State":"Andalucía","County":"Almería","City":"Almería","Street":"Calle Ramiro de Maeztu","PostalCode":"04009","AdditionalData":[{"value":"España","key":"CountryName"},{"value":"Andalucía","key":"StateName"},{"value":"Almería","key":"CountyName"}]},"MapReference":{"ReferenceId":"591944986","Spot":0.86,"SideOfStreet":"left","CountryId":"20215059","StateId":"20221885","CountyId":"20221886","CityId":"20232759"}}},{"Relevance":1.0,"Distance":27.2,"MatchLevel":"street","MatchQuality":{"Country":1.0,"State":1.0,"County":1.0,"City":1.0,"Street":[1.0],"PostalCode":1.0},"Location":{"LocationId":"NT_BQRgAoLkLCDPCPmBF63EUA_l_79842648_L","LocationType":"point","DisplayPosition":{"Latitude":36.85742,"Longitude":-2.44576},"MapView":{"TopLeft":{"Latitude":36.85829,"Longitude":-2.44576},"BottomRight":{"Latitude":36.85742,"Longitude":-2.44568}},"Address":{"Label":"Calle Ramiro de Maeztu, 04009 Almería (Almería), España","Country":"ESP","State":"Andalucía","County":"Almería","City":"Almería","Street":"Calle Ramiro de Maeztu","PostalCode":"04009","AdditionalData":[{"value":"España","key":"CountryName"},{"value":"Andalucía","key":"StateName"},{"value":"Almería","key":"CountyName"}]},"MapReference":{"ReferenceId":"79842648","Spot":0.0,"SideOfStreet":"left","CountryId":"20215059","StateId":"20221885","CountyId":"20221886","CityId":"20232759"}}},{"Relevance":1.0,"Distance":34.8,"MatchLevel":"houseNumber","MatchQuality":{"Country":1.0,"State":1.0,"County":1.0,"City":1.0,"Street":[1.0],"HouseNumber":1.0,"PostalCode":1.0},"MatchType":"interpolated","Location":{"LocationId":"NT_it0vCz3tMGLL59MWEcnp3C_xADO","LocationType":"point","DisplayPosition":{"Latitude":36.85753,"Longitude":-2.44643},"MapView":{"TopLeft":{"Latitude":36.8586542,"Longitude":-2.447835},"BottomRight":{"Latitude":36.8564058,"Longitude":-2.445025}},"Address":{"Label":"Calle Pan Crudo, 108, 04009 Almería (Almería), España","Country":"ESP","State":"Andalucía","County":"Almería","City":"Almería","Street":"Calle Pan Crudo","HouseNumber":"108","PostalCode":"04009","AdditionalData":[{"value":"España","key":"CountryName"},{"value":"Andalucía","key":"StateName"},{"value":"Almería","key":"CountyName"}]},"MapReference":{"ReferenceId":"1171242969","Spot":1.0,"SideOfStreet":"left","CountryId":"20215059","StateId":"20221885","CountyId":"20221886","CityId":"20232759","AddressId":"364636242","RoadLinkId":"478240072"}}},{"Relevance":1.0,"Distance":34.8,"MatchLevel":"street","MatchQuality":{"Country":1.0,"State":1.0,"County":1.0,"City":1.0,"Street":[1.0],"PostalCode":1.0},"Location":{"LocationId":"NT_it0vCz3tMGLL59MWEcnp3C_l_1171242970_R","LocationType":"point","DisplayPosition":{"Latitude":36.85753,"Longitude":-2.44643},"MapView":{"TopLeft":{"Latitude":36.85772,"Longitude":-2.44643},"BottomRight":{"Latitude":36.85753,"Longitude":-2.44635}},"Address":{"Label":"Calle Pan Crudo, 04009 Almería (Almería), España","Country":"ESP","State":"Andalucía","County":"Almería","City":"Almería","Street":"Calle Pan Crudo","PostalCode":"04009","AdditionalData":[{"value":"España","key":"CountryName"},{"value":"Andalucía","key":"StateName"},{"value":"Almería","key":"CountyName"}]},"MapReference":{"ReferenceId":"1171242970","Spot":0.0,"SideOfStreet":"right","CountryId":"20215059","StateId":"20221885","CountyId":"20221886","CityId":"20232759"}}},{"Relevance":1.0,"Distance":34.8,"MatchLevel":"street","MatchQuality":{"Country":1.0,"State":1.0,"County":1.0,"City":1.0,"Street":[1.0],"PostalCode":1.0},"Location":{"LocationId":"NT_nmHbj4ZYdyXDkVL632quGA_l_1171242968_R","LocationType":"point","DisplayPosition":{"Latitude":36.85753,"Longitude":-2.44643},"MapView":{"TopLeft":{"Latitude":36.85753,"Longitude":-2.44676},"BottomRight":{"Latitude":36.85719,"Longitude":-2.44643}},"Address":{"Label":"Camino Cervantes, 04009 Almería (Almería), España","Country":"ESP","State":"Andalucía","County":"Almería","City":"Almería","Street":"Camino Cervantes","PostalCode":"04009","AdditionalData":[{"value":"España","key":"CountryName"},{"value":"Andalucía","key":"StateName"},{"value":"Almería","key":"CountyName"}]},"MapReference":{"ReferenceId":"1171242968","Spot":1.0,"SideOfStreet":"right","CountryId":"20215059","StateId":"20221885","CountyId":"20221886","CityId":"20232759"}}},{"Relevance":1.0,"Distance":36.6,"MatchLevel":"street","MatchQuality":{"Country":1.0,"State":1.0,"County":1.0,"City":1.0,"Street":[1.0],"PostalCode":1.0},"Location":{"LocationId":"NT_5D-3xQxmTSkptm2A41cpXA_l_1203392935_L","LocationType":"point","DisplayPosition":{"Latitude":36.8573656,"Longitude":-2.4456593},"MapView":{"TopLeft":{"Latitude":36.85784,"Longitude":-2.44566},"BottomRight":{"Latitude":36.85736,"Longitude":-2.4456}},"Address":{"Label":"Avenida del Mediterráneo, 04009 Almería (Almería), España","Country":"ESP","State":"Andalucía","County":"Almería","City":"Almería","Street":"Avenida del Mediterráneo","PostalCode":"04009","AdditionalData":[{"value":"España","key":"CountryName"},{"value":"Andalucía","key":"StateName"},{"value":"Almería","key":"CountyName"}]},"MapReference":{"ReferenceId":"1203392935","Spot":0.01,"SideOfStreet":"left","CountryId":"20215059","StateId":"20221885","CountyId":"20221886","CityId":"20232759"}}},{"Relevance":1.0,"Distance":36.6,"MatchLevel":"street","MatchQuality":{"Country":1.0,"State":1.0,"County":1.0,"City":1.0,"Street":[1.0],"PostalCode":1.0},"Location":{"LocationId":"NT_5D-3xQxmTSkptm2A41cpXA_l_999307222_L","LocationType":"point","DisplayPosition":{"Latitude":36.85736,"Longitude":-2.44566},"MapView":{"TopLeft":{"Latitude":36.85736,"Longitude":-2.44572},"BottomRight":{"Latitude":36.85692,"Longitude":-2.44566}},"Address":{"Label":"Avenida del Mediterráneo, 04009 Almería (Almería), España","Country":"ESP","State":"Andalucía","County":"Almería","City":"Almería","Street":"Avenida del Mediterráneo","PostalCode":"04009","AdditionalData":[{"value":"España","key":"CountryName"},{"value":"Andalucía","key":"StateName"},{"value":"Almería","key":"CountyName"}]},"MapReference":{"ReferenceId":"999307222","Spot":1.0,"SideOfStreet":"left","CountryId":"20215059","StateId":"20221885","CountyId":"20221886","CityId":"20232759"}}},{"Relevance":1.0,"Distance":46.2,"MatchLevel":"street","MatchQuality":{"Country":1.0,"State":1.0,"County":1.0,"City":1.0,"Street":[1.0],"PostalCode":1.0},"Location":{"LocationId":"NT_BQRgAoLkLCDPCPmBF63EUA_l_1110075833_L","LocationType":"point","DisplayPosition":{"Latitude":36.85705,"Longitude":-2.44582},"MapView":{"TopLeft":{"Latitude":36.85705,"Longitude":-2.44586},"BottomRight":{"Latitude":36.85675,"Longitude":-2.44582}},"Address":{"Label":"Calle Ramiro de Maeztu, 04009 Almería (Almería), España","Country":"ESP","State":"Andalucía","County":"Almería","City":"Almería","Street":"Calle Ramiro de Maeztu","PostalCode":"04009","AdditionalData":[{"value":"España","key":"CountryName"},{"value":"Andalucía","key":"StateName"},{"value":"Almería","key":"CountyName"}]},"MapReference":{"ReferenceId":"1110075833","Spot":1.0,"SideOfStreet":"left","CountryId":"20215059","StateId":"20221885","CountyId":"20221886","CityId":"20232759"}}},{"Relevance":1.0,"Distance":46.2,"MatchLevel":"street","MatchQuality":{"Country":1.0,"State":1.0,"County":1.0,"City":1.0,"Street":[1.0],"PostalCode":1.0},"Location":{"LocationId":"NT_.LSNRYiGgU9inGpQ2PE4pD_l_1110075835_L","LocationType":"point","DisplayPosition":{"Latitude":36.8570127,"Longitude":-2.4459411},"MapView":{"TopLeft":{"Latitude":36.85705,"Longitude":-2.44629},"BottomRight":{"Latitude":36.85681,"Longitude":-2.44582}},"Address":{"Label":"Calle Sáhara, 04009 Almería (Almería), España","Country":"ESP","State":"Andalucía","County":"Almería","City":"Almería","Street":"Calle Sáhara","PostalCode":"04009","AdditionalData":[{"value":"España","key":"CountryName"},{"value":"Andalucía","key":"StateName"},{"value":"Almería","key":"CountyName"}]},"MapReference":{"ReferenceId":"1110075835","Spot":0.76,"SideOfStreet":"left","CountryId":"20215059","StateId":"20221885","CountyId":"20221886","CityId":"20232759"}}}]}]}}