{"Response":{"MetaInfo":{"Timestamp":"2020-03-28T09:59:05.457+0000","NextPageInformation":"2"},"View":[{"_type":"SearchResultsViewType","ViewId":0,"Result":[{"Relevance":1.0,"Distance":0.0,"Direction":0.0,"MatchLevel":"district","MatchQuality":{"Country":1.0,"County":1.0,"City":1.0,"District":1.0,"PostalCode":1.0},"Location":{"LocationId":"NT_Q2XeG9kKk4tKu4OGh6oINB","LocationType":"point","DisplayPosition":{"Latitude":37.1759476,"Longitude":-7.5359134},"MapView":{"TopLeft":{"Latitude":37.17848,"Longitude":-7.54305},"BottomRight":{"Latitude":37.17131,"Longitude":-7.5302}},"Address":{"Label":"Vila Nova de Cacela, Vila Real de Santo António, Portugal","Country":"PRT","County":"Faro","City":"Vila Real de Santo António","District":"Vila Nova de Cacela","PostalCode":"8900","AdditionalData":[{"value":"Portugal","key":"CountryName"},{"value":"Faro","key":"CountyName"}]},"MapReference":{"ReferenceId":"576776286","SideOfStreet":"neither","CountryId":"20317122","CountyId":"20318826","CityId":"20318915","DistrictId":"23492419"}}},{"Relevance":1.0,"Distance":22.3,"MatchLevel":"houseNumber","MatchQuality":{"Country":1.0,"County":1.0,"City":1.0,"District":1.0,"Street":[1.0],"HouseNumber":1.0,"PostalCode":1.0},"MatchType":"interpolated","Location":{"LocationId":"NT_iiLl5ZZVnHC5GtsVcYOfkC_CxUM","LocationType":"point","DisplayPosition":{"Latitude":37.17613,"Longitude":-7.53581},"MapView":{"TopLeft":{"Latitude":37.1772542,"Longitude":-7.5372209},"BottomRight":{"Latitude":37.1750058,"Longitude":-7.5343991}},"Address":{"Label":"Rua Dr. José Ribeiro Castanho BL1, 8900 Vila Real de Santo António, Portugal","Country":"PRT","County":"Faro","City":"Vila Real de Santo António","District":"Vila Nova de Cacela","Street":"Rua Dr. José Ribeiro Castanho","HouseNumber":"BL1","PostalCode":"8900","AdditionalData":[{"value":"Portugal","key":"CountryName"},{"value":"Faro","key":"CountyName"}]},"MapReference":{"ReferenceId":"576775774","Spot":0.77,"SideOfStreet":"left","CountryId":"20317122","CountyId":"20318826","CityId":"20318915","DistrictId":"23492419","AddressId":"342777564","RoadLinkId":"70883242"}}},{"Relevance":1.0,"Distance":30.4,"MatchLevel":"street","MatchQuality":{"Country":1.0,"County":1.0,"City":1.0,"District":1.0,"Street":[1.0],"PostalCode":1.0},"Location":{"LocationId":"NT_pIX9iN.QlmqbcHWr6bIsSB_l_576775769_L","LocationType":"point","DisplayPosition":{"Latitude":37.1760236,"Longitude":-7.5355839},"MapView":{"TopLeft":{"Latitude":37.17618,"Longitude":-7.53562},"BottomRight":{"Latitude":37.17572,"Longitude":-7.53552}},"Address":{"Label":"Rua Novas Avenidas, 8900 Vila Real de Santo António, Portugal","Country":"PRT","County":"Faro","City":"Vila Real de Santo António","District":"Vila Nova de Cacela","Street":"Rua Novas Avenidas","PostalCode":"8900","AdditionalData":[{"value":"Portugal","key":"CountryName"},{"value":"Faro","key":"CountyName"}]},"MapReference":{"ReferenceId":"576775769","Spot":0.66,"SideOfStreet":"left","CountryId":"20317122","CountyId":"20318826","CityId":"20318915","DistrictId":"23492419"}}},{"Relevance":1.0,"Distance":31.9,"MatchLevel":"street","MatchQuality":{"Country":1.0,"County":1.0,"City":1.0,"District":1.0,"PostalCode":1.0},"Location":{"LocationId":"NT_qIhiJ7RpTs.G7kHYTGH.hC_l_590475755_L","LocationType":"point","DisplayPosition":{"Latitude":37.17617,"Longitude":-7.53614},"MapView":{"TopLeft":{"Latitude":37.17671,"Longitude":-7.53654},"BottomRight":{"Latitude":37.17617,"Longitude":-7.53614}},"Address":{"Label":"8900-071 Vila Real de Santo António, Portugal","Country":"PRT","County":"Faro","City":"Vila Real de Santo António","District":"Vila Nova de Cacela","PostalCode":"8900-071","AdditionalData":[{"value":"Portugal","key":"CountryName"},{"value":"Faro","key":"CountyName"}]},"MapReference":{"ReferenceId":"590475755","Spot":0.0,"SideOfStreet":"left","CountryId":"20317122","CountyId":"20318826","CityId":"20318915","DistrictId":"23492419"}}},{"Relevance":1.0,"Distance":33.9,"MatchLevel":"street","MatchQuality":{"Country":1.0,"County":1.0,"City":1.0,"District":1.0,"PostalCode":1.0},"Location":{"LocationId":"NT_jZcz6D0QWC6stR3La0rlJD_l_576775787_R","LocationType":"point","DisplayPosition":{"Latitude":37.1756504,"Longitude":-7.5359994},"MapView":{"TopLeft":{"Latitude":37.17572,"Longitude":-7.53631},"BottomRight":{"Latitude":37.17557,"Longitude":-7.53573}},"Address":{"Label":"8900 Vila Real de Santo António, Portugal","Country":"PRT","County":"Faro","City":"Vila Real de Santo António","District":"Vila Nova de Cacela","PostalCode":"8900","AdditionalData":[{"value":"Portugal","key":"CountryName"},{"value":"Faro","key":"CountyName"}]},"MapReference":{"ReferenceId":"576775787","Spot":0.47,"SideOfStreet":"right","CountryId":"20317122","CountyId":"20318826","CityId":"20318915","DistrictId":"23492419"}}},{"Relevance":1.0,"Distance":40.9,"MatchLevel":"street","MatchQuality":{"Country":1.0,"County":1.0,"City":1.0,"District":1.0,"Street":[1.0],"PostalCode":1.0},"Location":{"LocationId":"NT_-.Fp5W1qpswFkdCT7QJ8zD_l_576775785_L","LocationType":"point","DisplayPosition":{"Latitude":37.17564,"Longitude":-7.53566},"MapView":{"TopLeft":{"Latitude":37.17572,"Longitude":-7.53573},"BottomRight":{"Latitude":37.17557,"Longitude":-7.53552}},"Address":{"Label":"Largo Manuel Cabanas, 8900-067 Vila Real de Santo António, Portugal","Country":"PRT","County":"Faro","City":"Vila Real de Santo António","District":"Vila Nova de Cacela","Street":"Largo Manuel Cabanas","PostalCode":"8900-067","AdditionalData":[{"value":"Portugal","key":"CountryName"},{"value":"Faro","key":"CountyName"}]},"MapReference":{"ReferenceId":"576775785","Spot":0.38,"SideOfStreet":"left","CountryId":"20317122","CountyId":"20318826","CityId":"20318915","DistrictId":"23492419"}}},{"Relevance":1.0,"Distance":43.1,"MatchLevel":"street","MatchQuality":{"Country":1.0,"County":1.0,"City":1.0,"District":1.0,"Street":[1.0],"PostalCode":1.0},"Location":{"LocationId":"NT_-.Fp5W1qpswFkdCT7QJ8zD_l_576775773_R","LocationType":"point","DisplayPosition":{"Latitude":37.17572,"Longitude":-7.53552},"MapView":{"TopLeft":{"Latitude":37.17572,"Longitude":-7.53552},"BottomRight":{"Latitude":37.17551,"Longitude":-7.53516}},"Address":{"Label":"Largo Manuel Cabanas, 8900-067 Vila Real de Santo António, Portugal","Country":"PRT","County":"Faro","City":"Vila Real de Santo António","District":"Vila Nova de Cacela","Street":"Largo Manuel Cabanas","PostalCode":"8900-067","AdditionalData":[{"value":"Portugal","key":"CountryName"},{"value":"Faro","key":"CountyName"}]},"MapReference":{"ReferenceId":"576775773","Spot":1.0,"SideOfStreet":"right","CountryId":"20317122","CountyId":"20318826","CityId":"20318915","DistrictId":"23492419"}}},{"Relevance":1.0,"Distance":43.3,"MatchLevel":"street","MatchQuality":{"Country":1.0,"County":1.0,"City":1.0,"District":1.0,"Street":[1.0],"PostalCode":1.0},"Location":{"LocationId":"NT_g2cK3ku5ouZDvhWzwFHsrC_l_576775758_R","LocationType":"point","DisplayPosition":{"Latitude":37.17572,"Longitude":-7.53631},"MapView":{"TopLeft":{"Latitude":37.17572,"Longitude":-7.53708},"BottomRight":{"Latitude":37.17526,"Longitude":-7.53631}},"Address":{"Label":"Rua do Pôr do Sol, 8900 Vila Real de Santo António, Portugal","Country":"PRT","County":"Faro","City":"Vila Real de Santo António","District":"Vila Nova de Cacela","Street":"Rua do Pôr do Sol","PostalCode":"8900","AdditionalData":[{"value":"Portugal","key":"CountryName"},{"value":"Faro","key":"CountyName"}]},"MapReference":{"ReferenceId":"576775758","Spot":1.0,"SideOfStreet":"right","CountryId":"20317122","CountyId":"20318826","CityId":"20318915","DistrictId":"23492419"}}},{"Relevance":1.0,"Distance":43.3,"MatchLevel":"street","MatchQuality":{"Country":1.0,"County":1.0,"City":1.0,"District":1.0,"PostalCode":1.0},"Location":{"LocationId":"NT_jZcz6D0QWC6stR3La0rlJD_l_576775778_R","LocationType":"point","DisplayPosition":{"Latitude":37.17572,"Longitude":-7.53631},"MapView":{"TopLeft":{"Latitude":37.17581,"Longitude":-7.53654},"BottomRight":{"Latitude":37.17572,"Longitude":-7.53631}},"Address":{"Label":"8900 Vila Real de Santo António, Portugal","Country":"PRT","County":"Faro","City":"Vila Real de Santo António","District":"Vila Nova de Cacela","PostalCode":"8900","AdditionalData":[{"value":"Portugal","key":"CountryName"},{"value":"Faro","key":"CountyName"}]},"MapReference":{"ReferenceId":"576775778","Spot":0.0,"SideOfStreet":"right","CountryId":"20317122","CountyId":"20318826","CityId":"20318915","DistrictId":"23492419"}}},{"Relevance":1.0,"Distance":45.0,"MatchLevel":"street","MatchQuality":{"Country":1.0,"County":1.0,"City":1.0,"District":1.0,"Street":[1.0],"PostalCode":1.0},"Location":{"LocationId":"NT_-.Fp5W1qpswFkdCT7QJ8zD_l_576775768_L","LocationType":"point","DisplayPosition":{"Latitude":37.17557,"Longitude":-7.53573},"MapView":{"TopLeft":{"Latitude":37.17557,"Longitude":-7.53573},"BottomRight":{"Latitude":37.17525,"Longitude":-7.53559}},"Address":{"Label":"Largo Manuel Cabanas, 8900-067 Vila Real de Santo António, Portugal","Country":"PRT","County":"Faro","City":"Vila Real de Santo António","District":"Vila Nova de Cacela","Street":"Largo Manuel Cabanas","PostalCode":"8900-067","AdditionalData":[{"value":"Portugal","key":"CountryName"},{"value":"Faro","key":"CountyName"}]},"MapReference":{"ReferenceId":"576775768","Spot":1.0,"SideOfStreet":"left","CountryId":"20317122","CountyId":"20318826","CityId":"20318915","DistrictId":"23492419"}}}]}]}}