{"Response":{"MetaInfo":{"Timestamp":"2020-03-28T11:33:44.783+0000","NextPageInformation":"2"},"View":[{"_type":"SearchResultsViewType","ViewId":0,"Result":[{"Relevance":1.0,"Distance":0.0,"Direction":0.0,"MatchLevel":"district","MatchQuality":{"Country":1.0,"County":1.0,"City":1.0,"District":1.0,"PostalCode":1.0},"Location":{"LocationId":"NT_yB6SsCPULruujmF7ecx5MA","LocationType":"point","DisplayPosition":{"Latitude":37.1301722,"Longitude":-8.5822085},"MapView":{"TopLeft":{"Latitude":37.1347,"Longitude":-8.59662},"BottomRight":{"Latitude":37.12642,"Longitude":-8.58121}},"Address":{"Label":"Alvor, Portimão, Portugal","Country":"PRT","County":"Faro","City":"Portimão","District":"Alvor","PostalCode":"8500","AdditionalData":[{"value":"Portugal","key":"CountryName"},{"value":"Faro","key":"CountyName"}]},"MapReference":{"ReferenceId":"977328692","SideOfStreet":"neither","CountryId":"20317122","CountyId":"20318826","CityId":"20318885","DistrictId":"20318886"}}},{"Relevance":1.0,"Distance":0.6,"MatchLevel":"street","MatchQuality":{"Country":1.0,"County":1.0,"City":1.0,"District":1.0,"PostalCode":1.0},"Location":{"LocationId":"NT_-TwFnUSHXSNZZXI29AYb4A_l_876577713_L","LocationType":"point","DisplayPosition":{"Latitude":37.1301772,"Longitude":-8.5822074},"MapView":{"TopLeft":{"Latitude":37.1302,"Longitude":-8.58231},"BottomRight":{"Latitude":37.1301,"Longitude":-8.58186}},"Address":{"Label":"8500 Portimão, Portugal","Country":"PRT","County":"Faro","City":"Portimão","District":"Alvor","PostalCode":"8500","AdditionalData":[{"value":"Portugal","key":"CountryName"},{"value":"Faro","key":"CountyName"}]},"MapReference":{"ReferenceId":"876577713","Spot":0.77,"SideOfStreet":"neither","CountryId":"20317122","CountyId":"20318826","CityId":"20318885","DistrictId":"20318886"}}},{"Relevance":1.0,"Distance":9.3,"MatchLevel":"street","MatchQuality":{"Country":1.0,"County":1.0,"City":1.0,"District":1.0,"PostalCode":1.0},"Location":{"LocationId":"NT_-TwFnUSHXSNZZXI29AYb4A_l_873099738_R","LocationType":"point","DisplayPosition":{"Latitude":37.1302357,"Longitude":-8.5822769},"MapView":{"TopLeft":{"Latitude":37.13058,"Longitude":-8.58231},"BottomRight":{"Latitude":37.1302,"Longitude":-8.58215}},"Address":{"Label":"8500 Portimão, Portugal","Country":"PRT","County":"Faro","City":"Portimão","District":"Alvor","PostalCode":"8500","AdditionalData":[{"value":"Portugal","key":"CountryName"},{"value":"Faro","key":"CountyName"}]},"MapReference":{"ReferenceId":"873099738","Spot":0.11,"SideOfStreet":"right","CountryId":"20317122","CountyId":"20318826","CityId":"20318885","DistrictId":"20318886"}}},{"Relevance":1.0,"Distance":9.5,"MatchLevel":"street","MatchQuality":{"Country":1.0,"County":1.0,"City":1.0,"District":1.0,"PostalCode":1.0},"Location":{"LocationId":"NT_-TwFnUSHXSNZZXI29AYb4A_l_873099737_L","LocationType":"point","DisplayPosition":{"Latitude":37.1302,"Longitude":-8.58231},"MapView":{"TopLeft":{"Latitude":37.13029,"Longitude":-8.58331},"BottomRight":{"Latitude":37.13018,"Longitude":-8.58231}},"Address":{"Label":"8500 Portimão, Portugal","Country":"PRT","County":"Faro","City":"Portimão","District":"Alvor","PostalCode":"8500","AdditionalData":[{"value":"Portugal","key":"CountryName"},{"value":"Faro","key":"CountyName"}]},"MapReference":{"ReferenceId":"873099737","Spot":0.0,"SideOfStreet":"left","CountryId":"20317122","CountyId":"20318826","CityId":"20318885","DistrictId":"20318886"}}},{"Relevance":1.0,"Distance":24.9,"MatchLevel":"street","MatchQuality":{"Country":1.0,"County":1.0,"City":1.0,"District":1.0,"PostalCode":1.0},"Location":{"LocationId":"NT_-TwFnUSHXSNZZXI29AYb4A_l_873099739_L","LocationType":"point","DisplayPosition":{"Latitude":37.1299906,"Longitude":-8.5820434},"MapView":{"TopLeft":{"Latitude":37.1301,"Longitude":-8.58307},"BottomRight":{"Latitude":37.12904,"Longitude":-8.58186}},"Address":{"Label":"8500 Portimão, Portugal","Country":"PRT","County":"Faro","City":"Portimão","District":"Alvor","PostalCode":"8500","AdditionalData":[{"value":"Portugal","key":"CountryName"},{"value":"Faro","key":"CountyName"}]},"MapReference":{"ReferenceId":"873099739","Spot":0.87,"SideOfStreet":"left","CountryId":"20317122","CountyId":"20318826","CityId":"20318885","DistrictId":"20318886"}}},{"Relevance":1.0,"Distance":31.9,"MatchLevel":"street","MatchQuality":{"Country":1.0,"County":1.0,"City":1.0,"District":1.0,"PostalCode":1.0},"Location":{"LocationId":"NT_-TwFnUSHXSNZZXI29AYb4A_l_873099740_L","LocationType":"point","DisplayPosition":{"Latitude":37.1301,"Longitude":-8.58186},"MapView":{"TopLeft":{"Latitude":37.13014,"Longitude":-8.58186},"BottomRight":{"Latitude":37.1301,"Longitude":-8.58178}},"Address":{"Label":"8500 Portimão, Portugal","Country":"PRT","County":"Faro","City":"Portimão","District":"Alvor","PostalCode":"8500","AdditionalData":[{"value":"Portugal","key":"CountryName"},{"value":"Faro","key":"CountyName"}]},"MapReference":{"ReferenceId":"873099740","Spot":0.0,"SideOfStreet":"left","CountryId":"20317122","CountyId":"20318826","CityId":"20318885","DistrictId":"20318886"}}},{"Relevance":1.0,"Distance":38.2,"MatchLevel":"street","MatchQuality":{"Country":1.0,"County":1.0,"City":1.0,"District":1.0,"PostalCode":1.0},"Location":{"LocationId":"NT_-TwFnUSHXSNZZXI29AYb4A_l_806972878_L","LocationType":"point","DisplayPosition":{"Latitude":37.13014,"Longitude":-8.58178},"MapView":{"TopLeft":{"Latitude":37.13042,"Longitude":-8.58178},"BottomRight":{"Latitude":37.13014,"Longitude":-8.58152}},"Address":{"Label":"8500 Portimão, Portugal","Country":"PRT","County":"Faro","City":"Portimão","District":"Alvor","PostalCode":"8500","AdditionalData":[{"value":"Portugal","key":"CountryName"},{"value":"Faro","key":"CountyName"}]},"MapReference":{"ReferenceId":"806972878","Spot":0.0,"SideOfStreet":"left","CountryId":"20317122","CountyId":"20318826","CityId":"20318885","DistrictId":"20318886"}}},{"Relevance":1.0,"Distance":38.2,"MatchLevel":"street","MatchQuality":{"Country":1.0,"County":1.0,"City":1.0,"District":1.0,"PostalCode":1.0},"Location":{"LocationId":"NT_-TwFnUSHXSNZZXI29AYb4A_l_806972877_L","LocationType":"point","DisplayPosition":{"Latitude":37.13014,"Longitude":-8.58178},"MapView":{"TopLeft":{"Latitude":37.13043,"Longitude":-8.58178},"BottomRight":{"Latitude":37.13014,"Longitude":-8.58121}},"Address":{"Label":"8500 Portimão, Portugal","Country":"PRT","County":"Faro","City":"Portimão","District":"Alvor","PostalCode":"8500","AdditionalData":[{"value":"Portugal","key":"CountryName"},{"value":"Faro","key":"CountyName"}]},"MapReference":{"ReferenceId":"806972877","Spot":0.0,"SideOfStreet":"left","CountryId":"20317122","CountyId":"20318826","CityId":"20318885","DistrictId":"20318886"}}},{"Relevance":1.0,"Distance":45.4,"MatchLevel":"street","MatchQuality":{"Country":1.0,"County":1.0,"City":1.0,"District":1.0,"PostalCode":1.0},"Location":{"LocationId":"NT_-TwFnUSHXSNZZXI29AYb4A_l_576740615_L","LocationType":"point","DisplayPosition":{"Latitude":37.13058,"Longitude":-8.58219},"MapView":{"TopLeft":{"Latitude":37.13086,"Longitude":-8.583},"BottomRight":{"Latitude":37.13058,"Longitude":-8.58219}},"Address":{"Label":"8500 Portimão, Portugal","Country":"PRT","County":"Faro","City":"Portimão","District":"Alvor","PostalCode":"8500","AdditionalData":[{"value":"Portugal","key":"CountryName"},{"value":"Faro","key":"CountyName"}]},"MapReference":{"ReferenceId":"576740615","Spot":0.0,"SideOfStreet":"left","CountryId":"20317122","CountyId":"20318826","CityId":"20318885","DistrictId":"20318886"}}},{"Relevance":1.0,"Distance":47.9,"MatchLevel":"street","MatchQuality":{"Country":1.0,"County":1.0,"City":1.0,"District":1.0,"PostalCode":1.0},"Location":{"LocationId":"NT_-TwFnUSHXSNZZXI29AYb4A_l_576740603_L","LocationType":"point","DisplayPosition":{"Latitude":37.13046,"Longitude":-8.58261},"MapView":{"TopLeft":{"Latitude":37.13054,"Longitude":-8.58304},"BottomRight":{"Latitude":37.13046,"Longitude":-8.58261}},"Address":{"Label":"8500 Portimão, Portugal","Country":"PRT","County":"Faro","City":"Portimão","District":"Alvor","PostalCode":"8500","AdditionalData":[{"value":"Portugal","key":"CountryName"},{"value":"Faro","key":"CountyName"}]},"MapReference":{"ReferenceId":"576740603","Spot":0.0,"SideOfStreet":"left","CountryId":"20317122","CountyId":"20318826","CityId":"20318885","DistrictId":"20318886"}}}]}]}}