{"Response":{"MetaInfo":{"Timestamp":"2020-03-28T09:37:17.446+0000","NextPageInformation":"2"},"View":[{"_type":"SearchResultsViewType","ViewId":0,"Result":[{"Relevance":1.0,"Distance":0.0,"Direction":0.0,"MatchLevel":"city","MatchQuality":{"Country":1.0,"State":1.0,"County":1.0,"City":1.0,"PostalCode":1.0},"Location":{"LocationId":"NT_N48tsyIsLMQ1r1SAtqyyoC","LocationType":"point","DisplayPosition":{"Latitude":37.1148872,"Longitude":-3.5819558},"MapView":{"TopLeft":{"Latitude":37.14157,"Longitude":-3.60886},"BottomRight":{"Latitude":37.07604,"Longitude":-3.5323}},"Address":{"Label":"La Zubia, Andalucía, España","Country":"ESP","State":"Andalucía","County":"Granada","City":"La Zubia","PostalCode":"18140","AdditionalData":[{"value":"España","key":"CountryName"},{"value":"Andalucía","key":"StateName"},{"value":"Granada","key":"CountyName"}]},"MapReference":{"ReferenceId":"585633770","SideOfStreet":"neither","CountryId":"20215059","StateId":"20221885","CountyId":"20221889","CityId":"20234979"}}},{"Relevance":1.0,"Distance":29.8,"MatchLevel":"houseNumber","MatchQuality":{"Country":1.0,"State":1.0,"County":1.0,"City":1.0,"Street":[1.0],"HouseNumber":1.0,"PostalCode":1.0},"MatchType":"interpolated","Location":{"LocationId":"NT_74p0BazD8Zj6A78h8sDueB_zA","LocationType":"point","DisplayPosition":{"Latitude":37.11506,"Longitude":-3.58222},"MapView":{"TopLeft":{"Latitude":37.1161842,"Longitude":-3.5836297},"BottomRight":{"Latitude":37.1139358,"Longitude":-3.5808103}},"Address":{"Label":"Calle Corvales, 3, 18140 La Zubia (Granada), España","Country":"ESP","State":"Andalucía","County":"Granada","City":"La Zubia","Street":"Calle Corvales","HouseNumber":"3","PostalCode":"18140","AdditionalData":[{"value":"España","key":"CountryName"},{"value":"Andalucía","key":"StateName"},{"value":"Granada","key":"CountyName"}]},"MapReference":{"ReferenceId":"585633832","Spot":0.86,"SideOfStreet":"right","CountryId":"20215059","StateId":"20221885","CountyId":"20221889","CityId":"20234979","AddressId":"268692591","RoadLinkId":"67025688"}}},{"Relevance":1.0,"Distance":34.5,"MatchLevel":"street","MatchQuality":{"Country":1.0,"State":1.0,"County":1.0,"City":1.0,"Street":[1.0],"PostalCode":1.0},"Location":{"LocationId":"NT_1671xrDmRfmog9eSrwdIsB_l_585632911_R","LocationType":"point","DisplayPosition":{"Latitude":37.11509,"Longitude":-3.58225},"MapView":{"TopLeft":{"Latitude":37.11509,"Longitude":-3.58257},"BottomRight":{"Latitude":37.1149,"Longitude":-3.58225}},"Address":{"Label":"Calle Cádiz, 18140 La Zubia (Granada), España","Country":"ESP","State":"Andalucía","County":"Granada","City":"La Zubia","Street":"Calle Cádiz","PostalCode":"18140","AdditionalData":[{"value":"España","key":"CountryName"},{"value":"Andalucía","key":"StateName"},{"value":"Granada","key":"CountyName"}]},"MapReference":{"ReferenceId":"585632911","Spot":1.0,"SideOfStreet":"right","CountryId":"20215059","StateId":"20221885","CountyId":"20221889","CityId":"20234979"}}},{"Relevance":1.0,"Distance":36.8,"MatchLevel":"houseNumber","MatchQuality":{"Country":1.0,"State":1.0,"County":1.0,"City":1.0,"Street":[1.0],"HouseNumber":1.0,"PostalCode":1.0},"MatchType":"interpolated","Location":{"LocationId":"NT_YpVswJ3izb3XOMxlodkMPA_xA","LocationType":"point","DisplayPosition":{"Latitude":37.11471,"Longitude":-3.5823},"MapView":{"TopLeft":{"Latitude":37.1158342,"Longitude":-3.5837097},"BottomRight":{"Latitude":37.1135858,"Longitude":-3.5808903}},"Address":{"Label":"Calle Jerez, 1, 18140 La Zubia (Granada), España","Country":"ESP","State":"Andalucía","County":"Granada","City":"La Zubia","Street":"Calle Jerez","HouseNumber":"1","PostalCode":"18140","AdditionalData":[{"value":"España","key":"CountryName"},{"value":"Andalucía","key":"StateName"},{"value":"Granada","key":"CountyName"}]},"MapReference":{"ReferenceId":"585632851","Spot":0.2,"SideOfStreet":"right","CountryId":"20215059","StateId":"20221885","CountyId":"20221889","CityId":"20234979","AddressId":"268485763","RoadLinkId":"67722450"}}},{"Relevance":1.0,"Distance":38.0,"MatchLevel":"houseNumber","MatchQuality":{"Country":1.0,"State":1.0,"County":1.0,"City":1.0,"Street":[1.0],"HouseNumber":1.0,"PostalCode":1.0},"MatchType":"interpolated","Location":{"LocationId":"NT_74p0BazD8Zj6A78h8sDueB_yID","LocationType":"point","DisplayPosition":{"Latitude":37.11512,"Longitude":-3.58227},"MapView":{"TopLeft":{"Latitude":37.1162442,"Longitude":-3.5836797},"BottomRight":{"Latitude":37.1139958,"Longitude":-3.5808603}},"Address":{"Label":"Calle Corvales, 22, 18140 La Zubia (Granada), España","Country":"ESP","State":"Andalucía","County":"Granada","City":"La Zubia","Street":"Calle Corvales","HouseNumber":"22","PostalCode":"18140","AdditionalData":[{"value":"España","key":"CountryName"},{"value":"Andalucía","key":"StateName"},{"value":"Granada","key":"CountyName"}]},"MapReference":{"ReferenceId":"585633833","Spot":0.1,"SideOfStreet":"left","CountryId":"20215059","StateId":"20221885","CountyId":"20221889","CityId":"20234979","AddressId":"268601669","RoadLinkId":"66712718"}}},{"Relevance":1.0,"Distance":44.0,"MatchLevel":"street","MatchQuality":{"Country":1.0,"State":1.0,"County":1.0,"City":1.0,"Street":[1.0],"PostalCode":1.0},"Location":{"LocationId":"NT_i70.kwxL9Ubz6aMq9Ix5WA_l_585632852_R","LocationType":"point","DisplayPosition":{"Latitude":37.11467,"Longitude":-3.58237},"MapView":{"TopLeft":{"Latitude":37.1149,"Longitude":-3.58257},"BottomRight":{"Latitude":37.11467,"Longitude":-3.58237}},"Address":{"Label":"Calle Córdoba, 18140 La Zubia (Granada), España","Country":"ESP","State":"Andalucía","County":"Granada","City":"La Zubia","Street":"Calle Córdoba","PostalCode":"18140","AdditionalData":[{"value":"España","key":"CountryName"},{"value":"Andalucía","key":"StateName"},{"value":"Granada","key":"CountyName"}]},"MapReference":{"ReferenceId":"585632852","Spot":0.0,"SideOfStreet":"right","CountryId":"20215059","StateId":"20221885","CountyId":"20221889","CityId":"20234979"}}},{"Relevance":1.0,"Distance":48.6,"MatchLevel":"houseNumber","MatchQuality":{"Country":1.0,"State":1.0,"County":1.0,"City":1.0,"Street":[1.0],"HouseNumber":1.0,"PostalCode":1.0},"MatchType":"interpolated","Location":{"LocationId":"NT_YpVswJ3izb3XOMxlodkMPA_zA","LocationType":"point","DisplayPosition":{"Latitude":37.11465,"Longitude":-3.58241},"MapView":{"TopLeft":{"Latitude":37.1157742,"Longitude":-3.5838197},"BottomRight":{"Latitude":37.1135258,"Longitude":-3.5810003}},"Address":{"Label":"Calle Jerez, 3, 18140 La Zubia (Granada), España","Country":"ESP","State":"Andalucía","County":"Granada","City":"La Zubia","Street":"Calle Jerez","HouseNumber":"3","PostalCode":"18140","AdditionalData":[{"value":"España","key":"CountryName"},{"value":"Andalucía","key":"StateName"},{"value":"Granada","key":"CountyName"}]},"MapReference":{"ReferenceId":"585632864","Spot":0.93,"SideOfStreet":"right","CountryId":"20215059","StateId":"20221885","CountyId":"20221889","CityId":"20234979","AddressId":"268721114","RoadLinkId":"66857162"}}},{"Relevance":1.0,"Distance":53.6,"MatchLevel":"houseNumber","MatchQuality":{"Country":1.0,"State":1.0,"County":1.0,"City":1.0,"Street":[1.0],"HouseNumber":1.0,"PostalCode":1.0},"MatchType":"interpolated","Location":{"LocationId":"NT_74p0BazD8Zj6A78h8sDueB_1A","LocationType":"point","DisplayPosition":{"Latitude":37.11445,"Longitude":-3.5817},"MapView":{"TopLeft":{"Latitude":37.1155742,"Longitude":-3.5831097},"BottomRight":{"Latitude":37.1133258,"Longitude":-3.5802903}},"Address":{"Label":"Calle Corvales, 5, 18140 La Zubia (Granada), España","Country":"ESP","State":"Andalucía","County":"Granada","City":"La Zubia","Street":"Calle Corvales","HouseNumber":"5","PostalCode":"18140","AdditionalData":[{"value":"España","key":"CountryName"},{"value":"Andalucía","key":"StateName"},{"value":"Granada","key":"CountyName"}]},"MapReference":{"ReferenceId":"585633831","Spot":0.11,"SideOfStreet":"right","CountryId":"20215059","StateId":"20221885","CountyId":"20221889","CityId":"20234979","AddressId":"268121401","RoadLinkId":"67608464"}}},{"Relevance":1.0,"Distance":57.0,"MatchLevel":"houseNumber","MatchQuality":{"Country":1.0,"State":1.0,"County":1.0,"City":1.0,"Street":[1.0],"HouseNumber":1.0,"PostalCode":1.0},"MatchType":"interpolated","Location":{"LocationId":"NT_i70.kwxL9Ubz6aMq9Ix5WA_3A","LocationType":"point","DisplayPosition":{"Latitude":37.11496,"Longitude":-3.58262},"MapView":{"TopLeft":{"Latitude":37.1160842,"Longitude":-3.5840297},"BottomRight":{"Latitude":37.1138358,"Longitude":-3.5812103}},"Address":{"Label":"Calle Córdoba, 7, 18140 La Zubia (Granada), España","Country":"ESP","State":"Andalucía","County":"Granada","City":"La Zubia","Street":"Calle Córdoba","HouseNumber":"7","PostalCode":"18140","AdditionalData":[{"value":"España","key":"CountryName"},{"value":"Andalucía","key":"StateName"},{"value":"Granada","key":"CountyName"}]},"MapReference":{"ReferenceId":"585632917","Spot":0.22,"SideOfStreet":"right","CountryId":"20215059","StateId":"20221885","CountyId":"20221889","CityId":"20234979","AddressId":"268293966","RoadLinkId":"66842055"}}},{"Relevance":1.0,"Distance":60.2,"MatchLevel":"street","MatchQuality":{"Country":1.0,"State":1.0,"County":1.0,"City":1.0,"Street":[1.0],"PostalCode":1.0},"Location":{"LocationId":"NT_74p0BazD8Zj6A78h8sDueB_l_905282467_R","LocationType":"point","DisplayPosition":{"Latitude":37.1144,"Longitude":-3.58166},"MapView":{"TopLeft":{"Latitude":37.1144,"Longitude":-3.58166},"BottomRight":{"Latitude":37.11422,"Longitude":-3.58152}},"Address":{"Label":"Calle Corvales, 18140 La Zubia (Granada), España","Country":"ESP","State":"Andalucía","County":"Granada","City":"La Zubia","Street":"Calle Corvales","PostalCode":"18140","AdditionalData":[{"value":"España","key":"CountryName"},{"value":"Andalucía","key":"StateName"},{"value":"Granada","key":"CountyName"}]},"MapReference":{"ReferenceId":"905282467","Spot":1.0,"SideOfStreet":"right","CountryId":"20215059","StateId":"20221885","CountyId":"20221889","CityId":"20234979"}}}]}]}}