{"Response":{"MetaInfo":{"Timestamp":"2020-03-28T09:39:28.926+0000","NextPageInformation":"2"},"View":[{"_type":"SearchResultsViewType","ViewId":0,"Result":[{"Relevance":1.0,"Distance":0.0,"Direction":0.0,"MatchLevel":"city","MatchQuality":{"Country":1.0,"State":1.0,"County":1.0,"City":1.0,"PostalCode":1.0},"Location":{"LocationId":"NT_6A2nqd6Tb4TuhRi-ZZnrQA","LocationType":"point","DisplayPosition":{"Latitude":37.2674885,"Longitude":-4.8281858},"MapView":{"TopLeft":{"Latitude":37.29829,"Longitude":-4.84089},"BottomRight":{"Latitude":37.23375,"Longitude":-4.79047}},"Address":{"Label":"Lora de Estepa, Andalucía, España","Country":"ESP","State":"Andalucía","County":"Sevilla","City":"Lora de Estepa","PostalCode":"41564","AdditionalData":[{"value":"España","key":"CountryName"},{"value":"Andalucía","key":"StateName"},{"value":"Sevilla","key":"CountyName"}]},"MapReference":{"ReferenceId":"1165584182","SideOfStreet":"neither","CountryId":"20215059","StateId":"20221885","CountyId":"20221893","CityId":"20236413"}}},{"Relevance":1.0,"Distance":6.0,"MatchLevel":"houseNumber","MatchQuality":{"Country":1.0,"State":1.0,"County":1.0,"City":1.0,"Street":[1.0],"HouseNumber":1.0,"PostalCode":1.0},"MatchType":"interpolated","Location":{"LocationId":"NT_E7XxHZyt-dBtaZxVyu67TB_0A","LocationType":"point","DisplayPosition":{"Latitude":37.26748,"Longitude":-4.82832},"MapView":{"TopLeft":{"Latitude":37.2686042,"Longitude":-4.8297326},"BottomRight":{"Latitude":37.2663558,"Longitude":-4.8269074}},"Address":{"Label":"Calle Lepanto, 4, 41564 Lora de Estepa (Sevilla), España","Country":"ESP","State":"Andalucía","County":"Sevilla","City":"Lora de Estepa","Street":"Calle Lepanto","HouseNumber":"4","PostalCode":"41564","AdditionalData":[{"value":"España","key":"CountryName"},{"value":"Andalucía","key":"StateName"},{"value":"Sevilla","key":"CountyName"}]},"MapReference":{"ReferenceId":"549362652","Spot":0.3,"SideOfStreet":"right","CountryId":"20215059","StateId":"20221885","CountyId":"20221893","CityId":"20236413","AddressId":"404420496","RoadLinkId":"67667404"}}},{"Relevance":1.0,"Distance":21.2,"MatchLevel":"houseNumber","MatchQuality":{"Country":1.0,"State":1.0,"County":1.0,"City":1.0,"Street":[1.0],"HouseNumber":1.0,"PostalCode":1.0},"MatchType":"interpolated","Location":{"LocationId":"NT_w5wPP6Jp4JtAVVP2RvMu1A_yA","LocationType":"point","DisplayPosition":{"Latitude":37.26751,"Longitude":-4.82849},"MapView":{"TopLeft":{"Latitude":37.2686342,"Longitude":-4.8299026},"BottomRight":{"Latitude":37.2663858,"Longitude":-4.8270774}},"Address":{"Label":"Calle Antonio Machado, 2, 41564 Lora de Estepa (Sevilla), España","Country":"ESP","State":"Andalucía","County":"Sevilla","City":"Lora de Estepa","Street":"Calle Antonio Machado","HouseNumber":"2","PostalCode":"41564","AdditionalData":[{"value":"España","key":"CountryName"},{"value":"Andalucía","key":"StateName"},{"value":"Sevilla","key":"CountyName"}]},"MapReference":{"ReferenceId":"549359761","Spot":0.52,"SideOfStreet":"right","CountryId":"20215059","StateId":"20221885","CountyId":"20221893","CityId":"20236413","AddressId":"404567683","RoadLinkId":"66889003"}}},{"Relevance":1.0,"Distance":32.6,"MatchLevel":"houseNumber","MatchQuality":{"Country":1.0,"State":1.0,"County":1.0,"City":1.0,"Street":[1.0],"HouseNumber":1.0,"PostalCode":1.0},"MatchType":"interpolated","Location":{"LocationId":"NT_syIGCan9Lxeo4ybZ9OXMlB_zA","LocationType":"point","DisplayPosition":{"Latitude":37.2677,"Longitude":-4.82875},"MapView":{"TopLeft":{"Latitude":37.2688242,"Longitude":-4.8301626},"BottomRight":{"Latitude":37.2665758,"Longitude":-4.8273374}},"Address":{"Label":"Calle García Lorca, 3, 41564 Lora de Estepa (Sevilla), España","Country":"ESP","State":"Andalucía","County":"Sevilla","City":"Lora de Estepa","Street":"Calle García Lorca","HouseNumber":"3","PostalCode":"41564","AdditionalData":[{"value":"España","key":"CountryName"},{"value":"Andalucía","key":"StateName"},{"value":"Sevilla","key":"CountyName"}]},"MapReference":{"ReferenceId":"549362611","Spot":0.7,"SideOfStreet":"right","CountryId":"20215059","StateId":"20221885","CountyId":"20221893","CityId":"20236413","AddressId":"404552505","RoadLinkId":"66853575"}}},{"Relevance":1.0,"Distance":35.8,"MatchLevel":"houseNumber","MatchQuality":{"Country":1.0,"State":1.0,"County":1.0,"City":1.0,"Street":[1.0],"HouseNumber":1.0,"PostalCode":1.0},"MatchType":"interpolated","Location":{"LocationId":"NT_syIGCan9Lxeo4ybZ9OXMlB_1A","LocationType":"point","DisplayPosition":{"Latitude":37.26732,"Longitude":-4.82873},"MapView":{"TopLeft":{"Latitude":37.2684442,"Longitude":-4.8301426},"BottomRight":{"Latitude":37.2661958,"Longitude":-4.8273174}},"Address":{"Label":"Calle García Lorca, 5, 41564 Lora de Estepa (Sevilla), España","Country":"ESP","State":"Andalucía","County":"Sevilla","City":"Lora de Estepa","Street":"Calle García Lorca","HouseNumber":"5","PostalCode":"41564","AdditionalData":[{"value":"España","key":"CountryName"},{"value":"Andalucía","key":"StateName"},{"value":"Sevilla","key":"CountyName"}]},"MapReference":{"ReferenceId":"809222668","Spot":0.45,"SideOfStreet":"right","CountryId":"20215059","StateId":"20221885","CountyId":"20221893","CityId":"20236413","AddressId":"404497920","RoadLinkId":"196570562"}}},{"Relevance":1.0,"Distance":35.9,"MatchLevel":"street","MatchQuality":{"Country":1.0,"State":1.0,"County":1.0,"City":1.0,"Street":[1.0],"PostalCode":1.0},"Location":{"LocationId":"NT_syIGCan9Lxeo4ybZ9OXMlB_l_809222667_R","LocationType":"point","DisplayPosition":{"Latitude":37.26719,"Longitude":-4.82834},"MapView":{"TopLeft":{"Latitude":37.26722,"Longitude":-4.82855},"BottomRight":{"Latitude":37.26716,"Longitude":-4.82834}},"Address":{"Label":"Calle García Lorca, 41564 Lora de Estepa (Sevilla), España","Country":"ESP","State":"Andalucía","County":"Sevilla","City":"Lora de Estepa","Street":"Calle García Lorca","PostalCode":"41564","AdditionalData":[{"value":"España","key":"CountryName"},{"value":"Andalucía","key":"StateName"},{"value":"Sevilla","key":"CountyName"}]},"MapReference":{"ReferenceId":"809222667","Spot":0.0,"SideOfStreet":"right","CountryId":"20215059","StateId":"20221885","CountyId":"20221893","CityId":"20236413"}}},{"Relevance":1.0,"Distance":38.1,"MatchLevel":"houseNumber","MatchQuality":{"Country":1.0,"State":1.0,"County":1.0,"City":1.0,"Street":[1.0],"HouseNumber":1.0,"PostalCode":1.0},"MatchType":"interpolated","Location":{"LocationId":"NT_w5wPP6Jp4JtAVVP2RvMu1A_zA","LocationType":"point","DisplayPosition":{"Latitude":37.26713,"Longitude":-4.82829},"MapView":{"TopLeft":{"Latitude":37.2682542,"Longitude":-4.8297026},"BottomRight":{"Latitude":37.2660058,"Longitude":-4.8268774}},"Address":{"Label":"Calle Antonio Machado, 3, 41564 Lora de Estepa (Sevilla), España","Country":"ESP","State":"Andalucía","County":"Sevilla","City":"Lora de Estepa","Street":"Calle Antonio Machado","HouseNumber":"3","PostalCode":"41564","AdditionalData":[{"value":"España","key":"CountryName"},{"value":"Andalucía","key":"StateName"},{"value":"Sevilla","key":"CountyName"}]},"MapReference":{"ReferenceId":"549359760","Spot":0.15,"SideOfStreet":"right","CountryId":"20215059","StateId":"20221885","CountyId":"20221893","CityId":"20236413","AddressId":"404477509","RoadLinkId":"67706002"}}},{"Relevance":1.0,"Distance":40.6,"MatchLevel":"houseNumber","MatchQuality":{"Country":1.0,"State":1.0,"County":1.0,"City":1.0,"Street":[1.0],"HouseNumber":1.0,"PostalCode":1.0},"MatchType":"interpolated","Location":{"LocationId":"NT_6G2.kVShbP7Dh6TZs2NWtB_yUD","LocationType":"point","DisplayPosition":{"Latitude":37.26798,"Longitude":-4.82849},"MapView":{"TopLeft":{"Latitude":37.2691042,"Longitude":-4.8299026},"BottomRight":{"Latitude":37.2668558,"Longitude":-4.8270774}},"Address":{"Label":"Calle Blas Infante, 25, 41564 Lora de Estepa (Sevilla), España","Country":"ESP","State":"Andalucía","County":"Sevilla","City":"Lora de Estepa","Street":"Calle Blas Infante","HouseNumber":"25","PostalCode":"41564","AdditionalData":[{"value":"España","key":"CountryName"},{"value":"Andalucía","key":"StateName"},{"value":"Sevilla","key":"CountyName"}]},"MapReference":{"ReferenceId":"549362630","Spot":0.13,"SideOfStreet":"right","CountryId":"20215059","StateId":"20221885","CountyId":"20221893","CityId":"20236413","AddressId":"404593343","RoadLinkId":"67101896"}}},{"Relevance":1.0,"Distance":41.8,"MatchLevel":"street","MatchQuality":{"Country":1.0,"State":1.0,"County":1.0,"City":1.0,"Street":[1.0],"PostalCode":1.0},"Location":{"LocationId":"NT_w5wPP6Jp4JtAVVP2RvMu1A_l_1056305346_R","LocationType":"point","DisplayPosition":{"Latitude":37.26712,"Longitude":-4.82828},"MapView":{"TopLeft":{"Latitude":37.26712,"Longitude":-4.82828},"BottomRight":{"Latitude":37.2668,"Longitude":-4.82789}},"Address":{"Label":"Calle Antonio Machado, 41564 Lora de Estepa (Sevilla), España","Country":"ESP","State":"Andalucía","County":"Sevilla","City":"Lora de Estepa","Street":"Calle Antonio Machado","PostalCode":"41564","AdditionalData":[{"value":"España","key":"CountryName"},{"value":"Andalucía","key":"StateName"},{"value":"Sevilla","key":"CountyName"}]},"MapReference":{"ReferenceId":"1056305346","Spot":1.0,"SideOfStreet":"right","CountryId":"20215059","StateId":"20221885","CountyId":"20221893","CityId":"20236413"}}},{"Relevance":1.0,"Distance":50.7,"MatchLevel":"houseNumber","MatchQuality":{"Country":1.0,"State":1.0,"County":1.0,"City":1.0,"Street":[1.0],"HouseNumber":1.0,"PostalCode":1.0},"MatchType":"interpolated","Location":{"LocationId":"NT_HRgTWlh.LyjfrBEQ08vD8D_xUD","LocationType":"point","DisplayPosition":{"Latitude":37.26714,"Longitude":-4.82859},"MapView":{"TopLeft":{"Latitude":37.2682642,"Longitude":-4.8300026},"BottomRight":{"Latitude":37.2660158,"Longitude":-4.8271774}},"Address":{"Label":"Plaza de la Constitución, 15, 41564 Lora de Estepa (Sevilla), España","Country":"ESP","State":"Andalucía","County":"Sevilla","City":"Lora de Estepa","Street":"Plaza de la Constitución","HouseNumber":"15","PostalCode":"41564","AdditionalData":[{"value":"España","key":"CountryName"},{"value":"Andalucía","key":"StateName"},{"value":"Sevilla","key":"CountyName"}]},"MapReference":{"ReferenceId":"1165550441","Spot":0.0,"SideOfStreet":"right","CountryId":"20215059","StateId":"20221885","CountyId":"20221893","CityId":"20236413","AddressId":"404632562","RoadLinkId":"472003552"}}}]}]}}