{"Response":{"MetaInfo":{"Timestamp":"2020-03-28T11:05:29.612+0000","NextPageInformation":"2"},"View":[{"_type":"SearchResultsViewType","ViewId":0,"Result":[{"Relevance":1.0,"Distance":0.0,"Direction":0.0,"MatchLevel":"city","MatchQuality":{"Country":1.0,"State":1.0,"County":1.0,"City":1.0,"PostalCode":1.0},"Location":{"LocationId":"NT_dgLfKpLTNlZKypAH2yNLdA","LocationType":"point","DisplayPosition":{"Latitude":37.2797297,"Longitude":-6.9230638},"MapView":{"TopLeft":{"Latitude":37.36723,"Longitude":-7.00543},"BottomRight":{"Latitude":37.10793,"Longitude":-6.83213}},"Address":{"Label":"Huelva, Andalucía, España","Country":"ESP","State":"Andalucía","County":"Huelva","City":"Huelva","PostalCode":"21003","AdditionalData":[{"value":"España","key":"CountryName"},{"value":"Andalucía","key":"StateName"},{"value":"Huelva","key":"CountyName"}]},"MapReference":{"ReferenceId":"810639306","SideOfStreet":"neither","CountryId":"20215059","StateId":"20221885","CountyId":"20221890","CityId":"20235203"}}},{"Relevance":1.0,"Distance":29.0,"MatchLevel":"street","MatchQuality":{"Country":1.0,"State":1.0,"County":1.0,"City":1.0,"PostalCode":1.0},"Location":{"LocationId":"NT_fMyFVf-KPjTO1Y3--1D7PB_l_591962398_L","LocationType":"point","DisplayPosition":{"Latitude":37.2799663,"Longitude":-6.9232021},"MapView":{"TopLeft":{"Latitude":37.28117,"Longitude":-6.92542},"BottomRight":{"Latitude":37.27951,"Longitude":-6.92004}},"Address":{"Label":"21005 Huelva (Huelva), España","Country":"ESP","State":"Andalucía","County":"Huelva","City":"Huelva","PostalCode":"21005","AdditionalData":[{"value":"España","key":"CountryName"},{"value":"Andalucía","key":"StateName"},{"value":"Huelva","key":"CountyName"}]},"MapReference":{"ReferenceId":"591962398","Spot":0.62,"SideOfStreet":"left","CountryId":"20215059","StateId":"20221885","CountyId":"20221890","CityId":"20235203"}}},{"Relevance":1.0,"Distance":43.3,"MatchLevel":"street","MatchQuality":{"Country":1.0,"State":1.0,"County":1.0,"City":1.0,"Street":[1.0],"PostalCode":1.0},"Location":{"LocationId":"NT_A.NzeihI9iugVnO4wHAxUD_l_1145903455_R","LocationType":"point","DisplayPosition":{"Latitude":37.2793675,"Longitude":-6.9232449},"MapView":{"TopLeft":{"Latitude":37.27946,"Longitude":-6.92344},"BottomRight":{"Latitude":37.27884,"Longitude":-6.92094}},"Address":{"Label":"84A, 21005 Huelva (Huelva), España","Country":"ESP","State":"Andalucía","County":"Huelva","City":"Huelva","Street":"84A","PostalCode":"21005","AdditionalData":[{"value":"España","key":"CountryName"},{"value":"Andalucía","key":"StateName"},{"value":"Huelva","key":"CountyName"}]},"MapReference":{"ReferenceId":"1145903455","Spot":0.92,"SideOfStreet":"right","CountryId":"20215059","StateId":"20221885","CountyId":"20221890","CityId":"20235203"}}},{"Relevance":1.0,"Distance":44.8,"MatchLevel":"street","MatchQuality":{"Country":1.0,"State":1.0,"County":1.0,"City":1.0,"Street":[1.0],"PostalCode":1.0},"Location":{"LocationId":"NT_9A0dw-sLLY2N0hmC1PSsJD_l_1141918665_R","LocationType":"point","DisplayPosition":{"Latitude":37.27946,"Longitude":-6.92344},"MapView":{"TopLeft":{"Latitude":37.27981,"Longitude":-6.92387},"BottomRight":{"Latitude":37.27946,"Longitude":-6.92344}},"Address":{"Label":"Ronda Norte, 21005 Huelva (Huelva), España","Country":"ESP","State":"Andalucía","County":"Huelva","City":"Huelva","Street":"Ronda Norte","PostalCode":"21005","AdditionalData":[{"value":"España","key":"CountryName"},{"value":"Andalucía","key":"StateName"},{"value":"Huelva","key":"CountyName"}]},"MapReference":{"ReferenceId":"1141918665","Spot":0.0,"SideOfStreet":"right","CountryId":"20215059","StateId":"20221885","CountyId":"20221890","CityId":"20235203"}}},{"Relevance":1.0,"Distance":45.9,"MatchLevel":"street","MatchQuality":{"Country":1.0,"State":1.0,"County":1.0,"City":1.0,"Street":[1.0],"PostalCode":1.0},"Location":{"LocationId":"NT_U0JloDsmFv-Er3GNPfrvVC_l_77073707_R","LocationType":"point","DisplayPosition":{"Latitude":37.2794068,"Longitude":-6.9233868},"MapView":{"TopLeft":{"Latitude":37.27946,"Longitude":-6.92344},"BottomRight":{"Latitude":37.27804,"Longitude":-6.92203}},"Address":{"Label":"Ronda Norte, 21005 Huelva (Huelva), España","Country":"ESP","State":"Andalucía","County":"Huelva","City":"Huelva","Street":"Ronda Norte","PostalCode":"21005","AdditionalData":[{"value":"España","key":"CountryName"},{"value":"Andalucía","key":"StateName"},{"value":"Huelva","key":"CountyName"}]},"MapReference":{"ReferenceId":"77073707","Spot":0.96,"SideOfStreet":"right","CountryId":"20215059","StateId":"20221885","CountyId":"20221890","CityId":"20235203"}}},{"Relevance":1.0,"Distance":64.3,"MatchLevel":"street","MatchQuality":{"Country":1.0,"State":1.0,"County":1.0,"City":1.0,"Street":[1.0],"PostalCode":1.0},"Location":{"LocationId":"NT_U0JloDsmFv-Er3GNPfrvVC_l_77014659_R","LocationType":"point","DisplayPosition":{"Latitude":37.27925,"Longitude":-6.92347},"MapView":{"TopLeft":{"Latitude":37.27942,"Longitude":-6.92368},"BottomRight":{"Latitude":37.27788,"Longitude":-6.92209}},"Address":{"Label":"Ronda Norte, 21005 Huelva (Huelva), España","Country":"ESP","State":"Andalucía","County":"Huelva","City":"Huelva","Street":"Ronda Norte","PostalCode":"21005","AdditionalData":[{"value":"España","key":"CountryName"},{"value":"Andalucía","key":"StateName"},{"value":"Huelva","key":"CountyName"}]},"MapReference":{"ReferenceId":"77014659","Spot":0.88,"SideOfStreet":"right","CountryId":"20215059","StateId":"20221885","CountyId":"20221890","CityId":"20235203"}}},{"Relevance":1.0,"Distance":64.5,"MatchLevel":"street","MatchQuality":{"Country":1.0,"State":1.0,"County":1.0,"City":1.0,"Street":[1.0],"PostalCode":1.0},"Location":{"LocationId":"NT_9A0dw-sLLY2N0hmC1PSsJD_l_1141918671_R","LocationType":"point","DisplayPosition":{"Latitude":37.27942,"Longitude":-6.92368},"MapView":{"TopLeft":{"Latitude":37.27964,"Longitude":-6.92396},"BottomRight":{"Latitude":37.27942,"Longitude":-6.92368}},"Address":{"Label":"Ronda Norte, 21005 Huelva (Huelva), España","Country":"ESP","State":"Andalucía","County":"Huelva","City":"Huelva","Street":"Ronda Norte","PostalCode":"21005","AdditionalData":[{"value":"España","key":"CountryName"},{"value":"Andalucía","key":"StateName"},{"value":"Huelva","key":"CountyName"}]},"MapReference":{"ReferenceId":"1141918671","Spot":0.0,"SideOfStreet":"right","CountryId":"20215059","StateId":"20221885","CountyId":"20221890","CityId":"20235203"}}},{"Relevance":1.0,"Distance":65.6,"MatchLevel":"street","MatchQuality":{"Country":1.0,"State":1.0,"County":1.0,"City":1.0,"Street":[1.0],"PostalCode":1.0},"Location":{"LocationId":"NT_kin0veE0v2YinyNgJakoTC_l_812249114_R","LocationType":"point","DisplayPosition":{"Latitude":37.2793588,"Longitude":-6.9236407},"MapView":{"TopLeft":{"Latitude":37.27942,"Longitude":-6.92368},"BottomRight":{"Latitude":37.27884,"Longitude":-6.9233}},"Address":{"Label":"10A, 21005 Huelva (Huelva), España","Country":"ESP","State":"Andalucía","County":"Huelva","City":"Huelva","Street":"10A","PostalCode":"21005","AdditionalData":[{"value":"España","key":"CountryName"},{"value":"Andalucía","key":"StateName"},{"value":"Huelva","key":"CountyName"}]},"MapReference":{"ReferenceId":"812249114","Spot":0.9,"SideOfStreet":"right","CountryId":"20215059","StateId":"20221885","CountyId":"20221890","CityId":"20235203"}}},{"Relevance":1.0,"Distance":71.9,"MatchLevel":"street","MatchQuality":{"Country":1.0,"State":1.0,"County":1.0,"City":1.0,"Street":[1.0],"PostalCode":1.0},"Location":{"LocationId":"NT_9A0dw-sLLY2N0hmC1PSsJD_l_1141918666_R","LocationType":"point","DisplayPosition":{"Latitude":37.27981,"Longitude":-6.92387},"MapView":{"TopLeft":{"Latitude":37.28155,"Longitude":-6.92659},"BottomRight":{"Latitude":37.27981,"Longitude":-6.92387}},"Address":{"Label":"Ronda Norte, 21005 Huelva (Huelva), España","Country":"ESP","State":"Andalucía","County":"Huelva","City":"Huelva","Street":"Ronda Norte","PostalCode":"21005","AdditionalData":[{"value":"España","key":"CountryName"},{"value":"Andalucía","key":"StateName"},{"value":"Huelva","key":"CountyName"}]},"MapReference":{"ReferenceId":"1141918666","Spot":0.0,"SideOfStreet":"right","CountryId":"20215059","StateId":"20221885","CountyId":"20221890","CityId":"20235203"}}},{"Relevance":1.0,"Distance":79.9,"MatchLevel":"street","MatchQuality":{"Country":1.0,"State":1.0,"County":1.0,"City":1.0,"Street":[1.0],"PostalCode":1.0},"Location":{"LocationId":"NT_9A0dw-sLLY2N0hmC1PSsJD_l_1141918672_R","LocationType":"point","DisplayPosition":{"Latitude":37.27964,"Longitude":-6.92396},"MapView":{"TopLeft":{"Latitude":37.28001,"Longitude":-6.92446},"BottomRight":{"Latitude":37.27964,"Longitude":-6.92396}},"Address":{"Label":"Ronda Norte, 21005 Huelva (Huelva), España","Country":"ESP","State":"Andalucía","County":"Huelva","City":"Huelva","Street":"Ronda Norte","PostalCode":"21005","AdditionalData":[{"value":"España","key":"CountryName"},{"value":"Andalucía","key":"StateName"},{"value":"Huelva","key":"CountyName"}]},"MapReference":{"ReferenceId":"1141918672","Spot":0.0,"SideOfStreet":"right","CountryId":"20215059","StateId":"20221885","CountyId":"20221890","CityId":"20235203"}}}]}]}}