{"Response":{"MetaInfo":{"Timestamp":"2020-03-28T11:25:32.820+0000","NextPageInformation":"2"},"View":[{"_type":"SearchResultsViewType","ViewId":0,"Result":[{"Relevance":1.0,"Distance":-28934.6,"MatchLevel":"landmark","MatchQuality":{"Country":1.0,"State":1.0,"Name":1.0},"Location":{"LocationId":"NT_WbRHZaUNmJdoEGyLvAjbjA","LocationType":"island","Name":"Sicilia","DisplayPosition":{"Latitude":37.4742,"Longitude":14.13844},"MapView":{"TopLeft":{"Latitude":38.30149,"Longitude":12.42414},"BottomRight":{"Latitude":36.6469,"Longitude":15.65312}},"Address":{"Label":"Italia","Country":"ITA","State":"Sicilia","AdditionalData":[{"value":"Italia","key":"CountryName"},{"value":"Sicilia","key":"StateName"}]},"MapReference":{"CountryId":"20110484","StateId":"20126201","PlaceId":"82846424"}}},{"Relevance":1.0,"Distance":0.0,"Direction":0.0,"MatchLevel":"city","MatchQuality":{"Country":1.0,"State":1.0,"County":1.0,"City":1.0,"PostalCode":1.0},"Location":{"LocationId":"NT_R8sYMyxyFqISF19IOQEe.B","LocationType":"point","DisplayPosition":{"Latitude":37.2233823,"Longitude":14.5159919},"MapView":{"TopLeft":{"Latitude":37.3092,"Longitude":14.37387},"BottomRight":{"Latitude":37.05057,"Longitude":14.66353}},"Address":{"Label":"Caltagirone, Sicilia, Italia","Country":"ITA","State":"Sicilia","County":"CT","City":"Caltagirone","PostalCode":"95041","AdditionalData":[{"value":"Italia","key":"CountryName"},{"value":"Sicilia","key":"StateName"},{"value":"Catania","key":"CountyName"}]},"MapReference":{"ReferenceId":"554053444","SideOfStreet":"neither","CountryId":"20110484","StateId":"20126201","CountyId":"20246855","CityId":"20246892"}}},{"Relevance":1.0,"Distance":3.0,"MatchLevel":"street","MatchQuality":{"Country":1.0,"State":1.0,"County":1.0,"City":1.0,"Street":[1.0],"PostalCode":1.0},"Location":{"LocationId":"NT_nacEs70QcbnK62hD4bfW7B_l_591668044_L","LocationType":"point","DisplayPosition":{"Latitude":37.2233888,"Longitude":14.5160242},"MapView":{"TopLeft":{"Latitude":37.22351,"Longitude":14.516},"BottomRight":{"Latitude":37.22331,"Longitude":14.51604}},"Address":{"Label":"Via Portosalvo, 95041 Caltagirone CT, Italia","Country":"ITA","State":"Sicilia","County":"CT","City":"Caltagirone","Street":"Via Portosalvo","PostalCode":"95041","AdditionalData":[{"value":"Italia","key":"CountryName"},{"value":"Sicilia","key":"StateName"},{"value":"Catania","key":"CountyName"}]},"MapReference":{"ReferenceId":"591668044","Spot":0.39,"SideOfStreet":"neither","CountryId":"20110484","StateId":"20126201","CountyId":"20246855","CityId":"20246892"}}},{"Relevance":1.0,"Distance":31.8,"MatchLevel":"houseNumber","MatchQuality":{"Country":1.0,"State":1.0,"County":1.0,"City":1.0,"Street":[1.0],"HouseNumber":1.0,"PostalCode":1.0},"MatchType":"interpolated","Location":{"LocationId":"NT_nacEs70QcbnK62hD4bfW7B_4A","LocationType":"point","DisplayPosition":{"Latitude":37.22361,"Longitude":14.51621},"MapView":{"TopLeft":{"Latitude":37.2247342,"Longitude":14.5147982},"BottomRight":{"Latitude":37.2224858,"Longitude":14.5176218}},"Address":{"Label":"Via Portosalvo, 8, 95041 Caltagirone CT, Italia","Country":"ITA","State":"Sicilia","County":"CT","City":"Caltagirone","Street":"Via Portosalvo","HouseNumber":"8","PostalCode":"95041","AdditionalData":[{"value":"Italia","key":"CountryName"},{"value":"Sicilia","key":"StateName"},{"value":"Catania","key":"CountyName"}]},"MapReference":{"ReferenceId":"591668043","Spot":0.54,"SideOfStreet":"left","CountryId":"20110484","StateId":"20126201","CountyId":"20246855","CityId":"20246892","AddressId":"670863373","RoadLinkId":"59957531"}}},{"Relevance":1.0,"Distance":49.1,"MatchLevel":"street","MatchQuality":{"Country":1.0,"State":1.0,"County":1.0,"City":1.0,"Street":[1.0],"PostalCode":1.0},"Location":{"LocationId":"NT_VmyR6QsB-SSbES3XLKZByD_l_554053331_L","LocationType":"point","DisplayPosition":{"Latitude":37.22369,"Longitude":14.51639},"MapView":{"TopLeft":{"Latitude":37.22369,"Longitude":14.51639},"BottomRight":{"Latitude":37.22339,"Longitude":14.51685}},"Address":{"Label":"Via Salvatore Gravina, 95041 Caltagirone CT, Italia","Country":"ITA","State":"Sicilia","County":"CT","City":"Caltagirone","Street":"Via Salvatore Gravina","PostalCode":"95041","AdditionalData":[{"value":"Italia","key":"CountryName"},{"value":"Sicilia","key":"StateName"},{"value":"Catania","key":"CountyName"}]},"MapReference":{"ReferenceId":"554053331","Spot":1.0,"SideOfStreet":"left","CountryId":"20110484","StateId":"20126201","CountyId":"20246855","CityId":"20246892"}}},{"Relevance":1.0,"Distance":50.1,"MatchLevel":"street","MatchQuality":{"Country":1.0,"State":1.0,"County":1.0,"City":1.0,"Street":[1.0],"PostalCode":1.0},"Location":{"LocationId":"NT_rlC5VWv3vVc2N8VM91SXYC_l_959457861_L","LocationType":"point","DisplayPosition":{"Latitude":37.22376,"Longitude":14.5163},"MapView":{"TopLeft":{"Latitude":37.22413,"Longitude":14.51601},"BottomRight":{"Latitude":37.22369,"Longitude":14.51639}},"Address":{"Label":"Viale Amerigo Vespucci, 95041 Caltagirone CT, Italia","Country":"ITA","State":"Sicilia","County":"CT","City":"Caltagirone","Street":"Viale Amerigo Vespucci","PostalCode":"95041","AdditionalData":[{"value":"Italia","key":"CountryName"},{"value":"Sicilia","key":"StateName"},{"value":"Catania","key":"CountyName"}]},"MapReference":{"ReferenceId":"959457861","Spot":0.19,"SideOfStreet":"left","CountryId":"20110484","StateId":"20126201","CountyId":"20246855","CityId":"20246892"}}},{"Relevance":1.0,"Distance":76.0,"MatchLevel":"street","MatchQuality":{"Country":1.0,"State":1.0,"County":1.0,"City":1.0,"Street":[1.0],"PostalCode":1.0},"Location":{"LocationId":"NT_nacEs70QcbnK62hD4bfW7B_l_554053322_L","LocationType":"point","DisplayPosition":{"Latitude":37.22339,"Longitude":14.51685},"MapView":{"TopLeft":{"Latitude":37.22425,"Longitude":14.51685},"BottomRight":{"Latitude":37.22339,"Longitude":14.51745}},"Address":{"Label":"Via Portosalvo, 95041 Caltagirone CT, Italia","Country":"ITA","State":"Sicilia","County":"CT","City":"Caltagirone","Street":"Via Portosalvo","PostalCode":"95041","AdditionalData":[{"value":"Italia","key":"CountryName"},{"value":"Sicilia","key":"StateName"},{"value":"Catania","key":"CountyName"}]},"MapReference":{"ReferenceId":"554053322","Spot":0.0,"SideOfStreet":"left","CountryId":"20110484","StateId":"20126201","CountyId":"20246855","CityId":"20246892"}}},{"Relevance":1.0,"Distance":77.0,"MatchLevel":"houseNumber","MatchQuality":{"Country":1.0,"State":1.0,"County":1.0,"City":1.0,"Street":[1.0],"HouseNumber":1.0,"PostalCode":1.0},"MatchType":"interpolated","Location":{"LocationId":"NT_nacEs70QcbnK62hD4bfW7B_l_591668046_R_5A","LocationType":"point","DisplayPosition":{"Latitude":37.2231571,"Longitude":14.5151694},"MapView":{"TopLeft":{"Latitude":37.2242812,"Longitude":14.5137577},"BottomRight":{"Latitude":37.2220329,"Longitude":14.5165811}},"Address":{"Label":"Via Portosalvo, 9, 95041 Caltagirone CT, Italia","Country":"ITA","State":"Sicilia","County":"CT","City":"Caltagirone","Street":"Via Portosalvo","HouseNumber":"9","PostalCode":"95041","AdditionalData":[{"value":"Italia","key":"CountryName"},{"value":"Sicilia","key":"StateName"},{"value":"Catania","key":"CountyName"}]},"MapReference":{"ReferenceId":"591668046","Spot":0.5,"SideOfStreet":"right","CountryId":"20110484","StateId":"20126201","CountyId":"20246855","CityId":"20246892"}}},{"Relevance":1.0,"Distance":78.8,"MatchLevel":"houseNumber","MatchQuality":{"Country":1.0,"State":1.0,"County":1.0,"City":1.0,"Street":[1.0],"HouseNumber":1.0,"PostalCode":1.0},"MatchType":"interpolated","Location":{"LocationId":"NT_nacEs70QcbnK62hD4bfW7B_2A","LocationType":"point","DisplayPosition":{"Latitude":37.22386,"Longitude":14.51665},"MapView":{"TopLeft":{"Latitude":37.2249842,"Longitude":14.5152382},"BottomRight":{"Latitude":37.2227358,"Longitude":14.5180618}},"Address":{"Label":"Via Portosalvo, 6, 95041 Caltagirone CT, Italia","Country":"ITA","State":"Sicilia","County":"CT","City":"Caltagirone","Street":"Via Portosalvo","HouseNumber":"6","PostalCode":"95041","AdditionalData":[{"value":"Italia","key":"CountryName"},{"value":"Sicilia","key":"StateName"},{"value":"Catania","key":"CountyName"}]},"MapReference":{"ReferenceId":"958508519","Spot":0.33,"SideOfStreet":"left","CountryId":"20110484","StateId":"20126201","CountyId":"20246855","CityId":"20246892","AddressId":"670786569","RoadLinkId":"301492064"}}},{"Relevance":1.0,"Distance":83.2,"MatchLevel":"street","MatchQuality":{"Country":1.0,"State":1.0,"County":1.0,"City":1.0,"Street":[1.0],"PostalCode":1.0},"Location":{"LocationId":"NT_rlC5VWv3vVc2N8VM91SXYC_l_959457862_L","LocationType":"point","DisplayPosition":{"Latitude":37.22413,"Longitude":14.51601},"MapView":{"TopLeft":{"Latitude":37.22469,"Longitude":14.51563},"BottomRight":{"Latitude":37.22413,"Longitude":14.51601}},"Address":{"Label":"Viale Amerigo Vespucci, 95041 Caltagirone CT, Italia","Country":"ITA","State":"Sicilia","County":"CT","City":"Caltagirone","Street":"Viale Amerigo Vespucci","PostalCode":"95041","AdditionalData":[{"value":"Italia","key":"CountryName"},{"value":"Sicilia","key":"StateName"},{"value":"Catania","key":"CountyName"}]},"MapReference":{"ReferenceId":"959457862","Spot":0.0,"SideOfStreet":"left","CountryId":"20110484","StateId":"20126201","CountyId":"20246855","CityId":"20246892"}}}]}]}}