{"Response":{"MetaInfo":{"Timestamp":"2020-03-28T09:39:28.618+0000","NextPageInformation":"2"},"View":[{"_type":"SearchResultsViewType","ViewId":0,"Result":[{"Relevance":1.0,"Distance":0.0,"Direction":0.0,"MatchLevel":"district","MatchQuality":{"Country":1.0,"State":1.0,"County":1.0,"City":1.0,"District":1.0,"PostalCode":1.0},"Location":{"LocationId":"NT_RoAzgz7b..QKCuiSHh5KoA","LocationType":"point","DisplayPosition":{"Latitude":37.2756852,"Longitude":-7.0009472},"MapView":{"TopLeft":{"Latitude":37.28069,"Longitude":-7.00668},"BottomRight":{"Latitude":37.27056,"Longitude":-6.99491}},"Address":{"Label":"Bellavista, Aljaraque, Andalucía, España","Country":"ESP","State":"Andalucía","County":"Huelva","City":"Aljaraque","District":"Bellavista","PostalCode":"21122","AdditionalData":[{"value":"España","key":"CountryName"},{"value":"Andalucía","key":"StateName"},{"value":"Huelva","key":"CountyName"}]},"MapReference":{"ReferenceId":"591944519","SideOfStreet":"neither","CountryId":"20215059","StateId":"20221885","CountyId":"20221890","CityId":"20235044","DistrictId":"20235047"}}},{"Relevance":1.0,"Distance":6.8,"MatchLevel":"houseNumber","MatchQuality":{"Country":1.0,"State":1.0,"County":1.0,"City":1.0,"District":1.0,"Street":[1.0],"HouseNumber":1.0,"PostalCode":1.0},"MatchType":"interpolated","Location":{"LocationId":"NT_1M6Gw6pWjYw34.oYR4n7pD_3EE","LocationType":"point","DisplayPosition":{"Latitude":37.27576,"Longitude":-7.001},"MapView":{"TopLeft":{"Latitude":37.2768842,"Longitude":-7.0024127},"BottomRight":{"Latitude":37.2746358,"Longitude":-6.9995873}},"Address":{"Label":"Calle Valdés Leal, 7A, 21122 Aljaraque (Huelva), España","Country":"ESP","State":"Andalucía","County":"Huelva","City":"Aljaraque","District":"Bellavista","Street":"Calle Valdés Leal","HouseNumber":"7A","PostalCode":"21122","AdditionalData":[{"value":"España","key":"CountryName"},{"value":"Andalucía","key":"StateName"},{"value":"Huelva","key":"CountyName"}]},"MapReference":{"ReferenceId":"591944521","Spot":0.53,"SideOfStreet":"left","CountryId":"20215059","StateId":"20221885","CountyId":"20221890","CityId":"20235044","DistrictId":"20235047","AddressId":"347241930","RoadLinkId":"67181799"}}},{"Relevance":1.0,"Distance":54.8,"MatchLevel":"street","MatchQuality":{"Country":1.0,"State":1.0,"County":1.0,"City":1.0,"District":1.0,"PostalCode":1.0},"Location":{"LocationId":"NT_VP5L1gG7Qlsc6Zjr.naOAB_l_591944523_R","LocationType":"point","DisplayPosition":{"Latitude":37.2757976,"Longitude":-7.0015505},"MapView":{"TopLeft":{"Latitude":37.2758,"Longitude":-7.00174},"BottomRight":{"Latitude":37.27478,"Longitude":-7.00155}},"Address":{"Label":"21122 Aljaraque (Huelva), España","Country":"ESP","State":"Andalucía","County":"Huelva","City":"Aljaraque","District":"Bellavista","PostalCode":"21122","AdditionalData":[{"value":"España","key":"CountryName"},{"value":"Andalucía","key":"StateName"},{"value":"Huelva","key":"CountyName"}]},"MapReference":{"ReferenceId":"591944523","Spot":1.0,"SideOfStreet":"right","CountryId":"20215059","StateId":"20221885","CountyId":"20221890","CityId":"20235044","DistrictId":"20235047"}}},{"Relevance":1.0,"Distance":78.7,"MatchLevel":"houseNumber","MatchQuality":{"Country":1.0,"State":1.0,"County":1.0,"City":1.0,"District":1.0,"Street":[1.0],"HouseNumber":1.0,"PostalCode":1.0},"MatchType":"interpolated","Location":{"LocationId":"NT_1M6Gw6pWjYw34.oYR4n7pD_3A","LocationType":"point","DisplayPosition":{"Latitude":37.27582,"Longitude":-7.00182},"MapView":{"TopLeft":{"Latitude":37.2769442,"Longitude":-7.0032327},"BottomRight":{"Latitude":37.2746958,"Longitude":-7.0004073}},"Address":{"Label":"Calle Valdés Leal, 7, 21122 Aljaraque (Huelva), España","Country":"ESP","State":"Andalucía","County":"Huelva","City":"Aljaraque","District":"Bellavista","Street":"Calle Valdés Leal","HouseNumber":"7","PostalCode":"21122","AdditionalData":[{"value":"España","key":"CountryName"},{"value":"Andalucía","key":"StateName"},{"value":"Huelva","key":"CountyName"}]},"MapReference":{"ReferenceId":"591944522","Spot":0.69,"SideOfStreet":"left","CountryId":"20215059","StateId":"20221885","CountyId":"20221890","CityId":"20235044","DistrictId":"20235047","AddressId":"347783811","RoadLinkId":"67526170"}}},{"Relevance":1.0,"Distance":83.2,"MatchLevel":"houseNumber","MatchQuality":{"Country":1.0,"State":1.0,"County":1.0,"City":1.0,"District":1.0,"Street":[1.0],"HouseNumber":1.0,"PostalCode":1.0},"MatchType":"interpolated","Location":{"LocationId":"NT_xgzGk3dHw392GKg0tt-n2C_4ED","LocationType":"point","DisplayPosition":{"Latitude":37.27614,"Longitude":-7.0002},"MapView":{"TopLeft":{"Latitude":37.2772642,"Longitude":-7.0016127},"BottomRight":{"Latitude":37.2750158,"Longitude":-6.9987873}},"Address":{"Label":"Calle García Lorca, 81, 21122 Aljaraque (Huelva), España","Country":"ESP","State":"Andalucía","County":"Huelva","City":"Aljaraque","District":"Bellavista","Street":"Calle García Lorca","HouseNumber":"81","PostalCode":"21122","AdditionalData":[{"value":"España","key":"CountryName"},{"value":"Andalucía","key":"StateName"},{"value":"Huelva","key":"CountyName"}]},"MapReference":{"ReferenceId":"591944524","Spot":0.45,"SideOfStreet":"right","CountryId":"20215059","StateId":"20221885","CountyId":"20221890","CityId":"20235044","DistrictId":"20235047","AddressId":"347367054","RoadLinkId":"66965464"}}},{"Relevance":1.0,"Distance":90.0,"MatchLevel":"houseNumber","MatchQuality":{"Country":1.0,"State":1.0,"County":1.0,"City":1.0,"District":1.0,"Street":[1.0],"HouseNumber":1.0,"PostalCode":1.0},"MatchType":"interpolated","Location":{"LocationId":"NT_1M6Gw6pWjYw34.oYR4n7pD_1A","LocationType":"point","DisplayPosition":{"Latitude":37.2756,"Longitude":-6.99993},"MapView":{"TopLeft":{"Latitude":37.2767242,"Longitude":-7.0013427},"BottomRight":{"Latitude":37.2744758,"Longitude":-6.9985173}},"Address":{"Label":"Calle Valdés Leal, 5, 21122 Aljaraque (Huelva), España","Country":"ESP","State":"Andalucía","County":"Huelva","City":"Aljaraque","District":"Bellavista","Street":"Calle Valdés Leal","HouseNumber":"5","PostalCode":"21122","AdditionalData":[{"value":"España","key":"CountryName"},{"value":"Andalucía","key":"StateName"},{"value":"Huelva","key":"CountyName"}]},"MapReference":{"ReferenceId":"591944445","Spot":0.58,"SideOfStreet":"left","CountryId":"20215059","StateId":"20221885","CountyId":"20221890","CityId":"20235044","DistrictId":"20235047","AddressId":"347729536","RoadLinkId":"67076001"}}},{"Relevance":1.0,"Distance":91.8,"MatchLevel":"houseNumber","MatchQuality":{"Country":1.0,"State":1.0,"County":1.0,"City":1.0,"District":1.0,"Street":[1.0],"HouseNumber":1.0,"PostalCode":1.0},"MatchType":"interpolated","Location":{"LocationId":"NT_Nc6mNH0uypy2muEWxV.vpD_1YD","LocationType":"point","DisplayPosition":{"Latitude":37.27603,"Longitude":-7.00189},"MapView":{"TopLeft":{"Latitude":37.2771542,"Longitude":-7.0033027},"BottomRight":{"Latitude":37.2749058,"Longitude":-7.0004773}},"Address":{"Label":"Avenida de los Príncipes, 56, 21122 Aljaraque (Huelva), España","Country":"ESP","State":"Andalucía","County":"Huelva","City":"Aljaraque","District":"Bellavista","Street":"Avenida de los Príncipes","HouseNumber":"56","PostalCode":"21122","AdditionalData":[{"value":"España","key":"CountryName"},{"value":"Andalucía","key":"StateName"},{"value":"Huelva","key":"CountyName"}]},"MapReference":{"ReferenceId":"1162977201","Spot":0.16,"SideOfStreet":"left","CountryId":"20215059","StateId":"20221885","CountyId":"20221890","CityId":"20235044","DistrictId":"20235047","AddressId":"347439595","RoadLinkId":"469352222"}}},{"Relevance":1.0,"Distance":122.7,"MatchLevel":"street","MatchQuality":{"Country":1.0,"State":1.0,"County":1.0,"City":1.0,"District":1.0,"Street":[1.0],"PostalCode":1.0},"Location":{"LocationId":"NT_oxiPF8iPkODSPPHwpdkr-A_l_1162978049_R","LocationType":"point","DisplayPosition":{"Latitude":37.27478,"Longitude":-7.00174},"MapView":{"TopLeft":{"Latitude":37.27478,"Longitude":-7.00182},"BottomRight":{"Latitude":37.27439,"Longitude":-7.00174}},"Address":{"Label":"Calle Escultor León Ortega, 21122 Aljaraque (Huelva), España","Country":"ESP","State":"Andalucía","County":"Huelva","City":"Aljaraque","District":"Bellavista","Street":"Calle Escultor León Ortega","PostalCode":"21122","AdditionalData":[{"value":"España","key":"CountryName"},{"value":"Andalucía","key":"StateName"},{"value":"Huelva","key":"CountyName"}]},"MapReference":{"ReferenceId":"1162978049","Spot":1.0,"SideOfStreet":"right","CountryId":"20215059","StateId":"20221885","CountyId":"20221890","CityId":"20235044","DistrictId":"20235047"}}},{"Relevance":1.0,"Distance":130.2,"MatchLevel":"street","MatchQuality":{"Country":1.0,"State":1.0,"County":1.0,"City":1.0,"District":1.0,"Street":[1.0],"PostalCode":1.0},"Location":{"LocationId":"NT_xgzGk3dHw392GKg0tt-n2C_l_591944526_L","LocationType":"point","DisplayPosition":{"Latitude":37.27681,"Longitude":-7.00054},"MapView":{"TopLeft":{"Latitude":37.27681,"Longitude":-7.00054},"BottomRight":{"Latitude":37.27665,"Longitude":-6.99997}},"Address":{"Label":"Calle García Lorca, 21122 Aljaraque (Huelva), España","Country":"ESP","State":"Andalucía","County":"Huelva","City":"Aljaraque","District":"Bellavista","Street":"Calle García Lorca","PostalCode":"21122","AdditionalData":[{"value":"España","key":"CountryName"},{"value":"Andalucía","key":"StateName"},{"value":"Huelva","key":"CountyName"}]},"MapReference":{"ReferenceId":"591944526","Spot":1.0,"SideOfStreet":"left","CountryId":"20215059","StateId":"20221885","CountyId":"20221890","CityId":"20235044","DistrictId":"20235047"}}},{"Relevance":1.0,"Distance":141.5,"MatchLevel":"houseNumber","MatchQuality":{"Country":1.0,"State":1.0,"County":1.0,"City":1.0,"District":1.0,"Street":[1.0],"HouseNumber":1.0,"PostalCode":1.0},"MatchType":"interpolated","Location":{"LocationId":"NT_1M6Gw6pWjYw34.oYR4n7pD_5A","LocationType":"point","DisplayPosition":{"Latitude":37.27583,"Longitude":-7.00255},"MapView":{"TopLeft":{"Latitude":37.2769542,"Longitude":-7.0039627},"BottomRight":{"Latitude":37.2747058,"Longitude":-7.0011373}},"Address":{"Label":"Calle Valdés Leal, 9, 21122 Aljaraque (Huelva), España","Country":"ESP","State":"Andalucía","County":"Huelva","City":"Aljaraque","District":"Bellavista","Street":"Calle Valdés Leal","HouseNumber":"9","PostalCode":"21122","AdditionalData":[{"value":"España","key":"CountryName"},{"value":"Andalucía","key":"StateName"},{"value":"Huelva","key":"CountyName"}]},"MapReference":{"ReferenceId":"77014638","Spot":0.38,"SideOfStreet":"right","CountryId":"20215059","StateId":"20221885","CountyId":"20221890","CityId":"20235044","DistrictId":"20235047","AddressId":"347236275","RoadLinkId":"67335035"}}}]}]}}