{"Response":{"MetaInfo":{"Timestamp":"2020-03-28T09:37:30.033+0000","NextPageInformation":"2"},"View":[{"_type":"SearchResultsViewType","ViewId":0,"Result":[{"Relevance":1.0,"Distance":0.0,"Direction":0.0,"MatchLevel":"city","MatchQuality":{"Country":1.0,"State":1.0,"County":1.0,"City":1.0,"PostalCode":1.0},"Location":{"LocationId":"NT_dgLfKpLTNlZKypAH2yNLdA","LocationType":"point","DisplayPosition":{"Latitude":37.2798548,"Longitude":-6.9395342},"MapView":{"TopLeft":{"Latitude":37.36723,"Longitude":-7.00543},"BottomRight":{"Latitude":37.10793,"Longitude":-6.83213}},"Address":{"Label":"Huelva, Andalucía, España","Country":"ESP","State":"Andalucía","County":"Huelva","City":"Huelva","PostalCode":"21003","AdditionalData":[{"value":"España","key":"CountryName"},{"value":"Andalucía","key":"StateName"},{"value":"Huelva","key":"CountyName"}]},"MapReference":{"ReferenceId":"810639306","SideOfStreet":"neither","CountryId":"20215059","StateId":"20221885","CountyId":"20221890","CityId":"20235203"}}},{"Relevance":1.0,"Distance":10.5,"MatchLevel":"street","MatchQuality":{"Country":1.0,"State":1.0,"County":1.0,"City":1.0,"Street":[1.0],"PostalCode":1.0},"Location":{"LocationId":"NT_D.DMTIoa3i4x6TpjZEr3mD_l_77099913_L","LocationType":"point","DisplayPosition":{"Latitude":37.2797962,"Longitude":-6.9394414},"MapView":{"TopLeft":{"Latitude":37.28002,"Longitude":-6.94},"BottomRight":{"Latitude":37.27963,"Longitude":-6.9393}},"Address":{"Label":"Calle Nicaragua, 21005 Huelva (Huelva), España","Country":"ESP","State":"Andalucía","County":"Huelva","City":"Huelva","Street":"Calle Nicaragua","PostalCode":"21005","AdditionalData":[{"value":"España","key":"CountryName"},{"value":"Andalucía","key":"StateName"},{"value":"Huelva","key":"CountyName"}]},"MapReference":{"ReferenceId":"77099913","Spot":0.71,"SideOfStreet":"left","CountryId":"20215059","StateId":"20221885","CountyId":"20221890","CityId":"20235203"}}},{"Relevance":1.0,"Distance":20.3,"MatchLevel":"street","MatchQuality":{"Country":1.0,"State":1.0,"County":1.0,"City":1.0,"Street":[1.0],"PostalCode":1.0},"Location":{"LocationId":"NT_AFEi9WW5ORANlJPksk1XlA_l_591961193_L","LocationType":"point","DisplayPosition":{"Latitude":37.28003,"Longitude":-6.93947},"MapView":{"TopLeft":{"Latitude":37.28003,"Longitude":-6.93947},"BottomRight":{"Latitude":37.28002,"Longitude":-6.9393}},"Address":{"Label":"Avenida Diego Morón, 21005 Huelva (Huelva), España","Country":"ESP","State":"Andalucía","County":"Huelva","City":"Huelva","Street":"Avenida Diego Morón","PostalCode":"21005","AdditionalData":[{"value":"España","key":"CountryName"},{"value":"Andalucía","key":"StateName"},{"value":"Huelva","key":"CountyName"}]},"MapReference":{"ReferenceId":"591961193","Spot":1.0,"SideOfStreet":"left","CountryId":"20215059","StateId":"20221885","CountyId":"20221890","CityId":"20235203"}}},{"Relevance":1.0,"Distance":27.0,"MatchLevel":"street","MatchQuality":{"Country":1.0,"State":1.0,"County":1.0,"City":1.0,"PostalCode":1.0},"Location":{"LocationId":"NT_fMyFVf-KPjTO1Y3--1D7PB_l_1115396664_L","LocationType":"point","DisplayPosition":{"Latitude":37.27965,"Longitude":-6.93937},"MapView":{"TopLeft":{"Latitude":37.27983,"Longitude":-6.93949},"BottomRight":{"Latitude":37.27882,"Longitude":-6.93896}},"Address":{"Label":"21005 Huelva (Huelva), España","Country":"ESP","State":"Andalucía","County":"Huelva","City":"Huelva","PostalCode":"21005","AdditionalData":[{"value":"España","key":"CountryName"},{"value":"Andalucía","key":"StateName"},{"value":"Huelva","key":"CountyName"}]},"MapReference":{"ReferenceId":"1115396664","Spot":0.65,"SideOfStreet":"left","CountryId":"20215059","StateId":"20221885","CountyId":"20221890","CityId":"20235203"}}},{"Relevance":1.0,"Distance":27.7,"MatchLevel":"street","MatchQuality":{"Country":1.0,"State":1.0,"County":1.0,"City":1.0,"Street":[1.0],"PostalCode":1.0},"Location":{"LocationId":"NT_AFEi9WW5ORANlJPksk1XlA_l_591961192_L","LocationType":"point","DisplayPosition":{"Latitude":37.28002,"Longitude":-6.9393},"MapView":{"TopLeft":{"Latitude":37.28002,"Longitude":-6.9393},"BottomRight":{"Latitude":37.28,"Longitude":-6.93893}},"Address":{"Label":"Avenida Diego Morón, 21005 Huelva (Huelva), España","Country":"ESP","State":"Andalucía","County":"Huelva","City":"Huelva","Street":"Avenida Diego Morón","PostalCode":"21005","AdditionalData":[{"value":"España","key":"CountryName"},{"value":"Andalucía","key":"StateName"},{"value":"Huelva","key":"CountyName"}]},"MapReference":{"ReferenceId":"591961192","Spot":1.0,"SideOfStreet":"left","CountryId":"20215059","StateId":"20221885","CountyId":"20221890","CityId":"20235203"}}},{"Relevance":1.0,"Distance":27.7,"MatchLevel":"street","MatchQuality":{"Country":1.0,"State":1.0,"County":1.0,"City":1.0,"PostalCode":1.0},"Location":{"LocationId":"NT_fMyFVf-KPjTO1Y3--1D7PB_l_1115291470_L","LocationType":"point","DisplayPosition":{"Latitude":37.28002,"Longitude":-6.9393},"MapView":{"TopLeft":{"Latitude":37.28085,"Longitude":-6.9393},"BottomRight":{"Latitude":37.28002,"Longitude":-6.93917}},"Address":{"Label":"21005 Huelva (Huelva), España","Country":"ESP","State":"Andalucía","County":"Huelva","City":"Huelva","PostalCode":"21005","AdditionalData":[{"value":"España","key":"CountryName"},{"value":"Andalucía","key":"StateName"},{"value":"Huelva","key":"CountyName"}]},"MapReference":{"ReferenceId":"1115291470","Spot":0.0,"SideOfStreet":"left","CountryId":"20215059","StateId":"20221885","CountyId":"20221890","CityId":"20235203"}}},{"Relevance":1.0,"Distance":42.5,"MatchLevel":"houseNumber","MatchQuality":{"Country":1.0,"State":1.0,"County":1.0,"City":1.0,"Street":[1.0],"HouseNumber":1.0,"PostalCode":1.0},"MatchType":"interpolated","Location":{"LocationId":"NT_AFEi9WW5ORANlJPksk1XlA_xME","LocationType":"point","DisplayPosition":{"Latitude":37.28006,"Longitude":-6.93994},"MapView":{"TopLeft":{"Latitude":37.2811842,"Longitude":-6.9413528},"BottomRight":{"Latitude":37.2789358,"Longitude":-6.9385272}},"Address":{"Label":"Avenida Diego Morón, 1C, 21005 Huelva (Huelva), España","Country":"ESP","State":"Andalucía","County":"Huelva","City":"Huelva","Street":"Avenida Diego Morón","HouseNumber":"1C","PostalCode":"21005","AdditionalData":[{"value":"España","key":"CountryName"},{"value":"Andalucía","key":"StateName"},{"value":"Huelva","key":"CountyName"}]},"MapReference":{"ReferenceId":"77100142","Spot":1.0,"SideOfStreet":"left","CountryId":"20215059","StateId":"20221885","CountyId":"20221890","CityId":"20235203","AddressId":"347723228","RoadLinkId":"66979121"}}},{"Relevance":1.0,"Distance":42.5,"MatchLevel":"street","MatchQuality":{"Country":1.0,"State":1.0,"County":1.0,"City":1.0,"Street":[1.0],"PostalCode":1.0},"Location":{"LocationId":"NT_AFEi9WW5ORANlJPksk1XlA_l_77100143_R","LocationType":"point","DisplayPosition":{"Latitude":37.28006,"Longitude":-6.93994},"MapView":{"TopLeft":{"Latitude":37.28006,"Longitude":-6.94023},"BottomRight":{"Latitude":37.28006,"Longitude":-6.93994}},"Address":{"Label":"Avenida Diego Morón, 21005 Huelva (Huelva), España","Country":"ESP","State":"Andalucía","County":"Huelva","City":"Huelva","Street":"Avenida Diego Morón","PostalCode":"21005","AdditionalData":[{"value":"España","key":"CountryName"},{"value":"Andalucía","key":"StateName"},{"value":"Huelva","key":"CountyName"}]},"MapReference":{"ReferenceId":"77100143","Spot":1.0,"SideOfStreet":"right","CountryId":"20215059","StateId":"20221885","CountyId":"20221890","CityId":"20235203"}}},{"Relevance":1.0,"Distance":46.6,"MatchLevel":"street","MatchQuality":{"Country":1.0,"State":1.0,"County":1.0,"City":1.0,"Street":[1.0],"PostalCode":1.0},"Location":{"LocationId":"NT_D.DMTIoa3i4x6TpjZEr3mD_l_76652760_L","LocationType":"point","DisplayPosition":{"Latitude":37.27966,"Longitude":-6.94},"MapView":{"TopLeft":{"Latitude":37.27966,"Longitude":-6.94044},"BottomRight":{"Latitude":37.27966,"Longitude":-6.94}},"Address":{"Label":"Calle Nicaragua, 21005 Huelva (Huelva), España","Country":"ESP","State":"Andalucía","County":"Huelva","City":"Huelva","Street":"Calle Nicaragua","PostalCode":"21005","AdditionalData":[{"value":"España","key":"CountryName"},{"value":"Andalucía","key":"StateName"},{"value":"Huelva","key":"CountyName"}]},"MapReference":{"ReferenceId":"76652760","Spot":1.0,"SideOfStreet":"left","CountryId":"20215059","StateId":"20221885","CountyId":"20221890","CityId":"20235203"}}},{"Relevance":1.0,"Distance":46.6,"MatchLevel":"street","MatchQuality":{"Country":1.0,"State":1.0,"County":1.0,"City":1.0,"Street":[1.0],"PostalCode":1.0},"Location":{"LocationId":"NT_D.DMTIoa3i4x6TpjZEr3mD_l_76652764_R","LocationType":"point","DisplayPosition":{"Latitude":37.27966,"Longitude":-6.94},"MapView":{"TopLeft":{"Latitude":37.27966,"Longitude":-6.94001},"BottomRight":{"Latitude":37.27942,"Longitude":-6.94}},"Address":{"Label":"Calle Nicaragua, 21005 Huelva (Huelva), España","Country":"ESP","State":"Andalucía","County":"Huelva","City":"Huelva","Street":"Calle Nicaragua","PostalCode":"21005","AdditionalData":[{"value":"España","key":"CountryName"},{"value":"Andalucía","key":"StateName"},{"value":"Huelva","key":"CountyName"}]},"MapReference":{"ReferenceId":"76652764","Spot":1.0,"SideOfStreet":"right","CountryId":"20215059","StateId":"20221885","CountyId":"20221890","CityId":"20235203"}}}]}]}}