{"Response":{"MetaInfo":{"Timestamp":"2020-03-28T09:41:31.588+0000","NextPageInformation":"2"},"View":[{"_type":"SearchResultsViewType","ViewId":0,"Result":[{"Relevance":1.0,"Distance":0.0,"Direction":0.0,"MatchLevel":"city","MatchQuality":{"Country":1.0,"State":1.0,"County":1.0,"City":1.0,"PostalCode":1.0},"Location":{"LocationId":"NT_Cc9jZ0rTideszh5.966UnD","LocationType":"point","DisplayPosition":{"Latitude":37.3282517,"Longitude":-5.8525823},"MapView":{"TopLeft":{"Latitude":37.39034,"Longitude":-5.94623},"BottomRight":{"Latitude":37.18726,"Longitude":-5.64946}},"Address":{"Label":"Alcalá de Guadaíra, Andalucía, España","Country":"ESP","State":"Andalucía","County":"Sevilla","City":"Alcalá de Guadaíra","PostalCode":"41500","AdditionalData":[{"value":"España","key":"CountryName"},{"value":"Andalucía","key":"StateName"},{"value":"Sevilla","key":"CountyName"}]},"MapReference":{"ReferenceId":"537501123","SideOfStreet":"neither","CountryId":"20215059","StateId":"20221885","CountyId":"20221893","CityId":"20236229"}}},{"Relevance":1.0,"Distance":16.3,"MatchLevel":"street","MatchQuality":{"Country":1.0,"State":1.0,"County":1.0,"City":1.0,"PostalCode":1.0},"Location":{"LocationId":"NT_-VJmFz6z.H05TL4uFGW2qB_l_537502650_R","LocationType":"point","DisplayPosition":{"Latitude":37.3282709,"Longitude":-5.8527652},"MapView":{"TopLeft":{"Latitude":37.32855,"Longitude":-5.85282},"BottomRight":{"Latitude":37.32787,"Longitude":-5.85242}},"Address":{"Label":"41500 Alcalá de Guadaíra (Sevilla), España","Country":"ESP","State":"Andalucía","County":"Sevilla","City":"Alcalá de Guadaíra","PostalCode":"41500","AdditionalData":[{"value":"España","key":"CountryName"},{"value":"Andalucía","key":"StateName"},{"value":"Sevilla","key":"CountyName"}]},"MapReference":{"ReferenceId":"537502650","Spot":0.76,"SideOfStreet":"right","CountryId":"20215059","StateId":"20221885","CountyId":"20221893","CityId":"20236229"}}},{"Relevance":1.0,"Distance":36.6,"MatchLevel":"houseNumber","MatchQuality":{"Country":1.0,"State":1.0,"County":1.0,"City":1.0,"Street":[1.0],"HouseNumber":1.0,"PostalCode":1.0},"MatchType":"interpolated","Location":{"LocationId":"NT_JgJS5gmNiNwhd3wXGFL2lA_xA","LocationType":"point","DisplayPosition":{"Latitude":37.32862,"Longitude":-5.85257},"MapView":{"TopLeft":{"Latitude":37.3297442,"Longitude":-5.8539837},"BottomRight":{"Latitude":37.3274958,"Longitude":-5.8511563}},"Address":{"Label":"Calle Reyes Católicos, 1, 41500 Alcalá de Guadaíra (Sevilla), España","Country":"ESP","State":"Andalucía","County":"Sevilla","City":"Alcalá de Guadaíra","Street":"Calle Reyes Católicos","HouseNumber":"1","PostalCode":"41500","AdditionalData":[{"value":"España","key":"CountryName"},{"value":"Andalucía","key":"StateName"},{"value":"Sevilla","key":"CountyName"}]},"MapReference":{"ReferenceId":"573510065","Spot":0.19,"SideOfStreet":"right","CountryId":"20215059","StateId":"20221885","CountyId":"20221893","CityId":"20236229","AddressId":"347531385","RoadLinkId":"67638947"}}},{"Relevance":1.0,"Distance":37.7,"MatchLevel":"street","MatchQuality":{"Country":1.0,"State":1.0,"County":1.0,"City":1.0,"Street":[1.0],"PostalCode":1.0},"Location":{"LocationId":"NT_JgJS5gmNiNwhd3wXGFL2lA_l_943365052_R","LocationType":"point","DisplayPosition":{"Latitude":37.3285795,"Longitude":-5.8526916},"MapView":{"TopLeft":{"Latitude":37.32859,"Longitude":-5.85278},"BottomRight":{"Latitude":37.32855,"Longitude":-5.85266}},"Address":{"Label":"Calle Reyes Católicos, 41500 Alcalá de Guadaíra (Sevilla), España","Country":"ESP","State":"Andalucía","County":"Sevilla","City":"Alcalá de Guadaíra","Street":"Calle Reyes Católicos","PostalCode":"41500","AdditionalData":[{"value":"España","key":"CountryName"},{"value":"Andalucía","key":"StateName"},{"value":"Sevilla","key":"CountyName"}]},"MapReference":{"ReferenceId":"943365052","Spot":0.74,"SideOfStreet":"right","CountryId":"20215059","StateId":"20221885","CountyId":"20221893","CityId":"20236229"}}},{"Relevance":1.0,"Distance":40.7,"MatchLevel":"houseNumber","MatchQuality":{"Country":1.0,"State":1.0,"County":1.0,"City":1.0,"Street":[1.0],"HouseNumber":1.0,"PostalCode":1.0},"MatchType":"interpolated","Location":{"LocationId":"NT_JgJS5gmNiNwhd3wXGFL2lA_4A","LocationType":"point","DisplayPosition":{"Latitude":37.3285,"Longitude":-5.85292},"MapView":{"TopLeft":{"Latitude":37.3296242,"Longitude":-5.8543337},"BottomRight":{"Latitude":37.3273758,"Longitude":-5.8515063}},"Address":{"Label":"Calle Reyes Católicos, 8, 41500 Alcalá de Guadaíra (Sevilla), España","Country":"ESP","State":"Andalucía","County":"Sevilla","City":"Alcalá de Guadaíra","Street":"Calle Reyes Católicos","HouseNumber":"8","PostalCode":"41500","AdditionalData":[{"value":"España","key":"CountryName"},{"value":"Andalucía","key":"StateName"},{"value":"Sevilla","key":"CountyName"}]},"MapReference":{"ReferenceId":"943365051","Spot":0.61,"SideOfStreet":"left","CountryId":"20215059","StateId":"20221885","CountyId":"20221893","CityId":"20236229","AddressId":"347313791","RoadLinkId":"292981925"}}},{"Relevance":1.0,"Distance":41.9,"MatchLevel":"street","MatchQuality":{"Country":1.0,"State":1.0,"County":1.0,"City":1.0,"Street":[1.0],"PostalCode":1.0},"Location":{"LocationId":"NT_e.Rb-w7Rmlawjb--UCyEdC_l_762452965_L","LocationType":"point","DisplayPosition":{"Latitude":37.32845,"Longitude":-5.85218},"MapView":{"TopLeft":{"Latitude":37.32867,"Longitude":-5.85219},"BottomRight":{"Latitude":37.32835,"Longitude":-5.85203}},"Address":{"Label":"Calle Poeta Fernando de los Ríos, 41500 Alcalá de Guadaíra (Sevilla), España","Country":"ESP","State":"Andalucía","County":"Sevilla","City":"Alcalá de Guadaíra","Street":"Calle Poeta Fernando de los Ríos","PostalCode":"41500","AdditionalData":[{"value":"España","key":"CountryName"},{"value":"Andalucía","key":"StateName"},{"value":"Sevilla","key":"CountyName"}]},"MapReference":{"ReferenceId":"762452965","Spot":0.45,"SideOfStreet":"left","CountryId":"20215059","StateId":"20221885","CountyId":"20221893","CityId":"20236229"}}},{"Relevance":1.0,"Distance":44.2,"MatchLevel":"houseNumber","MatchQuality":{"Country":1.0,"State":1.0,"County":1.0,"City":1.0,"Street":[1.0],"HouseNumber":1.0,"PostalCode":1.0},"MatchType":"interpolated","Location":{"LocationId":"NT_JgJS5gmNiNwhd3wXGFL2lA_xEE","LocationType":"point","DisplayPosition":{"Latitude":37.32839,"Longitude":-5.85315},"MapView":{"TopLeft":{"Latitude":37.3295142,"Longitude":-5.8545637},"BottomRight":{"Latitude":37.3272658,"Longitude":-5.8517363}},"Address":{"Label":"Calle Reyes Católicos, 1A, 41500 Alcalá de Guadaíra (Sevilla), España","Country":"ESP","State":"Andalucía","County":"Sevilla","City":"Alcalá de Guadaíra","Street":"Calle Reyes Católicos","HouseNumber":"1A","PostalCode":"41500","AdditionalData":[{"value":"España","key":"CountryName"},{"value":"Andalucía","key":"StateName"},{"value":"Sevilla","key":"CountyName"}]},"MapReference":{"ReferenceId":"573510211","Spot":0.86,"SideOfStreet":"right","CountryId":"20215059","StateId":"20221885","CountyId":"20221893","CityId":"20236229","AddressId":"746005761","RoadLinkId":"66622901"}}},{"Relevance":1.0,"Distance":48.7,"MatchLevel":"street","MatchQuality":{"Country":1.0,"State":1.0,"County":1.0,"City":1.0,"Street":[1.0],"PostalCode":1.0},"Location":{"LocationId":"NT_7k2vRfnwCiWBvB4T3nEowC_l_1204561546_L","LocationType":"point","DisplayPosition":{"Latitude":37.328202,"Longitude":-5.8520353},"MapView":{"TopLeft":{"Latitude":37.32835,"Longitude":-5.85204},"BottomRight":{"Latitude":37.32815,"Longitude":-5.85203}},"Address":{"Label":"Calle Pino Tea, 41500 Alcalá de Guadaíra (Sevilla), España","Country":"ESP","State":"Andalucía","County":"Sevilla","City":"Alcalá de Guadaíra","Street":"Calle Pino Tea","PostalCode":"41500","AdditionalData":[{"value":"España","key":"CountryName"},{"value":"Andalucía","key":"StateName"},{"value":"Sevilla","key":"CountyName"}]},"MapReference":{"ReferenceId":"1204561546","Spot":0.26,"SideOfStreet":"left","CountryId":"20215059","StateId":"20221885","CountyId":"20221893","CityId":"20236229"}}},{"Relevance":1.0,"Distance":49.3,"MatchLevel":"street","MatchQuality":{"Country":1.0,"State":1.0,"County":1.0,"City":1.0,"Street":[1.0],"PostalCode":1.0},"Location":{"LocationId":"NT_7k2vRfnwCiWBvB4T3nEowC_l_1204561545_L","LocationType":"point","DisplayPosition":{"Latitude":37.32815,"Longitude":-5.85204},"MapView":{"TopLeft":{"Latitude":37.32815,"Longitude":-5.8521},"BottomRight":{"Latitude":37.3279,"Longitude":-5.85204}},"Address":{"Label":"Calle Pino Tea, 41500 Alcalá de Guadaíra (Sevilla), España","Country":"ESP","State":"Andalucía","County":"Sevilla","City":"Alcalá de Guadaíra","Street":"Calle Pino Tea","PostalCode":"41500","AdditionalData":[{"value":"España","key":"CountryName"},{"value":"Andalucía","key":"StateName"},{"value":"Sevilla","key":"CountyName"}]},"MapReference":{"ReferenceId":"1204561545","Spot":1.0,"SideOfStreet":"left","CountryId":"20215059","StateId":"20221885","CountyId":"20221893","CityId":"20236229"}}},{"Relevance":1.0,"Distance":57.9,"MatchLevel":"street","MatchQuality":{"Country":1.0,"State":1.0,"County":1.0,"City":1.0,"Street":[1.0],"PostalCode":1.0},"Location":{"LocationId":"NT_lCcmr9CH.EXDQg6.brUXtB_l_1220874011_L","LocationType":"point","DisplayPosition":{"Latitude":37.3279,"Longitude":-5.8521},"MapView":{"TopLeft":{"Latitude":37.3279,"Longitude":-5.85219},"BottomRight":{"Latitude":37.32767,"Longitude":-5.8521}},"Address":{"Label":"Calle Pino Tea, 41500 Alcalá de Guadaíra (Sevilla), España","Country":"ESP","State":"Andalucía","County":"Sevilla","City":"Alcalá de Guadaíra","Street":"Calle Pino Tea","PostalCode":"41500","AdditionalData":[{"value":"España","key":"CountryName"},{"value":"Andalucía","key":"StateName"},{"value":"Sevilla","key":"CountyName"}]},"MapReference":{"ReferenceId":"1220874011","Spot":1.0,"SideOfStreet":"left","CountryId":"20215059","StateId":"20221885","CountyId":"20221893","CityId":"20236229"}}}]}]}}