{"Response":{"MetaInfo":{"Timestamp":"2020-03-28T11:05:32.216+0000","NextPageInformation":"2"},"View":[{"_type":"SearchResultsViewType","ViewId":0,"Result":[{"Relevance":1.0,"Distance":0.0,"Direction":0.0,"MatchLevel":"city","MatchQuality":{"Country":1.0,"State":1.0,"County":1.0,"City":1.0,"PostalCode":1.0},"Location":{"LocationId":"NT_pFCTA0bTakbuBDnGm7kKYB","LocationType":"point","DisplayPosition":{"Latitude":37.3100925,"Longitude":-3.1471089},"MapView":{"TopLeft":{"Latitude":37.56144,"Longitude":-3.26142},"BottomRight":{"Latitude":37.23865,"Longitude":-2.93708}},"Address":{"Label":"Guadix, Andalucía, España","Country":"ESP","State":"Andalucía","County":"Granada","City":"Guadix","PostalCode":"18500","AdditionalData":[{"value":"España","key":"CountryName"},{"value":"Andalucía","key":"StateName"},{"value":"Granada","key":"CountyName"}]},"MapReference":{"ReferenceId":"1048611873","SideOfStreet":"neither","CountryId":"20215059","StateId":"20221885","CountyId":"20221889","CityId":"20234630"}}},{"Relevance":1.0,"Distance":8.1,"MatchLevel":"street","MatchQuality":{"Country":1.0,"State":1.0,"County":1.0,"City":1.0,"Street":[1.0],"PostalCode":1.0},"Location":{"LocationId":"NT_mfix-T5HctA64OCH09jAsB_l_1187852967_R","LocationType":"point","DisplayPosition":{"Latitude":37.3100322,"Longitude":-3.1471599},"MapView":{"TopLeft":{"Latitude":37.3102,"Longitude":-3.14738},"BottomRight":{"Latitude":37.30999,"Longitude":-3.14711}},"Address":{"Label":"A-4100, 18500 Guadix (Granada), España","Country":"ESP","State":"Andalucía","County":"Granada","City":"Guadix","Street":"A-4100","PostalCode":"18500","AdditionalData":[{"value":"España","key":"CountryName"},{"value":"Andalucía","key":"StateName"},{"value":"Granada","key":"CountyName"}]},"MapReference":{"ReferenceId":"1187852967","Spot":0.19,"SideOfStreet":"right","CountryId":"20215059","StateId":"20221885","CountyId":"20221889","CityId":"20234630"}}},{"Relevance":1.0,"Distance":10.0,"MatchLevel":"street","MatchQuality":{"Country":1.0,"State":1.0,"County":1.0,"City":1.0,"PostalCode":1.0},"Location":{"LocationId":"NT_ZUwTt-U-XVAsOp7XnajlyA_l_799721233_L","LocationType":"point","DisplayPosition":{"Latitude":37.3100076,"Longitude":-3.1470708},"MapView":{"TopLeft":{"Latitude":37.31012,"Longitude":-3.14711},"BottomRight":{"Latitude":37.30999,"Longitude":-3.14682}},"Address":{"Label":"18500 Guadix (Granada), España","Country":"ESP","State":"Andalucía","County":"Granada","City":"Guadix","PostalCode":"18500","AdditionalData":[{"value":"España","key":"CountryName"},{"value":"Andalucía","key":"StateName"},{"value":"Granada","key":"CountyName"}]},"MapReference":{"ReferenceId":"799721233","Spot":0.14,"SideOfStreet":"left","CountryId":"20215059","StateId":"20221885","CountyId":"20221889","CityId":"20234630"}}},{"Relevance":1.0,"Distance":11.4,"MatchLevel":"street","MatchQuality":{"Country":1.0,"State":1.0,"County":1.0,"City":1.0,"Street":[1.0],"PostalCode":1.0},"Location":{"LocationId":"NT_7VJAD.N47670dMHwnbPjRC_l_799721232_R","LocationType":"point","DisplayPosition":{"Latitude":37.30999,"Longitude":-3.14711},"MapView":{"TopLeft":{"Latitude":37.30999,"Longitude":-3.14711},"BottomRight":{"Latitude":37.309,"Longitude":-3.14644}},"Address":{"Label":"Avenida Mariana Pineda, 18500 Guadix (Granada), España","Country":"ESP","State":"Andalucía","County":"Granada","City":"Guadix","Street":"Avenida Mariana Pineda","PostalCode":"18500","AdditionalData":[{"value":"España","key":"CountryName"},{"value":"Andalucía","key":"StateName"},{"value":"Granada","key":"CountyName"}]},"MapReference":{"ReferenceId":"799721232","Spot":1.0,"SideOfStreet":"right","CountryId":"20215059","StateId":"20221885","CountyId":"20221889","CityId":"20234630"}}},{"Relevance":1.0,"Distance":25.7,"MatchLevel":"street","MatchQuality":{"Country":1.0,"State":1.0,"County":1.0,"City":1.0,"PostalCode":1.0},"Location":{"LocationId":"NT_ZUwTt-U-XVAsOp7XnajlyA_l_799721234_L","LocationType":"point","DisplayPosition":{"Latitude":37.31012,"Longitude":-3.14682},"MapView":{"TopLeft":{"Latitude":37.31028,"Longitude":-3.14682},"BottomRight":{"Latitude":37.31012,"Longitude":-3.14632}},"Address":{"Label":"18500 Guadix (Granada), España","Country":"ESP","State":"Andalucía","County":"Granada","City":"Guadix","PostalCode":"18500","AdditionalData":[{"value":"España","key":"CountryName"},{"value":"Andalucía","key":"StateName"},{"value":"Granada","key":"CountyName"}]},"MapReference":{"ReferenceId":"799721234","Spot":0.0,"SideOfStreet":"left","CountryId":"20215059","StateId":"20221885","CountyId":"20221889","CityId":"20234630"}}},{"Relevance":1.0,"Distance":25.7,"MatchLevel":"street","MatchQuality":{"Country":1.0,"State":1.0,"County":1.0,"City":1.0,"PostalCode":1.0},"Location":{"LocationId":"NT_ZUwTt-U-XVAsOp7XnajlyA_l_799721235_L","LocationType":"point","DisplayPosition":{"Latitude":37.31012,"Longitude":-3.14682},"MapView":{"TopLeft":{"Latitude":37.31012,"Longitude":-3.14682},"BottomRight":{"Latitude":37.309,"Longitude":-3.14644}},"Address":{"Label":"18500 Guadix (Granada), España","Country":"ESP","State":"Andalucía","County":"Granada","City":"Guadix","PostalCode":"18500","AdditionalData":[{"value":"España","key":"CountryName"},{"value":"Andalucía","key":"StateName"},{"value":"Granada","key":"CountyName"}]},"MapReference":{"ReferenceId":"799721235","Spot":1.0,"SideOfStreet":"left","CountryId":"20215059","StateId":"20221885","CountyId":"20221889","CityId":"20234630"}}},{"Relevance":1.0,"Distance":26.8,"MatchLevel":"street","MatchQuality":{"Country":1.0,"State":1.0,"County":1.0,"City":1.0,"Street":[1.0],"PostalCode":1.0},"Location":{"LocationId":"NT_mfix-T5HctA64OCH09jAsB_l_1214247632_R","LocationType":"point","DisplayPosition":{"Latitude":37.3102,"Longitude":-3.14738},"MapView":{"TopLeft":{"Latitude":37.31026,"Longitude":-3.14748},"BottomRight":{"Latitude":37.3102,"Longitude":-3.14738}},"Address":{"Label":"A-4100, 18500 Guadix (Granada), España","Country":"ESP","State":"Andalucía","County":"Granada","City":"Guadix","Street":"A-4100","PostalCode":"18500","AdditionalData":[{"value":"España","key":"CountryName"},{"value":"Andalucía","key":"StateName"},{"value":"Granada","key":"CountyName"}]},"MapReference":{"ReferenceId":"1214247632","Spot":0.0,"SideOfStreet":"right","CountryId":"20215059","StateId":"20221885","CountyId":"20221889","CityId":"20234630"}}},{"Relevance":1.0,"Distance":27.4,"MatchLevel":"street","MatchQuality":{"Country":1.0,"State":1.0,"County":1.0,"City":1.0,"PostalCode":1.0},"Location":{"LocationId":"NT_ZUwTt-U-XVAsOp7XnajlyA_l_1187852966_R","LocationType":"point","DisplayPosition":{"Latitude":37.3102627,"Longitude":-3.1473323},"MapView":{"TopLeft":{"Latitude":37.31047,"Longitude":-3.14738},"BottomRight":{"Latitude":37.3102,"Longitude":-3.1472}},"Address":{"Label":"18500 Guadix (Granada), España","Country":"ESP","State":"Andalucía","County":"Granada","City":"Guadix","PostalCode":"18500","AdditionalData":[{"value":"España","key":"CountryName"},{"value":"Andalucía","key":"StateName"},{"value":"Granada","key":"CountyName"}]},"MapReference":{"ReferenceId":"1187852966","Spot":0.24,"SideOfStreet":"right","CountryId":"20215059","StateId":"20221885","CountyId":"20221889","CityId":"20234630"}}},{"Relevance":1.0,"Distance":37.7,"MatchLevel":"street","MatchQuality":{"Country":1.0,"State":1.0,"County":1.0,"City":1.0,"Street":[1.0],"PostalCode":1.0},"Location":{"LocationId":"NT_mfix-T5HctA64OCH09jAsB_l_1214247633_R","LocationType":"point","DisplayPosition":{"Latitude":37.31026,"Longitude":-3.14748},"MapView":{"TopLeft":{"Latitude":37.3104,"Longitude":-3.14771},"BottomRight":{"Latitude":37.31026,"Longitude":-3.14748}},"Address":{"Label":"A-4100, 18500 Guadix (Granada), España","Country":"ESP","State":"Andalucía","County":"Granada","City":"Guadix","Street":"A-4100","PostalCode":"18500","AdditionalData":[{"value":"España","key":"CountryName"},{"value":"Andalucía","key":"StateName"},{"value":"Granada","key":"CountyName"}]},"MapReference":{"ReferenceId":"1214247633","Spot":0.0,"SideOfStreet":"right","CountryId":"20215059","StateId":"20221885","CountyId":"20221889","CityId":"20234630"}}},{"Relevance":1.0,"Distance":42.7,"MatchLevel":"street","MatchQuality":{"Country":1.0,"State":1.0,"County":1.0,"City":1.0,"PostalCode":1.0},"Location":{"LocationId":"NT_ZUwTt-U-XVAsOp7XnajlyA_l_1187852965_R","LocationType":"point","DisplayPosition":{"Latitude":37.31047,"Longitude":-3.1472},"MapView":{"TopLeft":{"Latitude":37.31091,"Longitude":-3.1472},"BottomRight":{"Latitude":37.31047,"Longitude":-3.14704}},"Address":{"Label":"18500 Guadix (Granada), España","Country":"ESP","State":"Andalucía","County":"Granada","City":"Guadix","PostalCode":"18500","AdditionalData":[{"value":"España","key":"CountryName"},{"value":"Andalucía","key":"StateName"},{"value":"Granada","key":"CountyName"}]},"MapReference":{"ReferenceId":"1187852965","Spot":0.0,"SideOfStreet":"right","CountryId":"20215059","StateId":"20221885","CountyId":"20221889","CityId":"20234630"}}}]}]}}