{"Response":{"MetaInfo":{"Timestamp":"2020-03-28T09:42:26.040+0000","NextPageInformation":"2"},"View":[{"_type":"SearchResultsViewType","ViewId":0,"Result":[{"Relevance":1.0,"Distance":0.0,"Direction":0.0,"MatchLevel":"district","MatchQuality":{"Country":1.0,"State":1.0,"County":1.0,"City":1.0,"District":1.0,"PostalCode":1.0},"Location":{"LocationId":"NT_sLRfTiR8-PVXb0zMAweoiA","LocationType":"point","DisplayPosition":{"Latitude":37.3722433,"Longitude":-5.9329245},"MapView":{"TopLeft":{"Latitude":37.38638,"Longitude":-5.94658},"BottomRight":{"Latitude":37.36745,"Longitude":-5.91422}},"Address":{"Label":"Palmete, Sevilla, Andalucía, España","Country":"ESP","State":"Andalucía","County":"Sevilla","City":"Sevilla","District":"Palmete","PostalCode":"41016","AdditionalData":[{"value":"España","key":"CountryName"},{"value":"Andalucía","key":"StateName"},{"value":"Sevilla","key":"CountyName"}]},"MapReference":{"ReferenceId":"539309441","SideOfStreet":"neither","CountryId":"20215059","StateId":"20221885","CountyId":"20221893","CityId":"20236541"}}},{"Relevance":1.0,"Distance":10.1,"MatchLevel":"street","MatchQuality":{"Country":1.0,"State":1.0,"County":1.0,"City":1.0,"District":1.0,"PostalCode":1.0},"Location":{"LocationId":"NT_BzG0Y3yYiBZeDxt1Sc7OKC_l_1208415770_R","LocationType":"point","DisplayPosition":{"Latitude":37.3722168,"Longitude":-5.9330338},"MapView":{"TopLeft":{"Latitude":37.37316,"Longitude":-5.93321},"BottomRight":{"Latitude":37.37047,"Longitude":-5.93166}},"Address":{"Label":"41006 Sevilla (Sevilla), España","Country":"ESP","State":"Andalucía","County":"Sevilla","City":"Sevilla","District":"Palmete","PostalCode":"41006","AdditionalData":[{"value":"España","key":"CountryName"},{"value":"Andalucía","key":"StateName"},{"value":"Sevilla","key":"CountyName"}]},"MapReference":{"ReferenceId":"1208415770","Spot":0.73,"SideOfStreet":"right","CountryId":"20215059","StateId":"20221885","CountyId":"20221893","CityId":"20236541"}}},{"Relevance":1.0,"Distance":48.8,"MatchLevel":"houseNumber","MatchQuality":{"Country":1.0,"State":1.0,"County":1.0,"City":1.0,"District":1.0,"Street":[1.0],"HouseNumber":1.0,"PostalCode":1.0},"MatchType":"interpolated","Location":{"LocationId":"NT_jFwj5jWU092pHEKRvwUT6D_1ED","LocationType":"point","DisplayPosition":{"Latitude":37.37217,"Longitude":-5.93238},"MapView":{"TopLeft":{"Latitude":37.3732942,"Longitude":-5.9337945},"BottomRight":{"Latitude":37.3710458,"Longitude":-5.9309655}},"Address":{"Label":"Calle Afecto, 51, 41006 Sevilla (Sevilla), España","Country":"ESP","State":"Andalucía","County":"Sevilla","City":"Sevilla","District":"Palmete","Street":"Calle Afecto","HouseNumber":"51","PostalCode":"41006","AdditionalData":[{"value":"España","key":"CountryName"},{"value":"Andalucía","key":"StateName"},{"value":"Sevilla","key":"CountyName"}]},"MapReference":{"ReferenceId":"539309652","Spot":0.27,"SideOfStreet":"right","CountryId":"20215059","StateId":"20221885","CountyId":"20221893","CityId":"20236541","AddressId":"743827987","RoadLinkId":"67476920"}}},{"Relevance":1.0,"Distance":52.3,"MatchLevel":"houseNumber","MatchQuality":{"Country":1.0,"State":1.0,"County":1.0,"City":1.0,"District":1.0,"Street":[1.0],"HouseNumber":1.0,"PostalCode":1.0},"MatchType":"interpolated","Location":{"LocationId":"NT_jFwj5jWU092pHEKRvwUT6D_0UD","LocationType":"point","DisplayPosition":{"Latitude":37.37262,"Longitude":-5.93257},"MapView":{"TopLeft":{"Latitude":37.3737442,"Longitude":-5.9339846},"BottomRight":{"Latitude":37.3714958,"Longitude":-5.9311554}},"Address":{"Label":"Calle Afecto, 45, 41006 Sevilla (Sevilla), España","Country":"ESP","State":"Andalucía","County":"Sevilla","City":"Sevilla","District":"Palmete","Street":"Calle Afecto","HouseNumber":"45","PostalCode":"41006","AdditionalData":[{"value":"España","key":"CountryName"},{"value":"Andalucía","key":"StateName"},{"value":"Sevilla","key":"CountyName"}]},"MapReference":{"ReferenceId":"539309640","Spot":0.85,"SideOfStreet":"right","CountryId":"20215059","StateId":"20221885","CountyId":"20221893","CityId":"20236541","AddressId":"743811855","RoadLinkId":"66832772"}}},{"Relevance":1.0,"Distance":53.6,"MatchLevel":"houseNumber","MatchQuality":{"Country":1.0,"State":1.0,"County":1.0,"City":1.0,"District":1.0,"Street":[1.0],"HouseNumber":1.0,"PostalCode":1.0},"MatchType":"interpolated","Location":{"LocationId":"NT_Y5.8iEtjV7fXNr9Y.uCOUC_yEE","LocationType":"point","DisplayPosition":{"Latitude":37.37242,"Longitude":-5.93236},"MapView":{"TopLeft":{"Latitude":37.3735442,"Longitude":-5.9337745},"BottomRight":{"Latitude":37.3712958,"Longitude":-5.9309455}},"Address":{"Label":"Calle Franqueza, 2A, 41006 Sevilla (Sevilla), España","Country":"ESP","State":"Andalucía","County":"Sevilla","City":"Sevilla","District":"Palmete","Street":"Calle Franqueza","HouseNumber":"2A","PostalCode":"41006","AdditionalData":[{"value":"España","key":"CountryName"},{"value":"Andalucía","key":"StateName"},{"value":"Sevilla","key":"CountyName"}]},"MapReference":{"ReferenceId":"539309639","Spot":0.12,"SideOfStreet":"right","CountryId":"20215059","StateId":"20221885","CountyId":"20221893","CityId":"20236541","AddressId":"268540049","RoadLinkId":"66864219"}}},{"Relevance":1.0,"Distance":60.5,"MatchLevel":"houseNumber","MatchQuality":{"Country":1.0,"State":1.0,"County":1.0,"City":1.0,"District":1.0,"Street":[1.0],"HouseNumber":1.0,"PostalCode":1.0},"MatchType":"interpolated","Location":{"LocationId":"NT_dMx627-e7q3Gfyha.4E6fC_xEE","LocationType":"point","DisplayPosition":{"Latitude":37.37212,"Longitude":-5.93224},"MapView":{"TopLeft":{"Latitude":37.3732442,"Longitude":-5.9336545},"BottomRight":{"Latitude":37.3709958,"Longitude":-5.9308255}},"Address":{"Label":"Calle Generosidad, 1A, 41006 Sevilla (Sevilla), España","Country":"ESP","State":"Andalucía","County":"Sevilla","City":"Sevilla","District":"Palmete","Street":"Calle Generosidad","HouseNumber":"1A","PostalCode":"41006","AdditionalData":[{"value":"España","key":"CountryName"},{"value":"Andalucía","key":"StateName"},{"value":"Sevilla","key":"CountyName"}]},"MapReference":{"ReferenceId":"539309651","Spot":0.1,"SideOfStreet":"left","CountryId":"20215059","StateId":"20221885","CountyId":"20221893","CityId":"20236541","AddressId":"268769674","RoadLinkId":"66974656"}}},{"Relevance":1.0,"Distance":61.7,"MatchLevel":"houseNumber","MatchQuality":{"Country":1.0,"State":1.0,"County":1.0,"City":1.0,"District":1.0,"Street":[1.0],"HouseNumber":1.0,"PostalCode":1.0},"MatchType":"interpolated","Location":{"LocationId":"NT_jFwj5jWU092pHEKRvwUT6D_0MD","LocationType":"point","DisplayPosition":{"Latitude":37.37275,"Longitude":-5.93264},"MapView":{"TopLeft":{"Latitude":37.3738742,"Longitude":-5.9340546},"BottomRight":{"Latitude":37.3716258,"Longitude":-5.9312254}},"Address":{"Label":"Calle Afecto, 43, 41006 Sevilla (Sevilla), España","Country":"ESP","State":"Andalucía","County":"Sevilla","City":"Sevilla","District":"Palmete","Street":"Calle Afecto","HouseNumber":"43","PostalCode":"41006","AdditionalData":[{"value":"España","key":"CountryName"},{"value":"Andalucía","key":"StateName"},{"value":"Sevilla","key":"CountyName"}]},"MapReference":{"ReferenceId":"539309631","Spot":0.31,"SideOfStreet":"right","CountryId":"20215059","StateId":"20221885","CountyId":"20221893","CityId":"20236541","AddressId":"743833434","RoadLinkId":"67662987"}}},{"Relevance":1.0,"Distance":62.5,"MatchLevel":"houseNumber","MatchQuality":{"Country":1.0,"State":1.0,"County":1.0,"City":1.0,"District":1.0,"Street":[1.0],"HouseNumber":1.0,"PostalCode":1.0},"MatchType":"interpolated","Location":{"LocationId":"NT_Os8eFv8O-i8ODHbjhPKKAA_yA","LocationType":"point","DisplayPosition":{"Latitude":37.37269,"Longitude":-5.93249},"MapView":{"TopLeft":{"Latitude":37.3738142,"Longitude":-5.9339046},"BottomRight":{"Latitude":37.3715658,"Longitude":-5.9310754}},"Address":{"Label":"Calle Soledad, 2, 41006 Sevilla (Sevilla), España","Country":"ESP","State":"Andalucía","County":"Sevilla","City":"Sevilla","District":"Palmete","Street":"Calle Soledad","HouseNumber":"2","PostalCode":"41006","AdditionalData":[{"value":"España","key":"CountryName"},{"value":"Andalucía","key":"StateName"},{"value":"Sevilla","key":"CountyName"}]},"MapReference":{"ReferenceId":"539309630","Spot":0.11,"SideOfStreet":"right","CountryId":"20215059","StateId":"20221885","CountyId":"20221893","CityId":"20236541","AddressId":"268093223","RoadLinkId":"67101377"}}},{"Relevance":1.0,"Distance":63.8,"MatchLevel":"houseNumber","MatchQuality":{"Country":1.0,"State":1.0,"County":1.0,"City":1.0,"District":1.0,"Street":[1.0],"HouseNumber":1.0,"PostalCode":1.0},"MatchType":"interpolated","Location":{"LocationId":"NT_jFwj5jWU092pHEKRvwUT6D_1MD","LocationType":"point","DisplayPosition":{"Latitude":37.37197,"Longitude":-5.93229},"MapView":{"TopLeft":{"Latitude":37.3730942,"Longitude":-5.9337045},"BottomRight":{"Latitude":37.3708458,"Longitude":-5.9308755}},"Address":{"Label":"Calle Afecto, 53, 41006 Sevilla (Sevilla), España","Country":"ESP","State":"Andalucía","County":"Sevilla","City":"Sevilla","District":"Palmete","Street":"Calle Afecto","HouseNumber":"53","PostalCode":"41006","AdditionalData":[{"value":"España","key":"CountryName"},{"value":"Andalucía","key":"StateName"},{"value":"Sevilla","key":"CountyName"}]},"MapReference":{"ReferenceId":"539309662","Spot":0.6,"SideOfStreet":"right","CountryId":"20215059","StateId":"20221885","CountyId":"20221893","CityId":"20236541","AddressId":"743835298","RoadLinkId":"67161988"}}},{"Relevance":1.0,"Distance":80.8,"MatchLevel":"street","MatchQuality":{"Country":1.0,"State":1.0,"County":1.0,"City":1.0,"District":1.0,"Street":[1.0],"PostalCode":1.0},"Location":{"LocationId":"NT_jFwj5jWU092pHEKRvwUT6D_l_539309671_L","LocationType":"point","DisplayPosition":{"Latitude":37.37179,"Longitude":-5.93221},"MapView":{"TopLeft":{"Latitude":37.37179,"Longitude":-5.93221},"BottomRight":{"Latitude":37.37152,"Longitude":-5.93209}},"Address":{"Label":"Calle Afecto, 41006 Sevilla (Sevilla), España","Country":"ESP","State":"Andalucía","County":"Sevilla","City":"Sevilla","District":"Palmete","Street":"Calle Afecto","PostalCode":"41006","AdditionalData":[{"value":"España","key":"CountryName"},{"value":"Andalucía","key":"StateName"},{"value":"Sevilla","key":"CountyName"}]},"MapReference":{"ReferenceId":"539309671","Spot":1.0,"SideOfStreet":"left","CountryId":"20215059","StateId":"20221885","CountyId":"20221893","CityId":"20236541"}}}]}]}}