{"Response":{"MetaInfo":{"Timestamp":"2020-03-28T11:05:06.737+0000","NextPageInformation":"2"},"View":[{"_type":"SearchResultsViewType","ViewId":0,"Result":[{"Relevance":1.0,"Distance":0.0,"Direction":0.0,"MatchLevel":"district","MatchQuality":{"Country":1.0,"State":1.0,"County":1.0,"City":1.0,"District":1.0,"PostalCode":1.0},"Location":{"LocationId":"NT_cwqIl.byfB0KhP5xH0iGBA","LocationType":"point","DisplayPosition":{"Latitude":37.3820387,"Longitude":-5.9696527},"MapView":{"TopLeft":{"Latitude":37.38758,"Longitude":-5.97494},"BottomRight":{"Latitude":37.37578,"Longitude":-5.95876}},"Address":{"Label":"Nervión, Sevilla, Andalucía, España","Country":"ESP","State":"Andalucía","County":"Sevilla","City":"Sevilla","District":"Nervión","PostalCode":"41005","AdditionalData":[{"value":"España","key":"CountryName"},{"value":"Andalucía","key":"StateName"},{"value":"Sevilla","key":"CountyName"}]},"MapReference":{"ReferenceId":"737738957","SideOfStreet":"neither","CountryId":"20215059","StateId":"20221885","CountyId":"20221893","CityId":"20236541"}}},{"Relevance":1.0,"Distance":15.8,"MatchLevel":"houseNumber","MatchQuality":{"Country":1.0,"State":1.0,"County":1.0,"City":1.0,"District":1.0,"Street":[1.0],"HouseNumber":1.0,"PostalCode":1.0},"MatchType":"interpolated","Location":{"LocationId":"NT_EgKwJdrfZmlucok5d.i99D_3kD","LocationType":"point","DisplayPosition":{"Latitude":37.38216,"Longitude":-5.96956},"MapView":{"TopLeft":{"Latitude":37.3832842,"Longitude":-5.9709747},"BottomRight":{"Latitude":37.3810358,"Longitude":-5.9681453}},"Address":{"Label":"Avenida Eduardo Dato, 79, 41005 Sevilla (Sevilla), España","Country":"ESP","State":"Andalucía","County":"Sevilla","City":"Sevilla","District":"La Buhaira","Street":"Avenida Eduardo Dato","HouseNumber":"79","PostalCode":"41005","AdditionalData":[{"value":"España","key":"CountryName"},{"value":"Andalucía","key":"StateName"},{"value":"Sevilla","key":"CountyName"}]},"MapReference":{"ReferenceId":"1221110090","Spot":0.12,"SideOfStreet":"right","CountryId":"20215059","StateId":"20221885","CountyId":"20221893","CityId":"20236541","AddressId":"743815060","RoadLinkId":"538441777"}}},{"Relevance":1.0,"Distance":21.2,"MatchLevel":"landmark","MatchQuality":{"Country":1.0,"State":1.0,"County":1.0,"City":1.0,"District":1.0,"Street":[1.0],"PostalCode":1.0,"Name":1.0},"Location":{"LocationId":"NT_FxZ6QWQb4NuSnK8qCUvauB_p_-mRCkc88pL59DEfXEP5dBD","LocationType":"sportsComplex","Name":"Estadio Ramón Sánchez Pizjuán","DisplayPosition":{"Latitude":37.38382,"Longitude":-5.97162},"MapView":{"TopLeft":{"Latitude":37.38519,"Longitude":-5.97208},"BottomRight":{"Latitude":37.3822,"Longitude":-5.96938}},"Address":{"Label":"Calle Sevilla Fútbol Club, 41005 Sevilla (Sevilla), España","Country":"ESP","State":"Andalucía","County":"Sevilla","City":"Sevilla","District":"La Buhaira","Street":"Calle Sevilla Fútbol Club","PostalCode":"41005","AdditionalData":[{"value":"España","key":"CountryName"},{"value":"Andalucía","key":"StateName"},{"value":"Sevilla","key":"CountyName"}]},"MapReference":{"CountryId":"20215059","StateId":"20221885","CountyId":"20221893","CityId":"20236541","PlaceId":"71565384"}}},{"Relevance":1.0,"Distance":21.2,"MatchLevel":"street","MatchQuality":{"Country":1.0,"State":1.0,"County":1.0,"City":1.0,"District":1.0,"Street":[1.0],"PostalCode":1.0},"Location":{"LocationId":"NT_EgKwJdrfZmlucok5d.i99D_l_1202388215_L","LocationType":"point","DisplayPosition":{"Latitude":37.3822,"Longitude":-5.96978},"MapView":{"TopLeft":{"Latitude":37.38222,"Longitude":-5.9699},"BottomRight":{"Latitude":37.3822,"Longitude":-5.96978}},"Address":{"Label":"Avenida Eduardo Dato, 41005 Sevilla (Sevilla), España","Country":"ESP","State":"Andalucía","County":"Sevilla","City":"Sevilla","District":"La Buhaira","Street":"Avenida Eduardo Dato","PostalCode":"41005","AdditionalData":[{"value":"España","key":"CountryName"},{"value":"Andalucía","key":"StateName"},{"value":"Sevilla","key":"CountyName"}]},"MapReference":{"ReferenceId":"1202388215","Spot":0.0,"SideOfStreet":"left","CountryId":"20215059","StateId":"20221885","CountyId":"20221893","CityId":"20236541"}}},{"Relevance":1.0,"Distance":22.9,"MatchLevel":"houseNumber","MatchQuality":{"Country":1.0,"State":1.0,"County":1.0,"City":1.0,"District":1.0,"Street":[1.0],"HouseNumber":1.0,"PostalCode":1.0},"MatchType":"interpolated","Location":{"LocationId":"NT_EgKwJdrfZmlucok5d.i99D_4MD","LocationType":"point","DisplayPosition":{"Latitude":37.38213,"Longitude":-5.96942},"MapView":{"TopLeft":{"Latitude":37.3832542,"Longitude":-5.9708347},"BottomRight":{"Latitude":37.3810058,"Longitude":-5.9680053}},"Address":{"Label":"Avenida Eduardo Dato, 83, 41005 Sevilla (Sevilla), España","Country":"ESP","State":"Andalucía","County":"Sevilla","City":"Sevilla","District":"La Buhaira","Street":"Avenida Eduardo Dato","HouseNumber":"83","PostalCode":"41005","AdditionalData":[{"value":"España","key":"CountryName"},{"value":"Andalucía","key":"StateName"},{"value":"Sevilla","key":"CountyName"}]},"MapReference":{"ReferenceId":"1221110089","Spot":0.56,"SideOfStreet":"right","CountryId":"20215059","StateId":"20221885","CountyId":"20221893","CityId":"20236541","AddressId":"268492428","RoadLinkId":"538441776"}}},{"Relevance":1.0,"Distance":28.6,"MatchLevel":"houseNumber","MatchQuality":{"Country":1.0,"State":1.0,"County":1.0,"City":1.0,"District":1.0,"Street":[1.0],"HouseNumber":1.0,"PostalCode":1.0},"MatchType":"interpolated","Location":{"LocationId":"NT_JvysmNrmTAKhm.oCTE277D_yA","LocationType":"point","DisplayPosition":{"Latitude":37.38181,"Longitude":-5.9698},"MapView":{"TopLeft":{"Latitude":37.3829342,"Longitude":-5.9712147},"BottomRight":{"Latitude":37.3806858,"Longitude":-5.9683853}},"Address":{"Label":"Calle San Juan de Dios, 2, 41005 Sevilla (Sevilla), España","Country":"ESP","State":"Andalucía","County":"Sevilla","City":"Sevilla","District":"La Buhaira","Street":"Calle San Juan de Dios","HouseNumber":"2","PostalCode":"41005","AdditionalData":[{"value":"España","key":"CountryName"},{"value":"Andalucía","key":"StateName"},{"value":"Sevilla","key":"CountyName"}]},"MapReference":{"ReferenceId":"539300208","Spot":0.51,"SideOfStreet":"left","CountryId":"20215059","StateId":"20221885","CountyId":"20221893","CityId":"20236541","AddressId":"268143286","RoadLinkId":"67059136"}}},{"Relevance":1.0,"Distance":31.7,"MatchLevel":"houseNumber","MatchQuality":{"Country":1.0,"State":1.0,"County":1.0,"City":1.0,"District":1.0,"Street":[1.0],"HouseNumber":1.0,"PostalCode":1.0},"MatchType":"interpolated","Location":{"LocationId":"NT_EgKwJdrfZmlucok5d.i99D_0AD","LocationType":"point","DisplayPosition":{"Latitude":37.38223,"Longitude":-5.96996},"MapView":{"TopLeft":{"Latitude":37.3833542,"Longitude":-5.9713747},"BottomRight":{"Latitude":37.3811058,"Longitude":-5.9685453}},"Address":{"Label":"Avenida Eduardo Dato, 40, 41005 Sevilla (Sevilla), España","Country":"ESP","State":"Andalucía","County":"Sevilla","City":"Sevilla","District":"La Buhaira","Street":"Avenida Eduardo Dato","HouseNumber":"40","PostalCode":"41005","AdditionalData":[{"value":"España","key":"CountryName"},{"value":"Andalucía","key":"StateName"},{"value":"Sevilla","key":"CountyName"}]},"MapReference":{"ReferenceId":"1202388216","Spot":0.2,"SideOfStreet":"left","CountryId":"20215059","StateId":"20221885","CountyId":"20221893","CityId":"20236541","AddressId":"268624193","RoadLinkId":"515219068"}}},{"Relevance":1.0,"Distance":41.5,"MatchLevel":"houseNumber","MatchQuality":{"Country":1.0,"State":1.0,"County":1.0,"City":1.0,"District":1.0,"Street":[1.0],"HouseNumber":1.0,"PostalCode":1.0},"MatchType":"interpolated","Location":{"LocationId":"NT_PkhAlWT5VU5DFvkDPSLlRB_yA","LocationType":"point","DisplayPosition":{"Latitude":37.38242,"Longitude":-5.96974},"MapView":{"TopLeft":{"Latitude":37.3835442,"Longitude":-5.9711547},"BottomRight":{"Latitude":37.3812958,"Longitude":-5.9683253}},"Address":{"Label":"Calle José Luis de Casso, 2, 41005 Sevilla (Sevilla), España","Country":"ESP","State":"Andalucía","County":"Sevilla","City":"Sevilla","District":"La Buhaira","Street":"Calle José Luis de Casso","HouseNumber":"2","PostalCode":"41005","AdditionalData":[{"value":"España","key":"CountryName"},{"value":"Andalucía","key":"StateName"},{"value":"Sevilla","key":"CountyName"}]},"MapReference":{"ReferenceId":"539300108","Spot":0.21,"SideOfStreet":"right","CountryId":"20215059","StateId":"20221885","CountyId":"20221893","CityId":"20236541","AddressId":"268134998","RoadLinkId":"66923258"}}},{"Relevance":1.0,"Distance":50.7,"MatchLevel":"houseNumber","MatchQuality":{"Country":1.0,"State":1.0,"County":1.0,"City":1.0,"District":1.0,"Street":[1.0],"HouseNumber":1.0,"PostalCode":1.0},"MatchType":"interpolated","Location":{"LocationId":"NT_uPUI5kMNlhOmPtYS4Ol4yD_3QD","LocationType":"point","DisplayPosition":{"Latitude":37.3824,"Longitude":-5.96924},"MapView":{"TopLeft":{"Latitude":37.3835242,"Longitude":-5.9706547},"BottomRight":{"Latitude":37.3812758,"Longitude":-5.9678253}},"Address":{"Label":"Calle Goya, 74, 41005 Sevilla (Sevilla), España","Country":"ESP","State":"Andalucía","County":"Sevilla","City":"Sevilla","District":"La Buhaira","Street":"Calle Goya","HouseNumber":"74","PostalCode":"41005","AdditionalData":[{"value":"España","key":"CountryName"},{"value":"Andalucía","key":"StateName"},{"value":"Sevilla","key":"CountyName"}]},"MapReference":{"ReferenceId":"539300118","Spot":0.26,"SideOfStreet":"left","CountryId":"20215059","StateId":"20221885","CountyId":"20221893","CityId":"20236541","AddressId":"743808578","RoadLinkId":"67373865"}}},{"Relevance":1.0,"Distance":52.2,"MatchLevel":"street","MatchQuality":{"Country":1.0,"State":1.0,"County":1.0,"City":1.0,"District":1.0,"PostalCode":1.0},"Location":{"LocationId":"NT_2bTWgW7B.yWAD362DA8GLB_l_854517029_R","LocationType":"point","DisplayPosition":{"Latitude":37.38217,"Longitude":-5.97022},"MapView":{"TopLeft":{"Latitude":37.38228,"Longitude":-5.97022},"BottomRight":{"Latitude":37.38217,"Longitude":-5.9702}},"Address":{"Label":"41005 Sevilla (Sevilla), España","Country":"ESP","State":"Andalucía","County":"Sevilla","City":"Sevilla","District":"La Buhaira","PostalCode":"41005","AdditionalData":[{"value":"España","key":"CountryName"},{"value":"Andalucía","key":"StateName"},{"value":"Sevilla","key":"CountyName"}]},"MapReference":{"ReferenceId":"854517029","Spot":0.0,"SideOfStreet":"right","CountryId":"20215059","StateId":"20221885","CountyId":"20221893","CityId":"20236541"}}}]}]}}