{"Response":{"MetaInfo":{"Timestamp":"2020-03-28T09:39:43.197+0000","NextPageInformation":"2"},"View":[{"_type":"SearchResultsViewType","ViewId":0,"Result":[{"Relevance":1.0,"Distance":0.0,"Direction":0.0,"MatchLevel":"city","MatchQuality":{"Country":1.0,"State":1.0,"County":1.0,"City":1.0,"PostalCode":1.0},"Location":{"LocationId":"NT_Q-1aFESJzcA6TC..Ds8w6A","LocationType":"point","DisplayPosition":{"Latitude":37.3888458,"Longitude":-6.437936},"MapView":{"TopLeft":{"Latitude":37.46273,"Longitude":-6.5051},"BottomRight":{"Latitude":37.35705,"Longitude":-6.3936}},"Address":{"Label":"Manzanilla, Andalucía, España","Country":"ESP","State":"Andalucía","County":"Huelva","City":"Manzanilla","PostalCode":"21890","AdditionalData":[{"value":"España","key":"CountryName"},{"value":"Andalucía","key":"StateName"},{"value":"Huelva","key":"CountyName"}]},"MapReference":{"ReferenceId":"1057625542","SideOfStreet":"neither","CountryId":"20215059","StateId":"20221885","CountyId":"20221890","CityId":"20235228"}}},{"Relevance":1.0,"Distance":3.9,"MatchLevel":"houseNumber","MatchQuality":{"Country":1.0,"State":1.0,"County":1.0,"City":1.0,"Street":[1.0],"HouseNumber":1.0,"PostalCode":1.0},"MatchType":"interpolated","Location":{"LocationId":"NT_S5l7l6d6tNh3kTVU3weLgD_xA","LocationType":"point","DisplayPosition":{"Latitude":37.38892,"Longitude":-6.43795},"MapView":{"TopLeft":{"Latitude":37.3900442,"Longitude":-6.4393649},"BottomRight":{"Latitude":37.3877958,"Longitude":-6.4365351}},"Address":{"Label":"Calle El Prado, 1, 21890 Manzanilla (Huelva), España","Country":"ESP","State":"Andalucía","County":"Huelva","City":"Manzanilla","Street":"Calle El Prado","HouseNumber":"1","PostalCode":"21890","AdditionalData":[{"value":"España","key":"CountryName"},{"value":"Andalucía","key":"StateName"},{"value":"Huelva","key":"CountyName"}]},"MapReference":{"ReferenceId":"1159692591","Spot":0.96,"SideOfStreet":"left","CountryId":"20215059","StateId":"20221885","CountyId":"20221890","CityId":"20235228","AddressId":"404698597","RoadLinkId":"466336130"}}},{"Relevance":1.0,"Distance":9.8,"MatchLevel":"street","MatchQuality":{"Country":1.0,"State":1.0,"County":1.0,"City":1.0,"Street":[1.0],"PostalCode":1.0},"Location":{"LocationId":"NT_a7zIv-FR2.H4gctvnO.GuC_l_1159678793_R","LocationType":"point","DisplayPosition":{"Latitude":37.3889149,"Longitude":-6.4380051},"MapView":{"TopLeft":{"Latitude":37.38893,"Longitude":-6.43809},"BottomRight":{"Latitude":37.38883,"Longitude":-6.43799}},"Address":{"Label":"Barriada Blas Infante, 21890 Manzanilla (Huelva), España","Country":"ESP","State":"Andalucía","County":"Huelva","City":"Manzanilla","Street":"Barriada Blas Infante","PostalCode":"21890","AdditionalData":[{"value":"España","key":"CountryName"},{"value":"Andalucía","key":"StateName"},{"value":"Huelva","key":"CountyName"}]},"MapReference":{"ReferenceId":"1159678793","Spot":0.85,"SideOfStreet":"right","CountryId":"20215059","StateId":"20221885","CountyId":"20221890","CityId":"20235228"}}},{"Relevance":1.0,"Distance":10.5,"MatchLevel":"street","MatchQuality":{"Country":1.0,"State":1.0,"County":1.0,"City":1.0,"Street":[1.0],"PostalCode":1.0},"Location":{"LocationId":"NT_a7zIv-FR2.H4gctvnO.GuC_l_1159678794_R","LocationType":"point","DisplayPosition":{"Latitude":37.38893,"Longitude":-6.43799},"MapView":{"TopLeft":{"Latitude":37.38929,"Longitude":-6.43799},"BottomRight":{"Latitude":37.38893,"Longitude":-6.43781}},"Address":{"Label":"Barriada Blas Infante, 21890 Manzanilla (Huelva), España","Country":"ESP","State":"Andalucía","County":"Huelva","City":"Manzanilla","Street":"Barriada Blas Infante","PostalCode":"21890","AdditionalData":[{"value":"España","key":"CountryName"},{"value":"Andalucía","key":"StateName"},{"value":"Huelva","key":"CountyName"}]},"MapReference":{"ReferenceId":"1159678794","Spot":0.0,"SideOfStreet":"right","CountryId":"20215059","StateId":"20221885","CountyId":"20221890","CityId":"20235228"}}},{"Relevance":1.0,"Distance":13.7,"MatchLevel":"street","MatchQuality":{"Country":1.0,"State":1.0,"County":1.0,"City":1.0,"Street":[1.0],"PostalCode":1.0},"Location":{"LocationId":"NT_a7zIv-FR2.H4gctvnO.GuC_l_1159692581_R","LocationType":"point","DisplayPosition":{"Latitude":37.38883,"Longitude":-6.43809},"MapView":{"TopLeft":{"Latitude":37.38883,"Longitude":-6.43822},"BottomRight":{"Latitude":37.38875,"Longitude":-6.43809}},"Address":{"Label":"Barriada Blas Infante, 21890 Manzanilla (Huelva), España","Country":"ESP","State":"Andalucía","County":"Huelva","City":"Manzanilla","Street":"Barriada Blas Infante","PostalCode":"21890","AdditionalData":[{"value":"España","key":"CountryName"},{"value":"Andalucía","key":"StateName"},{"value":"Huelva","key":"CountyName"}]},"MapReference":{"ReferenceId":"1159692581","Spot":1.0,"SideOfStreet":"right","CountryId":"20215059","StateId":"20221885","CountyId":"20221890","CityId":"20235228"}}},{"Relevance":1.0,"Distance":23.1,"MatchLevel":"street","MatchQuality":{"Country":1.0,"State":1.0,"County":1.0,"City":1.0,"Street":[1.0],"PostalCode":1.0},"Location":{"LocationId":"NT_S5l7l6d6tNh3kTVU3weLgD_l_1159692582_R","LocationType":"point","DisplayPosition":{"Latitude":37.3886539,"Longitude":-6.4380365},"MapView":{"TopLeft":{"Latitude":37.38875,"Longitude":-6.43822},"BottomRight":{"Latitude":37.38845,"Longitude":-6.43787}},"Address":{"Label":"Calle El Prado, 21890 Manzanilla (Huelva), España","Country":"ESP","State":"Andalucía","County":"Huelva","City":"Manzanilla","Street":"Calle El Prado","PostalCode":"21890","AdditionalData":[{"value":"España","key":"CountryName"},{"value":"Andalucía","key":"StateName"},{"value":"Huelva","key":"CountyName"}]},"MapReference":{"ReferenceId":"1159692582","Spot":0.56,"SideOfStreet":"right","CountryId":"20215059","StateId":"20221885","CountyId":"20221890","CityId":"20235228"}}},{"Relevance":1.0,"Distance":27.3,"MatchLevel":"street","MatchQuality":{"Country":1.0,"State":1.0,"County":1.0,"City":1.0,"Street":[1.0],"PostalCode":1.0},"Location":{"LocationId":"NT_a7zIv-FR2.H4gctvnO.GuC_l_1159692580_R","LocationType":"point","DisplayPosition":{"Latitude":37.38875,"Longitude":-6.43822},"MapView":{"TopLeft":{"Latitude":37.38875,"Longitude":-6.43849},"BottomRight":{"Latitude":37.3886,"Longitude":-6.43822}},"Address":{"Label":"Barriada Blas Infante, 21890 Manzanilla (Huelva), España","Country":"ESP","State":"Andalucía","County":"Huelva","City":"Manzanilla","Street":"Barriada Blas Infante","PostalCode":"21890","AdditionalData":[{"value":"España","key":"CountryName"},{"value":"Andalucía","key":"StateName"},{"value":"Huelva","key":"CountyName"}]},"MapReference":{"ReferenceId":"1159692580","Spot":1.0,"SideOfStreet":"right","CountryId":"20215059","StateId":"20221885","CountyId":"20221890","CityId":"20235228"}}},{"Relevance":1.0,"Distance":44.4,"MatchLevel":"street","MatchQuality":{"Country":1.0,"State":1.0,"County":1.0,"City":1.0,"Street":[1.0],"PostalCode":1.0},"Location":{"LocationId":"NT_S5l7l6d6tNh3kTVU3weLgD_l_1159692589_R","LocationType":"point","DisplayPosition":{"Latitude":37.38845,"Longitude":-6.43787},"MapView":{"TopLeft":{"Latitude":37.38845,"Longitude":-6.43787},"BottomRight":{"Latitude":37.38838,"Longitude":-6.4377}},"Address":{"Label":"Calle El Prado, 21890 Manzanilla (Huelva), España","Country":"ESP","State":"Andalucía","County":"Huelva","City":"Manzanilla","Street":"Calle El Prado","PostalCode":"21890","AdditionalData":[{"value":"España","key":"CountryName"},{"value":"Andalucía","key":"StateName"},{"value":"Huelva","key":"CountyName"}]},"MapReference":{"ReferenceId":"1159692589","Spot":1.0,"SideOfStreet":"right","CountryId":"20215059","StateId":"20221885","CountyId":"20221890","CityId":"20235228"}}},{"Relevance":1.0,"Distance":46.2,"MatchLevel":"houseNumber","MatchQuality":{"Country":1.0,"State":1.0,"County":1.0,"City":1.0,"Street":[1.0],"HouseNumber":1.0,"PostalCode":1.0},"MatchType":"interpolated","Location":{"LocationId":"NT_BXK4aNp9eS8VkJ9f-V.nfC_2cD","LocationType":"point","DisplayPosition":{"Latitude":37.38926,"Longitude":-6.43769},"MapView":{"TopLeft":{"Latitude":37.3903842,"Longitude":-6.4391049},"BottomRight":{"Latitude":37.3881358,"Longitude":-6.4362751}},"Address":{"Label":"Calle Juan Ramón Jiménez, 67, 21890 Manzanilla (Huelva), España","Country":"ESP","State":"Andalucía","County":"Huelva","City":"Manzanilla","Street":"Calle Juan Ramón Jiménez","HouseNumber":"67","PostalCode":"21890","AdditionalData":[{"value":"España","key":"CountryName"},{"value":"Andalucía","key":"StateName"},{"value":"Huelva","key":"CountyName"}]},"MapReference":{"ReferenceId":"1159696487","Spot":0.97,"SideOfStreet":"left","CountryId":"20215059","StateId":"20221885","CountyId":"20221890","CityId":"20235228","AddressId":"776936518","RoadLinkId":"466338885"}}},{"Relevance":1.0,"Distance":49.5,"MatchLevel":"houseNumber","MatchQuality":{"Country":1.0,"State":1.0,"County":1.0,"City":1.0,"Street":[1.0],"HouseNumber":1.0,"PostalCode":1.0},"MatchType":"interpolated","Location":{"LocationId":"NT_yNKqkd.BlnPHJyfrTwdwVC_xA","LocationType":"point","DisplayPosition":{"Latitude":37.38933,"Longitude":-6.43795},"MapView":{"TopLeft":{"Latitude":37.3904542,"Longitude":-6.4393649},"BottomRight":{"Latitude":37.3882058,"Longitude":-6.4365351}},"Address":{"Label":"Calle Hermanos Machado, 1, 21890 Manzanilla (Huelva), España","Country":"ESP","State":"Andalucía","County":"Huelva","City":"Manzanilla","Street":"Calle Hermanos Machado","HouseNumber":"1","PostalCode":"21890","AdditionalData":[{"value":"España","key":"CountryName"},{"value":"Andalucía","key":"StateName"},{"value":"Huelva","key":"CountyName"}]},"MapReference":{"ReferenceId":"560944085","Spot":0.06,"SideOfStreet":"left","CountryId":"20215059","StateId":"20221885","CountyId":"20221890","CityId":"20235228","AddressId":"404447077","RoadLinkId":"66756775"}}}]}]}}