{"Response":{"MetaInfo":{"Timestamp":"2020-03-28T11:05:42.893+0000","NextPageInformation":"2"},"View":[{"_type":"SearchResultsViewType","ViewId":0,"Result":[{"Relevance":1.0,"Distance":0.0,"Direction":0.0,"MatchLevel":"district","MatchQuality":{"Country":1.0,"State":1.0,"County":1.0,"City":1.0,"District":1.0,"PostalCode":1.0},"Location":{"LocationId":"NT_kk2a6Mkl9xwj0Eojs3D5HB","LocationType":"point","DisplayPosition":{"Latitude":37.4141183,"Longitude":-5.9812291},"MapView":{"TopLeft":{"Latitude":37.42116,"Longitude":-5.98348},"BottomRight":{"Latitude":37.40983,"Longitude":-5.97288}},"Address":{"Label":"Los Príncipes-La Fontanilla, Sevilla, Andalucía, España","Country":"ESP","State":"Andalucía","County":"Sevilla","City":"Sevilla","District":"Los Príncipes-La Fontanilla","PostalCode":"41008","AdditionalData":[{"value":"España","key":"CountryName"},{"value":"Andalucía","key":"StateName"},{"value":"Sevilla","key":"CountyName"}]},"MapReference":{"ReferenceId":"539296122","SideOfStreet":"neither","CountryId":"20215059","StateId":"20221885","CountyId":"20221893","CityId":"20236541"}}},{"Relevance":1.0,"Distance":8.1,"MatchLevel":"street","MatchQuality":{"Country":1.0,"State":1.0,"County":1.0,"City":1.0,"District":1.0,"PostalCode":1.0},"Location":{"LocationId":"NT_f5mVqdWZh6Z21ZJ33d16LB_l_1001386447_L","LocationType":"point","DisplayPosition":{"Latitude":37.41418,"Longitude":-5.98118},"MapView":{"TopLeft":{"Latitude":37.4151,"Longitude":-5.98118},"BottomRight":{"Latitude":37.41418,"Longitude":-5.98107}},"Address":{"Label":"41009 Sevilla (Sevilla), España","Country":"ESP","State":"Andalucía","County":"Sevilla","City":"Sevilla","District":"Los Príncipes-La Fontanilla","PostalCode":"41009","AdditionalData":[{"value":"España","key":"CountryName"},{"value":"Andalucía","key":"StateName"},{"value":"Sevilla","key":"CountyName"}]},"MapReference":{"ReferenceId":"1001386447","Spot":0.0,"SideOfStreet":"left","CountryId":"20215059","StateId":"20221885","CountyId":"20221893","CityId":"20236541"}}},{"Relevance":1.0,"Distance":18.4,"MatchLevel":"street","MatchQuality":{"Country":1.0,"State":1.0,"County":1.0,"City":1.0,"District":1.0,"Street":[1.0],"PostalCode":1.0},"Location":{"LocationId":"NT_uaD81opsfUjkuLEIlFZUVA_l_539296130_L","LocationType":"point","DisplayPosition":{"Latitude":37.4139568,"Longitude":-5.9811818},"MapView":{"TopLeft":{"Latitude":37.41425,"Longitude":-5.98223},"BottomRight":{"Latitude":37.41365,"Longitude":-5.98018}},"Address":{"Label":"Ronda Urbana Norte, 41009 Sevilla (Sevilla), España","Country":"ESP","State":"Andalucía","County":"Sevilla","City":"Sevilla","District":"Los Príncipes-La Fontanilla","Street":"Ronda Urbana Norte","PostalCode":"41009","AdditionalData":[{"value":"España","key":"CountryName"},{"value":"Andalucía","key":"StateName"},{"value":"Sevilla","key":"CountyName"}]},"MapReference":{"ReferenceId":"539296130","Spot":0.51,"SideOfStreet":"left","CountryId":"20215059","StateId":"20221885","CountyId":"20221893","CityId":"20236541"}}},{"Relevance":1.0,"Distance":53.0,"MatchLevel":"street","MatchQuality":{"Country":1.0,"State":1.0,"County":1.0,"City":1.0,"District":1.0,"PostalCode":1.0},"Location":{"LocationId":"NT_f5mVqdWZh6Z21ZJ33d16LB_l_1056741674_R","LocationType":"point","DisplayPosition":{"Latitude":37.41397,"Longitude":-5.9818},"MapView":{"TopLeft":{"Latitude":37.41397,"Longitude":-5.98266},"BottomRight":{"Latitude":37.41379,"Longitude":-5.9818}},"Address":{"Label":"41009 Sevilla (Sevilla), España","Country":"ESP","State":"Andalucía","County":"Sevilla","City":"Sevilla","District":"Los Príncipes-La Fontanilla","PostalCode":"41009","AdditionalData":[{"value":"España","key":"CountryName"},{"value":"Andalucía","key":"StateName"},{"value":"Sevilla","key":"CountyName"}]},"MapReference":{"ReferenceId":"1056741674","Spot":1.0,"SideOfStreet":"right","CountryId":"20215059","StateId":"20221885","CountyId":"20221893","CityId":"20236541"}}},{"Relevance":1.0,"Distance":72.5,"MatchLevel":"houseNumber","MatchQuality":{"Country":1.0,"State":1.0,"County":1.0,"City":1.0,"District":1.0,"Street":[1.0],"HouseNumber":1.0,"PostalCode":1.0},"MatchType":"interpolated","Location":{"LocationId":"NT_wL0VUv9EUedql3BGk77AJD_4A","LocationType":"point","DisplayPosition":{"Latitude":37.41349,"Longitude":-5.98145},"MapView":{"TopLeft":{"Latitude":37.4146142,"Longitude":-5.9828653},"BottomRight":{"Latitude":37.4123658,"Longitude":-5.9800347}},"Address":{"Label":"Calle Poeta Fernando de los Ríos, 8, 41009 Sevilla (Sevilla), España","Country":"ESP","State":"Andalucía","County":"Sevilla","City":"Sevilla","District":"Polígono Norte","Street":"Calle Poeta Fernando de los Ríos","HouseNumber":"8","PostalCode":"41009","AdditionalData":[{"value":"España","key":"CountryName"},{"value":"Andalucía","key":"StateName"},{"value":"Sevilla","key":"CountyName"}]},"MapReference":{"ReferenceId":"932745359","Spot":0.81,"SideOfStreet":"right","CountryId":"20215059","StateId":"20221885","CountyId":"20221893","CityId":"20236541","AddressId":"268561883","RoadLinkId":"286616309"}}},{"Relevance":1.0,"Distance":74.2,"MatchLevel":"houseNumber","MatchQuality":{"Country":1.0,"State":1.0,"County":1.0,"City":1.0,"District":1.0,"Street":[1.0],"HouseNumber":1.0,"PostalCode":1.0},"MatchType":"interpolated","Location":{"LocationId":"NT_l-9ewrTdsUyEiSnuaT04NC_xA","LocationType":"point","DisplayPosition":{"Latitude":37.41464,"Longitude":-5.98032},"MapView":{"TopLeft":{"Latitude":37.4157642,"Longitude":-5.9817353},"BottomRight":{"Latitude":37.4135158,"Longitude":-5.9789047}},"Address":{"Label":"Calle Huerta de la Fontanilla, 1, 41009 Sevilla (Sevilla), España","Country":"ESP","State":"Andalucía","County":"Sevilla","City":"Sevilla","District":"Los Príncipes-La Fontanilla","Street":"Calle Huerta de la Fontanilla","HouseNumber":"1","PostalCode":"41009","AdditionalData":[{"value":"España","key":"CountryName"},{"value":"Andalucía","key":"StateName"},{"value":"Sevilla","key":"CountyName"}]},"MapReference":{"ReferenceId":"539296108","Spot":0.31,"SideOfStreet":"left","CountryId":"20215059","StateId":"20221885","CountyId":"20221893","CityId":"20236541","AddressId":"268595764","RoadLinkId":"190804915"}}},{"Relevance":1.0,"Distance":78.2,"MatchLevel":"houseNumber","MatchQuality":{"Country":1.0,"State":1.0,"County":1.0,"City":1.0,"District":1.0,"Street":[1.0],"HouseNumber":1.0,"PostalCode":1.0},"MatchType":"interpolated","Location":{"LocationId":"NT_wL0VUv9EUedql3BGk77AJD_xYD","LocationType":"point","DisplayPosition":{"Latitude":37.41377,"Longitude":-5.98046},"MapView":{"TopLeft":{"Latitude":37.4148942,"Longitude":-5.9818753},"BottomRight":{"Latitude":37.4126458,"Longitude":-5.9790447}},"Address":{"Label":"Calle Poeta Fernando de los Ríos, 16, 41009 Sevilla (Sevilla), España","Country":"ESP","State":"Andalucía","County":"Sevilla","City":"Sevilla","District":"Polígono Norte","Street":"Calle Poeta Fernando de los Ríos","HouseNumber":"16","PostalCode":"41009","AdditionalData":[{"value":"España","key":"CountryName"},{"value":"Andalucía","key":"StateName"},{"value":"Sevilla","key":"CountyName"}]},"MapReference":{"ReferenceId":"539296136","Spot":0.64,"SideOfStreet":"right","CountryId":"20215059","StateId":"20221885","CountyId":"20221893","CityId":"20236541","AddressId":"268679860","RoadLinkId":"66876347"}}},{"Relevance":1.0,"Distance":87.3,"MatchLevel":"houseNumber","MatchQuality":{"Country":1.0,"State":1.0,"County":1.0,"City":1.0,"District":1.0,"Street":[1.0],"HouseNumber":1.0,"PostalCode":1.0},"MatchType":"interpolated","Location":{"LocationId":"NT_y5Qc9tfxecDZJLvDg-lziB_xA","LocationType":"point","DisplayPosition":{"Latitude":37.41331,"Longitude":-5.98114},"MapView":{"TopLeft":{"Latitude":37.4144342,"Longitude":-5.9825553},"BottomRight":{"Latitude":37.4121858,"Longitude":-5.9797247}},"Address":{"Label":"Calle Blasco Ibáñez, 1, 41009 Sevilla (Sevilla), España","Country":"ESP","State":"Andalucía","County":"Sevilla","City":"Sevilla","District":"Polígono Norte","Street":"Calle Blasco Ibáñez","HouseNumber":"1","PostalCode":"41009","AdditionalData":[{"value":"España","key":"CountryName"},{"value":"Andalucía","key":"StateName"},{"value":"Sevilla","key":"CountyName"}]},"MapReference":{"ReferenceId":"539296172","Spot":0.74,"SideOfStreet":"right","CountryId":"20215059","StateId":"20221885","CountyId":"20221893","CityId":"20236541","AddressId":"268443643","RoadLinkId":"67061946"}}},{"Relevance":1.0,"Distance":93.8,"MatchLevel":"street","MatchQuality":{"Country":1.0,"State":1.0,"County":1.0,"City":1.0,"District":1.0,"Street":[1.0],"PostalCode":1.0},"Location":{"LocationId":"NT_YbOzvPt2JIEJUR7BsI-icA_l_76657898_L","LocationType":"point","DisplayPosition":{"Latitude":37.41425,"Longitude":-5.98018},"MapView":{"TopLeft":{"Latitude":37.41437,"Longitude":-5.98018},"BottomRight":{"Latitude":37.41425,"Longitude":-5.97976}},"Address":{"Label":"Ronda Urbana Norte, 41009 Sevilla (Sevilla), España","Country":"ESP","State":"Andalucía","County":"Sevilla","City":"Sevilla","District":"Los Príncipes-La Fontanilla","Street":"Ronda Urbana Norte","PostalCode":"41009","AdditionalData":[{"value":"España","key":"CountryName"},{"value":"Andalucía","key":"StateName"},{"value":"Sevilla","key":"CountyName"}]},"MapReference":{"ReferenceId":"76657898","Spot":0.0,"SideOfStreet":"left","CountryId":"20215059","StateId":"20221885","CountyId":"20221893","CityId":"20236541"}}},{"Relevance":1.0,"Distance":94.3,"MatchLevel":"street","MatchQuality":{"Country":1.0,"State":1.0,"County":1.0,"City":1.0,"District":1.0,"Street":[1.0],"PostalCode":1.0},"Location":{"LocationId":"NT_l-9ewrTdsUyEiSnuaT04NC_l_539309831_L","LocationType":"point","DisplayPosition":{"Latitude":37.414385,"Longitude":-5.9802155},"MapView":{"TopLeft":{"Latitude":37.41444,"Longitude":-5.98023},"BottomRight":{"Latitude":37.41425,"Longitude":-5.98018}},"Address":{"Label":"Calle Huerta de la Fontanilla, 41009 Sevilla (Sevilla), España","Country":"ESP","State":"Andalucía","County":"Sevilla","City":"Sevilla","District":"Los Príncipes-La Fontanilla","Street":"Calle Huerta de la Fontanilla","PostalCode":"41009","AdditionalData":[{"value":"España","key":"CountryName"},{"value":"Andalucía","key":"StateName"},{"value":"Sevilla","key":"CountyName"}]},"MapReference":{"ReferenceId":"539309831","Spot":0.71,"SideOfStreet":"left","CountryId":"20215059","StateId":"20221885","CountyId":"20221893","CityId":"20236541"}}}]}]}}