{"Response":{"MetaInfo":{"Timestamp":"2020-03-28T09:40:03.043+0000","NextPageInformation":"2"},"View":[{"_type":"SearchResultsViewType","ViewId":0,"Result":[{"Relevance":1.0,"Distance":0.0,"Direction":0.0,"MatchLevel":"city","MatchQuality":{"Country":1.0,"State":1.0,"County":1.0,"City":1.0,"PostalCode":1.0},"Location":{"LocationId":"NT_faD3WO5TPrpYzglPHwFdmB","LocationType":"point","DisplayPosition":{"Latitude":37.4163085,"Longitude":-6.110403},"MapView":{"TopLeft":{"Latitude":37.50387,"Longitude":-6.14471},"BottomRight":{"Latitude":37.39506,"Longitude":-6.02387}},"Address":{"Label":"Salteras, Andalucía, España","Country":"ESP","State":"Andalucía","County":"Sevilla","City":"Salteras","PostalCode":"41909","AdditionalData":[{"value":"España","key":"CountryName"},{"value":"Andalucía","key":"StateName"},{"value":"Sevilla","key":"CountyName"}]},"MapReference":{"ReferenceId":"1001654394","SideOfStreet":"neither","CountryId":"20215059","StateId":"20221885","CountyId":"20221893","CityId":"20236521"}}},{"Relevance":1.0,"Distance":5.3,"MatchLevel":"houseNumber","MatchQuality":{"Country":1.0,"State":1.0,"County":1.0,"City":1.0,"Street":[1.0],"HouseNumber":1.0,"PostalCode":1.0},"MatchType":"interpolated","Location":{"LocationId":"NT_8OcSQqWPl-5KY.DVRJpGfC_xcD","LocationType":"point","DisplayPosition":{"Latitude":37.41633,"Longitude":-6.11048},"MapView":{"TopLeft":{"Latitude":37.4174542,"Longitude":-6.1118954},"BottomRight":{"Latitude":37.4152058,"Longitude":-6.1090646}},"Address":{"Label":"Calle Cristo de Vera Cruz, 17, 41909 Salteras (Sevilla), España","Country":"ESP","State":"Andalucía","County":"Sevilla","City":"Salteras","Street":"Calle Cristo de Vera Cruz","HouseNumber":"17","PostalCode":"41909","AdditionalData":[{"value":"España","key":"CountryName"},{"value":"Andalucía","key":"StateName"},{"value":"Sevilla","key":"CountyName"}]},"MapReference":{"ReferenceId":"549176021","Spot":0.55,"SideOfStreet":"right","CountryId":"20215059","StateId":"20221885","CountyId":"20221893","CityId":"20236521","AddressId":"404566584","RoadLinkId":"67274908"}}},{"Relevance":1.0,"Distance":17.7,"MatchLevel":"houseNumber","MatchQuality":{"Country":1.0,"State":1.0,"County":1.0,"City":1.0,"Street":[1.0],"HouseNumber":1.0,"PostalCode":1.0},"MatchType":"interpolated","Location":{"LocationId":"NT_Ju0E9AeRs5dgapI2YFFNHD_yYD","LocationType":"point","DisplayPosition":{"Latitude":37.41607,"Longitude":-6.11022},"MapView":{"TopLeft":{"Latitude":37.4171942,"Longitude":-6.1116354},"BottomRight":{"Latitude":37.4149458,"Longitude":-6.1088046}},"Address":{"Label":"Calle Gerardo Pérez Pérez, 26, 41909 Salteras (Sevilla), España","Country":"ESP","State":"Andalucía","County":"Sevilla","City":"Salteras","Street":"Calle Gerardo Pérez Pérez","HouseNumber":"26","PostalCode":"41909","AdditionalData":[{"value":"España","key":"CountryName"},{"value":"Andalucía","key":"StateName"},{"value":"Sevilla","key":"CountyName"}]},"MapReference":{"ReferenceId":"549176014","Spot":0.56,"SideOfStreet":"left","CountryId":"20215059","StateId":"20221885","CountyId":"20221893","CityId":"20236521","AddressId":"404645200","RoadLinkId":"66806433"}}},{"Relevance":1.0,"Distance":18.9,"MatchLevel":"houseNumber","MatchQuality":{"Country":1.0,"State":1.0,"County":1.0,"City":1.0,"Street":[1.0],"HouseNumber":1.0,"PostalCode":1.0},"MatchType":"interpolated","Location":{"LocationId":"NT_dd9r8qUF1oIaHNonAk9ygC_xQD","LocationType":"point","DisplayPosition":{"Latitude":37.41632,"Longitude":-6.11002},"MapView":{"TopLeft":{"Latitude":37.4174442,"Longitude":-6.1114354},"BottomRight":{"Latitude":37.4151958,"Longitude":-6.1086046}},"Address":{"Label":"Calle Alfonso Grosso, 14, 41909 Salteras (Sevilla), España","Country":"ESP","State":"Andalucía","County":"Sevilla","City":"Salteras","Street":"Calle Alfonso Grosso","HouseNumber":"14","PostalCode":"41909","AdditionalData":[{"value":"España","key":"CountryName"},{"value":"Andalucía","key":"StateName"},{"value":"Sevilla","key":"CountyName"}]},"MapReference":{"ReferenceId":"549175934","Spot":0.26,"SideOfStreet":"left","CountryId":"20215059","StateId":"20221885","CountyId":"20221893","CityId":"20236521","AddressId":"404411488","RoadLinkId":"67563580"}}},{"Relevance":1.0,"Distance":39.4,"MatchLevel":"street","MatchQuality":{"Country":1.0,"State":1.0,"County":1.0,"City":1.0,"PostalCode":1.0},"Location":{"LocationId":"NT_2TK1Y0-I6I0EA2gHcuORgD_l_549175969_L","LocationType":"point","DisplayPosition":{"Latitude":37.41666,"Longitude":-6.11046},"MapView":{"TopLeft":{"Latitude":37.4167,"Longitude":-6.11106},"BottomRight":{"Latitude":37.41666,"Longitude":-6.11046}},"Address":{"Label":"41909 Salteras (Sevilla), España","Country":"ESP","State":"Andalucía","County":"Sevilla","City":"Salteras","PostalCode":"41909","AdditionalData":[{"value":"España","key":"CountryName"},{"value":"Andalucía","key":"StateName"},{"value":"Sevilla","key":"CountyName"}]},"MapReference":{"ReferenceId":"549175969","Spot":0.0,"SideOfStreet":"left","CountryId":"20215059","StateId":"20221885","CountyId":"20221893","CityId":"20236521"}}},{"Relevance":1.0,"Distance":43.2,"MatchLevel":"houseNumber","MatchQuality":{"Country":1.0,"State":1.0,"County":1.0,"City":1.0,"Street":[1.0],"HouseNumber":1.0,"PostalCode":1.0},"MatchType":"interpolated","Location":{"LocationId":"NT_dd9r8qUF1oIaHNonAk9ygC_2A","LocationType":"point","DisplayPosition":{"Latitude":37.41665,"Longitude":-6.11017},"MapView":{"TopLeft":{"Latitude":37.4177742,"Longitude":-6.1115854},"BottomRight":{"Latitude":37.4155258,"Longitude":-6.1087546}},"Address":{"Label":"Calle Alfonso Grosso, 6, 41909 Salteras (Sevilla), España","Country":"ESP","State":"Andalucía","County":"Sevilla","City":"Salteras","Street":"Calle Alfonso Grosso","HouseNumber":"6","PostalCode":"41909","AdditionalData":[{"value":"España","key":"CountryName"},{"value":"Andalucía","key":"StateName"},{"value":"Sevilla","key":"CountyName"}]},"MapReference":{"ReferenceId":"549175872","Spot":0.36,"SideOfStreet":"right","CountryId":"20215059","StateId":"20221885","CountyId":"20221893","CityId":"20236521","AddressId":"404387686","RoadLinkId":"547589647"}}},{"Relevance":1.0,"Distance":44.0,"MatchLevel":"street","MatchQuality":{"Country":1.0,"State":1.0,"County":1.0,"City":1.0,"PostalCode":1.0},"Location":{"LocationId":"NT_2TK1Y0-I6I0EA2gHcuORgD_l_564250973_L","LocationType":"point","DisplayPosition":{"Latitude":37.41593,"Longitude":-6.11055},"MapView":{"TopLeft":{"Latitude":37.41593,"Longitude":-6.11066},"BottomRight":{"Latitude":37.41581,"Longitude":-6.11055}},"Address":{"Label":"41909 Salteras (Sevilla), España","Country":"ESP","State":"Andalucía","County":"Sevilla","City":"Salteras","PostalCode":"41909","AdditionalData":[{"value":"España","key":"CountryName"},{"value":"Andalucía","key":"StateName"},{"value":"Sevilla","key":"CountyName"}]},"MapReference":{"ReferenceId":"564250973","Spot":1.0,"SideOfStreet":"left","CountryId":"20215059","StateId":"20221885","CountyId":"20221893","CityId":"20236521"}}},{"Relevance":1.0,"Distance":44.2,"MatchLevel":"street","MatchQuality":{"Country":1.0,"State":1.0,"County":1.0,"City":1.0,"PostalCode":1.0},"Location":{"LocationId":"NT_2TK1Y0-I6I0EA2gHcuORgD_l_564250975_R","LocationType":"point","DisplayPosition":{"Latitude":37.41592,"Longitude":-6.11051},"MapView":{"TopLeft":{"Latitude":37.41593,"Longitude":-6.11055},"BottomRight":{"Latitude":37.41589,"Longitude":-6.11047}},"Address":{"Label":"41909 Salteras (Sevilla), España","Country":"ESP","State":"Andalucía","County":"Sevilla","City":"Salteras","PostalCode":"41909","AdditionalData":[{"value":"España","key":"CountryName"},{"value":"Andalucía","key":"StateName"},{"value":"Sevilla","key":"CountyName"}]},"MapReference":{"ReferenceId":"564250975","Spot":0.55,"SideOfStreet":"right","CountryId":"20215059","StateId":"20221885","CountyId":"20221893","CityId":"20236521"}}},{"Relevance":1.0,"Distance":46.6,"MatchLevel":"houseNumber","MatchQuality":{"Country":1.0,"State":1.0,"County":1.0,"City":1.0,"Street":[1.0],"HouseNumber":1.0,"PostalCode":1.0},"MatchType":"interpolated","Location":{"LocationId":"NT_Oq3VwuMw1Mxa6snYtJ-e3D_xkD","LocationType":"point","DisplayPosition":{"Latitude":37.41645,"Longitude":-6.11104},"MapView":{"TopLeft":{"Latitude":37.4175742,"Longitude":-6.1124554},"BottomRight":{"Latitude":37.4153258,"Longitude":-6.1096246}},"Address":{"Label":"Calle Salvador Dalí, 19, 41909 Salteras (Sevilla), España","Country":"ESP","State":"Andalucía","County":"Sevilla","City":"Salteras","Street":"Calle Salvador Dalí","HouseNumber":"19","PostalCode":"41909","AdditionalData":[{"value":"España","key":"CountryName"},{"value":"Andalucía","key":"StateName"},{"value":"Sevilla","key":"CountyName"}]},"MapReference":{"ReferenceId":"770380835","Spot":0.99,"SideOfStreet":"right","CountryId":"20215059","StateId":"20221885","CountyId":"20221893","CityId":"20236521","AddressId":"404519703","RoadLinkId":"163981751"}}},{"Relevance":1.0,"Distance":46.9,"MatchLevel":"street","MatchQuality":{"Country":1.0,"State":1.0,"County":1.0,"City":1.0,"PostalCode":1.0},"Location":{"LocationId":"NT_2TK1Y0-I6I0EA2gHcuORgD_l_564250974_R","LocationType":"point","DisplayPosition":{"Latitude":37.41589,"Longitude":-6.11047},"MapView":{"TopLeft":{"Latitude":37.41589,"Longitude":-6.11057},"BottomRight":{"Latitude":37.41577,"Longitude":-6.11047}},"Address":{"Label":"41909 Salteras (Sevilla), España","Country":"ESP","State":"Andalucía","County":"Sevilla","City":"Salteras","PostalCode":"41909","AdditionalData":[{"value":"España","key":"CountryName"},{"value":"Andalucía","key":"StateName"},{"value":"Sevilla","key":"CountyName"}]},"MapReference":{"ReferenceId":"564250974","Spot":1.0,"SideOfStreet":"right","CountryId":"20215059","StateId":"20221885","CountyId":"20221893","CityId":"20236521"}}}]}]}}