{"Response":{"MetaInfo":{"Timestamp":"2020-03-28T09:42:21.811+0000","NextPageInformation":"2"},"View":[{"_type":"SearchResultsViewType","ViewId":0,"Result":[{"Relevance":1.0,"Distance":0.0,"Direction":0.0,"MatchLevel":"city","MatchQuality":{"Country":1.0,"State":1.0,"County":1.0,"City":1.0,"PostalCode":1.0},"Location":{"LocationId":"NT_D5FsmsJRInN3tKJ1aj4-XD","LocationType":"point","DisplayPosition":{"Latitude":37.4641421,"Longitude":-5.6477487},"MapView":{"TopLeft":{"Latitude":37.62073,"Longitude":-5.86872},"BottomRight":{"Latitude":37.24743,"Longitude":-5.39654}},"Address":{"Label":"Carmona, Andalucía, España","Country":"ESP","State":"Andalucía","County":"Sevilla","City":"Carmona","PostalCode":"41410","AdditionalData":[{"value":"España","key":"CountryName"},{"value":"Andalucía","key":"StateName"},{"value":"Sevilla","key":"CountyName"}]},"MapReference":{"ReferenceId":"1001910639","SideOfStreet":"neither","CountryId":"20215059","StateId":"20221885","CountyId":"20221893","CityId":"20236295"}}},{"Relevance":1.0,"Distance":14.8,"MatchLevel":"houseNumber","MatchQuality":{"Country":1.0,"State":1.0,"County":1.0,"City":1.0,"Street":[1.0],"HouseNumber":1.0,"PostalCode":1.0},"MatchType":"interpolated","Location":{"LocationId":"NT_qg.Gnr7HQlgDJwZS-S1rED_xA","LocationType":"point","DisplayPosition":{"Latitude":37.46429,"Longitude":-5.64774},"MapView":{"TopLeft":{"Latitude":37.4654142,"Longitude":-5.6491563},"BottomRight":{"Latitude":37.4631658,"Longitude":-5.6463237}},"Address":{"Label":"Calle Imaginero Francisco Buiza, 1, 41410 Carmona (Sevilla), España","Country":"ESP","State":"Andalucía","County":"Sevilla","City":"Carmona","Street":"Calle Imaginero Francisco Buiza","HouseNumber":"1","PostalCode":"41410","AdditionalData":[{"value":"España","key":"CountryName"},{"value":"Andalucía","key":"StateName"},{"value":"Sevilla","key":"CountyName"}]},"MapReference":{"ReferenceId":"564250601","Spot":0.96,"SideOfStreet":"right","CountryId":"20215059","StateId":"20221885","CountyId":"20221893","CityId":"20236295","AddressId":"347479348","RoadLinkId":"66852232"}}},{"Relevance":1.0,"Distance":18.7,"MatchLevel":"street","MatchQuality":{"Country":1.0,"State":1.0,"County":1.0,"City":1.0,"Street":[1.0],"PostalCode":1.0},"Location":{"LocationId":"NT_qg.Gnr7HQlgDJwZS-S1rED_l_564250602_R","LocationType":"point","DisplayPosition":{"Latitude":37.46431,"Longitude":-5.64773},"MapView":{"TopLeft":{"Latitude":37.46456,"Longitude":-5.64773},"BottomRight":{"Latitude":37.46431,"Longitude":-5.64756}},"Address":{"Label":"Calle Imaginero Francisco Buiza, 41410 Carmona (Sevilla), España","Country":"ESP","State":"Andalucía","County":"Sevilla","City":"Carmona","Street":"Calle Imaginero Francisco Buiza","PostalCode":"41410","AdditionalData":[{"value":"España","key":"CountryName"},{"value":"Andalucía","key":"StateName"},{"value":"Sevilla","key":"CountyName"}]},"MapReference":{"ReferenceId":"564250602","Spot":0.0,"SideOfStreet":"right","CountryId":"20215059","StateId":"20221885","CountyId":"20221893","CityId":"20236295"}}},{"Relevance":1.0,"Distance":18.7,"MatchLevel":"street","MatchQuality":{"Country":1.0,"State":1.0,"County":1.0,"City":1.0,"PostalCode":1.0},"Location":{"LocationId":"NT_mScBSmiqvYx8YugeSUgxeA_l_564250604_L","LocationType":"point","DisplayPosition":{"Latitude":37.46431,"Longitude":-5.64773},"MapView":{"TopLeft":{"Latitude":37.46474,"Longitude":-5.64873},"BottomRight":{"Latitude":37.46431,"Longitude":-5.64773}},"Address":{"Label":"41410 Carmona (Sevilla), España","Country":"ESP","State":"Andalucía","County":"Sevilla","City":"Carmona","PostalCode":"41410","AdditionalData":[{"value":"España","key":"CountryName"},{"value":"Andalucía","key":"StateName"},{"value":"Sevilla","key":"CountyName"}]},"MapReference":{"ReferenceId":"564250604","Spot":0.0,"SideOfStreet":"left","CountryId":"20215059","StateId":"20221885","CountyId":"20221893","CityId":"20236295"}}},{"Relevance":1.0,"Distance":40.3,"MatchLevel":"houseNumber","MatchQuality":{"Country":1.0,"State":1.0,"County":1.0,"City":1.0,"Street":[1.0],"HouseNumber":1.0,"PostalCode":1.0},"MatchType":"interpolated","Location":{"LocationId":"NT_lcN-YvXbxM9HPLKnA3i2vA_xA","LocationType":"point","DisplayPosition":{"Latitude":37.46386,"Longitude":-5.64813},"MapView":{"TopLeft":{"Latitude":37.4649842,"Longitude":-5.6495463},"BottomRight":{"Latitude":37.4627358,"Longitude":-5.6467137}},"Address":{"Label":"Calle Rodrigo de Triana, 1, 41410 Carmona (Sevilla), España","Country":"ESP","State":"Andalucía","County":"Sevilla","City":"Carmona","Street":"Calle Rodrigo de Triana","HouseNumber":"1","PostalCode":"41410","AdditionalData":[{"value":"España","key":"CountryName"},{"value":"Andalucía","key":"StateName"},{"value":"Sevilla","key":"CountyName"}]},"MapReference":{"ReferenceId":"564250592","Spot":0.11,"SideOfStreet":"right","CountryId":"20215059","StateId":"20221885","CountyId":"20221893","CityId":"20236295","AddressId":"347558411","RoadLinkId":"67349188"}}},{"Relevance":1.0,"Distance":43.1,"MatchLevel":"houseNumber","MatchQuality":{"Country":1.0,"State":1.0,"County":1.0,"City":1.0,"Street":[1.0],"HouseNumber":1.0,"PostalCode":1.0},"MatchType":"interpolated","Location":{"LocationId":"NT_gBmz1a7EuvpZbWR9ZgLfdC_2A","LocationType":"point","DisplayPosition":{"Latitude":37.4646,"Longitude":-5.6478},"MapView":{"TopLeft":{"Latitude":37.4657242,"Longitude":-5.6492163},"BottomRight":{"Latitude":37.4634758,"Longitude":-5.6463837}},"Address":{"Label":"Barriada Carrión Mejías, 6, 41410 Carmona (Sevilla), España","Country":"ESP","State":"Andalucía","County":"Sevilla","City":"Carmona","Street":"Barriada Carrión Mejías","HouseNumber":"6","PostalCode":"41410","AdditionalData":[{"value":"España","key":"CountryName"},{"value":"Andalucía","key":"StateName"},{"value":"Sevilla","key":"CountyName"}]},"MapReference":{"ReferenceId":"564250590","Spot":0.22,"SideOfStreet":"left","CountryId":"20215059","StateId":"20221885","CountyId":"20221893","CityId":"20236295","AddressId":"347670117","RoadLinkId":"66630055"}}},{"Relevance":1.0,"Distance":44.4,"MatchLevel":"street","MatchQuality":{"Country":1.0,"State":1.0,"County":1.0,"City":1.0,"Street":[1.0],"PostalCode":1.0},"Location":{"LocationId":"NT_lcN-YvXbxM9HPLKnA3i2vA_l_564250591_R","LocationType":"point","DisplayPosition":{"Latitude":37.4637622,"Longitude":-5.6479035},"MapView":{"TopLeft":{"Latitude":37.46383,"Longitude":-5.64807},"BottomRight":{"Latitude":37.46348,"Longitude":-5.64757}},"Address":{"Label":"Calle Rodrigo de Triana, 41410 Carmona (Sevilla), España","Country":"ESP","State":"Andalucía","County":"Sevilla","City":"Carmona","Street":"Calle Rodrigo de Triana","PostalCode":"41410","AdditionalData":[{"value":"España","key":"CountryName"},{"value":"Andalucía","key":"StateName"},{"value":"Sevilla","key":"CountyName"}]},"MapReference":{"ReferenceId":"564250591","Spot":0.72,"SideOfStreet":"right","CountryId":"20215059","StateId":"20221885","CountyId":"20221893","CityId":"20236295"}}},{"Relevance":1.0,"Distance":49.4,"MatchLevel":"street","MatchQuality":{"Country":1.0,"State":1.0,"County":1.0,"City":1.0,"Street":[1.0],"PostalCode":1.0},"Location":{"LocationId":"NT_qg.Gnr7HQlgDJwZS-S1rED_l_564250594_R","LocationType":"point","DisplayPosition":{"Latitude":37.46456,"Longitude":-5.64756},"MapView":{"TopLeft":{"Latitude":37.46476,"Longitude":-5.64756},"BottomRight":{"Latitude":37.46456,"Longitude":-5.64741}},"Address":{"Label":"Calle Imaginero Francisco Buiza, 41410 Carmona (Sevilla), España","Country":"ESP","State":"Andalucía","County":"Sevilla","City":"Carmona","Street":"Calle Imaginero Francisco Buiza","PostalCode":"41410","AdditionalData":[{"value":"España","key":"CountryName"},{"value":"Andalucía","key":"StateName"},{"value":"Sevilla","key":"CountyName"}]},"MapReference":{"ReferenceId":"564250594","Spot":0.0,"SideOfStreet":"right","CountryId":"20215059","StateId":"20221885","CountyId":"20221893","CityId":"20236295"}}},{"Relevance":1.0,"Distance":65.8,"MatchLevel":"houseNumber","MatchQuality":{"Country":1.0,"State":1.0,"County":1.0,"City":1.0,"Street":[1.0],"HouseNumber":1.0,"PostalCode":1.0},"MatchType":"interpolated","Location":{"LocationId":"NT_NlGezQDfD3CTFJgDXnxmwD_0A","LocationType":"point","DisplayPosition":{"Latitude":37.46367,"Longitude":-5.64712},"MapView":{"TopLeft":{"Latitude":37.4647942,"Longitude":-5.6485363},"BottomRight":{"Latitude":37.4625458,"Longitude":-5.6457037}},"Address":{"Label":"Carretera Circunvalación del Real, 4, 41410 Carmona (Sevilla), España","Country":"ESP","State":"Andalucía","County":"Sevilla","City":"Carmona","Street":"Carretera Circunvalación del Real","HouseNumber":"4","PostalCode":"41410","AdditionalData":[{"value":"España","key":"CountryName"},{"value":"Andalucía","key":"StateName"},{"value":"Sevilla","key":"CountyName"}]},"MapReference":{"ReferenceId":"539609132","Spot":0.61,"SideOfStreet":"left","CountryId":"20215059","StateId":"20221885","CountyId":"20221893","CityId":"20236295","AddressId":"347458038","RoadLinkId":"66832502"}}},{"Relevance":1.0,"Distance":67.1,"MatchLevel":"houseNumber","MatchQuality":{"Country":1.0,"State":1.0,"County":1.0,"City":1.0,"Street":[1.0],"HouseNumber":1.0,"PostalCode":1.0},"MatchType":"interpolated","Location":{"LocationId":"NT_o4qz4e6zFpPrruEMq0RKwD_xED","LocationType":"point","DisplayPosition":{"Latitude":37.46469,"Longitude":-5.6472},"MapView":{"TopLeft":{"Latitude":37.4658142,"Longitude":-5.6486163},"BottomRight":{"Latitude":37.4635658,"Longitude":-5.6457837}},"Address":{"Label":"Paseo de la Feria, 11, 41410 Carmona (Sevilla), España","Country":"ESP","State":"Andalucía","County":"Sevilla","City":"Carmona","Street":"Paseo de la Feria","HouseNumber":"11","PostalCode":"41410","AdditionalData":[{"value":"España","key":"CountryName"},{"value":"Andalucía","key":"StateName"},{"value":"Sevilla","key":"CountyName"}]},"MapReference":{"ReferenceId":"539609844","Spot":0.73,"SideOfStreet":"left","CountryId":"20215059","StateId":"20221885","CountyId":"20221893","CityId":"20236295","AddressId":"347596145","RoadLinkId":"67416978"}}}]}]}}