{"Response":{"MetaInfo":{"Timestamp":"2020-03-28T09:41:13.861+0000","NextPageInformation":"2"},"View":[{"_type":"SearchResultsViewType","ViewId":0,"Result":[{"Relevance":1.0,"Distance":0.0,"Direction":0.0,"MatchLevel":"city","MatchQuality":{"Country":1.0,"State":1.0,"County":1.0,"City":1.0,"PostalCode":1.0},"Location":{"LocationId":"NT_OzvIi8dEaa0bDjMf-jvRCB","LocationType":"point","DisplayPosition":{"Latitude":37.4104709,"Longitude":-4.4756527},"MapView":{"TopLeft":{"Latitude":37.46385,"Longitude":-4.68399},"BottomRight":{"Latitude":37.24591,"Longitude":-4.41703}},"Address":{"Label":"Lucena, Andalucía, España","Country":"ESP","State":"Andalucía","County":"Córdoba","City":"Lucena","PostalCode":"14900","AdditionalData":[{"value":"España","key":"CountryName"},{"value":"Andalucía","key":"StateName"},{"value":"Córdoba","key":"CountyName"}]},"MapReference":{"ReferenceId":"1272380647","SideOfStreet":"neither","CountryId":"20215059","StateId":"20221885","CountyId":"20221888","CityId":"20234138"}}},{"Relevance":1.0,"Distance":12.3,"MatchLevel":"street","MatchQuality":{"Country":1.0,"State":1.0,"County":1.0,"City":1.0,"Street":[1.0],"PostalCode":1.0},"Location":{"LocationId":"NT_6K33fBqJzdt0iEBc5xziRB_l_1025710486_R","LocationType":"point","DisplayPosition":{"Latitude":37.4104,"Longitude":-4.47576},"MapView":{"TopLeft":{"Latitude":37.4104,"Longitude":-4.47578},"BottomRight":{"Latitude":37.4102,"Longitude":-4.47576}},"Address":{"Label":"Avenida Santa Teresa, 14900 Lucena (Córdoba), España","Country":"ESP","State":"Andalucía","County":"Córdoba","City":"Lucena","Street":"Avenida Santa Teresa","PostalCode":"14900","AdditionalData":[{"value":"España","key":"CountryName"},{"value":"Andalucía","key":"StateName"},{"value":"Córdoba","key":"CountyName"}]},"MapReference":{"ReferenceId":"1025710486","Spot":1.0,"SideOfStreet":"right","CountryId":"20215059","StateId":"20221885","CountyId":"20221888","CityId":"20234138"}}},{"Relevance":1.0,"Distance":14.4,"MatchLevel":"houseNumber","MatchQuality":{"Country":1.0,"State":1.0,"County":1.0,"City":1.0,"Street":[1.0],"HouseNumber":1.0,"PostalCode":1.0},"MatchType":"interpolated","Location":{"LocationId":"NT_6K33fBqJzdt0iEBc5xziRB_xAD","LocationType":"point","DisplayPosition":{"Latitude":37.4106,"Longitude":-4.47574},"MapView":{"TopLeft":{"Latitude":37.4117242,"Longitude":-4.4771553},"BottomRight":{"Latitude":37.4094758,"Longitude":-4.4743247}},"Address":{"Label":"Avenida Santa Teresa, 10, 14900 Lucena (Córdoba), España","Country":"ESP","State":"Andalucía","County":"Córdoba","City":"Lucena","Street":"Avenida Santa Teresa","HouseNumber":"10","PostalCode":"14900","AdditionalData":[{"value":"España","key":"CountryName"},{"value":"Andalucía","key":"StateName"},{"value":"Córdoba","key":"CountyName"}]},"MapReference":{"ReferenceId":"1025726382","Spot":0.5,"SideOfStreet":"right","CountryId":"20215059","StateId":"20221885","CountyId":"20221888","CityId":"20234138","AddressId":"268321161","RoadLinkId":"348887893"}}},{"Relevance":1.0,"Distance":37.1,"MatchLevel":"street","MatchQuality":{"Country":1.0,"State":1.0,"County":1.0,"City":1.0,"Street":[1.0],"PostalCode":1.0},"Location":{"LocationId":"NT_6K33fBqJzdt0iEBc5xziRB_l_1025726383_R","LocationType":"point","DisplayPosition":{"Latitude":37.4108,"Longitude":-4.47572},"MapView":{"TopLeft":{"Latitude":37.41098,"Longitude":-4.47572},"BottomRight":{"Latitude":37.4108,"Longitude":-4.4757}},"Address":{"Label":"Avenida Santa Teresa, 14900 Lucena (Córdoba), España","Country":"ESP","State":"Andalucía","County":"Córdoba","City":"Lucena","Street":"Avenida Santa Teresa","PostalCode":"14900","AdditionalData":[{"value":"España","key":"CountryName"},{"value":"Andalucía","key":"StateName"},{"value":"Córdoba","key":"CountyName"}]},"MapReference":{"ReferenceId":"1025726383","Spot":0.0,"SideOfStreet":"right","CountryId":"20215059","StateId":"20221885","CountyId":"20221888","CityId":"20234138"}}},{"Relevance":1.0,"Distance":38.7,"MatchLevel":"houseNumber","MatchQuality":{"Country":1.0,"State":1.0,"County":1.0,"City":1.0,"Street":[1.0],"HouseNumber":1.0,"PostalCode":1.0},"MatchType":"interpolated","Location":{"LocationId":"NT_6K33fBqJzdt0iEBc5xziRB_xQF","LocationType":"point","DisplayPosition":{"Latitude":37.41014,"Longitude":-4.47579},"MapView":{"TopLeft":{"Latitude":37.4112642,"Longitude":-4.4772053},"BottomRight":{"Latitude":37.4090158,"Longitude":-4.4743747}},"Address":{"Label":"Avenida Santa Teresa, 1T, 14900 Lucena (Córdoba), España","Country":"ESP","State":"Andalucía","County":"Córdoba","City":"Lucena","Street":"Avenida Santa Teresa","HouseNumber":"1T","PostalCode":"14900","AdditionalData":[{"value":"España","key":"CountryName"},{"value":"Andalucía","key":"StateName"},{"value":"Córdoba","key":"CountyName"}]},"MapReference":{"ReferenceId":"1025710485","Spot":0.66,"SideOfStreet":"left","CountryId":"20215059","StateId":"20221885","CountyId":"20221888","CityId":"20234138","AddressId":"745908558","RoadLinkId":"348874033"}}},{"Relevance":1.0,"Distance":43.6,"MatchLevel":"houseNumber","MatchQuality":{"Country":1.0,"State":1.0,"County":1.0,"City":1.0,"Street":[1.0],"HouseNumber":1.0,"PostalCode":1.0},"MatchType":"interpolated","Location":{"LocationId":"NT_xmUO8AhRY6YeSpWo-9-z0B_xA","LocationType":"point","DisplayPosition":{"Latitude":37.41,"Longitude":-4.47547},"MapView":{"TopLeft":{"Latitude":37.4111242,"Longitude":-4.4768853},"BottomRight":{"Latitude":37.4088758,"Longitude":-4.4740547}},"Address":{"Label":"Avenida de Blas Infante, 1, 14900 Lucena (Córdoba), España","Country":"ESP","State":"Andalucía","County":"Córdoba","City":"Lucena","Street":"Avenida de Blas Infante","HouseNumber":"1","PostalCode":"14900","AdditionalData":[{"value":"España","key":"CountryName"},{"value":"Andalucía","key":"StateName"},{"value":"Córdoba","key":"CountyName"}]},"MapReference":{"ReferenceId":"573467494","Spot":0.9,"SideOfStreet":"right","CountryId":"20215059","StateId":"20221885","CountyId":"20221888","CityId":"20234138","AddressId":"268112763","RoadLinkId":"67589994"}}},{"Relevance":1.0,"Distance":51.8,"MatchLevel":"street","MatchQuality":{"Country":1.0,"State":1.0,"County":1.0,"City":1.0,"Street":[1.0],"PostalCode":1.0},"Location":{"LocationId":"NT_6K33fBqJzdt0iEBc5xziRB_l_1025726385_R","LocationType":"point","DisplayPosition":{"Latitude":37.41002,"Longitude":-4.4758},"MapView":{"TopLeft":{"Latitude":37.41002,"Longitude":-4.47581},"BottomRight":{"Latitude":37.40994,"Longitude":-4.4758}},"Address":{"Label":"Avenida Santa Teresa, 14900 Lucena (Córdoba), España","Country":"ESP","State":"Andalucía","County":"Córdoba","City":"Lucena","Street":"Avenida Santa Teresa","PostalCode":"14900","AdditionalData":[{"value":"España","key":"CountryName"},{"value":"Andalucía","key":"StateName"},{"value":"Córdoba","key":"CountyName"}]},"MapReference":{"ReferenceId":"1025726385","Spot":1.0,"SideOfStreet":"right","CountryId":"20215059","StateId":"20221885","CountyId":"20221888","CityId":"20234138"}}},{"Relevance":1.0,"Distance":54.7,"MatchLevel":"street","MatchQuality":{"Country":1.0,"State":1.0,"County":1.0,"City":1.0,"Street":[1.0],"PostalCode":1.0},"Location":{"LocationId":"NT_0FFVst7Q0UVQaGjbTMw5TD_l_573467488_L","LocationType":"point","DisplayPosition":{"Latitude":37.4109586,"Longitude":-4.4755714},"MapView":{"TopLeft":{"Latitude":37.41098,"Longitude":-4.4757},"BottomRight":{"Latitude":37.41094,"Longitude":-4.47546}},"Address":{"Label":"Calle Blas Infante, 14900 Lucena (Córdoba), España","Country":"ESP","State":"Andalucía","County":"Córdoba","City":"Lucena","Street":"Calle Blas Infante","PostalCode":"14900","AdditionalData":[{"value":"España","key":"CountryName"},{"value":"Andalucía","key":"StateName"},{"value":"Córdoba","key":"CountyName"}]},"MapReference":{"ReferenceId":"573467488","Spot":0.46,"SideOfStreet":"left","CountryId":"20215059","StateId":"20221885","CountyId":"20221888","CityId":"20234138"}}},{"Relevance":1.0,"Distance":54.9,"MatchLevel":"street","MatchQuality":{"Country":1.0,"State":1.0,"County":1.0,"City":1.0,"Street":[1.0],"PostalCode":1.0},"Location":{"LocationId":"NT_0FFVst7Q0UVQaGjbTMw5TD_l_573467487_L","LocationType":"point","DisplayPosition":{"Latitude":37.41094,"Longitude":-4.47546},"MapView":{"TopLeft":{"Latitude":37.41094,"Longitude":-4.47546},"BottomRight":{"Latitude":37.41091,"Longitude":-4.4746}},"Address":{"Label":"Calle Blas Infante, 14900 Lucena (Córdoba), España","Country":"ESP","State":"Andalucía","County":"Córdoba","City":"Lucena","Street":"Calle Blas Infante","PostalCode":"14900","AdditionalData":[{"value":"España","key":"CountryName"},{"value":"Andalucía","key":"StateName"},{"value":"Córdoba","key":"CountyName"}]},"MapReference":{"ReferenceId":"573467487","Spot":1.0,"SideOfStreet":"left","CountryId":"20215059","StateId":"20221885","CountyId":"20221888","CityId":"20234138"}}},{"Relevance":1.0,"Distance":54.9,"MatchLevel":"street","MatchQuality":{"Country":1.0,"State":1.0,"County":1.0,"City":1.0,"PostalCode":1.0},"Location":{"LocationId":"NT_O3i5SXGvdHGW6Ib837YjRD_l_573467491_L","LocationType":"point","DisplayPosition":{"Latitude":37.41094,"Longitude":-4.47546},"MapView":{"TopLeft":{"Latitude":37.41132,"Longitude":-4.47546},"BottomRight":{"Latitude":37.41094,"Longitude":-4.47543}},"Address":{"Label":"14900 Lucena (Córdoba), España","Country":"ESP","State":"Andalucía","County":"Córdoba","City":"Lucena","PostalCode":"14900","AdditionalData":[{"value":"España","key":"CountryName"},{"value":"Andalucía","key":"StateName"},{"value":"Córdoba","key":"CountyName"}]},"MapReference":{"ReferenceId":"573467491","Spot":0.0,"SideOfStreet":"left","CountryId":"20215059","StateId":"20221885","CountyId":"20221888","CityId":"20234138"}}}]}]}}