{"Response":{"MetaInfo":{"Timestamp":"2020-03-28T11:23:26.818+0000","NextPageInformation":"2"},"View":[{"_type":"SearchResultsViewType","ViewId":0,"Result":[{"Relevance":1.0,"Distance":-42412.8,"MatchLevel":"landmark","MatchQuality":{"Country":1.0,"State":1.0,"Name":1.0},"Location":{"LocationId":"NT_WbRHZaUNmJdoEGyLvAjbjA","LocationType":"island","Name":"Sicilia","DisplayPosition":{"Latitude":37.4742,"Longitude":14.13844},"MapView":{"TopLeft":{"Latitude":38.30149,"Longitude":12.42414},"BottomRight":{"Latitude":36.6469,"Longitude":15.65312}},"Address":{"Label":"Italia","Country":"ITA","State":"Sicilia","AdditionalData":[{"value":"Italia","key":"CountryName"},{"value":"Sicilia","key":"StateName"}]},"MapReference":{"CountryId":"20110484","StateId":"20126201","PlaceId":"82846424"}}},{"Relevance":1.0,"Distance":0.0,"Direction":0.0,"MatchLevel":"city","MatchQuality":{"Country":1.0,"State":1.0,"County":1.0,"City":1.0,"PostalCode":1.0},"Location":{"LocationId":"NT_TvRG0BvIZRinVpXpx-H-rB","LocationType":"point","DisplayPosition":{"Latitude":37.4920024,"Longitude":14.0438534},"MapView":{"TopLeft":{"Latitude":37.59898,"Longitude":13.86154},"BottomRight":{"Latitude":37.32951,"Longitude":14.15946}},"Address":{"Label":"Caltanissetta, Sicilia, Italia","Country":"ITA","State":"Sicilia","County":"CL","City":"Caltanissetta","PostalCode":"93100","AdditionalData":[{"value":"Italia","key":"CountryName"},{"value":"Sicilia","key":"StateName"},{"value":"Caltanissetta","key":"CountyName"}]},"MapReference":{"ReferenceId":"540410387","SideOfStreet":"neither","CountryId":"20110484","StateId":"20126201","CountyId":"20246720","CityId":"20246730"}}},{"Relevance":1.0,"Distance":8.1,"MatchLevel":"street","MatchQuality":{"Country":1.0,"State":1.0,"County":1.0,"City":1.0,"Street":[1.0],"PostalCode":1.0},"Location":{"LocationId":"NT_z8tb6flo5A9wyQBdYBavaB_l_540410605_R","LocationType":"point","DisplayPosition":{"Latitude":37.49193,"Longitude":14.04386},"MapView":{"TopLeft":{"Latitude":37.49193,"Longitude":14.04386},"BottomRight":{"Latitude":37.49181,"Longitude":14.04458}},"Address":{"Label":"Via Malta, 93100 Caltanissetta CL, Italia","Country":"ITA","State":"Sicilia","County":"CL","City":"Caltanissetta","Street":"Via Malta","PostalCode":"93100","AdditionalData":[{"value":"Italia","key":"CountryName"},{"value":"Sicilia","key":"StateName"},{"value":"Caltanissetta","key":"CountyName"}]},"MapReference":{"ReferenceId":"540410605","Spot":1.0,"SideOfStreet":"right","CountryId":"20110484","StateId":"20126201","CountyId":"20246720","CityId":"20246730"}}},{"Relevance":1.0,"Distance":9.5,"MatchLevel":"houseNumber","MatchQuality":{"Country":1.0,"State":1.0,"County":1.0,"City":1.0,"Street":[1.0],"HouseNumber":1.0,"PostalCode":1.0},"MatchType":"interpolated","Location":{"LocationId":"NT_z8tb6flo5A9wyQBdYBavaB_3MD","LocationType":"point","DisplayPosition":{"Latitude":37.49192,"Longitude":14.04377},"MapView":{"TopLeft":{"Latitude":37.4930442,"Longitude":14.0423532},"BottomRight":{"Latitude":37.4907958,"Longitude":14.0451868}},"Address":{"Label":"Via Malta, 73, 93100 Caltanissetta CL, Italia","Country":"ITA","State":"Sicilia","County":"CL","City":"Caltanissetta","Street":"Via Malta","HouseNumber":"73","PostalCode":"93100","AdditionalData":[{"value":"Italia","key":"CountryName"},{"value":"Sicilia","key":"StateName"},{"value":"Caltanissetta","key":"CountyName"}]},"MapReference":{"ReferenceId":"540411285","Spot":0.67,"SideOfStreet":"left","CountryId":"20110484","StateId":"20126201","CountyId":"20246720","CityId":"20246730","AddressId":"710703388","RoadLinkId":"60211106"}}},{"Relevance":1.0,"Distance":28.6,"MatchLevel":"houseNumber","MatchQuality":{"Country":1.0,"State":1.0,"County":1.0,"City":1.0,"Street":[1.0],"HouseNumber":1.0,"PostalCode":1.0},"MatchType":"interpolated","Location":{"LocationId":"NT_z8tb6flo5A9wyQBdYBavaB_3UD","LocationType":"point","DisplayPosition":{"Latitude":37.49192,"Longitude":14.04348},"MapView":{"TopLeft":{"Latitude":37.4930442,"Longitude":14.0420632},"BottomRight":{"Latitude":37.4907958,"Longitude":14.0448968}},"Address":{"Label":"Via Malta, 75, 93100 Caltanissetta CL, Italia","Country":"ITA","State":"Sicilia","County":"CL","City":"Caltanissetta","Street":"Via Malta","HouseNumber":"75","PostalCode":"93100","AdditionalData":[{"value":"Italia","key":"CountryName"},{"value":"Sicilia","key":"StateName"},{"value":"Caltanissetta","key":"CountyName"}]},"MapReference":{"ReferenceId":"540410877","Spot":0.2,"SideOfStreet":"right","CountryId":"20110484","StateId":"20126201","CountyId":"20246720","CityId":"20246730","AddressId":"710705977","RoadLinkId":"59691426"}}},{"Relevance":1.0,"Distance":39.6,"MatchLevel":"houseNumber","MatchQuality":{"Country":1.0,"State":1.0,"County":1.0,"City":1.0,"Street":[1.0],"HouseNumber":1.0,"PostalCode":1.0},"MatchType":"interpolated","Location":{"LocationId":"NT_7Vd.RL9e4Gazgc-ZPPHcwA_0A","LocationType":"point","DisplayPosition":{"Latitude":37.49172,"Longitude":14.04357},"MapView":{"TopLeft":{"Latitude":37.4928442,"Longitude":14.0421532},"BottomRight":{"Latitude":37.4905958,"Longitude":14.0449868}},"Address":{"Label":"Via Galatea, 4, 93100 Caltanissetta CL, Italia","Country":"ITA","State":"Sicilia","County":"CL","City":"Caltanissetta","Street":"Via Galatea","HouseNumber":"4","PostalCode":"93100","AdditionalData":[{"value":"Italia","key":"CountryName"},{"value":"Sicilia","key":"StateName"},{"value":"Caltanissetta","key":"CountyName"}]},"MapReference":{"ReferenceId":"540410406","Spot":0.52,"SideOfStreet":"right","CountryId":"20110484","StateId":"20126201","CountyId":"20246720","CityId":"20246730","AddressId":"710707724","RoadLinkId":"60200434"}}},{"Relevance":1.0,"Distance":56.4,"MatchLevel":"street","MatchQuality":{"Country":1.0,"State":1.0,"County":1.0,"City":1.0,"Street":[1.0],"PostalCode":1.0},"Location":{"LocationId":"NT_z8tb6flo5A9wyQBdYBavaB_l_540410316_R","LocationType":"point","DisplayPosition":{"Latitude":37.49156,"Longitude":14.04354},"MapView":{"TopLeft":{"Latitude":37.4921,"Longitude":14.04201},"BottomRight":{"Latitude":37.49156,"Longitude":14.04354}},"Address":{"Label":"Via Malta, 93100 Caltanissetta CL, Italia","Country":"ITA","State":"Sicilia","County":"CL","City":"Caltanissetta","Street":"Via Malta","PostalCode":"93100","AdditionalData":[{"value":"Italia","key":"CountryName"},{"value":"Sicilia","key":"StateName"},{"value":"Caltanissetta","key":"CountyName"}]},"MapReference":{"ReferenceId":"540410316","Spot":0.0,"SideOfStreet":"right","CountryId":"20110484","StateId":"20126201","CountyId":"20246720","CityId":"20246730"}}},{"Relevance":1.0,"Distance":59.5,"MatchLevel":"houseNumber","MatchQuality":{"Country":1.0,"State":1.0,"County":1.0,"City":1.0,"Street":[1.0],"HouseNumber":1.0,"PostalCode":1.0},"MatchType":"interpolated","Location":{"LocationId":"NT_7Vd.RL9e4Gazgc-ZPPHcwA_xAD","LocationType":"point","DisplayPosition":{"Latitude":37.49151,"Longitude":14.04355},"MapView":{"TopLeft":{"Latitude":37.4926342,"Longitude":14.0421332},"BottomRight":{"Latitude":37.4903858,"Longitude":14.0449668}},"Address":{"Label":"Via Galatea, 10, 93100 Caltanissetta CL, Italia","Country":"ITA","State":"Sicilia","County":"CL","City":"Caltanissetta","Street":"Via Galatea","HouseNumber":"10","PostalCode":"93100","AdditionalData":[{"value":"Italia","key":"CountryName"},{"value":"Sicilia","key":"StateName"},{"value":"Caltanissetta","key":"CountyName"}]},"MapReference":{"ReferenceId":"540410407","Spot":0.91,"SideOfStreet":"right","CountryId":"20110484","StateId":"20126201","CountyId":"20246720","CityId":"20246730","AddressId":"710707696","RoadLinkId":"59916816"}}},{"Relevance":1.0,"Distance":60.8,"MatchLevel":"houseNumber","MatchQuality":{"Country":1.0,"State":1.0,"County":1.0,"City":1.0,"Street":[1.0],"HouseNumber":1.0,"PostalCode":1.0},"MatchType":"interpolated","Location":{"LocationId":"NT_z8tb6flo5A9wyQBdYBavaB_3ED","LocationType":"point","DisplayPosition":{"Latitude":37.49211,"Longitude":14.04453},"MapView":{"TopLeft":{"Latitude":37.4932342,"Longitude":14.0431132},"BottomRight":{"Latitude":37.4909858,"Longitude":14.0459468}},"Address":{"Label":"Via Malta, 71, 93100 Caltanissetta CL, Italia","Country":"ITA","State":"Sicilia","County":"CL","City":"Caltanissetta","Street":"Via Malta","HouseNumber":"71","PostalCode":"93100","AdditionalData":[{"value":"Italia","key":"CountryName"},{"value":"Sicilia","key":"StateName"},{"value":"Caltanissetta","key":"CountyName"}]},"MapReference":{"ReferenceId":"540411133","Spot":0.99,"SideOfStreet":"left","CountryId":"20110484","StateId":"20126201","CountyId":"20246720","CityId":"20246730","AddressId":"710703119","RoadLinkId":"59945179"}}},{"Relevance":1.0,"Distance":61.7,"MatchLevel":"street","MatchQuality":{"Country":1.0,"State":1.0,"County":1.0,"City":1.0,"Street":[1.0],"PostalCode":1.0},"Location":{"LocationId":"NT_o-Y8eiTdQEesOqs67cXNdD_l_540410094_L","LocationType":"point","DisplayPosition":{"Latitude":37.4921007,"Longitude":14.0445413},"MapView":{"TopLeft":{"Latitude":37.49211,"Longitude":14.04454},"BottomRight":{"Latitude":37.49183,"Longitude":14.04458}},"Address":{"Label":"Via Luigi Sagona, 93100 Caltanissetta CL, Italia","Country":"ITA","State":"Sicilia","County":"CL","City":"Caltanissetta","Street":"Via Luigi Sagona","PostalCode":"93100","AdditionalData":[{"value":"Italia","key":"CountryName"},{"value":"Sicilia","key":"StateName"},{"value":"Caltanissetta","key":"CountyName"}]},"MapReference":{"ReferenceId":"540410094","Spot":0.97,"SideOfStreet":"left","CountryId":"20110484","StateId":"20126201","CountyId":"20246720","CityId":"20246730"}}}]}]}}