{"Response":{"MetaInfo":{"Timestamp":"2020-03-28T11:27:13.975+0000","NextPageInformation":"2"},"View":[{"_type":"SearchResultsViewType","ViewId":0,"Result":[{"Relevance":1.0,"Distance":-3774.3,"MatchLevel":"landmark","MatchQuality":{"Country":1.0,"State":1.0,"Name":1.0},"Location":{"LocationId":"NT_WbRHZaUNmJdoEGyLvAjbjA","LocationType":"island","Name":"Sicilia","DisplayPosition":{"Latitude":37.4742,"Longitude":14.13844},"MapView":{"TopLeft":{"Latitude":38.30149,"Longitude":12.42414},"BottomRight":{"Latitude":36.6469,"Longitude":15.65312}},"Address":{"Label":"Italia","Country":"ITA","State":"Sicilia","AdditionalData":[{"value":"Italia","key":"CountryName"},{"value":"Sicilia","key":"StateName"}]},"MapReference":{"CountryId":"20110484","StateId":"20126201","PlaceId":"82846424"}}},{"Relevance":1.0,"Distance":0.0,"Direction":0.0,"MatchLevel":"district","MatchQuality":{"Country":1.0,"State":1.0,"County":1.0,"City":1.0,"District":1.0,"PostalCode":1.0},"Location":{"LocationId":"NT_VXT7Wtf3KqPQjtHgIKJiHC","LocationType":"point","DisplayPosition":{"Latitude":37.4810607,"Longitude":15.0429239},"MapView":{"TopLeft":{"Latitude":37.5011,"Longitude":14.93587},"BottomRight":{"Latitude":37.37278,"Longitude":15.06618}},"Address":{"Label":"San Giorgio-Librino, Catania, Sicilia, Italia","Country":"ITA","State":"Sicilia","County":"CT","City":"Catania","District":"San Giorgio-Librino","PostalCode":"95121","AdditionalData":[{"value":"Italia","key":"CountryName"},{"value":"Sicilia","key":"StateName"},{"value":"Catania","key":"CountyName"}]},"MapReference":{"ReferenceId":"850263539","SideOfStreet":"neither","CountryId":"20110484","StateId":"20126201","CountyId":"20246855","CityId":"20246907"}}},{"Relevance":1.0,"Distance":9.4,"MatchLevel":"street","MatchQuality":{"Country":1.0,"State":1.0,"County":1.0,"City":1.0,"District":1.0,"Street":[1.0],"PostalCode":1.0},"Location":{"LocationId":"NT_uJ8wXbqs584FX0pMdvKFHC_l_1191132706_L","LocationType":"point","DisplayPosition":{"Latitude":37.4809882,"Longitude":15.0429785},"MapView":{"TopLeft":{"Latitude":37.48127,"Longitude":15.04233},"BottomRight":{"Latitude":37.4805,"Longitude":15.04332}},"Address":{"Label":"Viale Carlo Azeglio Ciampi, 95121 Catania CT, Italia","Country":"ITA","State":"Sicilia","County":"CT","City":"Catania","District":"San Giorgio-Librino","Street":"Viale Carlo Azeglio Ciampi","PostalCode":"95121","AdditionalData":[{"value":"Italia","key":"CountryName"},{"value":"Sicilia","key":"StateName"},{"value":"Catania","key":"CountyName"}]},"MapReference":{"ReferenceId":"1191132706","Spot":0.65,"SideOfStreet":"left","CountryId":"20110484","StateId":"20126201","CountyId":"20246855","CityId":"20246907"}}},{"Relevance":1.0,"Distance":18.2,"MatchLevel":"street","MatchQuality":{"Country":1.0,"State":1.0,"County":1.0,"City":1.0,"District":1.0,"Street":[1.0],"PostalCode":1.0},"Location":{"LocationId":"NT_uJ8wXbqs584FX0pMdvKFHC_l_1191132707_L","LocationType":"point","DisplayPosition":{"Latitude":37.4809188,"Longitude":15.0430271},"MapView":{"TopLeft":{"Latitude":37.48118,"Longitude":15.04241},"BottomRight":{"Latitude":37.4804,"Longitude":15.04342}},"Address":{"Label":"Viale Carlo Azeglio Ciampi, 95121 Catania CT, Italia","Country":"ITA","State":"Sicilia","County":"CT","City":"Catania","District":"San Giorgio-Librino","Street":"Viale Carlo Azeglio Ciampi","PostalCode":"95121","AdditionalData":[{"value":"Italia","key":"CountryName"},{"value":"Sicilia","key":"StateName"},{"value":"Catania","key":"CountyName"}]},"MapReference":{"ReferenceId":"1191132707","Spot":0.63,"SideOfStreet":"left","CountryId":"20110484","StateId":"20126201","CountyId":"20246855","CityId":"20246907"}}},{"Relevance":1.0,"Distance":42.0,"MatchLevel":"street","MatchQuality":{"Country":1.0,"State":1.0,"County":1.0,"City":1.0,"District":1.0,"PostalCode":1.0},"Location":{"LocationId":"NT_yRohYIOBjZtsR5u99neltB_l_1191132720_L","LocationType":"point","DisplayPosition":{"Latitude":37.48127,"Longitude":15.04332},"MapView":{"TopLeft":{"Latitude":37.48137,"Longitude":15.0433},"BottomRight":{"Latitude":37.48127,"Longitude":15.04332}},"Address":{"Label":"95121 Catania CT, Italia","Country":"ITA","State":"Sicilia","County":"CT","City":"Catania","District":"San Giorgio-Librino","PostalCode":"95121","AdditionalData":[{"value":"Italia","key":"CountryName"},{"value":"Sicilia","key":"StateName"},{"value":"Catania","key":"CountyName"}]},"MapReference":{"ReferenceId":"1191132720","Spot":0.0,"SideOfStreet":"left","CountryId":"20110484","StateId":"20126201","CountyId":"20246855","CityId":"20246907"}}},{"Relevance":1.0,"Distance":42.0,"MatchLevel":"street","MatchQuality":{"Country":1.0,"State":1.0,"County":1.0,"City":1.0,"District":1.0,"PostalCode":1.0},"Location":{"LocationId":"NT_yRohYIOBjZtsR5u99neltB_l_1191132722_L","LocationType":"point","DisplayPosition":{"Latitude":37.48127,"Longitude":15.04332},"MapView":{"TopLeft":{"Latitude":37.48127,"Longitude":15.04332},"BottomRight":{"Latitude":37.48118,"Longitude":15.04342}},"Address":{"Label":"95121 Catania CT, Italia","Country":"ITA","State":"Sicilia","County":"CT","City":"Catania","District":"San Giorgio-Librino","PostalCode":"95121","AdditionalData":[{"value":"Italia","key":"CountryName"},{"value":"Sicilia","key":"StateName"},{"value":"Catania","key":"CountyName"}]},"MapReference":{"ReferenceId":"1191132722","Spot":1.0,"SideOfStreet":"left","CountryId":"20110484","StateId":"20126201","CountyId":"20246855","CityId":"20246907"}}},{"Relevance":1.0,"Distance":45.7,"MatchLevel":"street","MatchQuality":{"Country":1.0,"State":1.0,"County":1.0,"City":1.0,"District":1.0,"PostalCode":1.0},"Location":{"LocationId":"NT_yRohYIOBjZtsR5u99neltB_l_1191132721_L","LocationType":"point","DisplayPosition":{"Latitude":37.48118,"Longitude":15.04342},"MapView":{"TopLeft":{"Latitude":37.48118,"Longitude":15.04342},"BottomRight":{"Latitude":37.48116,"Longitude":15.04365}},"Address":{"Label":"95121 Catania CT, Italia","Country":"ITA","State":"Sicilia","County":"CT","City":"Catania","District":"San Giorgio-Librino","PostalCode":"95121","AdditionalData":[{"value":"Italia","key":"CountryName"},{"value":"Sicilia","key":"StateName"},{"value":"Catania","key":"CountyName"}]},"MapReference":{"ReferenceId":"1191132721","Spot":1.0,"SideOfStreet":"left","CountryId":"20110484","StateId":"20126201","CountyId":"20246855","CityId":"20246907"}}},{"Relevance":1.0,"Distance":47.6,"MatchLevel":"street","MatchQuality":{"Country":1.0,"State":1.0,"County":1.0,"City":1.0,"District":1.0,"Street":[1.0],"PostalCode":1.0},"Location":{"LocationId":"NT_uJ8wXbqs584FX0pMdvKFHC_l_750161595_L","LocationType":"point","DisplayPosition":{"Latitude":37.4814586,"Longitude":15.0431228},"MapView":{"TopLeft":{"Latitude":37.48147,"Longitude":15.0431},"BottomRight":{"Latitude":37.48137,"Longitude":15.0433}},"Address":{"Label":"Circonvallazione Librino Ovest, 95121 Catania CT, Italia","Country":"ITA","State":"Sicilia","County":"CT","City":"Catania","District":"San Giorgio-Librino","Street":"Circonvallazione Librino Ovest","PostalCode":"95121","AdditionalData":[{"value":"Italia","key":"CountryName"},{"value":"Sicilia","key":"StateName"},{"value":"Catania","key":"CountyName"}]},"MapReference":{"ReferenceId":"750161595","Spot":0.89,"SideOfStreet":"left","CountryId":"20110484","StateId":"20126201","CountyId":"20246855","CityId":"20246907"}}},{"Relevance":1.0,"Distance":47.8,"MatchLevel":"street","MatchQuality":{"Country":1.0,"State":1.0,"County":1.0,"City":1.0,"District":1.0,"PostalCode":1.0},"Location":{"LocationId":"NT_yRohYIOBjZtsR5u99neltB_l_750161593_L","LocationType":"point","DisplayPosition":{"Latitude":37.48137,"Longitude":15.0433},"MapView":{"TopLeft":{"Latitude":37.48149,"Longitude":15.0433},"BottomRight":{"Latitude":37.48137,"Longitude":15.04336}},"Address":{"Label":"95121 Catania CT, Italia","Country":"ITA","State":"Sicilia","County":"CT","City":"Catania","District":"San Giorgio-Librino","PostalCode":"95121","AdditionalData":[{"value":"Italia","key":"CountryName"},{"value":"Sicilia","key":"StateName"},{"value":"Catania","key":"CountyName"}]},"MapReference":{"ReferenceId":"750161593","Spot":0.0,"SideOfStreet":"left","CountryId":"20110484","StateId":"20126201","CountyId":"20246855","CityId":"20246907"}}},{"Relevance":1.0,"Distance":48.1,"MatchLevel":"street","MatchQuality":{"Country":1.0,"State":1.0,"County":1.0,"City":1.0,"District":1.0,"Street":[1.0],"PostalCode":1.0},"Location":{"LocationId":"NT_uJ8wXbqs584FX0pMdvKFHC_l_750161596_L","LocationType":"point","DisplayPosition":{"Latitude":37.48147,"Longitude":15.0431},"MapView":{"TopLeft":{"Latitude":37.48565,"Longitude":15.03767},"BottomRight":{"Latitude":37.48147,"Longitude":15.0431}},"Address":{"Label":"Circonvallazione Librino Ovest, 95121 Catania CT, Italia","Country":"ITA","State":"Sicilia","County":"CT","City":"Catania","District":"San Giorgio-Librino","Street":"Circonvallazione Librino Ovest","PostalCode":"95121","AdditionalData":[{"value":"Italia","key":"CountryName"},{"value":"Sicilia","key":"StateName"},{"value":"Catania","key":"CountyName"}]},"MapReference":{"ReferenceId":"750161596","Spot":0.0,"SideOfStreet":"left","CountryId":"20110484","StateId":"20126201","CountyId":"20246855","CityId":"20246907"}}}]}]}}