{"Response":{"MetaInfo":{"Timestamp":"2020-03-28T11:46:16.188+0000","NextPageInformation":"2"},"View":[{"_type":"SearchResultsViewType","ViewId":0,"Result":[{"Relevance":1.0,"Distance":0.0,"Direction":0.0,"MatchLevel":"district","MatchQuality":{"Country":1.0,"State":1.0,"County":1.0,"City":1.0,"District":1.0,"PostalCode":1.0},"Location":{"LocationId":"NT_M0xueI1QztU444NB6eqP1D","LocationType":"point","DisplayPosition":{"Latitude":37.4848352,"Longitude":-5.9474306},"MapView":{"TopLeft":{"Latitude":37.49761,"Longitude":-5.95719},"BottomRight":{"Latitude":37.47251,"Longitude":-5.92328}},"Address":{"Label":"San José de la Rinconada, La Rinconada, Andalucía, España","Country":"ESP","State":"Andalucía","County":"Sevilla","City":"La Rinconada","District":"San José de la Rinconada","PostalCode":"41300","AdditionalData":[{"value":"España","key":"CountryName"},{"value":"Andalucía","key":"StateName"},{"value":"Sevilla","key":"CountyName"}]},"MapReference":{"ReferenceId":"1003474680","SideOfStreet":"neither","CountryId":"20215059","StateId":"20221885","CountyId":"20221893","CityId":"20236501","DistrictId":"20236508"}}},{"Relevance":1.0,"Distance":7.4,"MatchLevel":"houseNumber","MatchQuality":{"Country":1.0,"State":1.0,"County":1.0,"City":1.0,"District":1.0,"Street":[1.0],"HouseNumber":1.0,"PostalCode":1.0},"MatchType":"interpolated","Location":{"LocationId":"NT_HFihx5smBql8yO5l4MtSfC_4kD","LocationType":"point","DisplayPosition":{"Latitude":37.4848,"Longitude":-5.94736},"MapView":{"TopLeft":{"Latitude":37.4859242,"Longitude":-5.9487767},"BottomRight":{"Latitude":37.4836758,"Longitude":-5.9459433}},"Address":{"Label":"Calle Alberto Lista, 89, 41300 La Rinconada (Sevilla), España","Country":"ESP","State":"Andalucía","County":"Sevilla","City":"La Rinconada","District":"San José de la Rinconada","Street":"Calle Alberto Lista","HouseNumber":"89","PostalCode":"41300","AdditionalData":[{"value":"España","key":"CountryName"},{"value":"Andalucía","key":"StateName"},{"value":"Sevilla","key":"CountyName"}]},"MapReference":{"ReferenceId":"944961720","Spot":0.06,"SideOfStreet":"left","CountryId":"20215059","StateId":"20221885","CountyId":"20221893","CityId":"20236501","DistrictId":"20236508","AddressId":"347491547","RoadLinkId":"293495411"}}},{"Relevance":1.0,"Distance":8.0,"MatchLevel":"houseNumber","MatchQuality":{"Country":1.0,"State":1.0,"County":1.0,"City":1.0,"District":1.0,"Street":[1.0],"HouseNumber":1.0,"PostalCode":1.0},"MatchType":"interpolated","Location":{"LocationId":"NT_8HnkC8YxX4oNfTFzM6fLGB_xID","LocationType":"point","DisplayPosition":{"Latitude":37.48479,"Longitude":-5.94736},"MapView":{"TopLeft":{"Latitude":37.4859142,"Longitude":-5.9487767},"BottomRight":{"Latitude":37.4836658,"Longitude":-5.9459433}},"Address":{"Label":"Plaza Azorín, 12, 41300 La Rinconada (Sevilla), España","Country":"ESP","State":"Andalucía","County":"Sevilla","City":"La Rinconada","District":"San José de la Rinconada","Street":"Plaza Azorín","HouseNumber":"12","PostalCode":"41300","AdditionalData":[{"value":"España","key":"CountryName"},{"value":"Andalucía","key":"StateName"},{"value":"Sevilla","key":"CountyName"}]},"MapReference":{"ReferenceId":"539579533","Spot":0.0,"SideOfStreet":"left","CountryId":"20215059","StateId":"20221885","CountyId":"20221893","CityId":"20236501","DistrictId":"20236508","AddressId":"347424658","RoadLinkId":"67683317"}}},{"Relevance":1.0,"Distance":18.7,"MatchLevel":"houseNumber","MatchQuality":{"Country":1.0,"State":1.0,"County":1.0,"City":1.0,"District":1.0,"Street":[1.0],"HouseNumber":1.0,"PostalCode":1.0},"MatchType":"interpolated","Location":{"LocationId":"NT_HFihx5smBql8yO5l4MtSfC_5MD","LocationType":"point","DisplayPosition":{"Latitude":37.48469,"Longitude":-5.9473},"MapView":{"TopLeft":{"Latitude":37.4858142,"Longitude":-5.9487167},"BottomRight":{"Latitude":37.4835658,"Longitude":-5.9458833}},"Address":{"Label":"Calle Alberto Lista, 93, 41300 La Rinconada (Sevilla), España","Country":"ESP","State":"Andalucía","County":"Sevilla","City":"La Rinconada","District":"San José de la Rinconada","Street":"Calle Alberto Lista","HouseNumber":"93","PostalCode":"41300","AdditionalData":[{"value":"España","key":"CountryName"},{"value":"Andalucía","key":"StateName"},{"value":"Sevilla","key":"CountyName"}]},"MapReference":{"ReferenceId":"944961719","Spot":0.79,"SideOfStreet":"left","CountryId":"20215059","StateId":"20221885","CountyId":"20221893","CityId":"20236501","DistrictId":"20236508","AddressId":"347491585","RoadLinkId":"293495410"}}},{"Relevance":1.0,"Distance":23.2,"MatchLevel":"houseNumber","MatchQuality":{"Country":1.0,"State":1.0,"County":1.0,"City":1.0,"District":1.0,"Street":[1.0],"HouseNumber":1.0,"PostalCode":1.0},"MatchType":"interpolated","Location":{"LocationId":"NT_HFihx5smBql8yO5l4MtSfC_l_539579527_L_5ED","LocationType":"point","DisplayPosition":{"Latitude":37.48504,"Longitude":-5.947482},"MapView":{"TopLeft":{"Latitude":37.4861641,"Longitude":-5.9488987},"BottomRight":{"Latitude":37.4839158,"Longitude":-5.9460653}},"Address":{"Label":"Calle Alberto Lista, 91, 41300 La Rinconada (Sevilla), España","Country":"ESP","State":"Andalucía","County":"Sevilla","City":"La Rinconada","District":"San José de la Rinconada","Street":"Calle Alberto Lista","HouseNumber":"91","PostalCode":"41300","AdditionalData":[{"value":"España","key":"CountryName"},{"value":"Andalucía","key":"StateName"},{"value":"Sevilla","key":"CountyName"}]},"MapReference":{"ReferenceId":"539579527","Spot":0.52,"SideOfStreet":"left","CountryId":"20215059","StateId":"20221885","CountyId":"20221893","CityId":"20236501","DistrictId":"20236508"}}},{"Relevance":1.0,"Distance":32.5,"MatchLevel":"houseNumber","MatchQuality":{"Country":1.0,"State":1.0,"County":1.0,"City":1.0,"District":1.0,"Street":[1.0],"HouseNumber":1.0,"PostalCode":1.0},"MatchType":"interpolated","Location":{"LocationId":"NT_X9TzyaS96QlxfEebo4QhFA_xIjN","LocationType":"point","DisplayPosition":{"Latitude":37.48467,"Longitude":-5.94779},"MapView":{"TopLeft":{"Latitude":37.4857942,"Longitude":-5.9492067},"BottomRight":{"Latitude":37.4835458,"Longitude":-5.9463733}},"Address":{"Label":"Plaza Alonso Cano, 126, 41300 La Rinconada (Sevilla), España","Country":"ESP","State":"Andalucía","County":"Sevilla","City":"La Rinconada","District":"San José de la Rinconada","Street":"Plaza Alonso Cano","HouseNumber":"126","PostalCode":"41300","AdditionalData":[{"value":"España","key":"CountryName"},{"value":"Andalucía","key":"StateName"},{"value":"Sevilla","key":"CountyName"}]},"MapReference":{"ReferenceId":"1192677665","Spot":0.45,"SideOfStreet":"right","CountryId":"20215059","StateId":"20221885","CountyId":"20221893","CityId":"20236501","DistrictId":"20236508","AddressId":"347491593","RoadLinkId":"502386696"}}},{"Relevance":1.0,"Distance":36.7,"MatchLevel":"houseNumber","MatchQuality":{"Country":1.0,"State":1.0,"County":1.0,"City":1.0,"District":1.0,"Street":[1.0],"HouseNumber":1.0,"PostalCode":1.0},"MatchType":"interpolated","Location":{"LocationId":"NT_jWadlXDS7ugiUpIHdt-KFC_yA","LocationType":"point","DisplayPosition":{"Latitude":37.48527,"Longitude":-5.94724},"MapView":{"TopLeft":{"Latitude":37.4863942,"Longitude":-5.9486567},"BottomRight":{"Latitude":37.4841458,"Longitude":-5.9458233}},"Address":{"Label":"Calle Maese Rodrigo, 2, 41300 La Rinconada (Sevilla), España","Country":"ESP","State":"Andalucía","County":"Sevilla","City":"La Rinconada","District":"San José de la Rinconada","Street":"Calle Maese Rodrigo","HouseNumber":"2","PostalCode":"41300","AdditionalData":[{"value":"España","key":"CountryName"},{"value":"Andalucía","key":"StateName"},{"value":"Sevilla","key":"CountyName"}]},"MapReference":{"ReferenceId":"539579530","Spot":0.21,"SideOfStreet":"right","CountryId":"20215059","StateId":"20221885","CountyId":"20221893","CityId":"20236501","DistrictId":"20236508","AddressId":"347581874","RoadLinkId":"66955322"}}},{"Relevance":1.0,"Distance":49.5,"MatchLevel":"houseNumber","MatchQuality":{"Country":1.0,"State":1.0,"County":1.0,"City":1.0,"District":1.0,"Street":[1.0],"HouseNumber":1.0,"PostalCode":1.0},"MatchType":"interpolated","Location":{"LocationId":"NT_HFihx5smBql8yO5l4MtSfC_5ED","LocationType":"point","DisplayPosition":{"Latitude":37.48526,"Longitude":-5.9476},"MapView":{"TopLeft":{"Latitude":37.4863842,"Longitude":-5.9490167},"BottomRight":{"Latitude":37.4841358,"Longitude":-5.9461833}},"Address":{"Label":"Calle Alberto Lista, 91, 41300 La Rinconada (Sevilla), España","Country":"ESP","State":"Andalucía","County":"Sevilla","City":"La Rinconada","District":"San José de la Rinconada","Street":"Calle Alberto Lista","HouseNumber":"91","PostalCode":"41300","AdditionalData":[{"value":"España","key":"CountryName"},{"value":"Andalucía","key":"StateName"},{"value":"Sevilla","key":"CountyName"}]},"MapReference":{"ReferenceId":"539579529","Spot":0.16,"SideOfStreet":"left","CountryId":"20215059","StateId":"20221885","CountyId":"20221893","CityId":"20236501","DistrictId":"20236508","AddressId":"347242521","RoadLinkId":"67452825"}}},{"Relevance":1.0,"Distance":57.3,"MatchLevel":"houseNumber","MatchQuality":{"Country":1.0,"State":1.0,"County":1.0,"City":1.0,"District":1.0,"Street":[1.0],"HouseNumber":1.0,"PostalCode":1.0},"MatchType":"interpolated","Location":{"LocationId":"NT_X9TzyaS96QlxfEebo4QhFA_xADN","LocationType":"point","DisplayPosition":{"Latitude":37.48422,"Longitude":-5.94755},"MapView":{"TopLeft":{"Latitude":37.4853442,"Longitude":-5.9489667},"BottomRight":{"Latitude":37.4830958,"Longitude":-5.9461333}},"Address":{"Label":"Plaza Alonso Cano, 104, 41300 La Rinconada (Sevilla), España","Country":"ESP","State":"Andalucía","County":"Sevilla","City":"La Rinconada","District":"San José de la Rinconada","Street":"Plaza Alonso Cano","HouseNumber":"104","PostalCode":"41300","AdditionalData":[{"value":"España","key":"CountryName"},{"value":"Andalucía","key":"StateName"},{"value":"Sevilla","key":"CountyName"}]},"MapReference":{"ReferenceId":"1192677664","Spot":0.48,"SideOfStreet":"right","CountryId":"20215059","StateId":"20221885","CountyId":"20221893","CityId":"20236501","DistrictId":"20236508","AddressId":"347491578","RoadLinkId":"502386695"}}},{"Relevance":1.0,"Distance":63.3,"MatchLevel":"street","MatchQuality":{"Country":1.0,"State":1.0,"County":1.0,"City":1.0,"District":1.0,"PostalCode":1.0},"Location":{"LocationId":"NT_z3Wm0jqzWS39glHVtDu00A_l_1192952828_L","LocationType":"point","DisplayPosition":{"Latitude":37.48428,"Longitude":-5.94759},"MapView":{"TopLeft":{"Latitude":37.48428,"Longitude":-5.94822},"BottomRight":{"Latitude":37.48394,"Longitude":-5.94759}},"Address":{"Label":"41300 La Rinconada (Sevilla), España","Country":"ESP","State":"Andalucía","County":"Sevilla","City":"La Rinconada","District":"San José de la Rinconada","PostalCode":"41300","AdditionalData":[{"value":"España","key":"CountryName"},{"value":"Andalucía","key":"StateName"},{"value":"Sevilla","key":"CountyName"}]},"MapReference":{"ReferenceId":"1192952828","Spot":1.0,"SideOfStreet":"left","CountryId":"20215059","StateId":"20221885","CountyId":"20221893","CityId":"20236501","DistrictId":"20236508"}}}]}]}}