{"Response":{"MetaInfo":{"Timestamp":"2020-03-28T10:26:22.138+0000","NextPageInformation":"2"},"View":[{"_type":"SearchResultsViewType","ViewId":0,"Result":[{"Relevance":1.0,"Distance":0.0,"Direction":0.0,"MatchLevel":"city","MatchQuality":{"Country":1.0,"State":1.0,"County":1.0,"City":1.0,"PostalCode":1.0},"Location":{"LocationId":"NT_1BMkypJVPxi2dyfkpSZGMB","LocationType":"point","DisplayPosition":{"Latitude":37.5735695,"Longitude":-6.7485774},"MapView":{"TopLeft":{"Latitude":37.63127,"Longitude":-6.86199},"BottomRight":{"Latitude":37.49539,"Longitude":-6.58041}},"Address":{"Label":"Valverde del Camino, Andalucía, España","Country":"ESP","State":"Andalucía","County":"Huelva","City":"Valverde del Camino","PostalCode":"21600","AdditionalData":[{"value":"España","key":"CountryName"},{"value":"Andalucía","key":"StateName"},{"value":"Huelva","key":"CountyName"}]},"MapReference":{"ReferenceId":"1212570152","SideOfStreet":"neither","CountryId":"20215059","StateId":"20221885","CountyId":"20221890","CityId":"20235307"}}},{"Relevance":1.0,"Distance":8.5,"MatchLevel":"street","MatchQuality":{"Country":1.0,"State":1.0,"County":1.0,"City":1.0,"Street":[1.0],"PostalCode":1.0},"Location":{"LocationId":"NT_5.vTp-e6rAV0hEaR0j0shA_l_560957858_R","LocationType":"point","DisplayPosition":{"Latitude":37.5735483,"Longitude":-6.7486705},"MapView":{"TopLeft":{"Latitude":37.57359,"Longitude":-6.74868},"BottomRight":{"Latitude":37.57315,"Longitude":-6.74858}},"Address":{"Label":"Calle Doctor Marañón, 21600 Valverde del Camino (Huelva), España","Country":"ESP","State":"Andalucía","County":"Huelva","City":"Valverde del Camino","Street":"Calle Doctor Marañón","PostalCode":"21600","AdditionalData":[{"value":"España","key":"CountryName"},{"value":"Andalucía","key":"StateName"},{"value":"Huelva","key":"CountyName"}]},"MapReference":{"ReferenceId":"560957858","Spot":0.91,"SideOfStreet":"right","CountryId":"20215059","StateId":"20221885","CountyId":"20221890","CityId":"20235307"}}},{"Relevance":1.0,"Distance":15.1,"MatchLevel":"houseNumber","MatchQuality":{"Country":1.0,"State":1.0,"County":1.0,"City":1.0,"Street":[1.0],"HouseNumber":1.0,"PostalCode":1.0},"MatchType":"interpolated","Location":{"LocationId":"NT_RJxUdLMo2qyxFQGQmGnkXC_zAD","LocationType":"point","DisplayPosition":{"Latitude":37.57363,"Longitude":-6.74841},"MapView":{"TopLeft":{"Latitude":37.5747542,"Longitude":-6.7498284},"BottomRight":{"Latitude":37.5725058,"Longitude":-6.7469916}},"Address":{"Label":"Calle Doctor Ochoa, 30, 21600 Valverde del Camino (Huelva), España","Country":"ESP","State":"Andalucía","County":"Huelva","City":"Valverde del Camino","Street":"Calle Doctor Ochoa","HouseNumber":"30","PostalCode":"21600","AdditionalData":[{"value":"España","key":"CountryName"},{"value":"Andalucía","key":"StateName"},{"value":"Huelva","key":"CountyName"}]},"MapReference":{"ReferenceId":"560956097","Spot":0.53,"SideOfStreet":"right","CountryId":"20215059","StateId":"20221885","CountyId":"20221890","CityId":"20235307","AddressId":"347270864","RoadLinkId":"66837786"}}},{"Relevance":1.0,"Distance":17.2,"MatchLevel":"houseNumber","MatchQuality":{"Country":1.0,"State":1.0,"County":1.0,"City":1.0,"Street":[1.0],"HouseNumber":1.0,"PostalCode":1.0},"MatchType":"interpolated","Location":{"LocationId":"NT_5.vTp-e6rAV0hEaR0j0shA_yMD","LocationType":"point","DisplayPosition":{"Latitude":37.5737,"Longitude":-6.7487},"MapView":{"TopLeft":{"Latitude":37.5748242,"Longitude":-6.7501184},"BottomRight":{"Latitude":37.5725758,"Longitude":-6.7472816}},"Address":{"Label":"Calle Doctor Marañón, 23, 21600 Valverde del Camino (Huelva), España","Country":"ESP","State":"Andalucía","County":"Huelva","City":"Valverde del Camino","Street":"Calle Doctor Marañón","HouseNumber":"23","PostalCode":"21600","AdditionalData":[{"value":"España","key":"CountryName"},{"value":"Andalucía","key":"StateName"},{"value":"Huelva","key":"CountyName"}]},"MapReference":{"ReferenceId":"560956098","Spot":0.12,"SideOfStreet":"right","CountryId":"20215059","StateId":"20221885","CountyId":"20221890","CityId":"20235307","AddressId":"347786867","RoadLinkId":"66788025"}}},{"Relevance":1.0,"Distance":35.7,"MatchLevel":"houseNumber","MatchQuality":{"Country":1.0,"State":1.0,"County":1.0,"City":1.0,"Street":[1.0],"HouseNumber":1.0,"PostalCode":1.0},"MatchType":"interpolated","Location":{"LocationId":"NT_4PKXyGk3Jw2-ONoU6sauHB_xMD","LocationType":"point","DisplayPosition":{"Latitude":37.57349,"Longitude":-6.74897},"MapView":{"TopLeft":{"Latitude":37.5746142,"Longitude":-6.7503884},"BottomRight":{"Latitude":37.5723658,"Longitude":-6.7475516}},"Address":{"Label":"Plaza de la Constitución, 13, 21600 Valverde del Camino (Huelva), España","Country":"ESP","State":"Andalucía","County":"Huelva","City":"Valverde del Camino","Street":"Plaza de la Constitución","HouseNumber":"13","PostalCode":"21600","AdditionalData":[{"value":"España","key":"CountryName"},{"value":"Andalucía","key":"StateName"},{"value":"Huelva","key":"CountyName"}]},"MapReference":{"ReferenceId":"564238237","Spot":0.45,"SideOfStreet":"left","CountryId":"20215059","StateId":"20221885","CountyId":"20221890","CityId":"20235307","AddressId":"347461801","RoadLinkId":"66789125"}}},{"Relevance":1.0,"Distance":37.9,"MatchLevel":"houseNumber","MatchQuality":{"Country":1.0,"State":1.0,"County":1.0,"City":1.0,"Street":[1.0],"HouseNumber":1.0,"PostalCode":1.0},"MatchType":"interpolated","Location":{"LocationId":"NT_RJxUdLMo2qyxFQGQmGnkXC_4A","LocationType":"point","DisplayPosition":{"Latitude":37.57361,"Longitude":-6.74815},"MapView":{"TopLeft":{"Latitude":37.5747342,"Longitude":-6.7495684},"BottomRight":{"Latitude":37.5724858,"Longitude":-6.7467316}},"Address":{"Label":"Calle Doctor Ochoa, 8, 21600 Valverde del Camino (Huelva), España","Country":"ESP","State":"Andalucía","County":"Huelva","City":"Valverde del Camino","Street":"Calle Doctor Ochoa","HouseNumber":"8","PostalCode":"21600","AdditionalData":[{"value":"España","key":"CountryName"},{"value":"Andalucía","key":"StateName"},{"value":"Huelva","key":"CountyName"}]},"MapReference":{"ReferenceId":"560957850","Spot":0.93,"SideOfStreet":"right","CountryId":"20215059","StateId":"20221885","CountyId":"20221890","CityId":"20235307","AddressId":"347341362","RoadLinkId":"66737092"}}},{"Relevance":1.0,"Distance":44.7,"MatchLevel":"houseNumber","MatchQuality":{"Country":1.0,"State":1.0,"County":1.0,"City":1.0,"Street":[1.0],"HouseNumber":1.0,"PostalCode":1.0},"MatchType":"interpolated","Location":{"LocationId":"NT_RJxUdLMo2qyxFQGQmGnkXC_3A","LocationType":"point","DisplayPosition":{"Latitude":37.57368,"Longitude":-6.74809},"MapView":{"TopLeft":{"Latitude":37.5748042,"Longitude":-6.7495084},"BottomRight":{"Latitude":37.5725558,"Longitude":-6.7466716}},"Address":{"Label":"Calle Doctor Ochoa, 7, 21600 Valverde del Camino (Huelva), España","Country":"ESP","State":"Andalucía","County":"Huelva","City":"Valverde del Camino","Street":"Calle Doctor Ochoa","HouseNumber":"7","PostalCode":"21600","AdditionalData":[{"value":"España","key":"CountryName"},{"value":"Andalucía","key":"StateName"},{"value":"Huelva","key":"CountyName"}]},"MapReference":{"ReferenceId":"560956096","Spot":0.16,"SideOfStreet":"left","CountryId":"20215059","StateId":"20221885","CountyId":"20221890","CityId":"20235307","AddressId":"347324082","RoadLinkId":"66802888"}}},{"Relevance":1.0,"Distance":46.6,"MatchLevel":"street","MatchQuality":{"Country":1.0,"State":1.0,"County":1.0,"City":1.0,"Street":[1.0],"PostalCode":1.0},"Location":{"LocationId":"NT_4PKXyGk3Jw2-ONoU6sauHB_l_560957875_L","LocationType":"point","DisplayPosition":{"Latitude":37.57315,"Longitude":-6.74858},"MapView":{"TopLeft":{"Latitude":37.57315,"Longitude":-6.74885},"BottomRight":{"Latitude":37.57301,"Longitude":-6.74858}},"Address":{"Label":"Plaza de la Constitución, 21600 Valverde del Camino (Huelva), España","Country":"ESP","State":"Andalucía","County":"Huelva","City":"Valverde del Camino","Street":"Plaza de la Constitución","PostalCode":"21600","AdditionalData":[{"value":"España","key":"CountryName"},{"value":"Andalucía","key":"StateName"},{"value":"Huelva","key":"CountyName"}]},"MapReference":{"ReferenceId":"560957875","Spot":1.0,"SideOfStreet":"left","CountryId":"20215059","StateId":"20221885","CountyId":"20221890","CityId":"20235307"}}},{"Relevance":1.0,"Distance":66.7,"MatchLevel":"street","MatchQuality":{"Country":1.0,"State":1.0,"County":1.0,"City":1.0,"PostalCode":1.0},"Location":{"LocationId":"NT_hP-pDPQRQezyBVodadUnjA_l_1161263109_R","LocationType":"point","DisplayPosition":{"Latitude":37.57301,"Longitude":-6.74885},"MapView":{"TopLeft":{"Latitude":37.57301,"Longitude":-6.74885},"BottomRight":{"Latitude":37.5715,"Longitude":-6.74804}},"Address":{"Label":"21600 Valverde del Camino (Huelva), España","Country":"ESP","State":"Andalucía","County":"Huelva","City":"Valverde del Camino","PostalCode":"21600","AdditionalData":[{"value":"España","key":"CountryName"},{"value":"Andalucía","key":"StateName"},{"value":"Huelva","key":"CountyName"}]},"MapReference":{"ReferenceId":"1161263109","Spot":1.0,"SideOfStreet":"right","CountryId":"20215059","StateId":"20221885","CountyId":"20221890","CityId":"20235307"}}},{"Relevance":1.0,"Distance":76.1,"MatchLevel":"houseNumber","MatchQuality":{"Country":1.0,"State":1.0,"County":1.0,"City":1.0,"Street":[1.0],"HouseNumber":1.0,"PostalCode":1.0},"MatchType":"interpolated","Location":{"LocationId":"NT_GYkmbPnQeHzBzCQTuECjBD_yAD","LocationType":"point","DisplayPosition":{"Latitude":37.57386,"Longitude":-6.7477},"MapView":{"TopLeft":{"Latitude":37.5749842,"Longitude":-6.7491184},"BottomRight":{"Latitude":37.5727358,"Longitude":-6.7462816}},"Address":{"Label":"Calle Diputación, 20, 21600 Valverde del Camino (Huelva), España","Country":"ESP","State":"Andalucía","County":"Huelva","City":"Valverde del Camino","Street":"Calle Diputación","HouseNumber":"20","PostalCode":"21600","AdditionalData":[{"value":"España","key":"CountryName"},{"value":"Andalucía","key":"StateName"},{"value":"Huelva","key":"CountyName"}]},"MapReference":{"ReferenceId":"560956091","Spot":0.11,"SideOfStreet":"left","CountryId":"20215059","StateId":"20221885","CountyId":"20221890","CityId":"20235307","AddressId":"347371865","RoadLinkId":"67271326"}}}]}]}}