{"Response":{"MetaInfo":{"Timestamp":"2020-03-28T09:40:01.003+0000","NextPageInformation":"2"},"View":[{"_type":"SearchResultsViewType","ViewId":0,"Result":[{"Relevance":1.0,"Distance":0.0,"Direction":0.0,"MatchLevel":"city","MatchQuality":{"Country":1.0,"State":1.0,"County":1.0,"City":1.0,"PostalCode":1.0},"Location":{"LocationId":"NT_aVB1aarCG0bzsdSEkLpGDB","LocationType":"point","DisplayPosition":{"Latitude":37.5842046,"Longitude":-5.9671999},"MapView":{"TopLeft":{"Latitude":37.63878,"Longitude":-6.00207},"BottomRight":{"Latitude":37.55662,"Longitude":-5.91858}},"Address":{"Label":"Burguillos, Andalucía, España","Country":"ESP","State":"Andalucía","County":"Sevilla","City":"Burguillos","PostalCode":"41220","AdditionalData":[{"value":"España","key":"CountryName"},{"value":"Andalucía","key":"StateName"},{"value":"Sevilla","key":"CountyName"}]},"MapReference":{"ReferenceId":"1001964708","SideOfStreet":"neither","CountryId":"20215059","StateId":"20221885","CountyId":"20221893","CityId":"20236276"}}},{"Relevance":1.0,"Distance":7.4,"MatchLevel":"houseNumber","MatchQuality":{"Country":1.0,"State":1.0,"County":1.0,"City":1.0,"Street":[1.0],"HouseNumber":1.0,"PostalCode":1.0},"MatchType":"interpolated","Location":{"LocationId":"NT_sz44NlFS3oROsX7SAGbyfC_l_1164922037_L_xA","LocationType":"point","DisplayPosition":{"Latitude":37.584255,"Longitude":-5.96701},"MapView":{"TopLeft":{"Latitude":37.5853792,"Longitude":-5.9684286},"BottomRight":{"Latitude":37.5831309,"Longitude":-5.9655914}},"Address":{"Label":"Calle de la Feria, 1, 41220 Burguillos (Sevilla), España","Country":"ESP","State":"Andalucía","County":"Sevilla","City":"Burguillos","Street":"Calle de la Feria","HouseNumber":"1","PostalCode":"41220","AdditionalData":[{"value":"España","key":"CountryName"},{"value":"Andalucía","key":"StateName"},{"value":"Sevilla","key":"CountyName"}]},"MapReference":{"ReferenceId":"1164922037","Spot":0.49,"SideOfStreet":"left","CountryId":"20215059","StateId":"20221885","CountyId":"20221893","CityId":"20236276"}}},{"Relevance":1.0,"Distance":21.1,"MatchLevel":"street","MatchQuality":{"Country":1.0,"State":1.0,"County":1.0,"City":1.0,"Street":[1.0],"PostalCode":1.0},"Location":{"LocationId":"NT_sz44NlFS3oROsX7SAGbyfC_l_1164922036_L","LocationType":"point","DisplayPosition":{"Latitude":37.58408,"Longitude":-5.96702},"MapView":{"TopLeft":{"Latitude":37.58408,"Longitude":-5.96704},"BottomRight":{"Latitude":37.58375,"Longitude":-5.96702}},"Address":{"Label":"Calle de la Feria, 41220 Burguillos (Sevilla), España","Country":"ESP","State":"Andalucía","County":"Sevilla","City":"Burguillos","Street":"Calle de la Feria","PostalCode":"41220","AdditionalData":[{"value":"España","key":"CountryName"},{"value":"Andalucía","key":"StateName"},{"value":"Sevilla","key":"CountyName"}]},"MapReference":{"ReferenceId":"1164922036","Spot":1.0,"SideOfStreet":"left","CountryId":"20215059","StateId":"20221885","CountyId":"20221893","CityId":"20236276"}}},{"Relevance":1.0,"Distance":21.1,"MatchLevel":"street","MatchQuality":{"Country":1.0,"State":1.0,"County":1.0,"City":1.0,"Street":[1.0],"PostalCode":1.0},"Location":{"LocationId":"NT_5KYEdXA9co-n0BGiN-vaEA_l_1164922035_L","LocationType":"point","DisplayPosition":{"Latitude":37.58408,"Longitude":-5.96702},"MapView":{"TopLeft":{"Latitude":37.58408,"Longitude":-5.96702},"BottomRight":{"Latitude":37.58408,"Longitude":-5.96645}},"Address":{"Label":"Calle Alondra, 41220 Burguillos (Sevilla), España","Country":"ESP","State":"Andalucía","County":"Sevilla","City":"Burguillos","Street":"Calle Alondra","PostalCode":"41220","AdditionalData":[{"value":"España","key":"CountryName"},{"value":"Andalucía","key":"StateName"},{"value":"Sevilla","key":"CountyName"}]},"MapReference":{"ReferenceId":"1164922035","Spot":0.0,"SideOfStreet":"left","CountryId":"20215059","StateId":"20221885","CountyId":"20221893","CityId":"20236276"}}},{"Relevance":1.0,"Distance":24.3,"MatchLevel":"houseNumber","MatchQuality":{"Country":1.0,"State":1.0,"County":1.0,"City":1.0,"Street":[1.0],"HouseNumber":1.0,"PostalCode":1.0},"MatchType":"interpolated","Location":{"LocationId":"NT_SnX2Z924F0GsK4wa8Jg0QD_yA","LocationType":"point","DisplayPosition":{"Latitude":37.58444,"Longitude":-5.96693},"MapView":{"TopLeft":{"Latitude":37.5855642,"Longitude":-5.9683486},"BottomRight":{"Latitude":37.5833158,"Longitude":-5.9655114}},"Address":{"Label":"Calle Marifé de Triana, 2, 41220 Burguillos (Sevilla), España","Country":"ESP","State":"Andalucía","County":"Sevilla","City":"Burguillos","Street":"Calle Marifé de Triana","HouseNumber":"2","PostalCode":"41220","AdditionalData":[{"value":"España","key":"CountryName"},{"value":"Andalucía","key":"StateName"},{"value":"Sevilla","key":"CountyName"}]},"MapReference":{"ReferenceId":"549348282","Spot":0.14,"SideOfStreet":"right","CountryId":"20215059","StateId":"20221885","CountyId":"20221893","CityId":"20236276","AddressId":"404524916","RoadLinkId":"67626698"}}},{"Relevance":1.0,"Distance":24.7,"MatchLevel":"street","MatchQuality":{"Country":1.0,"State":1.0,"County":1.0,"City":1.0,"Street":[1.0],"PostalCode":1.0},"Location":{"LocationId":"NT_SnX2Z924F0GsK4wa8Jg0QD_l_549348273_R","LocationType":"point","DisplayPosition":{"Latitude":37.5844267,"Longitude":-5.9672143},"MapView":{"TopLeft":{"Latitude":37.58444,"Longitude":-5.96778},"BottomRight":{"Latitude":37.58439,"Longitude":-5.96701}},"Address":{"Label":"Calle Marifé de Triana, 41220 Burguillos (Sevilla), España","Country":"ESP","State":"Andalucía","County":"Sevilla","City":"Burguillos","Street":"Calle Marifé de Triana","PostalCode":"41220","AdditionalData":[{"value":"España","key":"CountryName"},{"value":"Andalucía","key":"StateName"},{"value":"Sevilla","key":"CountyName"}]},"MapReference":{"ReferenceId":"549348273","Spot":0.73,"SideOfStreet":"right","CountryId":"20215059","StateId":"20221885","CountyId":"20221893","CityId":"20236276"}}},{"Relevance":1.0,"Distance":31.1,"MatchLevel":"street","MatchQuality":{"Country":1.0,"State":1.0,"County":1.0,"City":1.0,"Street":[1.0],"PostalCode":1.0},"Location":{"LocationId":"NT_sz44NlFS3oROsX7SAGbyfC_l_549348269_L","LocationType":"point","DisplayPosition":{"Latitude":37.58444,"Longitude":-5.96701},"MapView":{"TopLeft":{"Latitude":37.58463,"Longitude":-5.96701},"BottomRight":{"Latitude":37.58444,"Longitude":-5.967}},"Address":{"Label":"Calle de la Feria, 41220 Burguillos (Sevilla), España","Country":"ESP","State":"Andalucía","County":"Sevilla","City":"Burguillos","Street":"Calle de la Feria","PostalCode":"41220","AdditionalData":[{"value":"España","key":"CountryName"},{"value":"Andalucía","key":"StateName"},{"value":"Sevilla","key":"CountyName"}]},"MapReference":{"ReferenceId":"549348269","Spot":0.0,"SideOfStreet":"left","CountryId":"20215059","StateId":"20221885","CountyId":"20221893","CityId":"20236276"}}},{"Relevance":1.0,"Distance":41.6,"MatchLevel":"houseNumber","MatchQuality":{"Country":1.0,"State":1.0,"County":1.0,"City":1.0,"Street":[1.0],"HouseNumber":1.0,"PostalCode":1.0},"MatchType":"interpolated","Location":{"LocationId":"NT_SnX2Z924F0GsK4wa8Jg0QD_2A","LocationType":"point","DisplayPosition":{"Latitude":37.58425,"Longitude":-5.96644},"MapView":{"TopLeft":{"Latitude":37.5853742,"Longitude":-5.9678586},"BottomRight":{"Latitude":37.5831258,"Longitude":-5.9650214}},"Address":{"Label":"Calle Marifé de Triana, 6, 41220 Burguillos (Sevilla), España","Country":"ESP","State":"Andalucía","County":"Sevilla","City":"Burguillos","Street":"Calle Marifé de Triana","HouseNumber":"6","PostalCode":"41220","AdditionalData":[{"value":"España","key":"CountryName"},{"value":"Andalucía","key":"StateName"},{"value":"Sevilla","key":"CountyName"}]},"MapReference":{"ReferenceId":"549348267","Spot":0.56,"SideOfStreet":"left","CountryId":"20215059","StateId":"20221885","CountyId":"20221893","CityId":"20236276","AddressId":"404671933","RoadLinkId":"67132978"}}},{"Relevance":1.0,"Distance":50.4,"MatchLevel":"street","MatchQuality":{"Country":1.0,"State":1.0,"County":1.0,"City":1.0,"Street":[1.0],"PostalCode":1.0},"Location":{"LocationId":"NT_9uyLwZ-xZU3pX3F1k7CN5A_l_1164922038_L","LocationType":"point","DisplayPosition":{"Latitude":37.5837902,"Longitude":-5.9669681},"MapView":{"TopLeft":{"Latitude":37.58408,"Longitude":-5.96704},"BottomRight":{"Latitude":37.58375,"Longitude":-5.96645}},"Address":{"Label":"Calle Manuel Medina, 41220 Burguillos (Sevilla), España","Country":"ESP","State":"Andalucía","County":"Sevilla","City":"Burguillos","Street":"Calle Manuel Medina","PostalCode":"41220","AdditionalData":[{"value":"España","key":"CountryName"},{"value":"Andalucía","key":"StateName"},{"value":"Sevilla","key":"CountyName"}]},"MapReference":{"ReferenceId":"1164922038","Spot":0.12,"SideOfStreet":"left","CountryId":"20215059","StateId":"20221885","CountyId":"20221893","CityId":"20236276"}}},{"Relevance":1.0,"Distance":50.5,"MatchLevel":"street","MatchQuality":{"Country":1.0,"State":1.0,"County":1.0,"City":1.0,"Street":[1.0],"PostalCode":1.0},"Location":{"LocationId":"NT_sz44NlFS3oROsX7SAGbyfC_l_549348299_L","LocationType":"point","DisplayPosition":{"Latitude":37.58463,"Longitude":-5.967},"MapView":{"TopLeft":{"Latitude":37.58481,"Longitude":-5.967},"BottomRight":{"Latitude":37.58463,"Longitude":-5.96697}},"Address":{"Label":"Calle de la Feria, 41220 Burguillos (Sevilla), España","Country":"ESP","State":"Andalucía","County":"Sevilla","City":"Burguillos","Street":"Calle de la Feria","PostalCode":"41220","AdditionalData":[{"value":"España","key":"CountryName"},{"value":"Andalucía","key":"StateName"},{"value":"Sevilla","key":"CountyName"}]},"MapReference":{"ReferenceId":"549348299","Spot":0.0,"SideOfStreet":"left","CountryId":"20215059","StateId":"20221885","CountyId":"20221893","CityId":"20236276"}}}]}]}}