{"Response":{"MetaInfo":{"Timestamp":"2020-03-28T11:27:12.558+0000","NextPageInformation":"2"},"View":[{"_type":"SearchResultsViewType","ViewId":0,"Result":[{"Relevance":1.0,"Distance":-1882.4,"MatchLevel":"landmark","MatchQuality":{"Country":1.0,"State":1.0,"Name":1.0},"Location":{"LocationId":"NT_WbRHZaUNmJdoEGyLvAjbjA","LocationType":"island","Name":"Sicilia","DisplayPosition":{"Latitude":37.4742,"Longitude":14.13844},"MapView":{"TopLeft":{"Latitude":38.30149,"Longitude":12.42414},"BottomRight":{"Latitude":36.6469,"Longitude":15.65312}},"Address":{"Label":"Italia","Country":"ITA","State":"Sicilia","AdditionalData":[{"value":"Italia","key":"CountryName"},{"value":"Sicilia","key":"StateName"}]},"MapReference":{"CountryId":"20110484","StateId":"20126201","PlaceId":"82846424"}}},{"Relevance":1.0,"Distance":0.0,"Direction":0.0,"MatchLevel":"district","MatchQuality":{"Country":1.0,"State":1.0,"County":1.0,"City":1.0,"District":1.0,"PostalCode":1.0},"Location":{"LocationId":"NT_Mms7vi.zK111m0zhBJ2hWC","LocationType":"point","DisplayPosition":{"Latitude":37.5115665,"Longitude":15.0749765},"MapView":{"TopLeft":{"Latitude":37.51327,"Longitude":15.06727},"BottomRight":{"Latitude":37.48378,"Longitude":15.10054}},"Address":{"Label":"Centro-San Cristoforo, Catania, Sicilia, Italia","Country":"ITA","State":"Sicilia","County":"CT","City":"Catania","District":"Centro-San Cristoforo","PostalCode":"95124","AdditionalData":[{"value":"Italia","key":"CountryName"},{"value":"Sicilia","key":"StateName"},{"value":"Catania","key":"CountyName"}]},"MapReference":{"ReferenceId":"76353403","SideOfStreet":"neither","CountryId":"20110484","StateId":"20126201","CountyId":"20246855","CityId":"20246907"}}},{"Relevance":1.0,"Distance":3.7,"MatchLevel":"houseNumber","MatchQuality":{"Country":1.0,"State":1.0,"County":1.0,"City":1.0,"District":1.0,"Street":[1.0],"HouseNumber":1.0,"PostalCode":1.0},"MatchType":"interpolated","Location":{"LocationId":"NT_feTwU7SrZ-nARDcjLz0bqD_xA","LocationType":"point","DisplayPosition":{"Latitude":37.51154,"Longitude":15.07488},"MapView":{"TopLeft":{"Latitude":37.5126642,"Longitude":15.0734628},"BottomRight":{"Latitude":37.5104158,"Longitude":15.0762972}},"Address":{"Label":"Via Fabio Filzi, 1, 95124 Catania CT, Italia","Country":"ITA","State":"Sicilia","County":"CT","City":"Catania","District":"Centro-San Cristoforo","Street":"Via Fabio Filzi","HouseNumber":"1","PostalCode":"95124","AdditionalData":[{"value":"Italia","key":"CountryName"},{"value":"Sicilia","key":"StateName"},{"value":"Catania","key":"CountyName"}]},"MapReference":{"ReferenceId":"556275835","Spot":0.9,"SideOfStreet":"right","CountryId":"20110484","StateId":"20126201","CountyId":"20246855","CityId":"20246907","AddressId":"710597948","RoadLinkId":"60229850"}}},{"Relevance":1.0,"Distance":21.9,"MatchLevel":"houseNumber","MatchQuality":{"Country":1.0,"State":1.0,"County":1.0,"City":1.0,"District":1.0,"Street":[1.0],"HouseNumber":1.0,"PostalCode":1.0},"MatchType":"interpolated","Location":{"LocationId":"NT_76bAk-fW8Z47s5xsXBxXmA_yED","LocationType":"point","DisplayPosition":{"Latitude":37.51163,"Longitude":15.07472},"MapView":{"TopLeft":{"Latitude":37.5127542,"Longitude":15.0733028},"BottomRight":{"Latitude":37.5105058,"Longitude":15.0761372}},"Address":{"Label":"Viale Mario Rapisardi, 21, 95124 Catania CT, Italia","Country":"ITA","State":"Sicilia","County":"CT","City":"Catania","District":"Centro-San Cristoforo","Street":"Viale Mario Rapisardi","HouseNumber":"21","PostalCode":"95124","AdditionalData":[{"value":"Italia","key":"CountryName"},{"value":"Sicilia","key":"StateName"},{"value":"Catania","key":"CountyName"}]},"MapReference":{"ReferenceId":"959457294","Spot":0.83,"SideOfStreet":"right","CountryId":"20110484","StateId":"20126201","CountyId":"20246855","CityId":"20246907","AddressId":"710360896","RoadLinkId":"301593764"}}},{"Relevance":1.0,"Distance":23.6,"MatchLevel":"houseNumber","MatchQuality":{"Country":1.0,"State":1.0,"County":1.0,"City":1.0,"District":1.0,"Street":[1.0],"HouseNumber":1.0,"PostalCode":1.0},"MatchType":"interpolated","Location":{"LocationId":"NT_p5b9kAdu6jFNMMGRuNtrOC_yA","LocationType":"point","DisplayPosition":{"Latitude":37.51175,"Longitude":15.07482},"MapView":{"TopLeft":{"Latitude":37.5128742,"Longitude":15.0734028},"BottomRight":{"Latitude":37.5106258,"Longitude":15.0762372}},"Address":{"Label":"Via Giovanni Lavaggi, 2, 95123 Catania CT, Italia","Country":"ITA","State":"Sicilia","County":"CT","City":"Catania","District":"Trappeto-Cibali","Street":"Via Giovanni Lavaggi","HouseNumber":"2","PostalCode":"95123","AdditionalData":[{"value":"Italia","key":"CountryName"},{"value":"Sicilia","key":"StateName"},{"value":"Catania","key":"CountyName"}]},"MapReference":{"ReferenceId":"76350581","Spot":0.09,"SideOfStreet":"right","CountryId":"20110484","StateId":"20126201","CountyId":"20246855","CityId":"20246907","AddressId":"710778118","RoadLinkId":"59672719"}}},{"Relevance":1.0,"Distance":50.5,"MatchLevel":"houseNumber","MatchQuality":{"Country":1.0,"State":1.0,"County":1.0,"City":1.0,"District":1.0,"Street":[1.0],"HouseNumber":1.0,"PostalCode":1.0},"MatchType":"interpolated","Location":{"LocationId":"NT_76bAk-fW8Z47s5xsXBxXmA_zA","LocationType":"point","DisplayPosition":{"Latitude":37.51175,"Longitude":15.0755},"MapView":{"TopLeft":{"Latitude":37.5128742,"Longitude":15.0740828},"BottomRight":{"Latitude":37.5106258,"Longitude":15.0769172}},"Address":{"Label":"Viale Mario Rapisardi, 3, 95124 Catania CT, Italia","Country":"ITA","State":"Sicilia","County":"CT","City":"Catania","District":"Centro-San Cristoforo","Street":"Viale Mario Rapisardi","HouseNumber":"3","PostalCode":"95124","AdditionalData":[{"value":"Italia","key":"CountryName"},{"value":"Sicilia","key":"StateName"},{"value":"Catania","key":"CountyName"}]},"MapReference":{"ReferenceId":"958536317","Spot":0.75,"SideOfStreet":"right","CountryId":"20110484","StateId":"20126201","CountyId":"20246855","CityId":"20246907","AddressId":"710358025","RoadLinkId":"301519335"}}},{"Relevance":1.0,"Distance":85.3,"MatchLevel":"houseNumber","MatchQuality":{"Country":1.0,"State":1.0,"County":1.0,"City":1.0,"District":1.0,"Street":[1.0],"HouseNumber":1.0,"PostalCode":1.0},"MatchType":"interpolated","Location":{"LocationId":"NT_rvJ5X3VgbOAgXR5g4nQOKA_l_959457293_R_ycD","LocationType":"point","DisplayPosition":{"Latitude":37.511516,"Longitude":15.074011},"MapView":{"TopLeft":{"Latitude":37.5126401,"Longitude":15.0725939},"BottomRight":{"Latitude":37.5103918,"Longitude":15.0754282}},"Address":{"Label":"Viale Mario Rapisardi, 27, 95124 Catania CT, Italia","Country":"ITA","State":"Sicilia","County":"CT","City":"Catania","District":"Centro-San Cristoforo","Street":"Viale Mario Rapisardi","HouseNumber":"27","PostalCode":"95124","AdditionalData":[{"value":"Italia","key":"CountryName"},{"value":"Sicilia","key":"StateName"},{"value":"Catania","key":"CountyName"}]},"MapReference":{"ReferenceId":"959457293","Spot":0.53,"SideOfStreet":"right","CountryId":"20110484","StateId":"20126201","CountyId":"20246855","CityId":"20246907"}}},{"Relevance":1.0,"Distance":90.7,"MatchLevel":"houseNumber","MatchQuality":{"Country":1.0,"State":1.0,"County":1.0,"City":1.0,"District":1.0,"Street":[1.0],"HouseNumber":1.0,"PostalCode":1.0},"MatchType":"interpolated","Location":{"LocationId":"NT_dAb3EZwz-cysJKxGqc6smB_yA","LocationType":"point","DisplayPosition":{"Latitude":37.51161,"Longitude":15.07389},"MapView":{"TopLeft":{"Latitude":37.5127342,"Longitude":15.0724728},"BottomRight":{"Latitude":37.5104858,"Longitude":15.0753072}},"Address":{"Label":"Via Pier Luigi Deodato, 2, 95123 Catania CT, Italia","Country":"ITA","State":"Sicilia","County":"CT","City":"Catania","District":"Trappeto-Cibali","Street":"Via Pier Luigi Deodato","HouseNumber":"2","PostalCode":"95123","AdditionalData":[{"value":"Italia","key":"CountryName"},{"value":"Sicilia","key":"StateName"},{"value":"Catania","key":"CountyName"}]},"MapReference":{"ReferenceId":"76349467","Spot":0.1,"SideOfStreet":"right","CountryId":"20110484","StateId":"20126201","CountyId":"20246855","CityId":"20246907","AddressId":"710793901","RoadLinkId":"60064273"}}},{"Relevance":1.0,"Distance":97.2,"MatchLevel":"houseNumber","MatchQuality":{"Country":1.0,"State":1.0,"County":1.0,"City":1.0,"District":1.0,"Street":[1.0],"HouseNumber":1.0,"PostalCode":1.0},"MatchType":"interpolated","Location":{"LocationId":"NT_76bAk-fW8Z47s5xsXBxXmA_ycD","LocationType":"point","DisplayPosition":{"Latitude":37.51149,"Longitude":15.07387},"MapView":{"TopLeft":{"Latitude":37.5126142,"Longitude":15.0724528},"BottomRight":{"Latitude":37.5103658,"Longitude":15.0752872}},"Address":{"Label":"Viale Mario Rapisardi, 27, 95124 Catania CT, Italia","Country":"ITA","State":"Sicilia","County":"CT","City":"Catania","District":"Centro-San Cristoforo","Street":"Viale Mario Rapisardi","HouseNumber":"27","PostalCode":"95124","AdditionalData":[{"value":"Italia","key":"CountryName"},{"value":"Sicilia","key":"StateName"},{"value":"Catania","key":"CountyName"}]},"MapReference":{"ReferenceId":"76350334","Spot":0.97,"SideOfStreet":"right","CountryId":"20110484","StateId":"20126201","CountyId":"20246855","CityId":"20246907","AddressId":"710782628","RoadLinkId":"60065481"}}},{"Relevance":1.0,"Distance":119.5,"MatchLevel":"street","MatchQuality":{"Country":1.0,"State":1.0,"County":1.0,"City":1.0,"District":1.0,"Street":[1.0],"PostalCode":1.0},"Location":{"LocationId":"NT_feTwU7SrZ-nARDcjLz0bqD_l_76350582_R","LocationType":"point","DisplayPosition":{"Latitude":37.5105,"Longitude":15.07514},"MapView":{"TopLeft":{"Latitude":37.5105,"Longitude":15.07514},"BottomRight":{"Latitude":37.51004,"Longitude":15.07527}},"Address":{"Label":"Via Fabio Filzi, 95124 Catania CT, Italia","Country":"ITA","State":"Sicilia","County":"CT","City":"Catania","District":"Centro-San Cristoforo","Street":"Via Fabio Filzi","PostalCode":"95124","AdditionalData":[{"value":"Italia","key":"CountryName"},{"value":"Sicilia","key":"StateName"},{"value":"Catania","key":"CountyName"}]},"MapReference":{"ReferenceId":"76350582","Spot":1.0,"SideOfStreet":"right","CountryId":"20110484","StateId":"20126201","CountyId":"20246855","CityId":"20246907"}}}]}]}}