{"Response":{"MetaInfo":{"Timestamp":"2020-03-28T09:46:37.966+0000","NextPageInformation":"2"},"View":[{"_type":"SearchResultsViewType","ViewId":0,"Result":[{"Relevance":1.0,"Distance":0.0,"Direction":0.0,"MatchLevel":"city","MatchQuality":{"Country":1.0,"State":1.0,"County":1.0,"City":1.0,"PostalCode":1.0},"Location":{"LocationId":"NT_K0CJCan.IYQh-B2wwcM39A","LocationType":"point","DisplayPosition":{"Latitude":37.5557683,"Longitude":-3.6356543},"MapView":{"TopLeft":{"Latitude":37.67416,"Longitude":-3.74336},"BottomRight":{"Latitude":37.52071,"Longitude":-3.5515}},"Address":{"Label":"Campillo de Arenas, Andalucía, España","Country":"ESP","State":"Andalucía","County":"Jaén","City":"Campillo de Arenas","PostalCode":"23130","AdditionalData":[{"value":"España","key":"CountryName"},{"value":"Andalucía","key":"StateName"},{"value":"Jaén","key":"CountyName"}]},"MapReference":{"ReferenceId":"558335341","SideOfStreet":"neither","CountryId":"20215059","StateId":"20221885","CountyId":"20221891","CityId":"20235431"}}},{"Relevance":1.0,"Distance":20.1,"MatchLevel":"street","MatchQuality":{"Country":1.0,"State":1.0,"County":1.0,"City":1.0,"Street":[1.0],"PostalCode":1.0},"Location":{"LocationId":"NT_aOp5hSSo-ZgiJj5Tu2AE-C_l_558335150_L","LocationType":"point","DisplayPosition":{"Latitude":37.55559,"Longitude":-3.63562},"MapView":{"TopLeft":{"Latitude":37.55559,"Longitude":-3.63588},"BottomRight":{"Latitude":37.55528,"Longitude":-3.63562}},"Address":{"Label":"Calle Leonardo Martínez Valenzuela, 23130 Campillo de Arenas (Jaén), España","Country":"ESP","State":"Andalucía","County":"Jaén","City":"Campillo de Arenas","Street":"Calle Leonardo Martínez Valenzuela","PostalCode":"23130","AdditionalData":[{"value":"España","key":"CountryName"},{"value":"Andalucía","key":"StateName"},{"value":"Jaén","key":"CountyName"}]},"MapReference":{"ReferenceId":"558335150","Spot":1.0,"SideOfStreet":"left","CountryId":"20215059","StateId":"20221885","CountyId":"20221891","CityId":"20235431"}}},{"Relevance":1.0,"Distance":25.3,"MatchLevel":"houseNumber","MatchQuality":{"Country":1.0,"State":1.0,"County":1.0,"City":1.0,"Street":[1.0],"HouseNumber":1.0,"PostalCode":1.0},"MatchType":"interpolated","Location":{"LocationId":"NT_op91Uon2ySYVzUD8AqIsVD_4A","LocationType":"point","DisplayPosition":{"Latitude":37.55576,"Longitude":-3.63597},"MapView":{"TopLeft":{"Latitude":37.5568842,"Longitude":-3.637388},"BottomRight":{"Latitude":37.5546358,"Longitude":-3.634552}},"Address":{"Label":"Calle José Antonio Ramos Ramírez, 8, 23130 Campillo de Arenas (Jaén), España","Country":"ESP","State":"Andalucía","County":"Jaén","City":"Campillo de Arenas","Street":"Calle José Antonio Ramos Ramírez","HouseNumber":"8","PostalCode":"23130","AdditionalData":[{"value":"España","key":"CountryName"},{"value":"Andalucía","key":"StateName"},{"value":"Jaén","key":"CountyName"}]},"MapReference":{"ReferenceId":"558335260","Spot":0.62,"SideOfStreet":"right","CountryId":"20215059","StateId":"20221885","CountyId":"20221891","CityId":"20235431","AddressId":"404886813","RoadLinkId":"66855760"}}},{"Relevance":1.0,"Distance":25.9,"MatchLevel":"street","MatchQuality":{"Country":1.0,"State":1.0,"County":1.0,"City":1.0,"Street":[1.0],"PostalCode":1.0},"Location":{"LocationId":"NT_bva3814hD7KA4UT6wm9.qD_l_1189918945_L","LocationType":"point","DisplayPosition":{"Latitude":37.555592,"Longitude":-3.6354629},"MapView":{"TopLeft":{"Latitude":37.55591,"Longitude":-3.63552},"BottomRight":{"Latitude":37.55553,"Longitude":-3.63517}},"Address":{"Label":"Plaza Andalucía, 23130 Campillo de Arenas (Jaén), España","Country":"ESP","State":"Andalucía","County":"Jaén","City":"Campillo de Arenas","Street":"Plaza Andalucía","PostalCode":"23130","AdditionalData":[{"value":"España","key":"CountryName"},{"value":"Andalucía","key":"StateName"},{"value":"Jaén","key":"CountyName"}]},"MapReference":{"ReferenceId":"1189918945","Spot":0.16,"SideOfStreet":"left","CountryId":"20215059","StateId":"20221885","CountyId":"20221891","CityId":"20235431"}}},{"Relevance":1.0,"Distance":26.8,"MatchLevel":"houseNumber","MatchQuality":{"Country":1.0,"State":1.0,"County":1.0,"City":1.0,"Street":[1.0],"HouseNumber":1.0,"PostalCode":1.0},"MatchType":"interpolated","Location":{"LocationId":"NT_aOp5hSSo-ZgiJj5Tu2AE-C_xkD","LocationType":"point","DisplayPosition":{"Latitude":37.55588,"Longitude":-3.63537},"MapView":{"TopLeft":{"Latitude":37.5570042,"Longitude":-3.636788},"BottomRight":{"Latitude":37.5547558,"Longitude":-3.633952}},"Address":{"Label":"Calle Leonardo Martínez Valenzuela, 19, 23130 Campillo de Arenas (Jaén), España","Country":"ESP","State":"Andalucía","County":"Jaén","City":"Campillo de Arenas","Street":"Calle Leonardo Martínez Valenzuela","HouseNumber":"19","PostalCode":"23130","AdditionalData":[{"value":"España","key":"CountryName"},{"value":"Andalucía","key":"StateName"},{"value":"Jaén","key":"CountyName"}]},"MapReference":{"ReferenceId":"558335250","Spot":0.75,"SideOfStreet":"left","CountryId":"20215059","StateId":"20221885","CountyId":"20221891","CityId":"20235431","AddressId":"404846737","RoadLinkId":"67163663"}}},{"Relevance":1.0,"Distance":32.5,"MatchLevel":"houseNumber","MatchQuality":{"Country":1.0,"State":1.0,"County":1.0,"City":1.0,"Street":[1.0],"HouseNumber":1.0,"PostalCode":1.0},"MatchType":"interpolated","Location":{"LocationId":"NT_tosweBZMtnsXs24-oX5clD_xUD","LocationType":"point","DisplayPosition":{"Latitude":37.55613,"Longitude":-3.63557},"MapView":{"TopLeft":{"Latitude":37.5572542,"Longitude":-3.636988},"BottomRight":{"Latitude":37.5550058,"Longitude":-3.634152}},"Address":{"Label":"Calle de San Cristóbal, 15, 23130 Campillo de Arenas (Jaén), España","Country":"ESP","State":"Andalucía","County":"Jaén","City":"Campillo de Arenas","Street":"Calle de San Cristóbal","HouseNumber":"15","PostalCode":"23130","AdditionalData":[{"value":"España","key":"CountryName"},{"value":"Andalucía","key":"StateName"},{"value":"Jaén","key":"CountyName"}]},"MapReference":{"ReferenceId":"558335170","Spot":0.38,"SideOfStreet":"left","CountryId":"20215059","StateId":"20221885","CountyId":"20221891","CityId":"20235431","AddressId":"404904343","RoadLinkId":"67258852"}}},{"Relevance":1.0,"Distance":39.8,"MatchLevel":"street","MatchQuality":{"Country":1.0,"State":1.0,"County":1.0,"City":1.0,"Street":[1.0],"PostalCode":1.0},"Location":{"LocationId":"NT_tosweBZMtnsXs24-oX5clD_l_1189918947_L","LocationType":"point","DisplayPosition":{"Latitude":37.55598,"Longitude":-3.63529},"MapView":{"TopLeft":{"Latitude":37.55598,"Longitude":-3.63529},"BottomRight":{"Latitude":37.55591,"Longitude":-3.63517}},"Address":{"Label":"Calle de San Cristóbal, 23130 Campillo de Arenas (Jaén), España","Country":"ESP","State":"Andalucía","County":"Jaén","City":"Campillo de Arenas","Street":"Calle de San Cristóbal","PostalCode":"23130","AdditionalData":[{"value":"España","key":"CountryName"},{"value":"Andalucía","key":"StateName"},{"value":"Jaén","key":"CountyName"}]},"MapReference":{"ReferenceId":"1189918947","Spot":1.0,"SideOfStreet":"left","CountryId":"20215059","StateId":"20221885","CountyId":"20221891","CityId":"20235431"}}},{"Relevance":1.0,"Distance":40.4,"MatchLevel":"houseNumber","MatchQuality":{"Country":1.0,"State":1.0,"County":1.0,"City":1.0,"Street":[1.0],"HouseNumber":1.0,"PostalCode":1.0},"MatchType":"interpolated","Location":{"LocationId":"NT_lkjajKtfUHrjU3DUsXOW8B_xQD","LocationType":"point","DisplayPosition":{"Latitude":37.55549,"Longitude":-3.63536},"MapView":{"TopLeft":{"Latitude":37.5566142,"Longitude":-3.636778},"BottomRight":{"Latitude":37.5543658,"Longitude":-3.633942}},"Address":{"Label":"Plaza de Andalucía, 14, 23130 Campillo de Arenas (Jaén), España","Country":"ESP","State":"Andalucía","County":"Jaén","City":"Campillo de Arenas","Street":"Plaza de Andalucía","HouseNumber":"14","PostalCode":"23130","AdditionalData":[{"value":"España","key":"CountryName"},{"value":"Andalucía","key":"StateName"},{"value":"Jaén","key":"CountyName"}]},"MapReference":{"ReferenceId":"558335292","Spot":0.92,"SideOfStreet":"right","CountryId":"20215059","StateId":"20221885","CountyId":"20221891","CityId":"20235431","AddressId":"404888373","RoadLinkId":"66891798"}}},{"Relevance":1.0,"Distance":46.1,"MatchLevel":"houseNumber","MatchQuality":{"Country":1.0,"State":1.0,"County":1.0,"City":1.0,"Street":[1.0],"HouseNumber":1.0,"PostalCode":1.0},"MatchType":"interpolated","Location":{"LocationId":"NT_rFa3uC98eubQiHGDSjq3ZA_xA","LocationType":"point","DisplayPosition":{"Latitude":37.55604,"Longitude":-3.63524},"MapView":{"TopLeft":{"Latitude":37.5571642,"Longitude":-3.636658},"BottomRight":{"Latitude":37.5549158,"Longitude":-3.633822}},"Address":{"Label":"Calle Hermanos Martínez Román, 1, 23130 Campillo de Arenas (Jaén), España","Country":"ESP","State":"Andalucía","County":"Jaén","City":"Campillo de Arenas","Street":"Calle Hermanos Martínez Román","HouseNumber":"1","PostalCode":"23130","AdditionalData":[{"value":"España","key":"CountryName"},{"value":"Andalucía","key":"StateName"},{"value":"Jaén","key":"CountyName"}]},"MapReference":{"ReferenceId":"558335160","Spot":0.3,"SideOfStreet":"left","CountryId":"20215059","StateId":"20221885","CountyId":"20221891","CityId":"20235431","AddressId":"404839001","RoadLinkId":"67128225"}}},{"Relevance":1.0,"Distance":47.8,"MatchLevel":"houseNumber","MatchQuality":{"Country":1.0,"State":1.0,"County":1.0,"City":1.0,"Street":[1.0],"HouseNumber":1.0,"PostalCode":1.0},"MatchType":"interpolated","Location":{"LocationId":"NT_lkjajKtfUHrjU3DUsXOW8B_l_558335229_L_yA","LocationType":"point","DisplayPosition":{"Latitude":37.55521,"Longitude":-3.6357199},"MapView":{"TopLeft":{"Latitude":37.5563341,"Longitude":-3.637138},"BottomRight":{"Latitude":37.5540858,"Longitude":-3.6343019}},"Address":{"Label":"Plaza de Andalucía, 2, 23130 Campillo de Arenas (Jaén), España","Country":"ESP","State":"Andalucía","County":"Jaén","City":"Campillo de Arenas","Street":"Plaza de Andalucía","HouseNumber":"2","PostalCode":"23130","AdditionalData":[{"value":"España","key":"CountryName"},{"value":"Andalucía","key":"StateName"},{"value":"Jaén","key":"CountyName"}]},"MapReference":{"ReferenceId":"558335229","Spot":0.19,"SideOfStreet":"left","CountryId":"20215059","StateId":"20221885","CountyId":"20221891","CityId":"20235431"}}}]}]}}