{"Response":{"MetaInfo":{"Timestamp":"2020-03-28T09:42:52.618+0000","NextPageInformation":"2"},"View":[{"_type":"SearchResultsViewType","ViewId":0,"Result":[{"Relevance":1.0,"Distance":0.0,"Direction":0.0,"MatchLevel":"district","MatchQuality":{"Country":1.0,"State":1.0,"County":1.0,"City":1.0,"District":1.0,"PostalCode":1.0},"Location":{"LocationId":"NT_qk6tld5C1aSgIUm-9JYIqC","LocationType":"point","DisplayPosition":{"Latitude":37.6136965,"Longitude":-0.9776977},"MapView":{"TopLeft":{"Latitude":37.61784,"Longitude":-0.98215},"BottomRight":{"Latitude":37.61236,"Longitude":-0.97401}},"Address":{"Label":"Barriada Virgen de la Caridad, Cartagena, Región de Murcia, España","Country":"ESP","State":"Región de Murcia","County":"Murcia","City":"Cartagena","District":"Barriada Virgen de la Caridad","PostalCode":"30203","AdditionalData":[{"value":"España","key":"CountryName"},{"value":"Región de Murcia","key":"StateName"},{"value":"Murcia","key":"CountyName"}]},"MapReference":{"ReferenceId":"578161398","SideOfStreet":"neither","CountryId":"20215059","StateId":"20226810","CountyId":"20226811","CityId":"20287928","DistrictId":"20567305"}}},{"Relevance":1.0,"Distance":16.8,"MatchLevel":"houseNumber","MatchQuality":{"Country":1.0,"State":1.0,"County":1.0,"City":1.0,"District":1.0,"Street":[1.0],"HouseNumber":1.0,"PostalCode":1.0},"MatchType":"interpolated","Location":{"LocationId":"NT_vmMTW-X7rzW5bPADSPOKjA_xAD","LocationType":"point","DisplayPosition":{"Latitude":37.6138,"Longitude":-0.97787},"MapView":{"TopLeft":{"Latitude":37.6149242,"Longitude":-0.9792891},"BottomRight":{"Latitude":37.6126758,"Longitude":-0.9764509}},"Address":{"Label":"Calle Cabrera, 10, 30203 Cartagena (Murcia), España","Country":"ESP","State":"Región de Murcia","County":"Murcia","City":"Cartagena","District":"Barriada Virgen de la Caridad","Street":"Calle Cabrera","HouseNumber":"10","PostalCode":"30203","AdditionalData":[{"value":"España","key":"CountryName"},{"value":"Región de Murcia","key":"StateName"},{"value":"Murcia","key":"CountyName"}]},"MapReference":{"ReferenceId":"578161586","Spot":0.91,"SideOfStreet":"left","CountryId":"20215059","StateId":"20226810","CountyId":"20226811","CityId":"20287928","DistrictId":"20567305","AddressId":"352049715","RoadLinkId":"66331002"}}},{"Relevance":1.0,"Distance":30.0,"MatchLevel":"houseNumber","MatchQuality":{"Country":1.0,"State":1.0,"County":1.0,"City":1.0,"District":1.0,"Street":[1.0],"HouseNumber":1.0,"PostalCode":1.0},"MatchType":"interpolated","Location":{"LocationId":"NT_eETyjEQA-OBvidxCX1gjbA_l_1114180223_R_1A","LocationType":"point","DisplayPosition":{"Latitude":37.61344,"Longitude":-0.978007},"MapView":{"TopLeft":{"Latitude":37.6145642,"Longitude":-0.9794261},"BottomRight":{"Latitude":37.6123159,"Longitude":-0.9765879}},"Address":{"Label":"Calle Pollensa, 5, 30203 Cartagena (Murcia), España","Country":"ESP","State":"Región de Murcia","County":"Murcia","City":"Cartagena","District":"Barriada Virgen de la Caridad","Street":"Calle Pollensa","HouseNumber":"5","PostalCode":"30203","AdditionalData":[{"value":"España","key":"CountryName"},{"value":"Región de Murcia","key":"StateName"},{"value":"Murcia","key":"CountyName"}]},"MapReference":{"ReferenceId":"1114180223","Spot":0.75,"SideOfStreet":"right","CountryId":"20215059","StateId":"20226810","CountyId":"20226811","CityId":"20287928","DistrictId":"20567305"}}},{"Relevance":1.0,"Distance":31.5,"MatchLevel":"houseNumber","MatchQuality":{"Country":1.0,"State":1.0,"County":1.0,"City":1.0,"District":1.0,"Street":[1.0],"HouseNumber":1.0,"PostalCode":1.0},"MatchType":"interpolated","Location":{"LocationId":"NT_pTkfmkKHOqAeS.Ps3GfDEA_yA","LocationType":"point","DisplayPosition":{"Latitude":37.61398,"Longitude":-0.97785},"MapView":{"TopLeft":{"Latitude":37.6151042,"Longitude":-0.9792691},"BottomRight":{"Latitude":37.6128558,"Longitude":-0.9764309}},"Address":{"Label":"Calle Alcalde Mora Ripoll, 2, 30203 Cartagena (Murcia), España","Country":"ESP","State":"Región de Murcia","County":"Murcia","City":"Cartagena","District":"Barriada Virgen de la Caridad","Street":"Calle Alcalde Mora Ripoll","HouseNumber":"2","PostalCode":"30203","AdditionalData":[{"value":"España","key":"CountryName"},{"value":"Región de Murcia","key":"StateName"},{"value":"Murcia","key":"CountyName"}]},"MapReference":{"ReferenceId":"578161538","Spot":0.54,"SideOfStreet":"right","CountryId":"20215059","StateId":"20226810","CountyId":"20226811","CityId":"20287928","DistrictId":"20567305","AddressId":"352053843","RoadLinkId":"66488122"}}},{"Relevance":1.0,"Distance":31.6,"MatchLevel":"houseNumber","MatchQuality":{"Country":1.0,"State":1.0,"County":1.0,"City":1.0,"District":1.0,"Street":[1.0],"HouseNumber":1.0,"PostalCode":1.0},"MatchType":"interpolated","Location":{"LocationId":"NT_ujzLXmYJD6FrkQ4g1WaDPD_l_578161565_L_yA","LocationType":"point","DisplayPosition":{"Latitude":37.61385,"Longitude":-0.97731},"MapView":{"TopLeft":{"Latitude":37.6149742,"Longitude":-0.9787291},"BottomRight":{"Latitude":37.6127259,"Longitude":-0.9758909}},"Address":{"Label":"Calle Alcalde Blanca Viñegas, 2, 30203 Cartagena (Murcia), España","Country":"ESP","State":"Región de Murcia","County":"Murcia","City":"Cartagena","District":"Barriada Virgen de la Caridad","Street":"Calle Alcalde Blanca Viñegas","HouseNumber":"2","PostalCode":"30203","AdditionalData":[{"value":"España","key":"CountryName"},{"value":"Región de Murcia","key":"StateName"},{"value":"Murcia","key":"CountyName"}]},"MapReference":{"ReferenceId":"578161565","Spot":0.41,"SideOfStreet":"left","CountryId":"20215059","StateId":"20226810","CountyId":"20226811","CityId":"20287928","DistrictId":"20567305"}}},{"Relevance":1.0,"Distance":34.6,"MatchLevel":"street","MatchQuality":{"Country":1.0,"State":1.0,"County":1.0,"City":1.0,"District":1.0,"Street":[1.0],"PostalCode":1.0},"Location":{"LocationId":"NT_eETyjEQA-OBvidxCX1gjbA_l_578161478_R","LocationType":"point","DisplayPosition":{"Latitude":37.61369,"Longitude":-0.97809},"MapView":{"TopLeft":{"Latitude":37.61385,"Longitude":-0.97813},"BottomRight":{"Latitude":37.61369,"Longitude":-0.97809}},"Address":{"Label":"Calle Pollensa, 30203 Cartagena (Murcia), España","Country":"ESP","State":"Región de Murcia","County":"Murcia","City":"Cartagena","District":"Barriada Virgen de la Caridad","Street":"Calle Pollensa","PostalCode":"30203","AdditionalData":[{"value":"España","key":"CountryName"},{"value":"Región de Murcia","key":"StateName"},{"value":"Murcia","key":"CountyName"}]},"MapReference":{"ReferenceId":"578161478","Spot":0.0,"SideOfStreet":"right","CountryId":"20215059","StateId":"20226810","CountyId":"20226811","CityId":"20287928","DistrictId":"20567305"}}},{"Relevance":1.0,"Distance":38.1,"MatchLevel":"houseNumber","MatchQuality":{"Country":1.0,"State":1.0,"County":1.0,"City":1.0,"District":1.0,"Street":[1.0],"HouseNumber":1.0,"PostalCode":1.0},"MatchType":"interpolated","Location":{"LocationId":"NT_vmMTW-X7rzW5bPADSPOKjA_yED","LocationType":"point","DisplayPosition":{"Latitude":37.61384,"Longitude":-0.97809},"MapView":{"TopLeft":{"Latitude":37.6149642,"Longitude":-0.9795091},"BottomRight":{"Latitude":37.6127158,"Longitude":-0.9766709}},"Address":{"Label":"Calle Cabrera, 21, 30203 Cartagena (Murcia), España","Country":"ESP","State":"Región de Murcia","County":"Murcia","City":"Cartagena","District":"Barriada Virgen de la Caridad","Street":"Calle Cabrera","HouseNumber":"21","PostalCode":"30203","AdditionalData":[{"value":"España","key":"CountryName"},{"value":"Región de Murcia","key":"StateName"},{"value":"Murcia","key":"CountyName"}]},"MapReference":{"ReferenceId":"578161551","Spot":0.81,"SideOfStreet":"right","CountryId":"20215059","StateId":"20226810","CountyId":"20226811","CityId":"20287928","DistrictId":"20567305","AddressId":"352172043","RoadLinkId":"65408390"}}},{"Relevance":1.0,"Distance":44.9,"MatchLevel":"houseNumber","MatchQuality":{"Country":1.0,"State":1.0,"County":1.0,"City":1.0,"District":1.0,"Street":[1.0],"HouseNumber":1.0,"PostalCode":1.0},"MatchType":"interpolated","Location":{"LocationId":"NT_G2mIYBYl1XadhzZRufasnC_xED","LocationType":"point","DisplayPosition":{"Latitude":37.6141,"Longitude":-0.97769},"MapView":{"TopLeft":{"Latitude":37.6152242,"Longitude":-0.9791091},"BottomRight":{"Latitude":37.6129758,"Longitude":-0.9762709}},"Address":{"Label":"Calle Poeta Homero, 11, 30203 Cartagena (Murcia), España","Country":"ESP","State":"Región de Murcia","County":"Murcia","City":"Cartagena","District":"Barriada Virgen de la Caridad","Street":"Calle Poeta Homero","HouseNumber":"11","PostalCode":"30203","AdditionalData":[{"value":"España","key":"CountryName"},{"value":"Región de Murcia","key":"StateName"},{"value":"Murcia","key":"CountyName"}]},"MapReference":{"ReferenceId":"578161552","Spot":0.78,"SideOfStreet":"right","CountryId":"20215059","StateId":"20226810","CountyId":"20226811","CityId":"20287928","DistrictId":"20567305","AddressId":"352049791","RoadLinkId":"65657949"}}},{"Relevance":1.0,"Distance":49.3,"MatchLevel":"houseNumber","MatchQuality":{"Country":1.0,"State":1.0,"County":1.0,"City":1.0,"District":1.0,"Street":[1.0],"HouseNumber":1.0,"PostalCode":1.0},"MatchType":"interpolated","Location":{"LocationId":"NT_G2mIYBYl1XadhzZRufasnC_xAD","LocationType":"point","DisplayPosition":{"Latitude":37.61414,"Longitude":-0.97788},"MapView":{"TopLeft":{"Latitude":37.6152642,"Longitude":-0.9792991},"BottomRight":{"Latitude":37.6130158,"Longitude":-0.9764609}},"Address":{"Label":"Calle Poeta Homero, 10, 30203 Cartagena (Murcia), España","Country":"ESP","State":"Región de Murcia","County":"Murcia","City":"Cartagena","District":"Barriada Virgen de la Caridad","Street":"Calle Poeta Homero","HouseNumber":"10","PostalCode":"30203","AdditionalData":[{"value":"España","key":"CountryName"},{"value":"Región de Murcia","key":"StateName"},{"value":"Murcia","key":"CountyName"}]},"MapReference":{"ReferenceId":"578161379","Spot":0.09,"SideOfStreet":"left","CountryId":"20215059","StateId":"20226810","CountyId":"20226811","CityId":"20287928","DistrictId":"20567305","AddressId":"352054141","RoadLinkId":"65674918"}}},{"Relevance":1.0,"Distance":51.5,"MatchLevel":"houseNumber","MatchQuality":{"Country":1.0,"State":1.0,"County":1.0,"City":1.0,"District":1.0,"Street":[1.0],"HouseNumber":1.0,"PostalCode":1.0},"MatchType":"interpolated","Location":{"LocationId":"NT_vmMTW-X7rzW5bPADSPOKjA_4A","LocationType":"point","DisplayPosition":{"Latitude":37.61387,"Longitude":-0.97824},"MapView":{"TopLeft":{"Latitude":37.6149942,"Longitude":-0.9796591},"BottomRight":{"Latitude":37.6127458,"Longitude":-0.9768209}},"Address":{"Label":"Calle Cabrera, 8, 30203 Cartagena (Murcia), España","Country":"ESP","State":"Región de Murcia","County":"Murcia","City":"Cartagena","District":"Barriada Virgen de la Caridad","Street":"Calle Cabrera","HouseNumber":"8","PostalCode":"30203","AdditionalData":[{"value":"España","key":"CountryName"},{"value":"Región de Murcia","key":"StateName"},{"value":"Murcia","key":"CountyName"}]},"MapReference":{"ReferenceId":"578161462","Spot":0.25,"SideOfStreet":"left","CountryId":"20215059","StateId":"20226810","CountyId":"20226811","CityId":"20287928","DistrictId":"20567305","AddressId":"352158546","RoadLinkId":"65222515"}}}]}]}}