{"Response":{"MetaInfo":{"Timestamp":"2020-03-28T09:42:09.367+0000","NextPageInformation":"2"},"View":[{"_type":"SearchResultsViewType","ViewId":0,"Result":[{"Relevance":1.0,"Distance":0.0,"Direction":0.0,"MatchLevel":"city","MatchQuality":{"Country":1.0,"State":1.0,"County":1.0,"City":1.0,"PostalCode":1.0},"Location":{"LocationId":"NT_lw2PLYBH36.aRkTr3HNpQB","LocationType":"point","DisplayPosition":{"Latitude":37.6800074,"Longitude":-1.6906304},"MapView":{"TopLeft":{"Latitude":37.97022,"Longitude":-2.01385},"BottomRight":{"Latitude":37.42107,"Longitude":-1.39647}},"Address":{"Label":"Lorca, Región de Murcia, España","Country":"ESP","State":"Región de Murcia","County":"Murcia","City":"Lorca","PostalCode":"30800","AdditionalData":[{"value":"España","key":"CountryName"},{"value":"Región de Murcia","key":"StateName"},{"value":"Murcia","key":"CountyName"}]},"MapReference":{"ReferenceId":"1006158320","SideOfStreet":"neither","CountryId":"20215059","StateId":"20226810","CountyId":"20226811","CityId":"20288356"}}},{"Relevance":1.0,"Distance":6.4,"MatchLevel":"houseNumber","MatchQuality":{"Country":1.0,"State":1.0,"County":1.0,"City":1.0,"Street":[1.0],"HouseNumber":1.0,"PostalCode":1.0},"MatchType":"interpolated","Location":{"LocationId":"NT_iI4RGorlROSVT3FVzbM6EC_xA","LocationType":"point","DisplayPosition":{"Latitude":37.67997,"Longitude":-1.69078},"MapView":{"TopLeft":{"Latitude":37.6810942,"Longitude":-1.6922004},"BottomRight":{"Latitude":37.6788458,"Longitude":-1.6893596}},"Address":{"Label":"Calle Juan Antonio Dimas, 1, 30800 Lorca (Murcia), España","Country":"ESP","State":"Región de Murcia","County":"Murcia","City":"Lorca","Street":"Calle Juan Antonio Dimas","HouseNumber":"1","PostalCode":"30800","AdditionalData":[{"value":"España","key":"CountryName"},{"value":"Región de Murcia","key":"StateName"},{"value":"Murcia","key":"CountyName"}]},"MapReference":{"ReferenceId":"1218644359","Spot":1.0,"SideOfStreet":"right","CountryId":"20215059","StateId":"20226810","CountyId":"20226811","CityId":"20288356","AddressId":"266441700","RoadLinkId":"535332300"}}},{"Relevance":1.0,"Distance":13.3,"MatchLevel":"street","MatchQuality":{"Country":1.0,"State":1.0,"County":1.0,"City":1.0,"PostalCode":1.0},"Location":{"LocationId":"NT_ZUifescM69RCUibyCFAguC_l_76753040_R","LocationType":"point","DisplayPosition":{"Latitude":37.6800011,"Longitude":-1.6907813},"MapView":{"TopLeft":{"Latitude":37.68046,"Longitude":-1.69082},"BottomRight":{"Latitude":37.67997,"Longitude":-1.69078}},"Address":{"Label":"30800 Lorca (Murcia), España","Country":"ESP","State":"Región de Murcia","County":"Murcia","City":"Lorca","PostalCode":"30800","AdditionalData":[{"value":"España","key":"CountryName"},{"value":"Región de Murcia","key":"StateName"},{"value":"Murcia","key":"CountyName"}]},"MapReference":{"ReferenceId":"76753040","Spot":0.06,"SideOfStreet":"right","CountryId":"20215059","StateId":"20226810","CountyId":"20226811","CityId":"20288356"}}},{"Relevance":1.0,"Distance":13.8,"MatchLevel":"street","MatchQuality":{"Country":1.0,"State":1.0,"County":1.0,"City":1.0,"Street":[1.0],"PostalCode":1.0},"Location":{"LocationId":"NT_iI4RGorlROSVT3FVzbM6EC_l_1220848843_R","LocationType":"point","DisplayPosition":{"Latitude":37.67997,"Longitude":-1.69078},"MapView":{"TopLeft":{"Latitude":37.68014,"Longitude":-1.69084},"BottomRight":{"Latitude":37.67997,"Longitude":-1.69078}},"Address":{"Label":"Calle Juan Antonio Dimas, 30800 Lorca (Murcia), España","Country":"ESP","State":"Región de Murcia","County":"Murcia","City":"Lorca","Street":"Calle Juan Antonio Dimas","PostalCode":"30800","AdditionalData":[{"value":"España","key":"CountryName"},{"value":"Región de Murcia","key":"StateName"},{"value":"Murcia","key":"CountyName"}]},"MapReference":{"ReferenceId":"1220848843","Spot":0.0,"SideOfStreet":"right","CountryId":"20215059","StateId":"20226810","CountyId":"20226811","CityId":"20288356"}}},{"Relevance":1.0,"Distance":22.1,"MatchLevel":"street","MatchQuality":{"Country":1.0,"State":1.0,"County":1.0,"City":1.0,"PostalCode":1.0},"Location":{"LocationId":"NT_ZUifescM69RCUibyCFAguC_l_1220879564_R","LocationType":"point","DisplayPosition":{"Latitude":37.6800927,"Longitude":-1.6908578},"MapView":{"TopLeft":{"Latitude":37.68014,"Longitude":-1.69088},"BottomRight":{"Latitude":37.67971,"Longitude":-1.69084}},"Address":{"Label":"30800 Lorca (Murcia), España","Country":"ESP","State":"Región de Murcia","County":"Murcia","City":"Lorca","PostalCode":"30800","AdditionalData":[{"value":"España","key":"CountryName"},{"value":"Región de Murcia","key":"StateName"},{"value":"Murcia","key":"CountyName"}]},"MapReference":{"ReferenceId":"1220879564","Spot":0.88,"SideOfStreet":"right","CountryId":"20215059","StateId":"20226810","CountyId":"20226811","CityId":"20288356"}}},{"Relevance":1.0,"Distance":23.6,"MatchLevel":"street","MatchQuality":{"Country":1.0,"State":1.0,"County":1.0,"City":1.0,"Street":[1.0],"PostalCode":1.0},"Location":{"LocationId":"NT_iI4RGorlROSVT3FVzbM6EC_l_1220848844_R","LocationType":"point","DisplayPosition":{"Latitude":37.68014,"Longitude":-1.69084},"MapView":{"TopLeft":{"Latitude":37.68041,"Longitude":-1.69098},"BottomRight":{"Latitude":37.68014,"Longitude":-1.69084}},"Address":{"Label":"Calle Juan Antonio Dimas, 30800 Lorca (Murcia), España","Country":"ESP","State":"Región de Murcia","County":"Murcia","City":"Lorca","Street":"Calle Juan Antonio Dimas","PostalCode":"30800","AdditionalData":[{"value":"España","key":"CountryName"},{"value":"Región de Murcia","key":"StateName"},{"value":"Murcia","key":"CountyName"}]},"MapReference":{"ReferenceId":"1220848844","Spot":0.0,"SideOfStreet":"right","CountryId":"20215059","StateId":"20226810","CountyId":"20226811","CityId":"20288356"}}},{"Relevance":1.0,"Distance":26.5,"MatchLevel":"street","MatchQuality":{"Country":1.0,"State":1.0,"County":1.0,"City":1.0,"PostalCode":1.0},"Location":{"LocationId":"NT_ZUifescM69RCUibyCFAguC_l_1220915380_R","LocationType":"point","DisplayPosition":{"Latitude":37.6800566,"Longitude":-1.6909256},"MapView":{"TopLeft":{"Latitude":37.68009,"Longitude":-1.69118},"BottomRight":{"Latitude":37.67993,"Longitude":-1.69092}},"Address":{"Label":"30800 Lorca (Murcia), España","Country":"ESP","State":"Región de Murcia","County":"Murcia","City":"Lorca","PostalCode":"30800","AdditionalData":[{"value":"España","key":"CountryName"},{"value":"Región de Murcia","key":"StateName"},{"value":"Murcia","key":"CountyName"}]},"MapReference":{"ReferenceId":"1220915380","Spot":0.92,"SideOfStreet":"right","CountryId":"20215059","StateId":"20226810","CountyId":"20226811","CityId":"20288356"}}},{"Relevance":1.0,"Distance":27.1,"MatchLevel":"street","MatchQuality":{"Country":1.0,"State":1.0,"County":1.0,"City":1.0,"PostalCode":1.0},"Location":{"LocationId":"NT_ZUifescM69RCUibyCFAguC_l_1220915379_L","LocationType":"point","DisplayPosition":{"Latitude":37.68009,"Longitude":-1.69092},"MapView":{"TopLeft":{"Latitude":37.68024,"Longitude":-1.69181},"BottomRight":{"Latitude":37.67972,"Longitude":-1.69092}},"Address":{"Label":"30800 Lorca (Murcia), España","Country":"ESP","State":"Región de Murcia","County":"Murcia","City":"Lorca","PostalCode":"30800","AdditionalData":[{"value":"España","key":"CountryName"},{"value":"Región de Murcia","key":"StateName"},{"value":"Murcia","key":"CountyName"}]},"MapReference":{"ReferenceId":"1220915379","Spot":1.0,"SideOfStreet":"left","CountryId":"20215059","StateId":"20226810","CountyId":"20226811","CityId":"20288356"}}},{"Relevance":1.0,"Distance":27.1,"MatchLevel":"street","MatchQuality":{"Country":1.0,"State":1.0,"County":1.0,"City":1.0,"PostalCode":1.0},"Location":{"LocationId":"NT_ZUifescM69RCUibyCFAguC_l_1220915378_R","LocationType":"point","DisplayPosition":{"Latitude":37.68009,"Longitude":-1.69092},"MapView":{"TopLeft":{"Latitude":37.68014,"Longitude":-1.69105},"BottomRight":{"Latitude":37.68009,"Longitude":-1.69092}},"Address":{"Label":"30800 Lorca (Murcia), España","Country":"ESP","State":"Región de Murcia","County":"Murcia","City":"Lorca","PostalCode":"30800","AdditionalData":[{"value":"España","key":"CountryName"},{"value":"Región de Murcia","key":"StateName"},{"value":"Murcia","key":"CountyName"}]},"MapReference":{"ReferenceId":"1220915378","Spot":0.0,"SideOfStreet":"right","CountryId":"20215059","StateId":"20226810","CountyId":"20226811","CityId":"20288356"}}},{"Relevance":1.0,"Distance":37.9,"MatchLevel":"street","MatchQuality":{"Country":1.0,"State":1.0,"County":1.0,"City":1.0,"PostalCode":1.0},"Location":{"LocationId":"NT_ZUifescM69RCUibyCFAguC_l_1220879573_R","LocationType":"point","DisplayPosition":{"Latitude":37.67971,"Longitude":-1.69084},"MapView":{"TopLeft":{"Latitude":37.67971,"Longitude":-1.69084},"BottomRight":{"Latitude":37.67966,"Longitude":-1.69081}},"Address":{"Label":"30800 Lorca (Murcia), España","Country":"ESP","State":"Región de Murcia","County":"Murcia","City":"Lorca","PostalCode":"30800","AdditionalData":[{"value":"España","key":"CountryName"},{"value":"Región de Murcia","key":"StateName"},{"value":"Murcia","key":"CountyName"}]},"MapReference":{"ReferenceId":"1220879573","Spot":1.0,"SideOfStreet":"right","CountryId":"20215059","StateId":"20226810","CountyId":"20226811","CityId":"20288356"}}}]}]}}