{"Response":{"MetaInfo":{"Timestamp":"2020-03-28T11:24:23.995+0000","NextPageInformation":"2"},"View":[{"_type":"SearchResultsViewType","ViewId":0,"Result":[{"Relevance":1.0,"Distance":-18872.7,"MatchLevel":"landmark","MatchQuality":{"Country":1.0,"State":1.0,"Name":1.0},"Location":{"LocationId":"NT_WbRHZaUNmJdoEGyLvAjbjA","LocationType":"island","Name":"Sicilia","DisplayPosition":{"Latitude":37.4742,"Longitude":14.13844},"MapView":{"TopLeft":{"Latitude":38.30149,"Longitude":12.42414},"BottomRight":{"Latitude":36.6469,"Longitude":15.65312}},"Address":{"Label":"Italia","Country":"ITA","State":"Sicilia","AdditionalData":[{"value":"Italia","key":"CountryName"},{"value":"Sicilia","key":"StateName"}]},"MapReference":{"CountryId":"20110484","StateId":"20126201","PlaceId":"82846424"}}},{"Relevance":1.0,"Distance":0.0,"Direction":0.0,"MatchLevel":"city","MatchQuality":{"Country":1.0,"State":1.0,"County":1.0,"City":1.0,"PostalCode":1.0},"Location":{"LocationId":"NT_LEDh4hjl.QlTubYl3.kbAB","LocationType":"point","DisplayPosition":{"Latitude":37.6355288,"Longitude":14.9430954},"MapView":{"TopLeft":{"Latitude":37.73265,"Longitude":14.90462},"BottomRight":{"Latitude":37.60578,"Longitude":14.99507}},"Address":{"Label":"Ragalna, Sicilia, Italia","Country":"ITA","State":"Sicilia","County":"CT","City":"Ragalna","PostalCode":"95030","AdditionalData":[{"value":"Italia","key":"CountryName"},{"value":"Sicilia","key":"StateName"},{"value":"Catania","key":"CountyName"}]},"MapReference":{"ReferenceId":"556218148","SideOfStreet":"neither","CountryId":"20110484","StateId":"20126201","CountyId":"20246855","CityId":"20247056"}}},{"Relevance":1.0,"Distance":24.0,"MatchLevel":"houseNumber","MatchQuality":{"Country":1.0,"State":1.0,"County":1.0,"City":1.0,"Street":[1.0],"HouseNumber":1.0,"PostalCode":1.0},"MatchType":"interpolated","Location":{"LocationId":"NT_atk3LYHG6pcdKTRbgT6slD_0ED","LocationType":"point","DisplayPosition":{"Latitude":37.63565,"Longitude":14.94287},"MapView":{"TopLeft":{"Latitude":37.6367742,"Longitude":14.9414505},"BottomRight":{"Latitude":37.6345258,"Longitude":14.9442895}},"Address":{"Label":"Via Dottore Giuffrida, 41, 95030 Ragalna CT, Italia","Country":"ITA","State":"Sicilia","County":"CT","City":"Ragalna","Street":"Via Dottore Giuffrida","HouseNumber":"41","PostalCode":"95030","AdditionalData":[{"value":"Italia","key":"CountryName"},{"value":"Sicilia","key":"StateName"},{"value":"Catania","key":"CountyName"}]},"MapReference":{"ReferenceId":"556218722","Spot":0.78,"SideOfStreet":"left","CountryId":"20110484","StateId":"20126201","CountyId":"20246855","CityId":"20247056","AddressId":"671786935","RoadLinkId":"59788959"}}},{"Relevance":1.0,"Distance":24.2,"MatchLevel":"landmark","MatchQuality":{"Country":1.0,"State":1.0,"County":1.0,"City":1.0,"Street":[1.0],"PostalCode":1.0,"Name":1.0},"Location":{"LocationId":"NT_-7nlseCnCImD8iCjpW4bJC_p_AHMY88K5A72FpiKfcFPL-A","LocationType":"park","Name":"Parco Regionale dell'Etna","DisplayPosition":{"Latitude":37.64424,"Longitude":14.99489},"MapView":{"TopLeft":{"Latitude":37.87688,"Longitude":14.82226},"BottomRight":{"Latitude":37.61614,"Longitude":15.13933}},"Address":{"Label":"SP92, 95030 Nicolosi CT, Italia","Country":"ITA","State":"Sicilia","County":"CT","City":"Nicolosi","Street":"SP92","PostalCode":"95030","AdditionalData":[{"value":"Italia","key":"CountryName"},{"value":"Sicilia","key":"StateName"},{"value":"Catania","key":"CountyName"}]},"MapReference":{"CountryId":"20110484","StateId":"20126201","CountyId":"20246855","CityId":"20246971","PlaceId":"61014334"}}},{"Relevance":1.0,"Distance":27.4,"MatchLevel":"street","MatchQuality":{"Country":1.0,"State":1.0,"County":1.0,"City":1.0,"PostalCode":1.0},"Location":{"LocationId":"NT_CsNojUMiLGsnEY3CJd3LlA_l_556218774_L","LocationType":"point","DisplayPosition":{"Latitude":37.63572,"Longitude":14.9429},"MapView":{"TopLeft":{"Latitude":37.63579,"Longitude":14.94244},"BottomRight":{"Latitude":37.63572,"Longitude":14.9429}},"Address":{"Label":"95030 Ragalna CT, Italia","Country":"ITA","State":"Sicilia","County":"CT","City":"Ragalna","PostalCode":"95030","AdditionalData":[{"value":"Italia","key":"CountryName"},{"value":"Sicilia","key":"StateName"},{"value":"Catania","key":"CountyName"}]},"MapReference":{"ReferenceId":"556218774","Spot":0.0,"SideOfStreet":"left","CountryId":"20110484","StateId":"20126201","CountyId":"20246855","CityId":"20247056"}}},{"Relevance":1.0,"Distance":28.6,"MatchLevel":"houseNumber","MatchQuality":{"Country":1.0,"State":1.0,"County":1.0,"City":1.0,"Street":[1.0],"HouseNumber":1.0,"PostalCode":1.0},"MatchType":"interpolated","Location":{"LocationId":"NT_atk3LYHG6pcdKTRbgT6slD_0UD","LocationType":"point","DisplayPosition":{"Latitude":37.63574,"Longitude":14.94291},"MapView":{"TopLeft":{"Latitude":37.6368642,"Longitude":14.9414905},"BottomRight":{"Latitude":37.6346158,"Longitude":14.9443295}},"Address":{"Label":"Via Dottore Giuffrida, 45, 95030 Ragalna CT, Italia","Country":"ITA","State":"Sicilia","County":"CT","City":"Ragalna","Street":"Via Dottore Giuffrida","HouseNumber":"45","PostalCode":"95030","AdditionalData":[{"value":"Italia","key":"CountryName"},{"value":"Sicilia","key":"StateName"},{"value":"Catania","key":"CountyName"}]},"MapReference":{"ReferenceId":"586992506","Spot":0.03,"SideOfStreet":"left","CountryId":"20110484","StateId":"20126201","CountyId":"20246855","CityId":"20247056","AddressId":"670880670","RoadLinkId":"59788761"}}},{"Relevance":1.0,"Distance":33.6,"MatchLevel":"street","MatchQuality":{"Country":1.0,"State":1.0,"County":1.0,"City":1.0,"PostalCode":1.0},"Location":{"LocationId":"NT_CsNojUMiLGsnEY3CJd3LlA_l_556218780_R","LocationType":"point","DisplayPosition":{"Latitude":37.63542,"Longitude":14.94274},"MapView":{"TopLeft":{"Latitude":37.6357,"Longitude":14.94196},"BottomRight":{"Latitude":37.63542,"Longitude":14.94274}},"Address":{"Label":"95030 Ragalna CT, Italia","Country":"ITA","State":"Sicilia","County":"CT","City":"Ragalna","PostalCode":"95030","AdditionalData":[{"value":"Italia","key":"CountryName"},{"value":"Sicilia","key":"StateName"},{"value":"Catania","key":"CountyName"}]},"MapReference":{"ReferenceId":"556218780","Spot":0.0,"SideOfStreet":"right","CountryId":"20110484","StateId":"20126201","CountyId":"20246855","CityId":"20247056"}}},{"Relevance":1.0,"Distance":61.5,"MatchLevel":"houseNumber","MatchQuality":{"Country":1.0,"State":1.0,"County":1.0,"City":1.0,"Street":[1.0],"HouseNumber":1.0,"PostalCode":1.0},"MatchType":"interpolated","Location":{"LocationId":"NT_atk3LYHG6pcdKTRbgT6slD_l_586992495_R_yA","LocationType":"point","DisplayPosition":{"Latitude":37.6350297,"Longitude":14.94266},"MapView":{"TopLeft":{"Latitude":37.6361539,"Longitude":14.9412405},"BottomRight":{"Latitude":37.6339056,"Longitude":14.9440795}},"Address":{"Label":"Via Dottore Giuffrida, 2, 95030 Ragalna CT, Italia","Country":"ITA","State":"Sicilia","County":"CT","City":"Ragalna","Street":"Via Dottore Giuffrida","HouseNumber":"2","PostalCode":"95030","AdditionalData":[{"value":"Italia","key":"CountryName"},{"value":"Sicilia","key":"StateName"},{"value":"Catania","key":"CountyName"}]},"MapReference":{"ReferenceId":"586992495","Spot":0.5,"SideOfStreet":"right","CountryId":"20110484","StateId":"20126201","CountyId":"20246855","CityId":"20247056"}}},{"Relevance":1.0,"Distance":78.0,"MatchLevel":"street","MatchQuality":{"Country":1.0,"State":1.0,"County":1.0,"City":1.0,"Street":[1.0],"PostalCode":1.0},"Location":{"LocationId":"NT_aRjgdCZwPtoicW.j2W.qZC_l_556218836_R","LocationType":"point","DisplayPosition":{"Latitude":37.63515,"Longitude":14.94235},"MapView":{"TopLeft":{"Latitude":37.63516,"Longitude":14.94219},"BottomRight":{"Latitude":37.63515,"Longitude":14.94235}},"Address":{"Label":"Via Niccolò Paganini, 95030 Ragalna CT, Italia","Country":"ITA","State":"Sicilia","County":"CT","City":"Ragalna","Street":"Via Niccolò Paganini","PostalCode":"95030","AdditionalData":[{"value":"Italia","key":"CountryName"},{"value":"Sicilia","key":"StateName"},{"value":"Catania","key":"CountyName"}]},"MapReference":{"ReferenceId":"556218836","Spot":0.0,"SideOfStreet":"right","CountryId":"20110484","StateId":"20126201","CountyId":"20246855","CityId":"20247056"}}},{"Relevance":1.0,"Distance":85.0,"MatchLevel":"houseNumber","MatchQuality":{"Country":1.0,"State":1.0,"County":1.0,"City":1.0,"Street":[1.0],"HouseNumber":1.0,"PostalCode":1.0},"MatchType":"interpolated","Location":{"LocationId":"NT_aRjgdCZwPtoicW.j2W.qZC_xID","LocationType":"point","DisplayPosition":{"Latitude":37.63519,"Longitude":14.94223},"MapView":{"TopLeft":{"Latitude":37.6363142,"Longitude":14.9408105},"BottomRight":{"Latitude":37.6340658,"Longitude":14.9436495}},"Address":{"Label":"Via Niccolò Paganini, 12, 95030 Ragalna CT, Italia","Country":"ITA","State":"Sicilia","County":"CT","City":"Ragalna","Street":"Via Niccolò Paganini","HouseNumber":"12","PostalCode":"95030","AdditionalData":[{"value":"Italia","key":"CountryName"},{"value":"Sicilia","key":"StateName"},{"value":"Catania","key":"CountyName"}]},"MapReference":{"ReferenceId":"556218810","Spot":0.16,"SideOfStreet":"left","CountryId":"20110484","StateId":"20126201","CountyId":"20246855","CityId":"20247056","AddressId":"738111006","RoadLinkId":"437931464"}}}]}]}}