{"Response":{"MetaInfo":{"Timestamp":"2020-03-28T09:40:07.549+0000","NextPageInformation":"2"},"View":[{"_type":"SearchResultsViewType","ViewId":0,"Result":[{"Relevance":1.0,"Distance":0.0,"Direction":0.0,"MatchLevel":"city","MatchQuality":{"Country":1.0,"State":1.0,"County":1.0,"City":1.0,"PostalCode":1.0},"Location":{"LocationId":"NT_qvsIFmG6mdjnyDKZGPh2xC","LocationType":"point","DisplayPosition":{"Latitude":37.6479123,"Longitude":-4.7013814},"MapView":{"TopLeft":{"Latitude":37.69923,"Longitude":-4.72394},"BottomRight":{"Latitude":37.61458,"Longitude":-4.59179}},"Address":{"Label":"Montemayor, Andalucía, España","Country":"ESP","State":"Andalucía","County":"Córdoba","City":"Montemayor","PostalCode":"14530","AdditionalData":[{"value":"España","key":"CountryName"},{"value":"Andalucía","key":"StateName"},{"value":"Córdoba","key":"CountyName"}]},"MapReference":{"ReferenceId":"549376970","SideOfStreet":"neither","CountryId":"20215059","StateId":"20221885","CountyId":"20221888","CityId":"20234160"}}},{"Relevance":1.0,"Distance":8.9,"MatchLevel":"houseNumber","MatchQuality":{"Country":1.0,"State":1.0,"County":1.0,"City":1.0,"Street":[1.0],"HouseNumber":1.0,"PostalCode":1.0},"MatchType":"interpolated","Location":{"LocationId":"NT_fwF4LXiBV64vCpGDNX0VSC_5QE","LocationType":"point","DisplayPosition":{"Latitude":37.64799,"Longitude":-4.70155},"MapView":{"TopLeft":{"Latitude":37.6491142,"Longitude":-4.7029698},"BottomRight":{"Latitude":37.6468658,"Longitude":-4.7001302}},"Address":{"Label":"Calle Miguel Hernández, 9D, 14530 Montemayor (Córdoba), España","Country":"ESP","State":"Andalucía","County":"Córdoba","City":"Montemayor","Street":"Calle Miguel Hernández","HouseNumber":"9D","PostalCode":"14530","AdditionalData":[{"value":"España","key":"CountryName"},{"value":"Andalucía","key":"StateName"},{"value":"Córdoba","key":"CountyName"}]},"MapReference":{"ReferenceId":"549377054","Spot":0.9,"SideOfStreet":"right","CountryId":"20215059","StateId":"20221885","CountyId":"20221888","CityId":"20234160","AddressId":"404859794","RoadLinkId":"66828168"}}},{"Relevance":1.0,"Distance":11.1,"MatchLevel":"houseNumber","MatchQuality":{"Country":1.0,"State":1.0,"County":1.0,"City":1.0,"Street":[1.0],"HouseNumber":1.0,"PostalCode":1.0},"MatchType":"interpolated","Location":{"LocationId":"NT_F8NKU1nGqvigV0u7UaikhC_yA","LocationType":"point","DisplayPosition":{"Latitude":37.64782,"Longitude":-4.70143},"MapView":{"TopLeft":{"Latitude":37.6489442,"Longitude":-4.7028498},"BottomRight":{"Latitude":37.6466958,"Longitude":-4.7000102}},"Address":{"Label":"Calle Batalla de Munda, 2, 14530 Montemayor (Córdoba), España","Country":"ESP","State":"Andalucía","County":"Córdoba","City":"Montemayor","Street":"Calle Batalla de Munda","HouseNumber":"2","PostalCode":"14530","AdditionalData":[{"value":"España","key":"CountryName"},{"value":"Andalucía","key":"StateName"},{"value":"Córdoba","key":"CountyName"}]},"MapReference":{"ReferenceId":"549377070","Spot":0.74,"SideOfStreet":"left","CountryId":"20215059","StateId":"20221885","CountyId":"20221888","CityId":"20234160","AddressId":"404709605","RoadLinkId":"324191553"}}},{"Relevance":1.0,"Distance":26.7,"MatchLevel":"houseNumber","MatchQuality":{"Country":1.0,"State":1.0,"County":1.0,"City":1.0,"Street":[1.0],"HouseNumber":1.0,"PostalCode":1.0},"MatchType":"interpolated","Location":{"LocationId":"NT_F8NKU1nGqvigV0u7UaikhC_xA","LocationType":"point","DisplayPosition":{"Latitude":37.64767,"Longitude":-4.70129},"MapView":{"TopLeft":{"Latitude":37.6487942,"Longitude":-4.7027098},"BottomRight":{"Latitude":37.6465458,"Longitude":-4.6998702}},"Address":{"Label":"Calle Batalla de Munda, 1, 14530 Montemayor (Córdoba), España","Country":"ESP","State":"Andalucía","County":"Córdoba","City":"Montemayor","Street":"Calle Batalla de Munda","HouseNumber":"1","PostalCode":"14530","AdditionalData":[{"value":"España","key":"CountryName"},{"value":"Andalucía","key":"StateName"},{"value":"Córdoba","key":"CountyName"}]},"MapReference":{"ReferenceId":"549377093","Spot":0.89,"SideOfStreet":"right","CountryId":"20215059","StateId":"20221885","CountyId":"20221888","CityId":"20234160","AddressId":"404701296","RoadLinkId":"324190320"}}},{"Relevance":1.0,"Distance":28.8,"MatchLevel":"street","MatchQuality":{"Country":1.0,"State":1.0,"County":1.0,"City":1.0,"Street":[1.0],"PostalCode":1.0},"Location":{"LocationId":"NT_fwF4LXiBV64vCpGDNX0VSC_l_990136231_L","LocationType":"point","DisplayPosition":{"Latitude":37.64817,"Longitude":-4.70141},"MapView":{"TopLeft":{"Latitude":37.64823,"Longitude":-4.70175},"BottomRight":{"Latitude":37.64817,"Longitude":-4.70101}},"Address":{"Label":"Calle Miguel Hernández, 14530 Montemayor (Córdoba), España","Country":"ESP","State":"Andalucía","County":"Córdoba","City":"Montemayor","Street":"Calle Miguel Hernández","PostalCode":"14530","AdditionalData":[{"value":"España","key":"CountryName"},{"value":"Andalucía","key":"StateName"},{"value":"Córdoba","key":"CountyName"}]},"MapReference":{"ReferenceId":"990136231","Spot":0.54,"SideOfStreet":"left","CountryId":"20215059","StateId":"20221885","CountyId":"20221888","CityId":"20234160"}}},{"Relevance":1.0,"Distance":39.8,"MatchLevel":"houseNumber","MatchQuality":{"Country":1.0,"State":1.0,"County":1.0,"City":1.0,"Street":[1.0],"HouseNumber":1.0,"PostalCode":1.0},"MatchType":"interpolated","Location":{"LocationId":"NT_ZWvgRBttavIaY5d-kwT3HA_yA","LocationType":"point","DisplayPosition":{"Latitude":37.6479,"Longitude":-4.70091},"MapView":{"TopLeft":{"Latitude":37.6490242,"Longitude":-4.7023298},"BottomRight":{"Latitude":37.6467758,"Longitude":-4.6994902}},"Address":{"Label":"Calle Julio César, 2, 14530 Montemayor (Córdoba), España","Country":"ESP","State":"Andalucía","County":"Córdoba","City":"Montemayor","Street":"Calle Julio César","HouseNumber":"2","PostalCode":"14530","AdditionalData":[{"value":"España","key":"CountryName"},{"value":"Andalucía","key":"StateName"},{"value":"Córdoba","key":"CountyName"}]},"MapReference":{"ReferenceId":"549377065","Spot":0.58,"SideOfStreet":"left","CountryId":"20215059","StateId":"20221885","CountyId":"20221888","CityId":"20234160","AddressId":"404432387","RoadLinkId":"324191280"}}},{"Relevance":1.0,"Distance":43.5,"MatchLevel":"street","MatchQuality":{"Country":1.0,"State":1.0,"County":1.0,"City":1.0,"Street":[1.0],"PostalCode":1.0},"Location":{"LocationId":"NT_DVl16PrngazxjpQcs51zRA_l_990136234_L","LocationType":"point","DisplayPosition":{"Latitude":37.64817,"Longitude":-4.70101},"MapView":{"TopLeft":{"Latitude":37.64848,"Longitude":-4.70101},"BottomRight":{"Latitude":37.64817,"Longitude":-4.70093}},"Address":{"Label":"Pasaje Manuel Moreno Sánchez, 14530 Montemayor (Córdoba), España","Country":"ESP","State":"Andalucía","County":"Córdoba","City":"Montemayor","Street":"Pasaje Manuel Moreno Sánchez","PostalCode":"14530","AdditionalData":[{"value":"España","key":"CountryName"},{"value":"Andalucía","key":"StateName"},{"value":"Córdoba","key":"CountyName"}]},"MapReference":{"ReferenceId":"990136234","Spot":0.0,"SideOfStreet":"left","CountryId":"20215059","StateId":"20221885","CountyId":"20221888","CityId":"20234160"}}},{"Relevance":1.0,"Distance":43.5,"MatchLevel":"street","MatchQuality":{"Country":1.0,"State":1.0,"County":1.0,"City":1.0,"Street":[1.0],"PostalCode":1.0},"Location":{"LocationId":"NT_fwF4LXiBV64vCpGDNX0VSC_l_990136230_L","LocationType":"point","DisplayPosition":{"Latitude":37.64817,"Longitude":-4.70101},"MapView":{"TopLeft":{"Latitude":37.64817,"Longitude":-4.70101},"BottomRight":{"Latitude":37.64764,"Longitude":-4.70002}},"Address":{"Label":"Calle Miguel Hernández, 14530 Montemayor (Córdoba), España","Country":"ESP","State":"Andalucía","County":"Córdoba","City":"Montemayor","Street":"Calle Miguel Hernández","PostalCode":"14530","AdditionalData":[{"value":"España","key":"CountryName"},{"value":"Andalucía","key":"StateName"},{"value":"Córdoba","key":"CountyName"}]},"MapReference":{"ReferenceId":"990136230","Spot":1.0,"SideOfStreet":"left","CountryId":"20215059","StateId":"20221885","CountyId":"20221888","CityId":"20234160"}}},{"Relevance":1.0,"Distance":43.8,"MatchLevel":"houseNumber","MatchQuality":{"Country":1.0,"State":1.0,"County":1.0,"City":1.0,"Street":[1.0],"HouseNumber":1.0,"PostalCode":1.0},"MatchType":"interpolated","Location":{"LocationId":"NT_fwF4LXiBV64vCpGDNX0VSC_xED","LocationType":"point","DisplayPosition":{"Latitude":37.64753,"Longitude":-4.70185},"MapView":{"TopLeft":{"Latitude":37.6486542,"Longitude":-4.7032698},"BottomRight":{"Latitude":37.6464058,"Longitude":-4.7004302}},"Address":{"Label":"Calle Miguel Hernández, 11, 14530 Montemayor (Córdoba), España","Country":"ESP","State":"Andalucía","County":"Córdoba","City":"Montemayor","Street":"Calle Miguel Hernández","HouseNumber":"11","PostalCode":"14530","AdditionalData":[{"value":"España","key":"CountryName"},{"value":"Andalucía","key":"StateName"},{"value":"Córdoba","key":"CountyName"}]},"MapReference":{"ReferenceId":"549377058","Spot":0.98,"SideOfStreet":"right","CountryId":"20215059","StateId":"20221885","CountyId":"20221888","CityId":"20234160","AddressId":"404909097","RoadLinkId":"67354023"}}},{"Relevance":1.0,"Distance":46.5,"MatchLevel":"houseNumber","MatchQuality":{"Country":1.0,"State":1.0,"County":1.0,"City":1.0,"Street":[1.0],"HouseNumber":1.0,"PostalCode":1.0},"MatchType":"interpolated","Location":{"LocationId":"NT_fwF4LXiBV64vCpGDNX0VSC_5A","LocationType":"point","DisplayPosition":{"Latitude":37.64764,"Longitude":-4.70192},"MapView":{"TopLeft":{"Latitude":37.6487642,"Longitude":-4.7033398},"BottomRight":{"Latitude":37.6465158,"Longitude":-4.7005002}},"Address":{"Label":"Calle Miguel Hernández, 9, 14530 Montemayor (Córdoba), España","Country":"ESP","State":"Andalucía","County":"Córdoba","City":"Montemayor","Street":"Calle Miguel Hernández","HouseNumber":"9","PostalCode":"14530","AdditionalData":[{"value":"España","key":"CountryName"},{"value":"Andalucía","key":"StateName"},{"value":"Córdoba","key":"CountyName"}]},"MapReference":{"ReferenceId":"549377059","Spot":0.49,"SideOfStreet":"right","CountryId":"20215059","StateId":"20221885","CountyId":"20221888","CityId":"20234160","AddressId":"404591150","RoadLinkId":"67397574"}}}]}]}}