{"Response":{"MetaInfo":{"Timestamp":"2020-03-28T09:47:03.991+0000","NextPageInformation":"2"},"View":[{"_type":"SearchResultsViewType","ViewId":0,"Result":[{"Relevance":1.0,"Distance":0.0,"Direction":0.0,"MatchLevel":"district","MatchQuality":{"Country":1.0,"State":1.0,"County":1.0,"City":1.0,"District":1.0,"PostalCode":1.0},"Location":{"LocationId":"NT_zBsGZF-513-9DJgpH0Jb3D","LocationType":"point","DisplayPosition":{"Latitude":37.6259635,"Longitude":-0.922592},"MapView":{"TopLeft":{"Latitude":37.62834,"Longitude":-0.92592},"BottomRight":{"Latitude":37.62461,"Longitude":-0.92134}},"Address":{"Label":"Roche, La Unión, Región de Murcia, España","Country":"ESP","State":"Región de Murcia","County":"Murcia","City":"La Unión","District":"Roche","PostalCode":"30369","AdditionalData":[{"value":"España","key":"CountryName"},{"value":"Región de Murcia","key":"StateName"},{"value":"Murcia","key":"CountyName"}]},"MapReference":{"ReferenceId":"1218078952","SideOfStreet":"neither","CountryId":"20215059","StateId":"20226810","CountyId":"20226811","CityId":"20289133","DistrictId":"20289136"}}},{"Relevance":1.0,"Distance":5.2,"MatchLevel":"street","MatchQuality":{"Country":1.0,"State":1.0,"County":1.0,"City":1.0,"District":1.0,"Street":[1.0],"PostalCode":1.0},"Location":{"LocationId":"NT_Pi6qrKaMR1-s6NRIgkrwNC_l_1218078551_R","LocationType":"point","DisplayPosition":{"Latitude":37.6260103,"Longitude":-0.9225956},"MapView":{"TopLeft":{"Latitude":37.62602,"Longitude":-0.92289},"BottomRight":{"Latitude":37.62599,"Longitude":-0.92247}},"Address":{"Label":"Avenida de Manuel Cano Vicedo, 30369 La Unión (Murcia), España","Country":"ESP","State":"Región de Murcia","County":"Murcia","City":"La Unión","District":"Roche","Street":"Avenida de Manuel Cano Vicedo","PostalCode":"30369","AdditionalData":[{"value":"España","key":"CountryName"},{"value":"Región de Murcia","key":"StateName"},{"value":"Murcia","key":"CountyName"}]},"MapReference":{"ReferenceId":"1218078551","Spot":0.7,"SideOfStreet":"right","CountryId":"20215059","StateId":"20226810","CountyId":"20226811","CityId":"20289133","DistrictId":"20289136"}}},{"Relevance":1.0,"Distance":10.1,"MatchLevel":"houseNumber","MatchQuality":{"Country":1.0,"State":1.0,"County":1.0,"City":1.0,"District":1.0,"Street":[1.0],"HouseNumber":1.0,"PostalCode":1.0},"MatchType":"interpolated","Location":{"LocationId":"NT_6naYUdusg9-Mf1gGqi9gEC_xID","LocationType":"point","DisplayPosition":{"Latitude":37.62586,"Longitude":-0.9225},"MapView":{"TopLeft":{"Latitude":37.6269842,"Longitude":-0.9239194},"BottomRight":{"Latitude":37.6247358,"Longitude":-0.9210806}},"Address":{"Label":"Calle del Teatro, 12, 30369 La Unión (Murcia), España","Country":"ESP","State":"Región de Murcia","County":"Murcia","City":"La Unión","District":"Roche","Street":"Calle del Teatro","HouseNumber":"12","PostalCode":"30369","AdditionalData":[{"value":"España","key":"CountryName"},{"value":"Región de Murcia","key":"StateName"},{"value":"Murcia","key":"CountyName"}]},"MapReference":{"ReferenceId":"544851121","Spot":0.72,"SideOfStreet":"left","CountryId":"20215059","StateId":"20226810","CountyId":"20226811","CityId":"20289133","DistrictId":"20289136","AddressId":"352158770","RoadLinkId":"65441458"}}},{"Relevance":1.0,"Distance":12.4,"MatchLevel":"street","MatchQuality":{"Country":1.0,"State":1.0,"County":1.0,"City":1.0,"District":1.0,"Street":[1.0],"PostalCode":1.0},"Location":{"LocationId":"NT_2MNs5fkLFIh5zE2uPmU58C_l_1006171593_L","LocationType":"point","DisplayPosition":{"Latitude":37.62602,"Longitude":-0.92247},"MapView":{"TopLeft":{"Latitude":37.62602,"Longitude":-0.92247},"BottomRight":{"Latitude":37.62599,"Longitude":-0.92223}},"Address":{"Label":"Avenida de Manuel Cano Vicedo, 30369 La Unión (Murcia), España","Country":"ESP","State":"Región de Murcia","County":"Murcia","City":"La Unión","District":"Roche","Street":"Avenida de Manuel Cano Vicedo","PostalCode":"30369","AdditionalData":[{"value":"España","key":"CountryName"},{"value":"Región de Murcia","key":"StateName"},{"value":"Murcia","key":"CountyName"}]},"MapReference":{"ReferenceId":"1006171593","Spot":1.0,"SideOfStreet":"left","CountryId":"20215059","StateId":"20226810","CountyId":"20226811","CityId":"20289133","DistrictId":"20289136"}}},{"Relevance":1.0,"Distance":32.0,"MatchLevel":"street","MatchQuality":{"Country":1.0,"State":1.0,"County":1.0,"City":1.0,"District":1.0,"Street":[1.0],"PostalCode":1.0},"Location":{"LocationId":"NT_2MNs5fkLFIh5zE2uPmU58C_l_553398593_L","LocationType":"point","DisplayPosition":{"Latitude":37.62599,"Longitude":-0.92223},"MapView":{"TopLeft":{"Latitude":37.62599,"Longitude":-0.92223},"BottomRight":{"Latitude":37.62593,"Longitude":-0.92207}},"Address":{"Label":"Avenida de la Libertad, 30369 La Unión (Murcia), España","Country":"ESP","State":"Región de Murcia","County":"Murcia","City":"La Unión","District":"Roche","Street":"Avenida de la Libertad","PostalCode":"30369","AdditionalData":[{"value":"España","key":"CountryName"},{"value":"Región de Murcia","key":"StateName"},{"value":"Murcia","key":"CountyName"}]},"MapReference":{"ReferenceId":"553398593","Spot":1.0,"SideOfStreet":"left","CountryId":"20215059","StateId":"20226810","CountyId":"20226811","CityId":"20289133","DistrictId":"20289136"}}},{"Relevance":1.0,"Distance":40.7,"MatchLevel":"houseNumber","MatchQuality":{"Country":1.0,"State":1.0,"County":1.0,"City":1.0,"District":1.0,"Street":[1.0],"HouseNumber":1.0,"PostalCode":1.0},"MatchType":"interpolated","Location":{"LocationId":"NT_Pi6qrKaMR1-s6NRIgkrwNC_yQF","LocationType":"point","DisplayPosition":{"Latitude":37.62609,"Longitude":-0.92305},"MapView":{"TopLeft":{"Latitude":37.6272142,"Longitude":-0.9244694},"BottomRight":{"Latitude":37.6249658,"Longitude":-0.9216306}},"Address":{"Label":"Avenida de Manuel Cano Vicedo, 2T, 30369 La Unión (Murcia), España","Country":"ESP","State":"Región de Murcia","County":"Murcia","City":"La Unión","District":"Roche","Street":"Avenida de Manuel Cano Vicedo","HouseNumber":"2T","PostalCode":"30369","AdditionalData":[{"value":"España","key":"CountryName"},{"value":"Región de Murcia","key":"StateName"},{"value":"Murcia","key":"CountyName"}]},"MapReference":{"ReferenceId":"1218078552","Spot":0.48,"SideOfStreet":"right","CountryId":"20215059","StateId":"20226810","CountyId":"20226811","CityId":"20289133","DistrictId":"20289136","AddressId":"367822425","RoadLinkId":"534644636"}}},{"Relevance":1.0,"Distance":46.1,"MatchLevel":"street","MatchQuality":{"Country":1.0,"State":1.0,"County":1.0,"City":1.0,"Street":[1.0],"PostalCode":1.0},"Location":{"LocationId":"NT_ovkeEjVdo9hV8IFYfmS0YD_l_553398592_L","LocationType":"point","DisplayPosition":{"Latitude":37.62593,"Longitude":-0.92207},"MapView":{"TopLeft":{"Latitude":37.62593,"Longitude":-0.92207},"BottomRight":{"Latitude":37.62571,"Longitude":-0.92161}},"Address":{"Label":"Avenida de la Libertad, 30369 La Unión (Murcia), España","Country":"ESP","State":"Región de Murcia","County":"Murcia","City":"La Unión","Street":"Avenida de la Libertad","PostalCode":"30369","AdditionalData":[{"value":"España","key":"CountryName"},{"value":"Región de Murcia","key":"StateName"},{"value":"Murcia","key":"CountyName"}]},"MapReference":{"ReferenceId":"553398592","Spot":1.0,"SideOfStreet":"left","CountryId":"20215059","StateId":"20226810","CountyId":"20226811","CityId":"20289133"}}},{"Relevance":1.0,"Distance":57.6,"MatchLevel":"street","MatchQuality":{"Country":1.0,"State":1.0,"County":1.0,"City":1.0,"District":1.0,"Street":[1.0],"PostalCode":1.0},"Location":{"LocationId":"NT_2MNs5fkLFIh5zE2uPmU58C_l_544851114_R","LocationType":"point","DisplayPosition":{"Latitude":37.62628,"Longitude":-0.92311},"MapView":{"TopLeft":{"Latitude":37.62649,"Longitude":-0.92311},"BottomRight":{"Latitude":37.62628,"Longitude":-0.92308}},"Address":{"Label":"Avenida de Manuel Cano Vicedo, 30369 La Unión (Murcia), España","Country":"ESP","State":"Región de Murcia","County":"Murcia","City":"La Unión","District":"Roche","Street":"Avenida de Manuel Cano Vicedo","PostalCode":"30369","AdditionalData":[{"value":"España","key":"CountryName"},{"value":"Región de Murcia","key":"StateName"},{"value":"Murcia","key":"CountyName"}]},"MapReference":{"ReferenceId":"544851114","Spot":0.0,"SideOfStreet":"right","CountryId":"20215059","StateId":"20226810","CountyId":"20226811","CityId":"20289133","DistrictId":"20289136"}}},{"Relevance":1.0,"Distance":65.7,"MatchLevel":"houseNumber","MatchQuality":{"Country":1.0,"State":1.0,"County":1.0,"City":1.0,"District":1.0,"Street":[1.0],"HouseNumber":1.0,"PostalCode":1.0},"MatchType":"interpolated","Location":{"LocationId":"NT_JaGyyYznfGroAA2ltCXmQA_xA","LocationType":"point","DisplayPosition":{"Latitude":37.62621,"Longitude":-0.92327},"MapView":{"TopLeft":{"Latitude":37.6273342,"Longitude":-0.9246894},"BottomRight":{"Latitude":37.6250858,"Longitude":-0.9218506}},"Address":{"Label":"Avenida Don Tomás Egea, 1, 30369 La Unión (Murcia), España","Country":"ESP","State":"Región de Murcia","County":"Murcia","City":"La Unión","District":"Roche","Street":"Avenida Don Tomás Egea","HouseNumber":"1","PostalCode":"30369","AdditionalData":[{"value":"España","key":"CountryName"},{"value":"Región de Murcia","key":"StateName"},{"value":"Murcia","key":"CountyName"}]},"MapReference":{"ReferenceId":"544851206","Spot":0.33,"SideOfStreet":"left","CountryId":"20215059","StateId":"20226810","CountyId":"20226811","CityId":"20289133","DistrictId":"20289136","AddressId":"352188116","RoadLinkId":"65954349"}}},{"Relevance":1.0,"Distance":71.3,"MatchLevel":"houseNumber","MatchQuality":{"Country":1.0,"State":1.0,"County":1.0,"City":1.0,"District":1.0,"Street":[1.0],"HouseNumber":1.0,"PostalCode":1.0},"MatchType":"interpolated","Location":{"LocationId":"NT_5uqIjfyvx6vSf1n3fCAQ.B_0AD","LocationType":"point","DisplayPosition":{"Latitude":37.62658,"Longitude":-0.92237},"MapView":{"TopLeft":{"Latitude":37.6277042,"Longitude":-0.9237894},"BottomRight":{"Latitude":37.6254558,"Longitude":-0.9209506}},"Address":{"Label":"Calle Rosario, 40, 30369 La Unión (Murcia), España","Country":"ESP","State":"Región de Murcia","County":"Murcia","City":"La Unión","District":"Roche","Street":"Calle Rosario","HouseNumber":"40","PostalCode":"30369","AdditionalData":[{"value":"España","key":"CountryName"},{"value":"Región de Murcia","key":"StateName"},{"value":"Murcia","key":"CountyName"}]},"MapReference":{"ReferenceId":"544851191","Spot":1.0,"SideOfStreet":"right","CountryId":"20215059","StateId":"20226810","CountyId":"20226811","CityId":"20289133","DistrictId":"20289136","AddressId":"364875559","RoadLinkId":"66008527"}}}]}]}}