{"Response":{"MetaInfo":{"Timestamp":"2020-03-28T09:41:10.384+0000","NextPageInformation":"2"},"View":[{"_type":"SearchResultsViewType","ViewId":0,"Result":[{"Relevance":1.0,"Distance":0.0,"Direction":0.0,"MatchLevel":"city","MatchQuality":{"Country":1.0,"State":1.0,"County":1.0,"City":1.0,"PostalCode":1.0},"Location":{"LocationId":"NT_BKrPGe.01D.-w5ZyUS8t2A","LocationType":"point","DisplayPosition":{"Latitude":37.6112403,"Longitude":-5.8199304},"MapView":{"TopLeft":{"Latitude":37.68758,"Longitude":-5.88312},"BottomRight":{"Latitude":37.5576,"Longitude":-5.74959}},"Address":{"Label":"Cantillana, Andalucía, España","Country":"ESP","State":"Andalucía","County":"Sevilla","City":"Cantillana","PostalCode":"41320","AdditionalData":[{"value":"España","key":"CountryName"},{"value":"Andalucía","key":"StateName"},{"value":"Sevilla","key":"CountyName"}]},"MapReference":{"ReferenceId":"927236844","SideOfStreet":"neither","CountryId":"20215059","StateId":"20221885","CountyId":"20221893","CityId":"20236289"}}},{"Relevance":1.0,"Distance":8.2,"MatchLevel":"street","MatchQuality":{"Country":1.0,"State":1.0,"County":1.0,"City":1.0,"Street":[1.0],"PostalCode":1.0},"Location":{"LocationId":"NT_K.YjK5S2PuH8v6FZrvLLaD_l_549188031_R","LocationType":"point","DisplayPosition":{"Latitude":37.6113139,"Longitude":-5.8199319},"MapView":{"TopLeft":{"Latitude":37.61132,"Longitude":-5.82012},"BottomRight":{"Latitude":37.61131,"Longitude":-5.81964}},"Address":{"Label":"Calle José Pueyo Solís, 41320 Cantillana (Sevilla), España","Country":"ESP","State":"Andalucía","County":"Sevilla","City":"Cantillana","Street":"Calle José Pueyo Solís","PostalCode":"41320","AdditionalData":[{"value":"España","key":"CountryName"},{"value":"Andalucía","key":"StateName"},{"value":"Sevilla","key":"CountyName"}]},"MapReference":{"ReferenceId":"549188031","Spot":0.39,"SideOfStreet":"right","CountryId":"20215059","StateId":"20221885","CountyId":"20221893","CityId":"20236289"}}},{"Relevance":1.0,"Distance":16.9,"MatchLevel":"street","MatchQuality":{"Country":1.0,"State":1.0,"County":1.0,"City":1.0,"Street":[1.0],"PostalCode":1.0},"Location":{"LocationId":"NT_4aA-R7KE0hksYoBfFzZDyA_l_549188047_R","LocationType":"point","DisplayPosition":{"Latitude":37.6112461,"Longitude":-5.8201219},"MapView":{"TopLeft":{"Latitude":37.61131,"Longitude":-5.82013},"BottomRight":{"Latitude":37.61098,"Longitude":-5.82012}},"Address":{"Label":"Calle Rafael Sarmiento Sarmiento, 41320 Cantillana (Sevilla), España","Country":"ESP","State":"Andalucía","County":"Sevilla","City":"Cantillana","Street":"Calle Rafael Sarmiento Sarmiento","PostalCode":"41320","AdditionalData":[{"value":"España","key":"CountryName"},{"value":"Andalucía","key":"StateName"},{"value":"Sevilla","key":"CountyName"}]},"MapReference":{"ReferenceId":"549188047","Spot":0.81,"SideOfStreet":"right","CountryId":"20215059","StateId":"20221885","CountyId":"20221893","CityId":"20236289"}}},{"Relevance":1.0,"Distance":18.4,"MatchLevel":"street","MatchQuality":{"Country":1.0,"State":1.0,"County":1.0,"City":1.0,"Street":[1.0],"PostalCode":1.0},"Location":{"LocationId":"NT_K.YjK5S2PuH8v6FZrvLLaD_l_549188024_L","LocationType":"point","DisplayPosition":{"Latitude":37.61131,"Longitude":-5.82012},"MapView":{"TopLeft":{"Latitude":37.61132,"Longitude":-5.82036},"BottomRight":{"Latitude":37.61131,"Longitude":-5.82012}},"Address":{"Label":"Calle José Pueyo Solís, 41320 Cantillana (Sevilla), España","Country":"ESP","State":"Andalucía","County":"Sevilla","City":"Cantillana","Street":"Calle José Pueyo Solís","PostalCode":"41320","AdditionalData":[{"value":"España","key":"CountryName"},{"value":"Andalucía","key":"StateName"},{"value":"Sevilla","key":"CountyName"}]},"MapReference":{"ReferenceId":"549188024","Spot":0.0,"SideOfStreet":"left","CountryId":"20215059","StateId":"20221885","CountyId":"20221893","CityId":"20236289"}}},{"Relevance":1.0,"Distance":25.7,"MatchLevel":"street","MatchQuality":{"Country":1.0,"State":1.0,"County":1.0,"City":1.0,"Street":[1.0],"PostalCode":1.0},"Location":{"LocationId":"NT_IItVLlSuT3u-asi77.juwA_l_549188133_L","LocationType":"point","DisplayPosition":{"Latitude":37.6112442,"Longitude":-5.819639},"MapView":{"TopLeft":{"Latitude":37.61132,"Longitude":-5.81964},"BottomRight":{"Latitude":37.61057,"Longitude":-5.81963}},"Address":{"Label":"Calle Manuel Marroco Quevedo, 41320 Cantillana (Sevilla), España","Country":"ESP","State":"Andalucía","County":"Sevilla","City":"Cantillana","Street":"Calle Manuel Marroco Quevedo","PostalCode":"41320","AdditionalData":[{"value":"España","key":"CountryName"},{"value":"Andalucía","key":"StateName"},{"value":"Sevilla","key":"CountyName"}]},"MapReference":{"ReferenceId":"549188133","Spot":0.9,"SideOfStreet":"left","CountryId":"20215059","StateId":"20221885","CountyId":"20221893","CityId":"20236289"}}},{"Relevance":1.0,"Distance":27.1,"MatchLevel":"street","MatchQuality":{"Country":1.0,"State":1.0,"County":1.0,"City":1.0,"Street":[1.0],"PostalCode":1.0},"Location":{"LocationId":"NT_IItVLlSuT3u-asi77.juwA_l_549187973_L","LocationType":"point","DisplayPosition":{"Latitude":37.61132,"Longitude":-5.81964},"MapView":{"TopLeft":{"Latitude":37.61168,"Longitude":-5.81968},"BottomRight":{"Latitude":37.61132,"Longitude":-5.81964}},"Address":{"Label":"Calle Manuel Marroco Quevedo, 41320 Cantillana (Sevilla), España","Country":"ESP","State":"Andalucía","County":"Sevilla","City":"Cantillana","Street":"Calle Manuel Marroco Quevedo","PostalCode":"41320","AdditionalData":[{"value":"España","key":"CountryName"},{"value":"Andalucía","key":"StateName"},{"value":"Sevilla","key":"CountyName"}]},"MapReference":{"ReferenceId":"549187973","Spot":0.0,"SideOfStreet":"left","CountryId":"20215059","StateId":"20221885","CountyId":"20221893","CityId":"20236289"}}},{"Relevance":1.0,"Distance":33.9,"MatchLevel":"street","MatchQuality":{"Country":1.0,"State":1.0,"County":1.0,"City":1.0,"Street":[1.0],"PostalCode":1.0},"Location":{"LocationId":"NT_4aA-R7KE0hksYoBfFzZDyA_l_549188034_R","LocationType":"point","DisplayPosition":{"Latitude":37.61098,"Longitude":-5.82013},"MapView":{"TopLeft":{"Latitude":37.61098,"Longitude":-5.82013},"BottomRight":{"Latitude":37.61072,"Longitude":-5.82011}},"Address":{"Label":"Calle Rafael Sarmiento Sarmiento, 41320 Cantillana (Sevilla), España","Country":"ESP","State":"Andalucía","County":"Sevilla","City":"Cantillana","Street":"Calle Rafael Sarmiento Sarmiento","PostalCode":"41320","AdditionalData":[{"value":"España","key":"CountryName"},{"value":"Andalucía","key":"StateName"},{"value":"Sevilla","key":"CountyName"}]},"MapReference":{"ReferenceId":"549188034","Spot":1.0,"SideOfStreet":"right","CountryId":"20215059","StateId":"20221885","CountyId":"20221893","CityId":"20236289"}}},{"Relevance":1.0,"Distance":35.5,"MatchLevel":"houseNumber","MatchQuality":{"Country":1.0,"State":1.0,"County":1.0,"City":1.0,"Street":[1.0],"HouseNumber":1.0,"PostalCode":1.0},"MatchType":"interpolated","Location":{"LocationId":"NT_GJ5c8f8fHE2u9GA-fZa.mC_1A","LocationType":"point","DisplayPosition":{"Latitude":37.61098,"Longitude":-5.82021},"MapView":{"TopLeft":{"Latitude":37.6121042,"Longitude":-5.8216291},"BottomRight":{"Latitude":37.6098558,"Longitude":-5.8187909}},"Address":{"Label":"Calle Tórtola, 5, 41320 Cantillana (Sevilla), España","Country":"ESP","State":"Andalucía","County":"Sevilla","City":"Cantillana","Street":"Calle Tórtola","HouseNumber":"5","PostalCode":"41320","AdditionalData":[{"value":"España","key":"CountryName"},{"value":"Andalucía","key":"StateName"},{"value":"Sevilla","key":"CountyName"}]},"MapReference":{"ReferenceId":"549187997","Spot":0.82,"SideOfStreet":"left","CountryId":"20215059","StateId":"20221885","CountyId":"20221893","CityId":"20236289","AddressId":"347585499","RoadLinkId":"67104542"}}},{"Relevance":1.0,"Distance":35.7,"MatchLevel":"houseNumber","MatchQuality":{"Country":1.0,"State":1.0,"County":1.0,"City":1.0,"Street":[1.0],"HouseNumber":1.0,"PostalCode":1.0},"MatchType":"interpolated","Location":{"LocationId":"NT_K.YjK5S2PuH8v6FZrvLLaD_xA","LocationType":"point","DisplayPosition":{"Latitude":37.61132,"Longitude":-5.81954},"MapView":{"TopLeft":{"Latitude":37.6124442,"Longitude":-5.8209591},"BottomRight":{"Latitude":37.6101958,"Longitude":-5.8181209}},"Address":{"Label":"Calle José Pueyo Solís, 1, 41320 Cantillana (Sevilla), España","Country":"ESP","State":"Andalucía","County":"Sevilla","City":"Cantillana","Street":"Calle José Pueyo Solís","HouseNumber":"1","PostalCode":"41320","AdditionalData":[{"value":"España","key":"CountryName"},{"value":"Andalucía","key":"StateName"},{"value":"Sevilla","key":"CountyName"}]},"MapReference":{"ReferenceId":"549187979","Spot":0.07,"SideOfStreet":"left","CountryId":"20215059","StateId":"20221885","CountyId":"20221893","CityId":"20236289","AddressId":"347750151","RoadLinkId":"67118277"}}},{"Relevance":1.0,"Distance":38.9,"MatchLevel":"street","MatchQuality":{"Country":1.0,"State":1.0,"County":1.0,"City":1.0,"Street":[1.0],"PostalCode":1.0},"Location":{"LocationId":"NT_K.YjK5S2PuH8v6FZrvLLaD_l_549188019_R","LocationType":"point","DisplayPosition":{"Latitude":37.61132,"Longitude":-5.82036},"MapView":{"TopLeft":{"Latitude":37.61132,"Longitude":-5.82062},"BottomRight":{"Latitude":37.61131,"Longitude":-5.82036}},"Address":{"Label":"Calle José Pueyo Solís, 41320 Cantillana (Sevilla), España","Country":"ESP","State":"Andalucía","County":"Sevilla","City":"Cantillana","Street":"Calle José Pueyo Solís","PostalCode":"41320","AdditionalData":[{"value":"España","key":"CountryName"},{"value":"Andalucía","key":"StateName"},{"value":"Sevilla","key":"CountyName"}]},"MapReference":{"ReferenceId":"549188019","Spot":1.0,"SideOfStreet":"right","CountryId":"20215059","StateId":"20221885","CountyId":"20221893","CityId":"20236289"}}}]}]}}