{"Response":{"MetaInfo":{"Timestamp":"2020-03-28T11:25:02.437+0000","NextPageInformation":"2"},"View":[{"_type":"SearchResultsViewType","ViewId":0,"Result":[{"Relevance":1.0,"Distance":-25269.3,"MatchLevel":"landmark","MatchQuality":{"Country":1.0,"State":1.0,"Name":1.0},"Location":{"LocationId":"NT_WbRHZaUNmJdoEGyLvAjbjA","LocationType":"island","Name":"Sicilia","DisplayPosition":{"Latitude":37.4742,"Longitude":14.13844},"MapView":{"TopLeft":{"Latitude":38.30149,"Longitude":12.42414},"BottomRight":{"Latitude":36.6469,"Longitude":15.65312}},"Address":{"Label":"Italia","Country":"ITA","State":"Sicilia","AdditionalData":[{"value":"Italia","key":"CountryName"},{"value":"Sicilia","key":"StateName"}]},"MapReference":{"CountryId":"20110484","StateId":"20126201","PlaceId":"82846424"}}},{"Relevance":1.0,"Distance":0.0,"Direction":0.0,"MatchLevel":"city","MatchQuality":{"Country":1.0,"State":1.0,"County":1.0,"City":1.0,"PostalCode":1.0},"Location":{"LocationId":"NT_TRnrPUjSIeuqpVxO3JAjzB","LocationType":"point","DisplayPosition":{"Latitude":37.6458551,"Longitude":14.870639},"MapView":{"TopLeft":{"Latitude":37.75136,"Longitude":14.81857},"BottomRight":{"Latitude":37.58726,"Longitude":14.99507}},"Address":{"Label":"Biancavilla, Sicilia, Italia","Country":"ITA","State":"Sicilia","County":"CT","City":"Biancavilla","PostalCode":"95033","AdditionalData":[{"value":"Italia","key":"CountryName"},{"value":"Sicilia","key":"StateName"},{"value":"Catania","key":"CountyName"}]},"MapReference":{"ReferenceId":"586991727","SideOfStreet":"neither","CountryId":"20110484","StateId":"20126201","CountyId":"20246855","CityId":"20246883"}}},{"Relevance":1.0,"Distance":5.1,"MatchLevel":"street","MatchQuality":{"Country":1.0,"State":1.0,"County":1.0,"City":1.0,"PostalCode":1.0},"Location":{"LocationId":"NT_kvyS2awCJrHHOpbOvSFgaC_l_586992831_R","LocationType":"point","DisplayPosition":{"Latitude":37.64581,"Longitude":14.87063},"MapView":{"TopLeft":{"Latitude":37.64581,"Longitude":14.8705},"BottomRight":{"Latitude":37.64576,"Longitude":14.87076}},"Address":{"Label":"95033 Biancavilla CT, Italia","Country":"ITA","State":"Sicilia","County":"CT","City":"Biancavilla","PostalCode":"95033","AdditionalData":[{"value":"Italia","key":"CountryName"},{"value":"Sicilia","key":"StateName"},{"value":"Catania","key":"CountyName"}]},"MapReference":{"ReferenceId":"586992831","Spot":0.52,"SideOfStreet":"right","CountryId":"20110484","StateId":"20126201","CountyId":"20246855","CityId":"20246883"}}},{"Relevance":1.0,"Distance":14.2,"MatchLevel":"street","MatchQuality":{"Country":1.0,"State":1.0,"County":1.0,"City":1.0,"PostalCode":1.0},"Location":{"LocationId":"NT_kvyS2awCJrHHOpbOvSFgaC_l_586989446_R","LocationType":"point","DisplayPosition":{"Latitude":37.64579,"Longitude":14.8705},"MapView":{"TopLeft":{"Latitude":37.64579,"Longitude":14.87043},"BottomRight":{"Latitude":37.64572,"Longitude":14.8705}},"Address":{"Label":"95033 Biancavilla CT, Italia","Country":"ITA","State":"Sicilia","County":"CT","City":"Biancavilla","PostalCode":"95033","AdditionalData":[{"value":"Italia","key":"CountryName"},{"value":"Sicilia","key":"StateName"},{"value":"Catania","key":"CountyName"}]},"MapReference":{"ReferenceId":"586989446","Spot":1.0,"SideOfStreet":"right","CountryId":"20110484","StateId":"20126201","CountyId":"20246855","CityId":"20246883"}}},{"Relevance":1.0,"Distance":15.0,"MatchLevel":"street","MatchQuality":{"Country":1.0,"State":1.0,"County":1.0,"City":1.0,"PostalCode":1.0},"Location":{"LocationId":"NT_kvyS2awCJrHHOpbOvSFgaC_l_980163603_L","LocationType":"point","DisplayPosition":{"Latitude":37.64576,"Longitude":14.87076},"MapView":{"TopLeft":{"Latitude":37.64576,"Longitude":14.87076},"BottomRight":{"Latitude":37.64568,"Longitude":14.87079}},"Address":{"Label":"95033 Biancavilla CT, Italia","Country":"ITA","State":"Sicilia","County":"CT","City":"Biancavilla","PostalCode":"95033","AdditionalData":[{"value":"Italia","key":"CountryName"},{"value":"Sicilia","key":"StateName"},{"value":"Catania","key":"CountyName"}]},"MapReference":{"ReferenceId":"980163603","Spot":1.0,"SideOfStreet":"left","CountryId":"20110484","StateId":"20126201","CountyId":"20246855","CityId":"20246883"}}},{"Relevance":1.0,"Distance":15.6,"MatchLevel":"houseNumber","MatchQuality":{"Country":1.0,"State":1.0,"County":1.0,"City":1.0,"Street":[1.0],"HouseNumber":1.0,"PostalCode":1.0},"MatchType":"interpolated","Location":{"LocationId":"NT_v56kFg-qKlYAhPNPP24opB_l_591668841_R_3cD","LocationType":"point","DisplayPosition":{"Latitude":37.6458505,"Longitude":14.8704294},"MapView":{"TopLeft":{"Latitude":37.6469747,"Longitude":14.8690096},"BottomRight":{"Latitude":37.6447264,"Longitude":14.8718491}},"Address":{"Label":"Viale Cristoforo Colombo, 77, 95033 Biancavilla CT, Italia","Country":"ITA","State":"Sicilia","County":"CT","City":"Biancavilla","Street":"Viale Cristoforo Colombo","HouseNumber":"77","PostalCode":"95033","AdditionalData":[{"value":"Italia","key":"CountryName"},{"value":"Sicilia","key":"StateName"},{"value":"Catania","key":"CountyName"}]},"MapReference":{"ReferenceId":"591668841","Spot":0.5,"SideOfStreet":"right","CountryId":"20110484","StateId":"20126201","CountyId":"20246855","CityId":"20246883"}}},{"Relevance":1.0,"Distance":23.6,"MatchLevel":"street","MatchQuality":{"Country":1.0,"State":1.0,"County":1.0,"City":1.0,"Street":[1.0],"PostalCode":1.0},"Location":{"LocationId":"NT_qvN5iy6BfQmMM1msjQbvGA_l_586992832_L","LocationType":"point","DisplayPosition":{"Latitude":37.64568,"Longitude":14.87079},"MapView":{"TopLeft":{"Latitude":37.64573,"Longitude":14.87079},"BottomRight":{"Latitude":37.64568,"Longitude":14.87098}},"Address":{"Label":"Via Maria Santissima dell'Addolora, 95033 Biancavilla CT, Italia","Country":"ITA","State":"Sicilia","County":"CT","City":"Biancavilla","Street":"Via Maria Santissima dell'Addolora","PostalCode":"95033","AdditionalData":[{"value":"Italia","key":"CountryName"},{"value":"Sicilia","key":"StateName"},{"value":"Catania","key":"CountyName"}]},"MapReference":{"ReferenceId":"586992832","Spot":0.0,"SideOfStreet":"left","CountryId":"20110484","StateId":"20126201","CountyId":"20246855","CityId":"20246883"}}},{"Relevance":1.0,"Distance":23.6,"MatchLevel":"street","MatchQuality":{"Country":1.0,"State":1.0,"County":1.0,"City":1.0,"PostalCode":1.0},"Location":{"LocationId":"NT_kvyS2awCJrHHOpbOvSFgaC_l_980163602_L","LocationType":"point","DisplayPosition":{"Latitude":37.64568,"Longitude":14.87079},"MapView":{"TopLeft":{"Latitude":37.64568,"Longitude":14.87079},"BottomRight":{"Latitude":37.64564,"Longitude":14.87079}},"Address":{"Label":"95033 Biancavilla CT, Italia","Country":"ITA","State":"Sicilia","County":"CT","City":"Biancavilla","PostalCode":"95033","AdditionalData":[{"value":"Italia","key":"CountryName"},{"value":"Sicilia","key":"StateName"},{"value":"Catania","key":"CountyName"}]},"MapReference":{"ReferenceId":"980163602","Spot":1.0,"SideOfStreet":"left","CountryId":"20110484","StateId":"20126201","CountyId":"20246855","CityId":"20246883"}}},{"Relevance":1.0,"Distance":23.8,"MatchLevel":"street","MatchQuality":{"Country":1.0,"State":1.0,"County":1.0,"City":1.0,"Street":[1.0],"PostalCode":1.0},"Location":{"LocationId":"NT_N-MukEHB.C8SO4AbPbiGMD_l_586989436_L","LocationType":"point","DisplayPosition":{"Latitude":37.64572,"Longitude":14.87043},"MapView":{"TopLeft":{"Latitude":37.64572,"Longitude":14.87018},"BottomRight":{"Latitude":37.64559,"Longitude":14.87043}},"Address":{"Label":"Via Rovereto, 95033 Biancavilla CT, Italia","Country":"ITA","State":"Sicilia","County":"CT","City":"Biancavilla","Street":"Via Rovereto","PostalCode":"95033","AdditionalData":[{"value":"Italia","key":"CountryName"},{"value":"Sicilia","key":"StateName"},{"value":"Catania","key":"CountyName"}]},"MapReference":{"ReferenceId":"586989436","Spot":1.0,"SideOfStreet":"left","CountryId":"20110484","StateId":"20126201","CountyId":"20246855","CityId":"20246883"}}},{"Relevance":1.0,"Distance":23.8,"MatchLevel":"street","MatchQuality":{"Country":1.0,"State":1.0,"County":1.0,"City":1.0,"PostalCode":1.0},"Location":{"LocationId":"NT_kvyS2awCJrHHOpbOvSFgaC_l_586989439_R","LocationType":"point","DisplayPosition":{"Latitude":37.64572,"Longitude":14.87043},"MapView":{"TopLeft":{"Latitude":37.64572,"Longitude":14.87042},"BottomRight":{"Latitude":37.64554,"Longitude":14.8705}},"Address":{"Label":"95033 Biancavilla CT, Italia","Country":"ITA","State":"Sicilia","County":"CT","City":"Biancavilla","PostalCode":"95033","AdditionalData":[{"value":"Italia","key":"CountryName"},{"value":"Sicilia","key":"StateName"},{"value":"Catania","key":"CountyName"}]},"MapReference":{"ReferenceId":"586989439","Spot":1.0,"SideOfStreet":"right","CountryId":"20110484","StateId":"20126201","CountyId":"20246855","CityId":"20246883"}}}]}]}}