{"Response":{"MetaInfo":{"Timestamp":"2020-03-28T10:12:29.570+0000","NextPageInformation":"2"},"View":[{"_type":"SearchResultsViewType","ViewId":0,"Result":[{"Relevance":1.0,"Distance":-73.4,"MatchLevel":"landmark","MatchQuality":{"Country":1.0,"State":1.0,"Name":1.0},"Location":{"LocationId":"NT_WbRHZaUNmJdoEGyLvAjbjA","LocationType":"island","Name":"Sicilia","DisplayPosition":{"Latitude":37.4742,"Longitude":14.13844},"MapView":{"TopLeft":{"Latitude":38.30149,"Longitude":12.42414},"BottomRight":{"Latitude":36.6469,"Longitude":15.65312}},"Address":{"Label":"Italia","Country":"ITA","State":"Sicilia","AdditionalData":[{"value":"Italia","key":"CountryName"},{"value":"Sicilia","key":"StateName"}]},"MapReference":{"CountryId":"20110484","StateId":"20126201","PlaceId":"82846424"}}},{"Relevance":1.0,"Distance":0.0,"Direction":0.0,"MatchLevel":"city","MatchQuality":{"Country":1.0,"State":1.0,"County":1.0,"City":1.0,"PostalCode":1.0},"Location":{"LocationId":"NT_02VZDVa2pVe4.KVkmRCA1C","LocationType":"point","DisplayPosition":{"Latitude":37.651431,"Longitude":12.5872914},"MapView":{"TopLeft":{"Latitude":37.80283,"Longitude":12.51829},"BottomRight":{"Latitude":37.5754,"Longitude":12.7609}},"Address":{"Label":"Mazara del Vallo, Sicilia, Italia","Country":"ITA","State":"Sicilia","County":"TP","City":"Mazara del Vallo","PostalCode":"91026","AdditionalData":[{"value":"Italia","key":"CountryName"},{"value":"Sicilia","key":"StateName"},{"value":"Trapani","key":"CountyName"}]},"MapReference":{"ReferenceId":"544672391","SideOfStreet":"neither","CountryId":"20110484","StateId":"20126201","CountyId":"20245845","CityId":"20245896"}}},{"Relevance":1.0,"Distance":1.3,"MatchLevel":"houseNumber","MatchQuality":{"Country":1.0,"State":1.0,"County":1.0,"City":1.0,"Street":[1.0],"HouseNumber":1.0,"PostalCode":1.0},"MatchType":"interpolated","Location":{"LocationId":"NT_w6iMTEjeG4sYbJozWlRHiB_zA","LocationType":"point","DisplayPosition":{"Latitude":37.65122,"Longitude":12.58707},"MapView":{"TopLeft":{"Latitude":37.6523442,"Longitude":12.5856502},"BottomRight":{"Latitude":37.6500958,"Longitude":12.5884898}},"Address":{"Label":"Lungomare Giuseppe Mazzini, 3, 91026 Mazara del Vallo TP, Italia","Country":"ITA","State":"Sicilia","County":"TP","City":"Mazara del Vallo","Street":"Lungomare Giuseppe Mazzini","HouseNumber":"3","PostalCode":"91026","AdditionalData":[{"value":"Italia","key":"CountryName"},{"value":"Sicilia","key":"StateName"},{"value":"Trapani","key":"CountyName"}]},"MapReference":{"ReferenceId":"882293330","Spot":0.07,"SideOfStreet":"right","CountryId":"20110484","StateId":"20126201","CountyId":"20245845","CityId":"20245896","AddressId":"670800029","RoadLinkId":"250169157"}}},{"Relevance":1.0,"Distance":19.2,"MatchLevel":"houseNumber","MatchQuality":{"Country":1.0,"State":1.0,"County":1.0,"City":1.0,"Street":[1.0],"HouseNumber":1.0,"PostalCode":1.0},"MatchType":"interpolated","Location":{"LocationId":"NT_w6iMTEjeG4sYbJozWlRHiB_1A","LocationType":"point","DisplayPosition":{"Latitude":37.6511,"Longitude":12.58733},"MapView":{"TopLeft":{"Latitude":37.6522242,"Longitude":12.5859102},"BottomRight":{"Latitude":37.6499758,"Longitude":12.5887498}},"Address":{"Label":"Lungomare Giuseppe Mazzini, 5, 91026 Mazara del Vallo TP, Italia","Country":"ITA","State":"Sicilia","County":"TP","City":"Mazara del Vallo","Street":"Lungomare Giuseppe Mazzini","HouseNumber":"5","PostalCode":"91026","AdditionalData":[{"value":"Italia","key":"CountryName"},{"value":"Sicilia","key":"StateName"},{"value":"Trapani","key":"CountyName"}]},"MapReference":{"ReferenceId":"882293329","Spot":0.57,"SideOfStreet":"right","CountryId":"20110484","StateId":"20126201","CountyId":"20245845","CityId":"20245896","AddressId":"670800031","RoadLinkId":"250169156"}}},{"Relevance":1.0,"Distance":22.9,"MatchLevel":"houseNumber","MatchQuality":{"Country":1.0,"State":1.0,"County":1.0,"City":1.0,"Street":[1.0],"HouseNumber":1.0,"PostalCode":1.0},"MatchType":"interpolated","Location":{"LocationId":"NT_XawlnIYXV09smFo3c.7QSB_xUD","LocationType":"point","DisplayPosition":{"Latitude":37.65163,"Longitude":12.58745},"MapView":{"TopLeft":{"Latitude":37.6527542,"Longitude":12.5860301},"BottomRight":{"Latitude":37.6505058,"Longitude":12.5888699}},"Address":{"Label":"Via Carmine, 15, 91026 Mazara del Vallo TP, Italia","Country":"ITA","State":"Sicilia","County":"TP","City":"Mazara del Vallo","Street":"Via Carmine","HouseNumber":"15","PostalCode":"91026","AdditionalData":[{"value":"Italia","key":"CountryName"},{"value":"Sicilia","key":"StateName"},{"value":"Trapani","key":"CountyName"}]},"MapReference":{"ReferenceId":"544672310","Spot":0.49,"SideOfStreet":"left","CountryId":"20110484","StateId":"20126201","CountyId":"20245845","CityId":"20245896","AddressId":"672100887","RoadLinkId":"60189169"}}},{"Relevance":1.0,"Distance":30.2,"MatchLevel":"street","MatchQuality":{"Country":1.0,"State":1.0,"County":1.0,"City":1.0,"Street":[1.0],"PostalCode":1.0},"Location":{"LocationId":"NT_w6iMTEjeG4sYbJozWlRHiB_l_882293331_R","LocationType":"point","DisplayPosition":{"Latitude":37.6512,"Longitude":12.58711},"MapView":{"TopLeft":{"Latitude":37.6512,"Longitude":12.58655},"BottomRight":{"Latitude":37.65036,"Longitude":12.58711}},"Address":{"Label":"Lungomare Giuseppe Mazzini, 91026 Mazara del Vallo TP, Italia","Country":"ITA","State":"Sicilia","County":"TP","City":"Mazara del Vallo","Street":"Lungomare Giuseppe Mazzini","PostalCode":"91026","AdditionalData":[{"value":"Italia","key":"CountryName"},{"value":"Sicilia","key":"StateName"},{"value":"Trapani","key":"CountyName"}]},"MapReference":{"ReferenceId":"882293331","Spot":1.0,"SideOfStreet":"right","CountryId":"20110484","StateId":"20126201","CountyId":"20245845","CityId":"20245896"}}},{"Relevance":1.0,"Distance":37.3,"MatchLevel":"houseNumber","MatchQuality":{"Country":1.0,"State":1.0,"County":1.0,"City":1.0,"Street":[1.0],"HouseNumber":1.0,"PostalCode":1.0},"MatchType":"interpolated","Location":{"LocationId":"NT_9hvUjdTy8pqCy6-w1DvH2D_l_544672335_L_xA","LocationType":"point","DisplayPosition":{"Latitude":37.6511361,"Longitude":12.5877541},"MapView":{"TopLeft":{"Latitude":37.6522603,"Longitude":12.5863343},"BottomRight":{"Latitude":37.650012,"Longitude":12.5891739}},"Address":{"Label":"Scala Del Pozzo di San Giovanni, 1, 91026 Mazara del Vallo TP, Italia","Country":"ITA","State":"Sicilia","County":"TP","City":"Mazara del Vallo","Street":"Scala Del Pozzo di San Giovanni","HouseNumber":"1","PostalCode":"91026","AdditionalData":[{"value":"Italia","key":"CountryName"},{"value":"Sicilia","key":"StateName"},{"value":"Trapani","key":"CountyName"}]},"MapReference":{"ReferenceId":"544672335","Spot":0.5,"SideOfStreet":"left","CountryId":"20110484","StateId":"20126201","CountyId":"20245845","CityId":"20245896"}}},{"Relevance":1.0,"Distance":57.0,"MatchLevel":"houseNumber","MatchQuality":{"Country":1.0,"State":1.0,"County":1.0,"City":1.0,"Street":[1.0],"HouseNumber":1.0,"PostalCode":1.0},"MatchType":"interpolated","Location":{"LocationId":"NT_a.Ubw2QZka-OBrgwbth3JA_5A","LocationType":"point","DisplayPosition":{"Latitude":37.65131,"Longitude":12.58792},"MapView":{"TopLeft":{"Latitude":37.6524342,"Longitude":12.5865002},"BottomRight":{"Latitude":37.6501858,"Longitude":12.5893398}},"Address":{"Label":"Piazza Plebiscito 21 Ottobre 1960, 9, 91026 Mazara del Vallo TP, Italia","Country":"ITA","State":"Sicilia","County":"TP","City":"Mazara del Vallo","Street":"Piazza Plebiscito 21 Ottobre 1960","HouseNumber":"9","PostalCode":"91026","AdditionalData":[{"value":"Italia","key":"CountryName"},{"value":"Sicilia","key":"StateName"},{"value":"Trapani","key":"CountyName"}]},"MapReference":{"ReferenceId":"544672309","Spot":0.06,"SideOfStreet":"left","CountryId":"20110484","StateId":"20126201","CountyId":"20245845","CityId":"20245896","AddressId":"738118268","RoadLinkId":"60216632"}}},{"Relevance":1.0,"Distance":61.5,"MatchLevel":"houseNumber","MatchQuality":{"Country":1.0,"State":1.0,"County":1.0,"City":1.0,"Street":[1.0],"HouseNumber":1.0,"PostalCode":1.0},"MatchType":"interpolated","Location":{"LocationId":"NT_w6iMTEjeG4sYbJozWlRHiB_5A","LocationType":"point","DisplayPosition":{"Latitude":37.65095,"Longitude":12.58781},"MapView":{"TopLeft":{"Latitude":37.6520742,"Longitude":12.5863902},"BottomRight":{"Latitude":37.6498258,"Longitude":12.5892298}},"Address":{"Label":"Lungomare Giuseppe Mazzini, 9, 91026 Mazara del Vallo TP, Italia","Country":"ITA","State":"Sicilia","County":"TP","City":"Mazara del Vallo","Street":"Lungomare Giuseppe Mazzini","HouseNumber":"9","PostalCode":"91026","AdditionalData":[{"value":"Italia","key":"CountryName"},{"value":"Sicilia","key":"StateName"},{"value":"Trapani","key":"CountyName"}]},"MapReference":{"ReferenceId":"882293327","Spot":0.84,"SideOfStreet":"right","CountryId":"20110484","StateId":"20126201","CountyId":"20245845","CityId":"20245896","AddressId":"670800033","RoadLinkId":"250169152"}}},{"Relevance":1.0,"Distance":64.1,"MatchLevel":"houseNumber","MatchQuality":{"Country":1.0,"State":1.0,"County":1.0,"City":1.0,"Street":[1.0],"HouseNumber":1.0,"PostalCode":1.0},"MatchType":"interpolated","Location":{"LocationId":"NT_3ElZwTvq03EVesyqjrQsTD_xA","LocationType":"point","DisplayPosition":{"Latitude":37.65194,"Longitude":12.58695},"MapView":{"TopLeft":{"Latitude":37.6530642,"Longitude":12.5855301},"BottomRight":{"Latitude":37.6508158,"Longitude":12.5883699}},"Address":{"Label":"Via San Giovanni, 1, 91026 Mazara del Vallo TP, Italia","Country":"ITA","State":"Sicilia","County":"TP","City":"Mazara del Vallo","Street":"Via San Giovanni","HouseNumber":"1","PostalCode":"91026","AdditionalData":[{"value":"Italia","key":"CountryName"},{"value":"Sicilia","key":"StateName"},{"value":"Trapani","key":"CountyName"}]},"MapReference":{"ReferenceId":"544672280","Spot":0.87,"SideOfStreet":"left","CountryId":"20110484","StateId":"20126201","CountyId":"20245845","CityId":"20245896","AddressId":"672100031","RoadLinkId":"60249633"}}}]}]}}