{"Response":{"MetaInfo":{"Timestamp":"2020-03-28T09:38:57.653+0000","NextPageInformation":"2"},"View":[{"_type":"SearchResultsViewType","ViewId":0,"Result":[{"Relevance":1.0,"Distance":0.0,"Direction":0.0,"MatchLevel":"city","MatchQuality":{"Country":1.0,"State":1.0,"County":1.0,"City":1.0,"PostalCode":1.0},"Location":{"LocationId":"NT_JVRvDoq1NHm--BIkWGPSqC","LocationType":"point","DisplayPosition":{"Latitude":37.7054319,"Longitude":-3.2857159},"MapView":{"TopLeft":{"Latitude":37.8309,"Longitude":-3.3136},"BottomRight":{"Latitude":37.58799,"Longitude":-3.14932}},"Address":{"Label":"Cabra del Santo Cristo, Andalucía, España","Country":"ESP","State":"Andalucía","County":"Jaén","City":"Cabra del Santo Cristo","PostalCode":"23550","AdditionalData":[{"value":"España","key":"CountryName"},{"value":"Andalucía","key":"StateName"},{"value":"Jaén","key":"CountyName"}]},"MapReference":{"ReferenceId":"549188791","SideOfStreet":"neither","CountryId":"20215059","StateId":"20221885","CountyId":"20221891","CityId":"20235421"}}},{"Relevance":1.0,"Distance":3.0,"MatchLevel":"houseNumber","MatchQuality":{"Country":1.0,"State":1.0,"County":1.0,"City":1.0,"Street":[1.0],"HouseNumber":1.0,"PostalCode":1.0},"MatchType":"interpolated","Location":{"LocationId":"NT_jLQG1AaA6E0zS91l8F769D_xUD","LocationType":"point","DisplayPosition":{"Latitude":37.7055,"Longitude":-3.28569},"MapView":{"TopLeft":{"Latitude":37.7066242,"Longitude":-3.2871109},"BottomRight":{"Latitude":37.7043758,"Longitude":-3.2842691}},"Address":{"Label":"Calle Cobos, 15, 23550 Cabra del Santo Cristo (Jaén), España","Country":"ESP","State":"Andalucía","County":"Jaén","City":"Cabra del Santo Cristo","Street":"Calle Cobos","HouseNumber":"15","PostalCode":"23550","AdditionalData":[{"value":"España","key":"CountryName"},{"value":"Andalucía","key":"StateName"},{"value":"Jaén","key":"CountyName"}]},"MapReference":{"ReferenceId":"549188945","Spot":0.69,"SideOfStreet":"right","CountryId":"20215059","StateId":"20221885","CountyId":"20221891","CityId":"20235421","AddressId":"404926732","RoadLinkId":"67508518"}}},{"Relevance":1.0,"Distance":16.2,"MatchLevel":"houseNumber","MatchQuality":{"Country":1.0,"State":1.0,"County":1.0,"City":1.0,"Street":[1.0],"HouseNumber":1.0,"PostalCode":1.0},"MatchType":"interpolated","Location":{"LocationId":"NT_wlbThDFWD9ztDpY2EnV-WD_xA","LocationType":"point","DisplayPosition":{"Latitude":37.70553,"Longitude":-3.28548},"MapView":{"TopLeft":{"Latitude":37.7066542,"Longitude":-3.2869009},"BottomRight":{"Latitude":37.7044058,"Longitude":-3.2840591}},"Address":{"Label":"Calle Río, 1, 23550 Cabra del Santo Cristo (Jaén), España","Country":"ESP","State":"Andalucía","County":"Jaén","City":"Cabra del Santo Cristo","Street":"Calle Río","HouseNumber":"1","PostalCode":"23550","AdditionalData":[{"value":"España","key":"CountryName"},{"value":"Andalucía","key":"StateName"},{"value":"Jaén","key":"CountyName"}]},"MapReference":{"ReferenceId":"549188943","Spot":0.04,"SideOfStreet":"left","CountryId":"20215059","StateId":"20221885","CountyId":"20221891","CityId":"20235421","AddressId":"404897593","RoadLinkId":"67422407"}}},{"Relevance":1.0,"Distance":26.0,"MatchLevel":"houseNumber","MatchQuality":{"Country":1.0,"State":1.0,"County":1.0,"City":1.0,"Street":[1.0],"HouseNumber":1.0,"PostalCode":1.0},"MatchType":"interpolated","Location":{"LocationId":"NT_wlbThDFWD9ztDpY2EnV-WD_2A","LocationType":"point","DisplayPosition":{"Latitude":37.70533,"Longitude":-3.28545},"MapView":{"TopLeft":{"Latitude":37.7064542,"Longitude":-3.2868709},"BottomRight":{"Latitude":37.7042058,"Longitude":-3.2840291}},"Address":{"Label":"Calle Río, 6, 23550 Cabra del Santo Cristo (Jaén), España","Country":"ESP","State":"Andalucía","County":"Jaén","City":"Cabra del Santo Cristo","Street":"Calle Río","HouseNumber":"6","PostalCode":"23550","AdditionalData":[{"value":"España","key":"CountryName"},{"value":"Andalucía","key":"StateName"},{"value":"Jaén","key":"CountyName"}]},"MapReference":{"ReferenceId":"564232630","Spot":0.71,"SideOfStreet":"right","CountryId":"20215059","StateId":"20221885","CountyId":"20221891","CityId":"20235421","AddressId":"404881472","RoadLinkId":"67603541"}}},{"Relevance":1.0,"Distance":30.6,"MatchLevel":"houseNumber","MatchQuality":{"Country":1.0,"State":1.0,"County":1.0,"City":1.0,"Street":[1.0],"HouseNumber":1.0,"PostalCode":1.0},"MatchType":"interpolated","Location":{"LocationId":"NT_jLQG1AaA6E0zS91l8F769D_xED","LocationType":"point","DisplayPosition":{"Latitude":37.7055,"Longitude":-3.28537},"MapView":{"TopLeft":{"Latitude":37.7066242,"Longitude":-3.2867909},"BottomRight":{"Latitude":37.7043758,"Longitude":-3.2839491}},"Address":{"Label":"Calle Cobos, 11, 23550 Cabra del Santo Cristo (Jaén), España","Country":"ESP","State":"Andalucía","County":"Jaén","City":"Cabra del Santo Cristo","Street":"Calle Cobos","HouseNumber":"11","PostalCode":"23550","AdditionalData":[{"value":"España","key":"CountryName"},{"value":"Andalucía","key":"StateName"},{"value":"Jaén","key":"CountyName"}]},"MapReference":{"ReferenceId":"549188942","Spot":0.14,"SideOfStreet":"right","CountryId":"20215059","StateId":"20221885","CountyId":"20221891","CityId":"20235421","AddressId":"404942326","RoadLinkId":"67386486"}}},{"Relevance":1.0,"Distance":38.4,"MatchLevel":"houseNumber","MatchQuality":{"Country":1.0,"State":1.0,"County":1.0,"City":1.0,"Street":[1.0],"HouseNumber":1.0,"PostalCode":1.0},"MatchType":"interpolated","Location":{"LocationId":"NT_btyjS3qnVIY-AswbmzYZjC_4A","LocationType":"point","DisplayPosition":{"Latitude":37.70535,"Longitude":-3.28618},"MapView":{"TopLeft":{"Latitude":37.7064742,"Longitude":-3.2876009},"BottomRight":{"Latitude":37.7042258,"Longitude":-3.2847591}},"Address":{"Label":"Calle Soto, 8, 23550 Cabra del Santo Cristo (Jaén), España","Country":"ESP","State":"Andalucía","County":"Jaén","City":"Cabra del Santo Cristo","Street":"Calle Soto","HouseNumber":"8","PostalCode":"23550","AdditionalData":[{"value":"España","key":"CountryName"},{"value":"Andalucía","key":"StateName"},{"value":"Jaén","key":"CountyName"}]},"MapReference":{"ReferenceId":"549188946","Spot":0.75,"SideOfStreet":"right","CountryId":"20215059","StateId":"20221885","CountyId":"20221891","CityId":"20235421","AddressId":"404870490","RoadLinkId":"66694551"}}},{"Relevance":1.0,"Distance":41.1,"MatchLevel":"houseNumber","MatchQuality":{"Country":1.0,"State":1.0,"County":1.0,"City":1.0,"Street":[1.0],"HouseNumber":1.0,"PostalCode":1.0},"MatchType":"interpolated","Location":{"LocationId":"NT_y3Bbq3S7Tsf61DxPUc.ILA_xID","LocationType":"point","DisplayPosition":{"Latitude":37.70503,"Longitude":-3.28585},"MapView":{"TopLeft":{"Latitude":37.7061542,"Longitude":-3.2872709},"BottomRight":{"Latitude":37.7039058,"Longitude":-3.2844291}},"Address":{"Label":"Plaza de la Constitución, 12, 23550 Cabra del Santo Cristo (Jaén), España","Country":"ESP","State":"Andalucía","County":"Jaén","City":"Cabra del Santo Cristo","Street":"Plaza de la Constitución","HouseNumber":"12","PostalCode":"23550","AdditionalData":[{"value":"España","key":"CountryName"},{"value":"Andalucía","key":"StateName"},{"value":"Jaén","key":"CountyName"}]},"MapReference":{"ReferenceId":"549188804","Spot":0.88,"SideOfStreet":"left","CountryId":"20215059","StateId":"20221885","CountyId":"20221891","CityId":"20235421","AddressId":"404450842","RoadLinkId":"66631597"}}},{"Relevance":1.0,"Distance":43.8,"MatchLevel":"houseNumber","MatchQuality":{"Country":1.0,"State":1.0,"County":1.0,"City":1.0,"Street":[1.0],"HouseNumber":1.0,"PostalCode":1.0},"MatchType":"interpolated","Location":{"LocationId":"NT_btyjS3qnVIY-AswbmzYZjC_xID","LocationType":"point","DisplayPosition":{"Latitude":37.70565,"Longitude":-3.28615},"MapView":{"TopLeft":{"Latitude":37.7067742,"Longitude":-3.2875709},"BottomRight":{"Latitude":37.7045258,"Longitude":-3.2847291}},"Address":{"Label":"Calle Soto, 12, 23550 Cabra del Santo Cristo (Jaén), España","Country":"ESP","State":"Andalucía","County":"Jaén","City":"Cabra del Santo Cristo","Street":"Calle Soto","HouseNumber":"12","PostalCode":"23550","AdditionalData":[{"value":"España","key":"CountryName"},{"value":"Andalucía","key":"StateName"},{"value":"Jaén","key":"CountyName"}]},"MapReference":{"ReferenceId":"1055929735","Spot":0.57,"SideOfStreet":"right","CountryId":"20215059","StateId":"20221885","CountyId":"20221891","CityId":"20235421","AddressId":"404939816","RoadLinkId":"374238013"}}},{"Relevance":1.0,"Distance":44.2,"MatchLevel":"houseNumber","MatchQuality":{"Country":1.0,"State":1.0,"County":1.0,"City":1.0,"Street":[1.0],"HouseNumber":1.0,"PostalCode":1.0},"MatchType":"interpolated","Location":{"LocationId":"NT_y3Bbq3S7Tsf61DxPUc.ILA_xAD","LocationType":"point","DisplayPosition":{"Latitude":37.70504,"Longitude":-3.2858},"MapView":{"TopLeft":{"Latitude":37.7061642,"Longitude":-3.2872209},"BottomRight":{"Latitude":37.7039158,"Longitude":-3.2843791}},"Address":{"Label":"Plaza de la Constitución, 10, 23550 Cabra del Santo Cristo (Jaén), España","Country":"ESP","State":"Andalucía","County":"Jaén","City":"Cabra del Santo Cristo","Street":"Plaza de la Constitución","HouseNumber":"10","PostalCode":"23550","AdditionalData":[{"value":"España","key":"CountryName"},{"value":"Andalucía","key":"StateName"},{"value":"Jaén","key":"CountyName"}]},"MapReference":{"ReferenceId":"564232631","Spot":0.05,"SideOfStreet":"right","CountryId":"20215059","StateId":"20221885","CountyId":"20221891","CityId":"20235421","AddressId":"404846165","RoadLinkId":"67293991"}}},{"Relevance":1.0,"Distance":56.5,"MatchLevel":"houseNumber","MatchQuality":{"Country":1.0,"State":1.0,"County":1.0,"City":1.0,"Street":[1.0],"HouseNumber":1.0,"PostalCode":1.0},"MatchType":"interpolated","Location":{"LocationId":"NT_btyjS3qnVIY-AswbmzYZjC_xgD","LocationType":"point","DisplayPosition":{"Latitude":37.70582,"Longitude":-3.28615},"MapView":{"TopLeft":{"Latitude":37.7069442,"Longitude":-3.2875709},"BottomRight":{"Latitude":37.7046958,"Longitude":-3.2847291}},"Address":{"Label":"Calle Soto, 18, 23550 Cabra del Santo Cristo (Jaén), España","Country":"ESP","State":"Andalucía","County":"Jaén","City":"Cabra del Santo Cristo","Street":"Calle Soto","HouseNumber":"18","PostalCode":"23550","AdditionalData":[{"value":"España","key":"CountryName"},{"value":"Andalucía","key":"StateName"},{"value":"Jaén","key":"CountyName"}]},"MapReference":{"ReferenceId":"1055929736","Spot":0.29,"SideOfStreet":"right","CountryId":"20215059","StateId":"20221885","CountyId":"20221891","CityId":"20235421","AddressId":"404939814","RoadLinkId":"374238016"}}}]}]}}