{"Response":{"MetaInfo":{"Timestamp":"2020-03-28T10:12:33.073+0000","NextPageInformation":"2"},"View":[{"_type":"SearchResultsViewType","ViewId":0,"Result":[{"Relevance":1.0,"Distance":-3226.8,"MatchLevel":"landmark","MatchQuality":{"Country":1.0,"State":1.0,"Name":1.0},"Location":{"LocationId":"NT_WbRHZaUNmJdoEGyLvAjbjA","LocationType":"island","Name":"Sicilia","DisplayPosition":{"Latitude":37.4742,"Longitude":14.13844},"MapView":{"TopLeft":{"Latitude":38.30149,"Longitude":12.42414},"BottomRight":{"Latitude":36.6469,"Longitude":15.65312}},"Address":{"Label":"Italia","Country":"ITA","State":"Sicilia","AdditionalData":[{"value":"Italia","key":"CountryName"},{"value":"Sicilia","key":"StateName"}]},"MapReference":{"CountryId":"20110484","StateId":"20126201","PlaceId":"82846424"}}},{"Relevance":1.0,"Distance":0.0,"Direction":0.0,"MatchLevel":"city","MatchQuality":{"Country":1.0,"State":1.0,"County":1.0,"City":1.0,"PostalCode":1.0},"Location":{"LocationId":"NT_-ci5-QnPT1QXNSLvNIwv3D","LocationType":"point","DisplayPosition":{"Latitude":37.8247393,"Longitude":12.5052683},"MapView":{"TopLeft":{"Latitude":37.93452,"Longitude":12.42414},"BottomRight":{"Latitude":37.71386,"Longitude":12.69462}},"Address":{"Label":"Marsala, Sicilia, Italia","Country":"ITA","State":"Sicilia","County":"TP","City":"Marsala","PostalCode":"91025","AdditionalData":[{"value":"Italia","key":"CountryName"},{"value":"Sicilia","key":"StateName"},{"value":"Trapani","key":"CountyName"}]},"MapReference":{"ReferenceId":"544276938","SideOfStreet":"neither","CountryId":"20110484","StateId":"20126201","CountyId":"20245845","CityId":"20245883"}}},{"Relevance":1.0,"Distance":13.7,"MatchLevel":"street","MatchQuality":{"Country":1.0,"State":1.0,"County":1.0,"City":1.0,"PostalCode":1.0},"Location":{"LocationId":"NT_xo55fp7KP3c6N.TNF0nVEC_l_579505576_R","LocationType":"point","DisplayPosition":{"Latitude":37.8246238,"Longitude":12.5052145},"MapView":{"TopLeft":{"Latitude":37.82518,"Longitude":12.50402},"BottomRight":{"Latitude":37.82457,"Longitude":12.50533}},"Address":{"Label":"91025 Marsala TP, Italia","Country":"ITA","State":"Sicilia","County":"TP","City":"Marsala","PostalCode":"91025","AdditionalData":[{"value":"Italia","key":"CountryName"},{"value":"Sicilia","key":"StateName"},{"value":"Trapani","key":"CountyName"}]},"MapReference":{"ReferenceId":"579505576","Spot":0.09,"SideOfStreet":"right","CountryId":"20110484","StateId":"20126201","CountyId":"20245845","CityId":"20245883"}}},{"Relevance":1.0,"Distance":68.7,"MatchLevel":"street","MatchQuality":{"Country":1.0,"State":1.0,"County":1.0,"City":1.0,"PostalCode":1.0},"Location":{"LocationId":"NT_xo55fp7KP3c6N.TNF0nVEC_l_554170583_R","LocationType":"point","DisplayPosition":{"Latitude":37.82414,"Longitude":12.50508},"MapView":{"TopLeft":{"Latitude":37.82414,"Longitude":12.50508},"BottomRight":{"Latitude":37.8235,"Longitude":12.50653}},"Address":{"Label":"91025 Marsala TP, Italia","Country":"ITA","State":"Sicilia","County":"TP","City":"Marsala","PostalCode":"91025","AdditionalData":[{"value":"Italia","key":"CountryName"},{"value":"Sicilia","key":"StateName"},{"value":"Trapani","key":"CountyName"}]},"MapReference":{"ReferenceId":"554170583","Spot":1.0,"SideOfStreet":"right","CountryId":"20110484","StateId":"20126201","CountyId":"20245845","CityId":"20245883"}}},{"Relevance":1.0,"Distance":105.0,"MatchLevel":"street","MatchQuality":{"Country":1.0,"State":1.0,"County":1.0,"City":1.0,"PostalCode":1.0},"Location":{"LocationId":"NT_xo55fp7KP3c6N.TNF0nVEC_l_579505574_R","LocationType":"point","DisplayPosition":{"Latitude":37.82387,"Longitude":12.5048},"MapView":{"TopLeft":{"Latitude":37.82446,"Longitude":12.50358},"BottomRight":{"Latitude":37.82387,"Longitude":12.5048}},"Address":{"Label":"91025 Marsala TP, Italia","Country":"ITA","State":"Sicilia","County":"TP","City":"Marsala","PostalCode":"91025","AdditionalData":[{"value":"Italia","key":"CountryName"},{"value":"Sicilia","key":"StateName"},{"value":"Trapani","key":"CountyName"}]},"MapReference":{"ReferenceId":"579505574","Spot":0.0,"SideOfStreet":"right","CountryId":"20110484","StateId":"20126201","CountyId":"20245845","CityId":"20245883"}}},{"Relevance":1.0,"Distance":120.1,"MatchLevel":"street","MatchQuality":{"Country":1.0,"State":1.0,"County":1.0,"City":1.0,"PostalCode":1.0},"Location":{"LocationId":"NT_xo55fp7KP3c6N.TNF0nVEC_l_579505898_R","LocationType":"point","DisplayPosition":{"Latitude":37.82518,"Longitude":12.50402},"MapView":{"TopLeft":{"Latitude":37.82518,"Longitude":12.50383},"BottomRight":{"Latitude":37.82484,"Longitude":12.50402}},"Address":{"Label":"91025 Marsala TP, Italia","Country":"ITA","State":"Sicilia","County":"TP","City":"Marsala","PostalCode":"91025","AdditionalData":[{"value":"Italia","key":"CountryName"},{"value":"Sicilia","key":"StateName"},{"value":"Trapani","key":"CountyName"}]},"MapReference":{"ReferenceId":"579505898","Spot":1.0,"SideOfStreet":"right","CountryId":"20110484","StateId":"20126201","CountyId":"20245845","CityId":"20245883"}}},{"Relevance":1.0,"Distance":122.7,"MatchLevel":"street","MatchQuality":{"Country":1.0,"State":1.0,"County":1.0,"City":1.0,"PostalCode":1.0},"Location":{"LocationId":"NT_xo55fp7KP3c6N.TNF0nVEC_l_579505578_R","LocationType":"point","DisplayPosition":{"Latitude":37.82543,"Longitude":12.5041785},"MapView":{"TopLeft":{"Latitude":37.82638,"Longitude":12.50402},"BottomRight":{"Latitude":37.82518,"Longitude":12.50472}},"Address":{"Label":"91025 Marsala TP, Italia","Country":"ITA","State":"Sicilia","County":"TP","City":"Marsala","PostalCode":"91025","AdditionalData":[{"value":"Italia","key":"CountryName"},{"value":"Sicilia","key":"StateName"},{"value":"Trapani","key":"CountyName"}]},"MapReference":{"ReferenceId":"579505578","Spot":0.21,"SideOfStreet":"right","CountryId":"20110484","StateId":"20126201","CountyId":"20245845","CityId":"20245883"}}},{"Relevance":1.0,"Distance":126.8,"MatchLevel":"street","MatchQuality":{"Country":1.0,"State":1.0,"County":1.0,"City":1.0,"PostalCode":1.0},"Location":{"LocationId":"NT_xo55fp7KP3c6N.TNF0nVEC_l_554170738_R","LocationType":"point","DisplayPosition":{"Latitude":37.82484,"Longitude":12.50383},"MapView":{"TopLeft":{"Latitude":37.82591,"Longitude":12.50165},"BottomRight":{"Latitude":37.82484,"Longitude":12.50383}},"Address":{"Label":"91025 Marsala TP, Italia","Country":"ITA","State":"Sicilia","County":"TP","City":"Marsala","PostalCode":"91025","AdditionalData":[{"value":"Italia","key":"CountryName"},{"value":"Sicilia","key":"StateName"},{"value":"Trapani","key":"CountyName"}]},"MapReference":{"ReferenceId":"554170738","Spot":0.0,"SideOfStreet":"right","CountryId":"20110484","StateId":"20126201","CountyId":"20245845","CityId":"20245883"}}},{"Relevance":1.0,"Distance":126.8,"MatchLevel":"street","MatchQuality":{"Country":1.0,"State":1.0,"County":1.0,"City":1.0,"PostalCode":1.0},"Location":{"LocationId":"NT_xo55fp7KP3c6N.TNF0nVEC_l_579505897_R","LocationType":"point","DisplayPosition":{"Latitude":37.82484,"Longitude":12.50383},"MapView":{"TopLeft":{"Latitude":37.82484,"Longitude":12.50358},"BottomRight":{"Latitude":37.82446,"Longitude":12.50383}},"Address":{"Label":"91025 Marsala TP, Italia","Country":"ITA","State":"Sicilia","County":"TP","City":"Marsala","PostalCode":"91025","AdditionalData":[{"value":"Italia","key":"CountryName"},{"value":"Sicilia","key":"StateName"},{"value":"Trapani","key":"CountyName"}]},"MapReference":{"ReferenceId":"579505897","Spot":1.0,"SideOfStreet":"right","CountryId":"20110484","StateId":"20126201","CountyId":"20245845","CityId":"20245883"}}},{"Relevance":1.0,"Distance":137.6,"MatchLevel":"street","MatchQuality":{"Country":1.0,"State":1.0,"County":1.0,"City":1.0,"PostalCode":1.0},"Location":{"LocationId":"NT_xo55fp7KP3c6N.TNF0nVEC_l_579505577_L","LocationType":"point","DisplayPosition":{"Latitude":37.8259071,"Longitude":12.5057863},"MapView":{"TopLeft":{"Latitude":37.82638,"Longitude":12.50472},"BottomRight":{"Latitude":37.82432,"Longitude":12.50871}},"Address":{"Label":"91025 Marsala TP, Italia","Country":"ITA","State":"Sicilia","County":"TP","City":"Marsala","PostalCode":"91025","AdditionalData":[{"value":"Italia","key":"CountryName"},{"value":"Sicilia","key":"StateName"},{"value":"Trapani","key":"CountyName"}]},"MapReference":{"ReferenceId":"579505577","Spot":0.74,"SideOfStreet":"left","CountryId":"20110484","StateId":"20126201","CountyId":"20245845","CityId":"20245883"}}}]}]}}