{"Response":{"MetaInfo":{"Timestamp":"2020-03-28T11:21:14.693+0000","NextPageInformation":"2"},"View":[{"_type":"SearchResultsViewType","ViewId":0,"Result":[{"Relevance":1.0,"Distance":0.0,"Direction":0.0,"MatchLevel":"district","MatchQuality":{"Country":1.0,"State":1.0,"County":1.0,"City":1.0,"District":1.0,"PostalCode":1.0},"Location":{"LocationId":"NT_A6.JGCiTUKabm2tNqPrx7D","LocationType":"point","DisplayPosition":{"Latitude":37.8207446,"Longitude":22.6655999},"MapView":{"TopLeft":{"Latitude":37.82926,"Longitude":22.64814},"BottomRight":{"Latitude":37.80926,"Longitude":22.67498}},"Address":{"Label":"Νεμέα, Πελοπόννησος, Ελληνικη Δημοκρατια","Country":"GRC","State":"Πελοπόννησος","County":"Κορινθία","City":"Νεμέα","District":"Νεμέα","PostalCode":"205 00","AdditionalData":[{"value":"Ελληνικη Δημοκρατια","key":"CountryName"},{"value":"Πελοπόννησος","key":"StateName"},{"value":"Κορινθία","key":"CountyName"}]},"MapReference":{"ReferenceId":"722393764","SideOfStreet":"neither","CountryId":"20448870","StateId":"20563669","CountyId":"20563895","CityId":"20563923","DistrictId":"22933373"}}},{"Relevance":1.0,"Distance":10.8,"MatchLevel":"houseNumber","MatchQuality":{"Country":1.0,"State":1.0,"County":1.0,"City":1.0,"District":1.0,"Street":[1.0],"HouseNumber":1.0,"PostalCode":1.0},"MatchType":"interpolated","Location":{"LocationId":"NT_OGVCKGEAUeHzWQ89b5.tuD_l_845367753_L_xYD","LocationType":"point","DisplayPosition":{"Latitude":37.8209627,"Longitude":22.6655596},"MapView":{"TopLeft":{"Latitude":37.8220868,"Longitude":22.6641365},"BottomRight":{"Latitude":37.8198385,"Longitude":22.6669827}},"Address":{"Label":"16 Μπόλιαρη Παν., 205 00 Νεμέα, Ελληνικη Δημοκρατια","Country":"GRC","State":"Πελοπόννησος","County":"Κορινθία","City":"Νεμέα","District":"Νεμέα","Street":"Μπόλιαρη Παν.","HouseNumber":"16","PostalCode":"205 00","AdditionalData":[{"value":"Ελληνικη Δημοκρατια","key":"CountryName"},{"value":"Πελοπόννησος","key":"StateName"},{"value":"Κορινθία","key":"CountyName"}]},"MapReference":{"ReferenceId":"845367753","Spot":0.26,"SideOfStreet":"left","CountryId":"20448870","StateId":"20563669","CountyId":"20563895","CityId":"20563923","DistrictId":"22933373"}}},{"Relevance":1.0,"Distance":39.2,"MatchLevel":"street","MatchQuality":{"Country":1.0,"State":1.0,"County":1.0,"City":1.0,"District":1.0,"Street":[1.0],"PostalCode":1.0},"Location":{"LocationId":"NT_Hh0yYgjms5Qr6BAZijwPEB_l_845367750_L","LocationType":"point","DisplayPosition":{"Latitude":37.8209,"Longitude":22.666},"MapView":{"TopLeft":{"Latitude":37.8209,"Longitude":22.666},"BottomRight":{"Latitude":37.82003,"Longitude":22.66674}},"Address":{"Label":"Ταξιαρχών, 205 00 Νεμέα, Ελληνικη Δημοκρατια","Country":"GRC","State":"Πελοπόννησος","County":"Κορινθία","City":"Νεμέα","District":"Νεμέα","Street":"Ταξιαρχών","PostalCode":"205 00","AdditionalData":[{"value":"Ελληνικη Δημοκρατια","key":"CountryName"},{"value":"Πελοπόννησος","key":"StateName"},{"value":"Κορινθία","key":"CountyName"}]},"MapReference":{"ReferenceId":"845367750","Spot":1.0,"SideOfStreet":"left","CountryId":"20448870","StateId":"20563669","CountyId":"20563895","CityId":"20563923","DistrictId":"22933373"}}},{"Relevance":1.0,"Distance":39.2,"MatchLevel":"street","MatchQuality":{"Country":1.0,"State":1.0,"County":1.0,"City":1.0,"District":1.0,"Street":[1.0],"PostalCode":1.0},"Location":{"LocationId":"NT_OGVCKGEAUeHzWQ89b5.tuD_l_845501286_L","LocationType":"point","DisplayPosition":{"Latitude":37.8209,"Longitude":22.666},"MapView":{"TopLeft":{"Latitude":37.8209,"Longitude":22.666},"BottomRight":{"Latitude":37.82073,"Longitude":22.66784}},"Address":{"Label":"Μπόλιαρη Παν., 205 00 Νεμέα, Ελληνικη Δημοκρατια","Country":"GRC","State":"Πελοπόννησος","County":"Κορινθία","City":"Νεμέα","District":"Νεμέα","Street":"Μπόλιαρη Παν.","PostalCode":"205 00","AdditionalData":[{"value":"Ελληνικη Δημοκρατια","key":"CountryName"},{"value":"Πελοπόννησος","key":"StateName"},{"value":"Κορινθία","key":"CountyName"}]},"MapReference":{"ReferenceId":"845501286","Spot":1.0,"SideOfStreet":"left","CountryId":"20448870","StateId":"20563669","CountyId":"20563895","CityId":"20563923","DistrictId":"22933373"}}},{"Relevance":1.0,"Distance":83.3,"MatchLevel":"street","MatchQuality":{"Country":1.0,"State":1.0,"County":1.0,"City":1.0,"District":1.0,"PostalCode":1.0},"Location":{"LocationId":"NT_nJGdm94gghjf2UHI1pvq2D_l_845501293_R","LocationType":"point","DisplayPosition":{"Latitude":37.82149,"Longitude":22.66569},"MapView":{"TopLeft":{"Latitude":37.82151,"Longitude":22.66516},"BottomRight":{"Latitude":37.82145,"Longitude":22.66569}},"Address":{"Label":"205 00 Νεμέα, Ελληνικη Δημοκρατια","Country":"GRC","State":"Πελοπόννησος","County":"Κορινθία","City":"Νεμέα","District":"Νεμέα","PostalCode":"205 00","AdditionalData":[{"value":"Ελληνικη Δημοκρατια","key":"CountryName"},{"value":"Πελοπόννησος","key":"StateName"},{"value":"Κορινθία","key":"CountyName"}]},"MapReference":{"ReferenceId":"845501293","Spot":1.0,"SideOfStreet":"right","CountryId":"20448870","StateId":"20563669","CountyId":"20563895","CityId":"20563923","DistrictId":"22933373"}}},{"Relevance":1.0,"Distance":87.4,"MatchLevel":"street","MatchQuality":{"Country":1.0,"State":1.0,"County":1.0,"City":1.0,"District":1.0,"PostalCode":1.0},"Location":{"LocationId":"NT_nJGdm94gghjf2UHI1pvq2D_l_845501294_R","LocationType":"point","DisplayPosition":{"Latitude":37.82145,"Longitude":22.66516},"MapView":{"TopLeft":{"Latitude":37.82173,"Longitude":22.665},"BottomRight":{"Latitude":37.82145,"Longitude":22.66516}},"Address":{"Label":"205 00 Νεμέα, Ελληνικη Δημοκρατια","Country":"GRC","State":"Πελοπόννησος","County":"Κορινθία","City":"Νεμέα","District":"Νεμέα","PostalCode":"205 00","AdditionalData":[{"value":"Ελληνικη Δημοκρατια","key":"CountryName"},{"value":"Πελοπόννησος","key":"StateName"},{"value":"Κορινθία","key":"CountyName"}]},"MapReference":{"ReferenceId":"845501294","Spot":0.0,"SideOfStreet":"right","CountryId":"20448870","StateId":"20563669","CountyId":"20563895","CityId":"20563923","DistrictId":"22933373"}}},{"Relevance":1.0,"Distance":87.4,"MatchLevel":"street","MatchQuality":{"Country":1.0,"State":1.0,"County":1.0,"City":1.0,"District":1.0,"PostalCode":1.0},"Location":{"LocationId":"NT_nJGdm94gghjf2UHI1pvq2D_l_845501292_R","LocationType":"point","DisplayPosition":{"Latitude":37.82145,"Longitude":22.66516},"MapView":{"TopLeft":{"Latitude":37.82145,"Longitude":22.66362},"BottomRight":{"Latitude":37.82124,"Longitude":22.66516}},"Address":{"Label":"205 00 Νεμέα, Ελληνικη Δημοκρατια","Country":"GRC","State":"Πελοπόννησος","County":"Κορινθία","City":"Νεμέα","District":"Νεμέα","PostalCode":"205 00","AdditionalData":[{"value":"Ελληνικη Δημοκρατια","key":"CountryName"},{"value":"Πελοπόννησος","key":"StateName"},{"value":"Κορινθία","key":"CountyName"}]},"MapReference":{"ReferenceId":"845501292","Spot":1.0,"SideOfStreet":"right","CountryId":"20448870","StateId":"20563669","CountyId":"20563895","CityId":"20563923","DistrictId":"22933373"}}},{"Relevance":1.0,"Distance":92.1,"MatchLevel":"houseNumber","MatchQuality":{"Country":1.0,"State":1.0,"County":1.0,"City":1.0,"District":1.0,"Street":[1.0],"HouseNumber":1.0,"PostalCode":1.0},"MatchType":"interpolated","Location":{"LocationId":"NT_yd.j8jkm8zd.H65l3O03CD_l_845367751_L_xID","LocationType":"point","DisplayPosition":{"Latitude":37.8199188,"Longitude":22.6655242},"MapView":{"TopLeft":{"Latitude":37.8210429,"Longitude":22.6641012},"BottomRight":{"Latitude":37.8187946,"Longitude":22.6669473}},"Address":{"Label":"12 Συγγρού, 205 00 Νεμέα, Ελληνικη Δημοκρατια","Country":"GRC","State":"Πελοπόννησος","County":"Κορινθία","City":"Νεμέα","District":"Νεμέα","Street":"Συγγρού","HouseNumber":"12","PostalCode":"205 00","AdditionalData":[{"value":"Ελληνικη Δημοκρατια","key":"CountryName"},{"value":"Πελοπόννησος","key":"StateName"},{"value":"Κορινθία","key":"CountyName"}]},"MapReference":{"ReferenceId":"845367751","Spot":0.64,"SideOfStreet":"left","CountryId":"20448870","StateId":"20563669","CountyId":"20563895","CityId":"20563923","DistrictId":"22933373"}}},{"Relevance":1.0,"Distance":108.9,"MatchLevel":"street","MatchQuality":{"Country":1.0,"State":1.0,"County":1.0,"City":1.0,"District":1.0,"PostalCode":1.0},"Location":{"LocationId":"NT_nJGdm94gghjf2UHI1pvq2D_l_845367755_R","LocationType":"point","DisplayPosition":{"Latitude":37.82001,"Longitude":22.66478},"MapView":{"TopLeft":{"Latitude":37.821,"Longitude":22.6643},"BottomRight":{"Latitude":37.82001,"Longitude":22.66478}},"Address":{"Label":"205 00 Νεμέα, Ελληνικη Δημοκρατια","Country":"GRC","State":"Πελοπόννησος","County":"Κορινθία","City":"Νεμέα","District":"Νεμέα","PostalCode":"205 00","AdditionalData":[{"value":"Ελληνικη Δημοκρατια","key":"CountryName"},{"value":"Πελοπόννησος","key":"StateName"},{"value":"Κορινθία","key":"CountyName"}]},"MapReference":{"ReferenceId":"845367755","Spot":0.0,"SideOfStreet":"right","CountryId":"20448870","StateId":"20563669","CountyId":"20563895","CityId":"20563923","DistrictId":"22933373"}}},{"Relevance":1.0,"Distance":117.0,"MatchLevel":"houseNumber","MatchQuality":{"Country":1.0,"State":1.0,"County":1.0,"City":1.0,"District":1.0,"Street":[1.0],"HouseNumber":1.0,"PostalCode":1.0},"MatchType":"interpolated","Location":{"LocationId":"NT_yd.j8jkm8zd.H65l3O03CD_l_845367752_L_4A","LocationType":"point","DisplayPosition":{"Latitude":37.82004,"Longitude":22.66461},"MapView":{"TopLeft":{"Latitude":37.8211642,"Longitude":22.6631869},"BottomRight":{"Latitude":37.8189159,"Longitude":22.6660331}},"Address":{"Label":"8 Συγγρού, 205 00 Νεμέα, Ελληνικη Δημοκρατια","Country":"GRC","State":"Πελοπόννησος","County":"Κορινθία","City":"Νεμέα","District":"Νεμέα","Street":"Συγγρού","HouseNumber":"8","PostalCode":"205 00","AdditionalData":[{"value":"Ελληνικη Δημοκρατια","key":"CountryName"},{"value":"Πελοπόννησος","key":"StateName"},{"value":"Κορινθία","key":"CountyName"}]},"MapReference":{"ReferenceId":"845367752","Spot":0.21,"SideOfStreet":"left","CountryId":"20448870","StateId":"20563669","CountyId":"20563895","CityId":"20563923","DistrictId":"22933373"}}}]}]}}