{"Response":{"MetaInfo":{"Timestamp":"2020-03-28T09:38:50.640+0000","NextPageInformation":"2"},"View":[{"_type":"SearchResultsViewType","ViewId":0,"Result":[{"Relevance":1.0,"Distance":0.0,"Direction":0.0,"MatchLevel":"district","MatchQuality":{"Country":1.0,"State":1.0,"County":1.0,"City":1.0,"District":1.0,"PostalCode":1.0},"Location":{"LocationId":"NT_cP9w6y-v72C02cZzyw0BJC","LocationType":"point","DisplayPosition":{"Latitude":37.8979965,"Longitude":-1.2136658},"MapView":{"TopLeft":{"Latitude":37.90658,"Longitude":-1.22152},"BottomRight":{"Latitude":37.88908,"Longitude":-1.21011}},"Address":{"Label":"Torre Guil, Murcia, Región de Murcia, España","Country":"ESP","State":"Región de Murcia","County":"Murcia","City":"Murcia","District":"Torre Guil","PostalCode":"30834","AdditionalData":[{"value":"España","key":"CountryName"},{"value":"Región de Murcia","key":"StateName"},{"value":"Murcia","key":"CountyName"}]},"MapReference":{"ReferenceId":"572019145","SideOfStreet":"neither","CountryId":"20215059","StateId":"20226810","CountyId":"20226811","CityId":"20288732","DistrictId":"28279046"}}},{"Relevance":1.0,"Distance":39.4,"MatchLevel":"houseNumber","MatchQuality":{"Country":1.0,"State":1.0,"County":1.0,"City":1.0,"District":1.0,"Street":[1.0],"HouseNumber":1.0,"PostalCode":1.0},"MatchType":"interpolated","Location":{"LocationId":"NT_BQ4P-GefJ0KZXlJU-W218A_xEzM","LocationType":"point","DisplayPosition":{"Latitude":37.89825,"Longitude":-1.21398},"MapView":{"TopLeft":{"Latitude":37.8993742,"Longitude":-1.2154046},"BottomRight":{"Latitude":37.8971258,"Longitude":-1.2125554}},"Address":{"Label":"Calle Barranco Blanco, 113, 30834 Murcia (Murcia), España","Country":"ESP","State":"Región de Murcia","County":"Murcia","City":"Murcia","District":"Torre Guil","Street":"Calle Barranco Blanco","HouseNumber":"113","PostalCode":"30834","AdditionalData":[{"value":"España","key":"CountryName"},{"value":"Región de Murcia","key":"StateName"},{"value":"Murcia","key":"CountyName"}]},"MapReference":{"ReferenceId":"748881314","Spot":0.34,"SideOfStreet":"left","CountryId":"20215059","StateId":"20226810","CountyId":"20226811","CityId":"20288732","DistrictId":"28279046","AddressId":"701424128","RoadLinkId":"145705947"}}},{"Relevance":1.0,"Distance":75.1,"MatchLevel":"street","MatchQuality":{"Country":1.0,"State":1.0,"County":1.0,"City":1.0,"District":1.0,"Street":[1.0],"PostalCode":1.0},"Location":{"LocationId":"NT_HMhA1aAWeje.d28eM-4FAB_l_828157917_R","LocationType":"point","DisplayPosition":{"Latitude":37.89741,"Longitude":-1.21409},"MapView":{"TopLeft":{"Latitude":37.89741,"Longitude":-1.21409},"BottomRight":{"Latitude":37.89719,"Longitude":-1.21385}},"Address":{"Label":"Plaza Carrascoy, 30834 Murcia (Murcia), España","Country":"ESP","State":"Región de Murcia","County":"Murcia","City":"Murcia","District":"Torre Guil","Street":"Plaza Carrascoy","PostalCode":"30834","AdditionalData":[{"value":"España","key":"CountryName"},{"value":"Región de Murcia","key":"StateName"},{"value":"Murcia","key":"CountyName"}]},"MapReference":{"ReferenceId":"828157917","Spot":1.0,"SideOfStreet":"right","CountryId":"20215059","StateId":"20226810","CountyId":"20226811","CityId":"20288732","DistrictId":"28279046"}}},{"Relevance":1.0,"Distance":75.1,"MatchLevel":"street","MatchQuality":{"Country":1.0,"State":1.0,"County":1.0,"City":1.0,"District":1.0,"Street":[1.0],"PostalCode":1.0},"Location":{"LocationId":"NT_HMhA1aAWeje.d28eM-4FAB_l_826627514_L","LocationType":"point","DisplayPosition":{"Latitude":37.89741,"Longitude":-1.21409},"MapView":{"TopLeft":{"Latitude":37.89742,"Longitude":-1.21432},"BottomRight":{"Latitude":37.89741,"Longitude":-1.21409}},"Address":{"Label":"Plaza Carrascoy, 30834 Murcia (Murcia), España","Country":"ESP","State":"Región de Murcia","County":"Murcia","City":"Murcia","District":"Torre Guil","Street":"Plaza Carrascoy","PostalCode":"30834","AdditionalData":[{"value":"España","key":"CountryName"},{"value":"Región de Murcia","key":"StateName"},{"value":"Murcia","key":"CountyName"}]},"MapReference":{"ReferenceId":"826627514","Spot":1.0,"SideOfStreet":"left","CountryId":"20215059","StateId":"20226810","CountyId":"20226811","CityId":"20288732","DistrictId":"28279046"}}},{"Relevance":1.0,"Distance":79.6,"MatchLevel":"houseNumber","MatchQuality":{"Country":1.0,"State":1.0,"County":1.0,"City":1.0,"District":1.0,"Street":[1.0],"HouseNumber":1.0,"PostalCode":1.0},"MatchType":"interpolated","Location":{"LocationId":"NT_fWQlLYdiZTaVgzI22a7zmD_xEDO","LocationType":"point","DisplayPosition":{"Latitude":37.89746,"Longitude":-1.21437},"MapView":{"TopLeft":{"Latitude":37.8985842,"Longitude":-1.2157946},"BottomRight":{"Latitude":37.8963358,"Longitude":-1.2129454}},"Address":{"Label":"Avenida Majal Blanco, 118, 30834 Murcia (Murcia), España","Country":"ESP","State":"Región de Murcia","County":"Murcia","City":"Murcia","District":"Torre Guil","Street":"Avenida Majal Blanco","HouseNumber":"118","PostalCode":"30834","AdditionalData":[{"value":"España","key":"CountryName"},{"value":"Región de Murcia","key":"StateName"},{"value":"Murcia","key":"CountyName"}]},"MapReference":{"ReferenceId":"572019129","Spot":0.04,"SideOfStreet":"right","CountryId":"20215059","StateId":"20226810","CountyId":"20226811","CityId":"20288732","DistrictId":"28279046","AddressId":"367819795","RoadLinkId":"65309182"}}},{"Relevance":1.0,"Distance":86.9,"MatchLevel":"street","MatchQuality":{"Country":1.0,"State":1.0,"County":1.0,"City":1.0,"District":1.0,"Street":[1.0],"PostalCode":1.0},"Location":{"LocationId":"NT_HMhA1aAWeje.d28eM-4FAB_l_572019130_R","LocationType":"point","DisplayPosition":{"Latitude":37.89741,"Longitude":-1.21432},"MapView":{"TopLeft":{"Latitude":37.89741,"Longitude":-1.21435},"BottomRight":{"Latitude":37.8972,"Longitude":-1.21432}},"Address":{"Label":"Plaza Carrascoy, 30834 Murcia (Murcia), España","Country":"ESP","State":"Región de Murcia","County":"Murcia","City":"Murcia","District":"Torre Guil","Street":"Plaza Carrascoy","PostalCode":"30834","AdditionalData":[{"value":"España","key":"CountryName"},{"value":"Región de Murcia","key":"StateName"},{"value":"Murcia","key":"CountyName"}]},"MapReference":{"ReferenceId":"572019130","Spot":1.0,"SideOfStreet":"right","CountryId":"20215059","StateId":"20226810","CountyId":"20226811","CityId":"20288732","DistrictId":"28279046"}}},{"Relevance":1.0,"Distance":88.5,"MatchLevel":"street","MatchQuality":{"Country":1.0,"State":1.0,"County":1.0,"City":1.0,"District":1.0,"Street":[1.0],"PostalCode":1.0},"Location":{"LocationId":"NT_fWQlLYdiZTaVgzI22a7zmD_l_572019136_R","LocationType":"point","DisplayPosition":{"Latitude":37.8973498,"Longitude":-1.2142537},"MapView":{"TopLeft":{"Latitude":37.89741,"Longitude":-1.21432},"BottomRight":{"Latitude":37.89671,"Longitude":-1.21355}},"Address":{"Label":"Avenida Majal Blanco, 30834 Murcia (Murcia), España","Country":"ESP","State":"Región de Murcia","County":"Murcia","City":"Murcia","District":"Torre Guil","Street":"Avenida Majal Blanco","PostalCode":"30834","AdditionalData":[{"value":"España","key":"CountryName"},{"value":"Región de Murcia","key":"StateName"},{"value":"Murcia","key":"CountyName"}]},"MapReference":{"ReferenceId":"572019136","Spot":0.91,"SideOfStreet":"right","CountryId":"20215059","StateId":"20226810","CountyId":"20226811","CityId":"20288732","DistrictId":"28279046"}}},{"Relevance":1.0,"Distance":91.1,"MatchLevel":"street","MatchQuality":{"Country":1.0,"State":1.0,"County":1.0,"City":1.0,"District":1.0,"Street":[1.0],"PostalCode":1.0},"Location":{"LocationId":"NT_HMhA1aAWeje.d28eM-4FAB_l_828157916_R","LocationType":"point","DisplayPosition":{"Latitude":37.89719,"Longitude":-1.21385},"MapView":{"TopLeft":{"Latitude":37.89719,"Longitude":-1.21385},"BottomRight":{"Latitude":37.89687,"Longitude":-1.2135}},"Address":{"Label":"Plaza Carrascoy, 30834 Murcia (Murcia), España","Country":"ESP","State":"Región de Murcia","County":"Murcia","City":"Murcia","District":"Torre Guil","Street":"Plaza Carrascoy","PostalCode":"30834","AdditionalData":[{"value":"España","key":"CountryName"},{"value":"Región de Murcia","key":"StateName"},{"value":"Murcia","key":"CountyName"}]},"MapReference":{"ReferenceId":"828157916","Spot":1.0,"SideOfStreet":"right","CountryId":"20215059","StateId":"20226810","CountyId":"20226811","CityId":"20288732","DistrictId":"28279046"}}},{"Relevance":1.0,"Distance":106.0,"MatchLevel":"street","MatchQuality":{"Country":1.0,"State":1.0,"County":1.0,"City":1.0,"District":1.0,"Street":[1.0],"PostalCode":1.0},"Location":{"LocationId":"NT_HMhA1aAWeje.d28eM-4FAB_l_572019138_R","LocationType":"point","DisplayPosition":{"Latitude":37.8972,"Longitude":-1.21433},"MapView":{"TopLeft":{"Latitude":37.8972,"Longitude":-1.21433},"BottomRight":{"Latitude":37.89677,"Longitude":-1.21386}},"Address":{"Label":"Plaza Carrascoy, 30834 Murcia (Murcia), España","Country":"ESP","State":"Región de Murcia","County":"Murcia","City":"Murcia","District":"Torre Guil","Street":"Plaza Carrascoy","PostalCode":"30834","AdditionalData":[{"value":"España","key":"CountryName"},{"value":"Región de Murcia","key":"StateName"},{"value":"Murcia","key":"CountyName"}]},"MapReference":{"ReferenceId":"572019138","Spot":1.0,"SideOfStreet":"right","CountryId":"20215059","StateId":"20226810","CountyId":"20226811","CityId":"20288732","DistrictId":"28279046"}}},{"Relevance":1.0,"Distance":106.0,"MatchLevel":"street","MatchQuality":{"Country":1.0,"State":1.0,"County":1.0,"City":1.0,"District":1.0,"PostalCode":1.0},"Location":{"LocationId":"NT_QCNgBS6BDkUe7V4FfWok0B_l_826627511_L","LocationType":"point","DisplayPosition":{"Latitude":37.8972,"Longitude":-1.21433},"MapView":{"TopLeft":{"Latitude":37.8972,"Longitude":-1.21514},"BottomRight":{"Latitude":37.89707,"Longitude":-1.21433}},"Address":{"Label":"30834 Murcia (Murcia), España","Country":"ESP","State":"Región de Murcia","County":"Murcia","City":"Murcia","District":"Torre Guil","PostalCode":"30834","AdditionalData":[{"value":"España","key":"CountryName"},{"value":"Región de Murcia","key":"StateName"},{"value":"Murcia","key":"CountyName"}]},"MapReference":{"ReferenceId":"826627511","Spot":1.0,"SideOfStreet":"left","CountryId":"20215059","StateId":"20226810","CountyId":"20226811","CityId":"20288732","DistrictId":"28279046"}}}]}]}}