{"Response":{"MetaInfo":{"Timestamp":"2020-03-28T09:46:49.703+0000","NextPageInformation":"2"},"View":[{"_type":"SearchResultsViewType","ViewId":0,"Result":[{"Relevance":1.0,"Distance":0.0,"Direction":0.0,"MatchLevel":"district","MatchQuality":{"Country":1.0,"State":1.0,"County":1.0,"City":1.0,"District":1.0,"PostalCode":1.0},"Location":{"LocationId":"NT_s9.CyG5bgjfremdKU-5xJC","LocationType":"point","DisplayPosition":{"Latitude":37.8207748,"Longitude":-3.4140351},"MapView":{"TopLeft":{"Latitude":37.82907,"Longitude":-3.41994},"BottomRight":{"Latitude":37.81677,"Longitude":-3.40791}},"Address":{"Label":"Bedmar, Bedmar y Garcíez, Andalucía, España","Country":"ESP","State":"Andalucía","County":"Jaén","City":"Bedmar y Garcíez","District":"Bedmar","PostalCode":"23537","AdditionalData":[{"value":"España","key":"CountryName"},{"value":"Andalucía","key":"StateName"},{"value":"Jaén","key":"CountyName"}]},"MapReference":{"ReferenceId":"545872620","SideOfStreet":"neither","CountryId":"20215059","StateId":"20221885","CountyId":"20221891","CityId":"20235787","DistrictId":"20235788"}}},{"Relevance":1.0,"Distance":4.3,"MatchLevel":"houseNumber","MatchQuality":{"Country":1.0,"State":1.0,"County":1.0,"City":1.0,"District":1.0,"Street":[1.0],"HouseNumber":1.0,"PostalCode":1.0},"MatchType":"interpolated","Location":{"LocationId":"NT_8Vcw-yu5luNYgDu1199niA_yA","LocationType":"point","DisplayPosition":{"Latitude":37.82076,"Longitude":-3.41399},"MapView":{"TopLeft":{"Latitude":37.8218842,"Longitude":-3.4154131},"BottomRight":{"Latitude":37.8196358,"Longitude":-3.4125669}},"Address":{"Label":"Calle Santo Reino, 2, 23537 Bedmar y Garcíez (Jaén), España","Country":"ESP","State":"Andalucía","County":"Jaén","City":"Bedmar y Garcíez","District":"Bedmar","Street":"Calle Santo Reino","HouseNumber":"2","PostalCode":"23537","AdditionalData":[{"value":"España","key":"CountryName"},{"value":"Andalucía","key":"StateName"},{"value":"Jaén","key":"CountyName"}]},"MapReference":{"ReferenceId":"564231577","Spot":0.2,"SideOfStreet":"left","CountryId":"20215059","StateId":"20221885","CountyId":"20221891","CityId":"20235787","DistrictId":"20235788","AddressId":"300314887","RoadLinkId":"67361263"}}},{"Relevance":1.0,"Distance":12.5,"MatchLevel":"houseNumber","MatchQuality":{"Country":1.0,"State":1.0,"County":1.0,"City":1.0,"District":1.0,"Street":[1.0],"HouseNumber":1.0,"PostalCode":1.0},"MatchType":"interpolated","Location":{"LocationId":"NT_4BfAHJt3IUoj3P8MgOhtYA_zgD","LocationType":"point","DisplayPosition":{"Latitude":37.82076,"Longitude":-3.41379},"MapView":{"TopLeft":{"Latitude":37.8218842,"Longitude":-3.4152131},"BottomRight":{"Latitude":37.8196358,"Longitude":-3.4123669}},"Address":{"Label":"Avenida Virgen de Cuadros, 38, 23537 Bedmar y Garcíez (Jaén), España","Country":"ESP","State":"Andalucía","County":"Jaén","City":"Bedmar y Garcíez","District":"Bedmar","Street":"Avenida Virgen de Cuadros","HouseNumber":"38","PostalCode":"23537","AdditionalData":[{"value":"España","key":"CountryName"},{"value":"Andalucía","key":"StateName"},{"value":"Jaén","key":"CountyName"}]},"MapReference":{"ReferenceId":"545872321","Spot":0.26,"SideOfStreet":"left","CountryId":"20215059","StateId":"20221885","CountyId":"20221891","CityId":"20235787","DistrictId":"20235788","AddressId":"300597874","RoadLinkId":"66850777"}}},{"Relevance":1.0,"Distance":21.9,"MatchLevel":"houseNumber","MatchQuality":{"Country":1.0,"State":1.0,"County":1.0,"City":1.0,"District":1.0,"Street":[1.0],"HouseNumber":1.0,"PostalCode":1.0},"MatchType":"interpolated","Location":{"LocationId":"NT_4BfAHJt3IUoj3P8MgOhtYA_0ID","LocationType":"point","DisplayPosition":{"Latitude":37.82053,"Longitude":-3.41398},"MapView":{"TopLeft":{"Latitude":37.8216542,"Longitude":-3.4154031},"BottomRight":{"Latitude":37.8194058,"Longitude":-3.4125569}},"Address":{"Label":"Avenida Virgen de Cuadros, 42, 23537 Bedmar y Garcíez (Jaén), España","Country":"ESP","State":"Andalucía","County":"Jaén","City":"Bedmar y Garcíez","District":"Bedmar","Street":"Avenida Virgen de Cuadros","HouseNumber":"42","PostalCode":"23537","AdditionalData":[{"value":"España","key":"CountryName"},{"value":"Andalucía","key":"StateName"},{"value":"Jaén","key":"CountyName"}]},"MapReference":{"ReferenceId":"1189471200","Spot":0.36,"SideOfStreet":"left","CountryId":"20215059","StateId":"20221885","CountyId":"20221891","CityId":"20235787","DistrictId":"20235788","AddressId":"300627743","RoadLinkId":"498610019"}}},{"Relevance":1.0,"Distance":36.0,"MatchLevel":"houseNumber","MatchQuality":{"Country":1.0,"State":1.0,"County":1.0,"City":1.0,"District":1.0,"Street":[1.0],"HouseNumber":1.0,"PostalCode":1.0},"MatchType":"interpolated","Location":{"LocationId":"NT_4BfAHJt3IUoj3P8MgOhtYA_0QD","LocationType":"point","DisplayPosition":{"Latitude":37.82043,"Longitude":-3.41407},"MapView":{"TopLeft":{"Latitude":37.8215542,"Longitude":-3.4154931},"BottomRight":{"Latitude":37.8193058,"Longitude":-3.4126469}},"Address":{"Label":"Avenida Virgen de Cuadros, 44, 23537 Bedmar y Garcíez (Jaén), España","Country":"ESP","State":"Andalucía","County":"Jaén","City":"Bedmar y Garcíez","District":"Bedmar","Street":"Avenida Virgen de Cuadros","HouseNumber":"44","PostalCode":"23537","AdditionalData":[{"value":"España","key":"CountryName"},{"value":"Andalucía","key":"StateName"},{"value":"Jaén","key":"CountyName"}]},"MapReference":{"ReferenceId":"1189471199","Spot":0.96,"SideOfStreet":"left","CountryId":"20215059","StateId":"20221885","CountyId":"20221891","CityId":"20235787","DistrictId":"20235788","AddressId":"745857054","RoadLinkId":"498610018"}}},{"Relevance":1.0,"Distance":36.1,"MatchLevel":"street","MatchQuality":{"Country":1.0,"State":1.0,"County":1.0,"City":1.0,"District":1.0,"PostalCode":1.0},"Location":{"LocationId":"NT_YuNU5MOLppD9F9ajnvtUkA_l_1189471198_R","LocationType":"point","DisplayPosition":{"Latitude":37.82045,"Longitude":-3.41405},"MapView":{"TopLeft":{"Latitude":37.82045,"Longitude":-3.41405},"BottomRight":{"Latitude":37.82026,"Longitude":-3.41391}},"Address":{"Label":"23537 Bedmar y Garcíez (Jaén), España","Country":"ESP","State":"Andalucía","County":"Jaén","City":"Bedmar y Garcíez","District":"Bedmar","PostalCode":"23537","AdditionalData":[{"value":"España","key":"CountryName"},{"value":"Andalucía","key":"StateName"},{"value":"Jaén","key":"CountyName"}]},"MapReference":{"ReferenceId":"1189471198","Spot":1.0,"SideOfStreet":"right","CountryId":"20215059","StateId":"20221885","CountyId":"20221891","CityId":"20235787","DistrictId":"20235788"}}},{"Relevance":1.0,"Distance":42.9,"MatchLevel":"houseNumber","MatchQuality":{"Country":1.0,"State":1.0,"County":1.0,"City":1.0,"District":1.0,"Street":[1.0],"HouseNumber":1.0,"PostalCode":1.0},"MatchType":"interpolated","Location":{"LocationId":"NT_xOU6UvMQnlNBm-bl5rcipB_yA","LocationType":"point","DisplayPosition":{"Latitude":37.82088,"Longitude":-3.41346},"MapView":{"TopLeft":{"Latitude":37.8220042,"Longitude":-3.4148831},"BottomRight":{"Latitude":37.8197558,"Longitude":-3.4120369}},"Address":{"Label":"Calle San José, 2, 23537 Bedmar y Garcíez (Jaén), España","Country":"ESP","State":"Andalucía","County":"Jaén","City":"Bedmar y Garcíez","District":"Bedmar","Street":"Calle San José","HouseNumber":"2","PostalCode":"23537","AdditionalData":[{"value":"España","key":"CountryName"},{"value":"Andalucía","key":"StateName"},{"value":"Jaén","key":"CountyName"}]},"MapReference":{"ReferenceId":"545872421","Spot":0.74,"SideOfStreet":"left","CountryId":"20215059","StateId":"20221885","CountyId":"20221891","CityId":"20235787","DistrictId":"20235788","AddressId":"325655670","RoadLinkId":"67544356"}}},{"Relevance":1.0,"Distance":49.9,"MatchLevel":"houseNumber","MatchQuality":{"Country":1.0,"State":1.0,"County":1.0,"City":1.0,"District":1.0,"Street":[1.0],"HouseNumber":1.0,"PostalCode":1.0},"MatchType":"interpolated","Location":{"LocationId":"NT_4BfAHJt3IUoj3P8MgOhtYA_zAD","LocationType":"point","DisplayPosition":{"Latitude":37.82105,"Longitude":-3.41355},"MapView":{"TopLeft":{"Latitude":37.8221742,"Longitude":-3.4149731},"BottomRight":{"Latitude":37.8199258,"Longitude":-3.4121269}},"Address":{"Label":"Avenida Virgen de Cuadros, 30, 23537 Bedmar y Garcíez (Jaén), España","Country":"ESP","State":"Andalucía","County":"Jaén","City":"Bedmar y Garcíez","District":"Bedmar","Street":"Avenida Virgen de Cuadros","HouseNumber":"30","PostalCode":"23537","AdditionalData":[{"value":"España","key":"CountryName"},{"value":"Andalucía","key":"StateName"},{"value":"Jaén","key":"CountyName"}]},"MapReference":{"ReferenceId":"545872322","Spot":0.12,"SideOfStreet":"left","CountryId":"20215059","StateId":"20221885","CountyId":"20221891","CityId":"20235787","DistrictId":"20235788","AddressId":"745860692","RoadLinkId":"66830284"}}},{"Relevance":1.0,"Distance":51.2,"MatchLevel":"houseNumber","MatchQuality":{"Country":1.0,"State":1.0,"County":1.0,"City":1.0,"District":1.0,"Street":[1.0],"HouseNumber":1.0,"PostalCode":1.0},"MatchType":"interpolated","Location":{"LocationId":"NT_8Vcw-yu5luNYgDu1199niA_xMD","LocationType":"point","DisplayPosition":{"Latitude":37.82113,"Longitude":-3.41447},"MapView":{"TopLeft":{"Latitude":37.8222542,"Longitude":-3.4158931},"BottomRight":{"Latitude":37.8200058,"Longitude":-3.4130469}},"Address":{"Label":"Calle Santo Reino, 13, 23537 Bedmar y Garcíez (Jaén), España","Country":"ESP","State":"Andalucía","County":"Jaén","City":"Bedmar y Garcíez","District":"Bedmar","Street":"Calle Santo Reino","HouseNumber":"13","PostalCode":"23537","AdditionalData":[{"value":"España","key":"CountryName"},{"value":"Andalucía","key":"StateName"},{"value":"Jaén","key":"CountyName"}]},"MapReference":{"ReferenceId":"564231578","Spot":0.05,"SideOfStreet":"right","CountryId":"20215059","StateId":"20221885","CountyId":"20221891","CityId":"20235787","DistrictId":"20235788","AddressId":"300539813","RoadLinkId":"67726095"}}},{"Relevance":1.0,"Distance":63.4,"MatchLevel":"houseNumber","MatchQuality":{"Country":1.0,"State":1.0,"County":1.0,"City":1.0,"District":1.0,"Street":[1.0],"HouseNumber":1.0,"PostalCode":1.0},"MatchType":"interpolated","Location":{"LocationId":"NT_rAI5JC9M6SjepCspYxC.jA_1ID","LocationType":"point","DisplayPosition":{"Latitude":37.82021,"Longitude":-3.41364},"MapView":{"TopLeft":{"Latitude":37.8213342,"Longitude":-3.4150631},"BottomRight":{"Latitude":37.8190858,"Longitude":-3.4122169}},"Address":{"Label":"Calle García Morato, 52, 23537 Bedmar y Garcíez (Jaén), España","Country":"ESP","State":"Andalucía","County":"Jaén","City":"Bedmar y Garcíez","District":"Bedmar","Street":"Calle García Morato","HouseNumber":"52","PostalCode":"23537","AdditionalData":[{"value":"España","key":"CountryName"},{"value":"Andalucía","key":"StateName"},{"value":"Jaén","key":"CountyName"}]},"MapReference":{"ReferenceId":"545872444","Spot":0.43,"SideOfStreet":"left","CountryId":"20215059","StateId":"20221885","CountyId":"20221891","CityId":"20235787","DistrictId":"20235788","AddressId":"325673206","RoadLinkId":"67223749"}}}]}]}}