{"Response":{"MetaInfo":{"Timestamp":"2020-03-28T12:03:34.110+0000","NextPageInformation":"2"},"View":[{"_type":"SearchResultsViewType","ViewId":0,"Result":[{"Relevance":1.0,"Distance":-783.2,"MatchLevel":"landmark","MatchQuality":{"Country":1.0,"State":1.0,"Name":1.0},"Location":{"LocationId":"NT_WbRHZaUNmJdoEGyLvAjbjA","LocationType":"island","Name":"Sicilia","DisplayPosition":{"Latitude":37.4742,"Longitude":14.13844},"MapView":{"TopLeft":{"Latitude":38.30149,"Longitude":12.42414},"BottomRight":{"Latitude":36.6469,"Longitude":15.65312}},"Address":{"Label":"Italia","Country":"ITA","State":"Sicilia","AdditionalData":[{"value":"Italia","key":"CountryName"},{"value":"Sicilia","key":"StateName"}]},"MapReference":{"CountryId":"20110484","StateId":"20126201","PlaceId":"82846424"}}},{"Relevance":1.0,"Distance":0.0,"Direction":0.0,"MatchLevel":"city","MatchQuality":{"Country":1.0,"State":1.0,"County":1.0,"City":1.0,"PostalCode":1.0},"Location":{"LocationId":"NT_voXoYlxbDFD0w5jeTGru6D","LocationType":"point","DisplayPosition":{"Latitude":37.9142613,"Longitude":15.3355728},"MapView":{"TopLeft":{"Latitude":37.9494,"Longitude":15.28059},"BottomRight":{"Latitude":37.90549,"Longitude":15.3461}},"Address":{"Label":"Forza d'Agrò, Sicilia, Italia","Country":"ITA","State":"Sicilia","County":"ME","City":"Forza d'Agrò","PostalCode":"98030","AdditionalData":[{"value":"Italia","key":"CountryName"},{"value":"Sicilia","key":"StateName"},{"value":"Messina","key":"CountyName"}]},"MapReference":{"ReferenceId":"579464381","SideOfStreet":"neither","CountryId":"20110484","StateId":"20126201","CountyId":"20246213","CityId":"20246285"}}},{"Relevance":1.0,"Distance":6.8,"MatchLevel":"houseNumber","MatchQuality":{"Country":1.0,"State":1.0,"County":1.0,"City":1.0,"Street":[1.0],"HouseNumber":1.0,"PostalCode":1.0},"MatchType":"interpolated","Location":{"LocationId":"NT_VVLjXWionMPzzu2ssa3WnB_5A","LocationType":"point","DisplayPosition":{"Latitude":37.91419,"Longitude":15.33564},"MapView":{"TopLeft":{"Latitude":37.9153142,"Longitude":15.3342151},"BottomRight":{"Latitude":37.9130658,"Longitude":15.3370649}},"Address":{"Label":"Viale delle Rimembranze, 9, 98030 Forza d'Agrò ME, Italia","Country":"ITA","State":"Sicilia","County":"ME","City":"Forza d'Agrò","Street":"Viale delle Rimembranze","HouseNumber":"9","PostalCode":"98030","AdditionalData":[{"value":"Italia","key":"CountryName"},{"value":"Sicilia","key":"StateName"},{"value":"Messina","key":"CountyName"}]},"MapReference":{"ReferenceId":"586982727","Spot":0.15,"SideOfStreet":"left","CountryId":"20110484","StateId":"20126201","CountyId":"20246213","CityId":"20246285","AddressId":"670888315","RoadLinkId":"60266423"}}},{"Relevance":1.0,"Distance":16.8,"MatchLevel":"houseNumber","MatchQuality":{"Country":1.0,"State":1.0,"County":1.0,"City":1.0,"Street":[1.0],"HouseNumber":1.0,"PostalCode":1.0},"MatchType":"interpolated","Location":{"LocationId":"NT_2If6H2zDv3kzLGh4tlMhIB_xgD","LocationType":"point","DisplayPosition":{"Latitude":37.91406,"Longitude":15.33556},"MapView":{"TopLeft":{"Latitude":37.9151842,"Longitude":15.3341351},"BottomRight":{"Latitude":37.9129358,"Longitude":15.3369849}},"Address":{"Label":"Via San Francesco, 18, 98030 Forza d'Agrò ME, Italia","Country":"ITA","State":"Sicilia","County":"ME","City":"Forza d'Agrò","Street":"Via San Francesco","HouseNumber":"18","PostalCode":"98030","AdditionalData":[{"value":"Italia","key":"CountryName"},{"value":"Sicilia","key":"StateName"},{"value":"Messina","key":"CountyName"}]},"MapReference":{"ReferenceId":"579464381","Spot":0.9,"SideOfStreet":"right","CountryId":"20110484","StateId":"20126201","CountyId":"20246213","CityId":"20246285","AddressId":"671103176","RoadLinkId":"59888057"}}},{"Relevance":1.0,"Distance":28.1,"MatchLevel":"houseNumber","MatchQuality":{"Country":1.0,"State":1.0,"County":1.0,"City":1.0,"Street":[1.0],"HouseNumber":1.0,"PostalCode":1.0},"MatchType":"interpolated","Location":{"LocationId":"NT_Ijmv1iJLDNLNaUezWscctA_l_579465535_R_xA","LocationType":"point","DisplayPosition":{"Latitude":37.914331,"Longitude":15.33513},"MapView":{"TopLeft":{"Latitude":37.9154552,"Longitude":15.3337051},"BottomRight":{"Latitude":37.9132069,"Longitude":15.3365549}},"Address":{"Label":"Via dell'Arco, 1, 98030 Forza d'Agrò ME, Italia","Country":"ITA","State":"Sicilia","County":"ME","City":"Forza d'Agrò","Street":"Via dell'Arco","HouseNumber":"1","PostalCode":"98030","AdditionalData":[{"value":"Italia","key":"CountryName"},{"value":"Sicilia","key":"StateName"},{"value":"Messina","key":"CountyName"}]},"MapReference":{"ReferenceId":"579465535","Spot":0.51,"SideOfStreet":"right","CountryId":"20110484","StateId":"20126201","CountyId":"20246213","CityId":"20246285"}}},{"Relevance":1.0,"Distance":29.1,"MatchLevel":"houseNumber","MatchQuality":{"Country":1.0,"State":1.0,"County":1.0,"City":1.0,"Street":[1.0],"HouseNumber":1.0,"PostalCode":1.0},"MatchType":"interpolated","Location":{"LocationId":"NT_rfibNhjS3IFjno5C2YzeeB_5A","LocationType":"point","DisplayPosition":{"Latitude":37.91388,"Longitude":15.33556},"MapView":{"TopLeft":{"Latitude":37.9150042,"Longitude":15.3341351},"BottomRight":{"Latitude":37.9127558,"Longitude":15.3369849}},"Address":{"Label":"Via Dante Alighieri, 9, 98030 Forza d'Agrò ME, Italia","Country":"ITA","State":"Sicilia","County":"ME","City":"Forza d'Agrò","Street":"Via Dante Alighieri","HouseNumber":"9","PostalCode":"98030","AdditionalData":[{"value":"Italia","key":"CountryName"},{"value":"Sicilia","key":"StateName"},{"value":"Messina","key":"CountyName"}]},"MapReference":{"ReferenceId":"579465568","Spot":0.13,"SideOfStreet":"right","CountryId":"20110484","StateId":"20126201","CountyId":"20246213","CityId":"20246285","AddressId":"671101666","RoadLinkId":"60188446"}}},{"Relevance":1.0,"Distance":31.3,"MatchLevel":"street","MatchQuality":{"Country":1.0,"State":1.0,"County":1.0,"City":1.0,"Street":[1.0],"PostalCode":1.0},"Location":{"LocationId":"NT_FTzKcmwoMOQZ5MLnikJdQC_l_579464383_R","LocationType":"point","DisplayPosition":{"Latitude":37.91408,"Longitude":15.3353},"MapView":{"TopLeft":{"Latitude":37.91409,"Longitude":15.33512},"BottomRight":{"Latitude":37.91408,"Longitude":15.3353}},"Address":{"Label":"Piazza San Francesco, 98030 Forza d'Agrò ME, Italia","Country":"ITA","State":"Sicilia","County":"ME","City":"Forza d'Agrò","Street":"Piazza San Francesco","PostalCode":"98030","AdditionalData":[{"value":"Italia","key":"CountryName"},{"value":"Sicilia","key":"StateName"},{"value":"Messina","key":"CountyName"}]},"MapReference":{"ReferenceId":"579464383","Spot":0.0,"SideOfStreet":"right","CountryId":"20110484","StateId":"20126201","CountyId":"20246213","CityId":"20246285"}}},{"Relevance":1.0,"Distance":37.3,"MatchLevel":"houseNumber","MatchQuality":{"Country":1.0,"State":1.0,"County":1.0,"City":1.0,"Street":[1.0],"HouseNumber":1.0,"PostalCode":1.0},"MatchType":"interpolated","Location":{"LocationId":"NT_VVLjXWionMPzzu2ssa3WnB_xA","LocationType":"point","DisplayPosition":{"Latitude":37.91418,"Longitude":15.33516},"MapView":{"TopLeft":{"Latitude":37.9153042,"Longitude":15.3337351},"BottomRight":{"Latitude":37.9130558,"Longitude":15.3365849}},"Address":{"Label":"Viale delle Rimembranze, 1, 98030 Forza d'Agrò ME, Italia","Country":"ITA","State":"Sicilia","County":"ME","City":"Forza d'Agrò","Street":"Viale delle Rimembranze","HouseNumber":"1","PostalCode":"98030","AdditionalData":[{"value":"Italia","key":"CountryName"},{"value":"Sicilia","key":"StateName"},{"value":"Messina","key":"CountyName"}]},"MapReference":{"ReferenceId":"586982728","Spot":1.0,"SideOfStreet":"left","CountryId":"20110484","StateId":"20126201","CountyId":"20246213","CityId":"20246285","AddressId":"670889160","RoadLinkId":"59788276"}}},{"Relevance":1.0,"Distance":39.1,"MatchLevel":"street","MatchQuality":{"Country":1.0,"State":1.0,"County":1.0,"City":1.0,"Street":[1.0],"PostalCode":1.0},"Location":{"LocationId":"NT_2ZQSH1psHR27oR1NGZyGhD_l_579465532_R","LocationType":"point","DisplayPosition":{"Latitude":37.91461,"Longitude":15.33563},"MapView":{"TopLeft":{"Latitude":37.91466,"Longitude":15.33563},"BottomRight":{"Latitude":37.91461,"Longitude":15.33585}},"Address":{"Label":"Piazza Santissima Trinità, 98030 Forza d'Agrò ME, Italia","Country":"ITA","State":"Sicilia","County":"ME","City":"Forza d'Agrò","Street":"Piazza Santissima Trinità","PostalCode":"98030","AdditionalData":[{"value":"Italia","key":"CountryName"},{"value":"Sicilia","key":"StateName"},{"value":"Messina","key":"CountyName"}]},"MapReference":{"ReferenceId":"579465532","Spot":0.0,"SideOfStreet":"right","CountryId":"20110484","StateId":"20126201","CountyId":"20246213","CityId":"20246285"}}},{"Relevance":1.0,"Distance":39.6,"MatchLevel":"houseNumber","MatchQuality":{"Country":1.0,"State":1.0,"County":1.0,"City":1.0,"Street":[1.0],"HouseNumber":1.0,"PostalCode":1.0},"MatchType":"interpolated","Location":{"LocationId":"NT_rfibNhjS3IFjno5C2YzeeB_xMD","LocationType":"point","DisplayPosition":{"Latitude":37.91387,"Longitude":15.33564},"MapView":{"TopLeft":{"Latitude":37.9149942,"Longitude":15.3342151},"BottomRight":{"Latitude":37.9127458,"Longitude":15.3370649}},"Address":{"Label":"Via Dante Alighieri, 13, 98030 Forza d'Agrò ME, Italia","Country":"ITA","State":"Sicilia","County":"ME","City":"Forza d'Agrò","Street":"Via Dante Alighieri","HouseNumber":"13","PostalCode":"98030","AdditionalData":[{"value":"Italia","key":"CountryName"},{"value":"Sicilia","key":"StateName"},{"value":"Messina","key":"CountyName"}]},"MapReference":{"ReferenceId":"579465567","Spot":0.98,"SideOfStreet":"right","CountryId":"20110484","StateId":"20126201","CountyId":"20246213","CityId":"20246285","AddressId":"671101662","RoadLinkId":"59768628"}}}]}]}}