{"Response":{"MetaInfo":{"Timestamp":"2020-03-28T11:20:48.273+0000","NextPageInformation":"2"},"View":[{"_type":"SearchResultsViewType","ViewId":0,"Result":[{"Relevance":1.0,"Distance":0.0,"Direction":0.0,"MatchLevel":"district","MatchQuality":{"Country":1.0,"State":1.0,"County":1.0,"City":1.0,"District":1.0,"PostalCode":1.0},"Location":{"LocationId":"NT_lX8BwaAtOMyKJ2H9YvT6-A","LocationType":"point","DisplayPosition":{"Latitude":37.9869372,"Longitude":23.7638066},"MapView":{"TopLeft":{"Latitude":38.03343,"Longitude":23.68693},"BottomRight":{"Latitude":37.94882,"Longitude":23.78976}},"Address":{"Label":"Αθήνα, Αττική, Ελληνικη Δημοκρατια","Country":"GRC","State":"Αττική","County":"Αττική","City":"Αθήνα","District":"Αθήνα","PostalCode":"106 71","AdditionalData":[{"value":"Ελληνικη Δημοκρατια","key":"CountryName"},{"value":"Αττική","key":"StateName"},{"value":"Αττική","key":"CountyName"}]},"MapReference":{"ReferenceId":"715104209","SideOfStreet":"neither","CountryId":"20448870","StateId":"20493453","CountyId":"20493454","CityId":"20493491","DistrictId":"20493492"}}},{"Relevance":1.0,"Distance":5.6,"MatchLevel":"houseNumber","MatchQuality":{"Country":1.0,"State":1.0,"County":1.0,"City":1.0,"District":1.0,"Street":[1.0],"HouseNumber":1.0,"PostalCode":1.0},"MatchType":"interpolated","Location":{"LocationId":"NT_wdqGE.6s-GOciHkwY.KI7D_3A","LocationType":"point","DisplayPosition":{"Latitude":37.98689,"Longitude":23.76383},"MapView":{"TopLeft":{"Latitude":37.9880142,"Longitude":23.7624037},"BottomRight":{"Latitude":37.9857658,"Longitude":23.7652563}},"Address":{"Label":"7 Βοιωτίας, 115 26 Αθήνα, Ελληνικη Δημοκρατια","Country":"GRC","State":"Αττική","County":"Αττική","City":"Αθήνα","District":"Αθήνα","Street":"Βοιωτίας","HouseNumber":"7","PostalCode":"115 26","AdditionalData":[{"value":"Ελληνικη Δημοκρατια","key":"CountryName"},{"value":"Αττική","key":"StateName"},{"value":"Αττική","key":"CountyName"}]},"MapReference":{"ReferenceId":"573253372","Spot":0.69,"SideOfStreet":"left","CountryId":"20448870","StateId":"20493453","CountyId":"20493454","CityId":"20493491","DistrictId":"20493492","AddressId":"688784551","RoadLinkId":"101701323"}}},{"Relevance":1.0,"Distance":20.4,"MatchLevel":"houseNumber","MatchQuality":{"Country":1.0,"State":1.0,"County":1.0,"City":1.0,"District":1.0,"Street":[1.0],"HouseNumber":1.0,"PostalCode":1.0},"MatchType":"interpolated","Location":{"LocationId":"NT_K-Dd2wAVhFn2M0TQ6gp2nC_xYD","LocationType":"point","DisplayPosition":{"Latitude":37.98718,"Longitude":23.7637},"MapView":{"TopLeft":{"Latitude":37.9883042,"Longitude":23.7622737},"BottomRight":{"Latitude":37.9860558,"Longitude":23.7651263}},"Address":{"Label":"16 Σεβαστουπόλεως, 115 26 Αθήνα, Ελληνικη Δημοκρατια","Country":"GRC","State":"Αττική","County":"Αττική","City":"Αθήνα","District":"Αθήνα","Street":"Σεβαστουπόλεως","HouseNumber":"16","PostalCode":"115 26","AdditionalData":[{"value":"Ελληνικη Δημοκρατια","key":"CountryName"},{"value":"Αττική","key":"StateName"},{"value":"Αττική","key":"CountyName"}]},"MapReference":{"ReferenceId":"573252984","Spot":0.26,"SideOfStreet":"right","CountryId":"20448870","StateId":"20493453","CountyId":"20493454","CityId":"20493491","DistrictId":"20493492","AddressId":"688784071","RoadLinkId":"101730186"}}},{"Relevance":1.0,"Distance":21.2,"MatchLevel":"houseNumber","MatchQuality":{"Country":1.0,"State":1.0,"County":1.0,"City":1.0,"District":1.0,"Street":[1.0],"HouseNumber":1.0,"PostalCode":1.0},"MatchType":"interpolated","Location":{"LocationId":"NT_aX.NB8mRdyZo2SyDPc5MdC_xAD","LocationType":"point","DisplayPosition":{"Latitude":37.98667,"Longitude":23.76356},"MapView":{"TopLeft":{"Latitude":37.9877942,"Longitude":23.7621337},"BottomRight":{"Latitude":37.9855458,"Longitude":23.7649863}},"Address":{"Label":"10 Αιτωλίας, 115 26 Αθήνα, Ελληνικη Δημοκρατια","Country":"GRC","State":"Αττική","County":"Αττική","City":"Αθήνα","District":"Αθήνα","Street":"Αιτωλίας","HouseNumber":"10","PostalCode":"115 26","AdditionalData":[{"value":"Ελληνικη Δημοκρατια","key":"CountryName"},{"value":"Αττική","key":"StateName"},{"value":"Αττική","key":"CountyName"}]},"MapReference":{"ReferenceId":"986276223","Spot":0.58,"SideOfStreet":"right","CountryId":"20448870","StateId":"20493453","CountyId":"20493454","CityId":"20493491","DistrictId":"20493492","AddressId":"689601236","RoadLinkId":"316925169"}}},{"Relevance":1.0,"Distance":26.9,"MatchLevel":"houseNumber","MatchQuality":{"Country":1.0,"State":1.0,"County":1.0,"City":1.0,"District":1.0,"Street":[1.0],"HouseNumber":1.0,"PostalCode":1.0},"MatchType":"interpolated","Location":{"LocationId":"NT_K-Dd2wAVhFn2M0TQ6gp2nC_xQD","LocationType":"point","DisplayPosition":{"Latitude":37.98696,"Longitude":23.76345},"MapView":{"TopLeft":{"Latitude":37.9880842,"Longitude":23.7620237},"BottomRight":{"Latitude":37.9858358,"Longitude":23.7648763}},"Address":{"Label":"14 Σεβαστουπόλεως, 115 26 Αθήνα, Ελληνικη Δημοκρατια","Country":"GRC","State":"Αττική","County":"Αττική","City":"Αθήνα","District":"Αθήνα","Street":"Σεβαστουπόλεως","HouseNumber":"14","PostalCode":"115 26","AdditionalData":[{"value":"Ελληνικη Δημοκρατια","key":"CountryName"},{"value":"Αττική","key":"StateName"},{"value":"Αττική","key":"CountyName"}]},"MapReference":{"ReferenceId":"573253121","Spot":0.5,"SideOfStreet":"right","CountryId":"20448870","StateId":"20493453","CountyId":"20493454","CityId":"20493491","DistrictId":"20493492","AddressId":"762955330","RoadLinkId":"101740136"}}},{"Relevance":1.0,"Distance":41.9,"MatchLevel":"houseNumber","MatchQuality":{"Country":1.0,"State":1.0,"County":1.0,"City":1.0,"District":1.0,"Street":[1.0],"HouseNumber":1.0,"PostalCode":1.0},"MatchType":"interpolated","Location":{"LocationId":"NT_aX.NB8mRdyZo2SyDPc5MdC_xQD","LocationType":"point","DisplayPosition":{"Latitude":37.98693,"Longitude":23.76323},"MapView":{"TopLeft":{"Latitude":37.9880542,"Longitude":23.7618037},"BottomRight":{"Latitude":37.9858058,"Longitude":23.7646563}},"Address":{"Label":"14 Αιτωλίας, 115 26 Αθήνα, Ελληνικη Δημοκρατια","Country":"GRC","State":"Αττική","County":"Αττική","City":"Αθήνα","District":"Αθήνα","Street":"Αιτωλίας","HouseNumber":"14","PostalCode":"115 26","AdditionalData":[{"value":"Ελληνικη Δημοκρατια","key":"CountryName"},{"value":"Αττική","key":"StateName"},{"value":"Αττική","key":"CountyName"}]},"MapReference":{"ReferenceId":"573253122","Spot":0.23,"SideOfStreet":"right","CountryId":"20448870","StateId":"20493453","CountyId":"20493454","CityId":"20493491","DistrictId":"20493492","AddressId":"689620389","RoadLinkId":"101787875"}}},{"Relevance":1.0,"Distance":49.0,"MatchLevel":"houseNumber","MatchQuality":{"Country":1.0,"State":1.0,"County":1.0,"City":1.0,"District":1.0,"Street":[1.0],"HouseNumber":1.0,"PostalCode":1.0},"MatchType":"interpolated","Location":{"LocationId":"NT_K-Dd2wAVhFn2M0TQ6gp2nC_xID","LocationType":"point","DisplayPosition":{"Latitude":37.98679,"Longitude":23.76325},"MapView":{"TopLeft":{"Latitude":37.9879142,"Longitude":23.7618237},"BottomRight":{"Latitude":37.9856658,"Longitude":23.7646763}},"Address":{"Label":"12 Σεβαστουπόλεως, 115 26 Αθήνα, Ελληνικη Δημοκρατια","Country":"GRC","State":"Αττική","County":"Αττική","City":"Αθήνα","District":"Αθήνα","Street":"Σεβαστουπόλεως","HouseNumber":"12","PostalCode":"115 26","AdditionalData":[{"value":"Ελληνικη Δημοκρατια","key":"CountryName"},{"value":"Αττική","key":"StateName"},{"value":"Αττική","key":"CountyName"}]},"MapReference":{"ReferenceId":"986276227","Spot":0.82,"SideOfStreet":"right","CountryId":"20448870","StateId":"20493453","CountyId":"20493454","CityId":"20493491","DistrictId":"20493492","AddressId":"763105149","RoadLinkId":"316925173"}}},{"Relevance":1.0,"Distance":53.2,"MatchLevel":"houseNumber","MatchQuality":{"Country":1.0,"State":1.0,"County":1.0,"City":1.0,"District":1.0,"Street":[1.0],"HouseNumber":1.0,"PostalCode":1.0},"MatchType":"interpolated","Location":{"LocationId":"NT_aX.NB8mRdyZo2SyDPc5MdC_yA","LocationType":"point","DisplayPosition":{"Latitude":37.98638,"Longitude":23.76393},"MapView":{"TopLeft":{"Latitude":37.9875042,"Longitude":23.7625037},"BottomRight":{"Latitude":37.9852558,"Longitude":23.7653563}},"Address":{"Label":"2 Αιτωλίας, 115 26 Αθήνα, Ελληνικη Δημοκρατια","Country":"GRC","State":"Αττική","County":"Αττική","City":"Αθήνα","District":"Αθήνα","Street":"Αιτωλίας","HouseNumber":"2","PostalCode":"115 26","AdditionalData":[{"value":"Ελληνικη Δημοκρατια","key":"CountryName"},{"value":"Αττική","key":"StateName"},{"value":"Αττική","key":"CountyName"}]},"MapReference":{"ReferenceId":"986276222","Spot":0.53,"SideOfStreet":"right","CountryId":"20448870","StateId":"20493453","CountyId":"20493454","CityId":"20493491","DistrictId":"20493492","AddressId":"687549766","RoadLinkId":"316925168"}}},{"Relevance":1.0,"Distance":53.9,"MatchLevel":"houseNumber","MatchQuality":{"Country":1.0,"State":1.0,"County":1.0,"City":1.0,"District":1.0,"Street":[1.0],"HouseNumber":1.0,"PostalCode":1.0},"MatchType":"interpolated","Location":{"LocationId":"NT_.SYfRyMNM.U0S1ww1T8DwA_ykD","LocationType":"point","DisplayPosition":{"Latitude":37.98643,"Longitude":23.76421},"MapView":{"TopLeft":{"Latitude":37.9875542,"Longitude":23.7627837},"BottomRight":{"Latitude":37.9853058,"Longitude":23.7656363}},"Address":{"Label":"29 Μεσογείων, 115 26 Αθήνα, Ελληνικη Δημοκρατια","Country":"GRC","State":"Αττική","County":"Αττική","City":"Αθήνα","District":"Αθήνα","Street":"Μεσογείων","HouseNumber":"29","PostalCode":"115 26","AdditionalData":[{"value":"Ελληνικη Δημοκρατια","key":"CountryName"},{"value":"Αττική","key":"StateName"},{"value":"Αττική","key":"CountyName"}]},"MapReference":{"ReferenceId":"716605649","Spot":0.5,"SideOfStreet":"left","CountryId":"20448870","StateId":"20493453","CountyId":"20493454","CityId":"20493491","DistrictId":"20493492","AddressId":"687444457","RoadLinkId":"121564251"}}},{"Relevance":1.0,"Distance":55.0,"MatchLevel":"houseNumber","MatchQuality":{"Country":1.0,"State":1.0,"County":1.0,"City":1.0,"District":1.0,"Street":[1.0],"HouseNumber":1.0,"PostalCode":1.0},"MatchType":"interpolated","Location":{"LocationId":"NT_dIabMdAyr3f3IqDvr8r4JC_xQD","LocationType":"point","DisplayPosition":{"Latitude":37.98742,"Longitude":23.76424},"MapView":{"TopLeft":{"Latitude":37.9885442,"Longitude":23.7628137},"BottomRight":{"Latitude":37.9862958,"Longitude":23.7656663}},"Address":{"Label":"14 Φωκίδος, 115 26 Αθήνα, Ελληνικη Δημοκρατια","Country":"GRC","State":"Αττική","County":"Αττική","City":"Αθήνα","District":"Αθήνα","Street":"Φωκίδος","HouseNumber":"14","PostalCode":"115 26","AdditionalData":[{"value":"Ελληνικη Δημοκρατια","key":"CountryName"},{"value":"Αττική","key":"StateName"},{"value":"Αττική","key":"CountyName"}]},"MapReference":{"ReferenceId":"573252977","Spot":0.74,"SideOfStreet":"left","CountryId":"20448870","StateId":"20493453","CountyId":"20493454","CityId":"20493491","DistrictId":"20493492","AddressId":"687549227","RoadLinkId":"101922518"}}}]}]}}