{"Response":{"MetaInfo":{"Timestamp":"2020-03-28T11:26:19.590+0000","NextPageInformation":"2"},"View":[{"_type":"SearchResultsViewType","ViewId":0,"Result":[{"Relevance":1.0,"Distance":-9551.3,"MatchLevel":"landmark","MatchQuality":{"Country":1.0,"State":1.0,"Name":1.0},"Location":{"LocationId":"NT_WbRHZaUNmJdoEGyLvAjbjA","LocationType":"island","Name":"Sicilia","DisplayPosition":{"Latitude":37.4742,"Longitude":14.13844},"MapView":{"TopLeft":{"Latitude":38.30149,"Longitude":12.42414},"BottomRight":{"Latitude":36.6469,"Longitude":15.65312}},"Address":{"Label":"Italia","Country":"ITA","State":"Sicilia","AdditionalData":[{"value":"Italia","key":"CountryName"},{"value":"Sicilia","key":"StateName"}]},"MapReference":{"CountryId":"20110484","StateId":"20126201","PlaceId":"82846424"}}},{"Relevance":1.0,"Distance":0.0,"Direction":0.0,"MatchLevel":"city","MatchQuality":{"Country":1.0,"State":1.0,"County":1.0,"City":1.0,"PostalCode":1.0},"Location":{"LocationId":"NT_BFOb56.VDAiH1HCoyrjSYA","LocationType":"point","DisplayPosition":{"Latitude":37.9286626,"Longitude":14.3582214},"MapView":{"TopLeft":{"Latitude":37.96775,"Longitude":14.2931},"BottomRight":{"Latitude":37.83649,"Longitude":14.46033}},"Address":{"Label":"Mistretta, Sicilia, Italia","Country":"ITA","State":"Sicilia","County":"ME","City":"Mistretta","PostalCode":"98073","AdditionalData":[{"value":"Italia","key":"CountryName"},{"value":"Sicilia","key":"StateName"},{"value":"Messina","key":"CountyName"}]},"MapReference":{"ReferenceId":"578792680","SideOfStreet":"neither","CountryId":"20110484","StateId":"20126201","CountyId":"20246213","CityId":"20246390"}}},{"Relevance":1.0,"Distance":3.9,"MatchLevel":"street","MatchQuality":{"Country":1.0,"State":1.0,"County":1.0,"City":1.0,"PostalCode":1.0},"Location":{"LocationId":"NT_da0bDGcmcgGAnq8-bjrSwB_l_578793760_R","LocationType":"point","DisplayPosition":{"Latitude":37.928641,"Longitude":14.3581869},"MapView":{"TopLeft":{"Latitude":37.9287,"Longitude":14.35815},"BottomRight":{"Latitude":37.92846,"Longitude":14.3583}},"Address":{"Label":"98073 Mistretta ME, Italia","Country":"ITA","State":"Sicilia","County":"ME","City":"Mistretta","PostalCode":"98073","AdditionalData":[{"value":"Italia","key":"CountryName"},{"value":"Sicilia","key":"StateName"},{"value":"Messina","key":"CountyName"}]},"MapReference":{"ReferenceId":"578793760","Spot":0.75,"SideOfStreet":"right","CountryId":"20110484","StateId":"20126201","CountyId":"20246213","CityId":"20246390"}}},{"Relevance":1.0,"Distance":6.3,"MatchLevel":"street","MatchQuality":{"Country":1.0,"State":1.0,"County":1.0,"City":1.0,"PostalCode":1.0},"Location":{"LocationId":"NT_da0bDGcmcgGAnq8-bjrSwB_l_578793751_R","LocationType":"point","DisplayPosition":{"Latitude":37.9287173,"Longitude":14.3582037},"MapView":{"TopLeft":{"Latitude":37.9288,"Longitude":14.35815},"BottomRight":{"Latitude":37.9287,"Longitude":14.35846}},"Address":{"Label":"98073 Mistretta ME, Italia","Country":"ITA","State":"Sicilia","County":"ME","City":"Mistretta","PostalCode":"98073","AdditionalData":[{"value":"Italia","key":"CountryName"},{"value":"Sicilia","key":"StateName"},{"value":"Messina","key":"CountyName"}]},"MapReference":{"ReferenceId":"578793751","Spot":0.17,"SideOfStreet":"right","CountryId":"20110484","StateId":"20126201","CountyId":"20246213","CityId":"20246390"}}},{"Relevance":1.0,"Distance":7.5,"MatchLevel":"street","MatchQuality":{"Country":1.0,"State":1.0,"County":1.0,"City":1.0,"PostalCode":1.0},"Location":{"LocationId":"NT_da0bDGcmcgGAnq8-bjrSwB_l_578793747_R","LocationType":"point","DisplayPosition":{"Latitude":37.9287,"Longitude":14.35815},"MapView":{"TopLeft":{"Latitude":37.9287,"Longitude":14.35722},"BottomRight":{"Latitude":37.92836,"Longitude":14.35815}},"Address":{"Label":"98073 Mistretta ME, Italia","Country":"ITA","State":"Sicilia","County":"ME","City":"Mistretta","PostalCode":"98073","AdditionalData":[{"value":"Italia","key":"CountryName"},{"value":"Sicilia","key":"StateName"},{"value":"Messina","key":"CountyName"}]},"MapReference":{"ReferenceId":"578793747","Spot":1.0,"SideOfStreet":"right","CountryId":"20110484","StateId":"20126201","CountyId":"20246213","CityId":"20246390"}}},{"Relevance":1.0,"Distance":8.8,"MatchLevel":"houseNumber","MatchQuality":{"Country":1.0,"State":1.0,"County":1.0,"City":1.0,"Street":[1.0],"HouseNumber":1.0,"PostalCode":1.0},"MatchType":"interpolated","Location":{"LocationId":"NT_BfDX6nQXCVB1zzov0RfkmD_l_578793683_L_4cD","LocationType":"point","DisplayPosition":{"Latitude":37.92846,"Longitude":14.3583},"MapView":{"TopLeft":{"Latitude":37.9295842,"Longitude":14.3568748},"BottomRight":{"Latitude":37.9273359,"Longitude":14.3597252}},"Address":{"Label":"Via Anna Salamone, 87, 98073 Mistretta ME, Italia","Country":"ITA","State":"Sicilia","County":"ME","City":"Mistretta","Street":"Via Anna Salamone","HouseNumber":"87","PostalCode":"98073","AdditionalData":[{"value":"Italia","key":"CountryName"},{"value":"Sicilia","key":"StateName"},{"value":"Messina","key":"CountyName"}]},"MapReference":{"ReferenceId":"578793683","Spot":0.0,"SideOfStreet":"left","CountryId":"20110484","StateId":"20126201","CountyId":"20246213","CityId":"20246390"}}},{"Relevance":1.0,"Distance":13.1,"MatchLevel":"houseNumber","MatchQuality":{"Country":1.0,"State":1.0,"County":1.0,"City":1.0,"Street":[1.0],"HouseNumber":1.0,"PostalCode":1.0},"MatchType":"interpolated","Location":{"LocationId":"NT_BfDX6nQXCVB1zzov0RfkmD_l_578793689_L_4kD","LocationType":"point","DisplayPosition":{"Latitude":37.9284267,"Longitude":14.3582367},"MapView":{"TopLeft":{"Latitude":37.9295508,"Longitude":14.3568115},"BottomRight":{"Latitude":37.9273025,"Longitude":14.3596619}},"Address":{"Label":"Via Anna Salamone, 89, 98073 Mistretta ME, Italia","Country":"ITA","State":"Sicilia","County":"ME","City":"Mistretta","Street":"Via Anna Salamone","HouseNumber":"89","PostalCode":"98073","AdditionalData":[{"value":"Italia","key":"CountryName"},{"value":"Sicilia","key":"StateName"},{"value":"Messina","key":"CountyName"}]},"MapReference":{"ReferenceId":"578793689","Spot":0.67,"SideOfStreet":"left","CountryId":"20110484","StateId":"20126201","CountyId":"20246213","CityId":"20246390"}}},{"Relevance":1.0,"Distance":25.5,"MatchLevel":"street","MatchQuality":{"Country":1.0,"State":1.0,"County":1.0,"City":1.0,"PostalCode":1.0},"Location":{"LocationId":"NT_da0bDGcmcgGAnq8-bjrSwB_l_578793756_L","LocationType":"point","DisplayPosition":{"Latitude":37.9287855,"Longitude":14.3584672},"MapView":{"TopLeft":{"Latitude":37.9288,"Longitude":14.35846},"BottomRight":{"Latitude":37.9286,"Longitude":14.35856}},"Address":{"Label":"98073 Mistretta ME, Italia","Country":"ITA","State":"Sicilia","County":"ME","City":"Mistretta","PostalCode":"98073","AdditionalData":[{"value":"Italia","key":"CountryName"},{"value":"Sicilia","key":"StateName"},{"value":"Messina","key":"CountyName"}]},"MapReference":{"ReferenceId":"578793756","Spot":0.93,"SideOfStreet":"left","CountryId":"20110484","StateId":"20126201","CountyId":"20246213","CityId":"20246390"}}},{"Relevance":1.0,"Distance":25.9,"MatchLevel":"street","MatchQuality":{"Country":1.0,"State":1.0,"County":1.0,"City":1.0,"PostalCode":1.0},"Location":{"LocationId":"NT_da0bDGcmcgGAnq8-bjrSwB_l_578793739_R","LocationType":"point","DisplayPosition":{"Latitude":37.9288,"Longitude":14.35846},"MapView":{"TopLeft":{"Latitude":37.92904,"Longitude":14.35846},"BottomRight":{"Latitude":37.9288,"Longitude":14.35867}},"Address":{"Label":"98073 Mistretta ME, Italia","Country":"ITA","State":"Sicilia","County":"ME","City":"Mistretta","PostalCode":"98073","AdditionalData":[{"value":"Italia","key":"CountryName"},{"value":"Sicilia","key":"StateName"},{"value":"Messina","key":"CountyName"}]},"MapReference":{"ReferenceId":"578793739","Spot":0.0,"SideOfStreet":"right","CountryId":"20110484","StateId":"20126201","CountyId":"20246213","CityId":"20246390"}}},{"Relevance":1.0,"Distance":27.7,"MatchLevel":"houseNumber","MatchQuality":{"Country":1.0,"State":1.0,"County":1.0,"City":1.0,"Street":[1.0],"HouseNumber":1.0,"PostalCode":1.0},"MatchType":"interpolated","Location":{"LocationId":"NT_BfDX6nQXCVB1zzov0RfkmD_l_578793697_L_5UD","LocationType":"point","DisplayPosition":{"Latitude":37.9283376,"Longitude":14.3584798},"MapView":{"TopLeft":{"Latitude":37.9294618,"Longitude":14.3570547},"BottomRight":{"Latitude":37.9272135,"Longitude":14.359905}},"Address":{"Label":"Via Anna Salamone, 95, 98073 Mistretta ME, Italia","Country":"ITA","State":"Sicilia","County":"ME","City":"Mistretta","Street":"Via Anna Salamone","HouseNumber":"95","PostalCode":"98073","AdditionalData":[{"value":"Italia","key":"CountryName"},{"value":"Sicilia","key":"StateName"},{"value":"Messina","key":"CountyName"}]},"MapReference":{"ReferenceId":"578793697","Spot":0.49,"SideOfStreet":"left","CountryId":"20110484","StateId":"20126201","CountyId":"20246213","CityId":"20246390"}}}]}]}}