{"Response":{"MetaInfo":{"Timestamp":"2020-03-28T09:54:00.252+0000","NextPageInformation":"2"},"View":[{"_type":"SearchResultsViewType","ViewId":0,"Result":[{"Relevance":1.0,"Distance":0.0,"Direction":0.0,"MatchLevel":"district","MatchQuality":{"Country":1.0,"State":1.0,"County":1.0,"City":1.0,"District":1.0,"PostalCode":1.0},"Location":{"LocationId":"NT_y0iA.BYfjFSB79u1mTEpAD","LocationType":"point","DisplayPosition":{"Latitude":37.9553893,"Longitude":23.6396271},"MapView":{"TopLeft":{"Latitude":37.96584,"Longitude":23.62097},"BottomRight":{"Latitude":37.9263,"Longitude":23.67398}},"Address":{"Label":"Πειραιάς, Αττική, Ελληνικη Δημοκρατια","Country":"GRC","State":"Αττική","County":"Αττική","City":"Πειραιάς","District":"Πειραιάς","PostalCode":"185 32","AdditionalData":[{"value":"Ελληνικη Δημοκρατια","key":"CountryName"},{"value":"Αττική","key":"StateName"},{"value":"Αττική","key":"CountyName"}]},"MapReference":{"ReferenceId":"923326664","SideOfStreet":"neither","CountryId":"20448870","StateId":"20493453","CountyId":"20493454","CityId":"20493639","DistrictId":"20493640"}}},{"Relevance":1.0,"Distance":3.3,"MatchLevel":"houseNumber","MatchQuality":{"Country":1.0,"State":1.0,"County":1.0,"City":1.0,"District":1.0,"Street":[1.0],"HouseNumber":1.0,"PostalCode":1.0},"MatchType":"interpolated","Location":{"LocationId":"NT_ZtM81tkGsEOCyKymWdjAwD_xED","LocationType":"point","DisplayPosition":{"Latitude":37.95545,"Longitude":23.63959},"MapView":{"TopLeft":{"Latitude":37.9565742,"Longitude":23.6381643},"BottomRight":{"Latitude":37.9543258,"Longitude":23.6410157}},"Address":{"Label":"11 Ολύνθου, 185 45 Πειραιάς, Ελληνικη Δημοκρατια","Country":"GRC","State":"Αττική","County":"Αττική","City":"Πειραιάς","District":"Πειραιάς","Street":"Ολύνθου","HouseNumber":"11","PostalCode":"185 45","AdditionalData":[{"value":"Ελληνικη Δημοκρατια","key":"CountryName"},{"value":"Αττική","key":"StateName"},{"value":"Αττική","key":"CountyName"}]},"MapReference":{"ReferenceId":"573274138","Spot":0.8,"SideOfStreet":"right","CountryId":"20448870","StateId":"20493453","CountyId":"20493454","CityId":"20493639","DistrictId":"20493640","AddressId":"763084433","RoadLinkId":"101701008"}}},{"Relevance":1.0,"Distance":16.7,"MatchLevel":"houseNumber","MatchQuality":{"Country":1.0,"State":1.0,"County":1.0,"City":1.0,"District":1.0,"Street":[1.0],"HouseNumber":1.0,"PostalCode":1.0},"MatchType":"interpolated","Location":{"LocationId":"NT_o1gaUDnSO2AUQhHXVhj-2B_1kD","LocationType":"point","DisplayPosition":{"Latitude":37.95529,"Longitude":23.63984},"MapView":{"TopLeft":{"Latitude":37.9564142,"Longitude":23.6384143},"BottomRight":{"Latitude":37.9541658,"Longitude":23.6412657}},"Address":{"Label":"59 Αιτωλικού, 185 45 Πειραιάς, Ελληνικη Δημοκρατια","Country":"GRC","State":"Αττική","County":"Αττική","City":"Πειραιάς","District":"Πειραιάς","Street":"Αιτωλικού","HouseNumber":"59","PostalCode":"185 45","AdditionalData":[{"value":"Ελληνικη Δημοκρατια","key":"CountryName"},{"value":"Αττική","key":"StateName"},{"value":"Αττική","key":"CountyName"}]},"MapReference":{"ReferenceId":"573274400","Spot":0.5,"SideOfStreet":"left","CountryId":"20448870","StateId":"20493453","CountyId":"20493454","CityId":"20493639","DistrictId":"20493640","AddressId":"763036023","RoadLinkId":"101778992"}}},{"Relevance":1.0,"Distance":16.9,"MatchLevel":"houseNumber","MatchQuality":{"Country":1.0,"State":1.0,"County":1.0,"City":1.0,"District":1.0,"Street":[1.0],"HouseNumber":1.0,"PostalCode":1.0},"MatchType":"interpolated","Location":{"LocationId":"NT_o1gaUDnSO2AUQhHXVhj-2B_l_573274137_L_1kD","LocationType":"point","DisplayPosition":{"Latitude":37.9555281,"Longitude":23.63984},"MapView":{"TopLeft":{"Latitude":37.9566522,"Longitude":23.6384143},"BottomRight":{"Latitude":37.9544039,"Longitude":23.6412657}},"Address":{"Label":"59 Αιτωλικού, 185 45 Πειραιάς, Ελληνικη Δημοκρατια","Country":"GRC","State":"Αττική","County":"Αττική","City":"Πειραιάς","District":"Πειραιάς","Street":"Αιτωλικού","HouseNumber":"59","PostalCode":"185 45","AdditionalData":[{"value":"Ελληνικη Δημοκρατια","key":"CountryName"},{"value":"Αττική","key":"StateName"},{"value":"Αττική","key":"CountyName"}]},"MapReference":{"ReferenceId":"573274137","Spot":0.52,"SideOfStreet":"left","CountryId":"20448870","StateId":"20493453","CountyId":"20493454","CityId":"20493639","DistrictId":"20493640"}}},{"Relevance":1.0,"Distance":22.3,"MatchLevel":"houseNumber","MatchQuality":{"Country":1.0,"State":1.0,"County":1.0,"City":1.0,"District":1.0,"Street":[1.0],"HouseNumber":1.0,"PostalCode":1.0},"MatchType":"interpolated","Location":{"LocationId":"NT_Lkq0ufAZZJtcJCr1ZeF2LD_0UD","LocationType":"point","DisplayPosition":{"Latitude":37.95565,"Longitude":23.63965},"MapView":{"TopLeft":{"Latitude":37.9567742,"Longitude":23.6382243},"BottomRight":{"Latitude":37.9545258,"Longitude":23.6410757}},"Address":{"Label":"45 Παλαμηδίου, 185 45 Πειραιάς, Ελληνικη Δημοκρατια","Country":"GRC","State":"Αττική","County":"Αττική","City":"Πειραιάς","District":"Πειραιάς","Street":"Παλαμηδίου","HouseNumber":"45","PostalCode":"185 45","AdditionalData":[{"value":"Ελληνικη Δημοκρατια","key":"CountryName"},{"value":"Αττική","key":"StateName"},{"value":"Αττική","key":"CountyName"}]},"MapReference":{"ReferenceId":"573274006","Spot":0.4,"SideOfStreet":"left","CountryId":"20448870","StateId":"20493453","CountyId":"20493454","CityId":"20493639","DistrictId":"20493640","AddressId":"763333467","RoadLinkId":"101705623"}}},{"Relevance":1.0,"Distance":23.1,"MatchLevel":"houseNumber","MatchQuality":{"Country":1.0,"State":1.0,"County":1.0,"City":1.0,"District":1.0,"Street":[1.0],"HouseNumber":1.0,"PostalCode":1.0},"MatchType":"interpolated","Location":{"LocationId":"NT_6Rw-4sAYK5Zb0bG4jrSFQB_xYD","LocationType":"point","DisplayPosition":{"Latitude":37.95513,"Longitude":23.6397},"MapView":{"TopLeft":{"Latitude":37.9562542,"Longitude":23.6382743},"BottomRight":{"Latitude":37.9540058,"Longitude":23.6411257}},"Address":{"Label":"16 Ροδόπης, 185 45 Πειραιάς, Ελληνικη Δημοκρατια","Country":"GRC","State":"Αττική","County":"Αττική","City":"Πειραιάς","District":"Πειραιάς","Street":"Ροδόπης","HouseNumber":"16","PostalCode":"185 45","AdditionalData":[{"value":"Ελληνικη Δημοκρατια","key":"CountryName"},{"value":"Αττική","key":"StateName"},{"value":"Αττική","key":"CountyName"}]},"MapReference":{"ReferenceId":"573274401","Spot":0.88,"SideOfStreet":"left","CountryId":"20448870","StateId":"20493453","CountyId":"20493454","CityId":"20493639","DistrictId":"20493640","AddressId":"762915140","RoadLinkId":"101905013"}}},{"Relevance":1.0,"Distance":27.4,"MatchLevel":"houseNumber","MatchQuality":{"Country":1.0,"State":1.0,"County":1.0,"City":1.0,"District":1.0,"Street":[1.0],"HouseNumber":1.0,"PostalCode":1.0},"MatchType":"interpolated","Location":{"LocationId":"NT_ZtM81tkGsEOCyKymWdjAwD_3A","LocationType":"point","DisplayPosition":{"Latitude":37.95545,"Longitude":23.63994},"MapView":{"TopLeft":{"Latitude":37.9565742,"Longitude":23.6385143},"BottomRight":{"Latitude":37.9543258,"Longitude":23.6413657}},"Address":{"Label":"7 Ολύνθου, 185 45 Πειραιάς, Ελληνικη Δημοκρατια","Country":"GRC","State":"Αττική","County":"Αττική","City":"Πειραιάς","District":"Πειραιάς","Street":"Ολύνθου","HouseNumber":"7","PostalCode":"185 45","AdditionalData":[{"value":"Ελληνικη Δημοκρατια","key":"CountryName"},{"value":"Αττική","key":"StateName"},{"value":"Αττική","key":"CountyName"}]},"MapReference":{"ReferenceId":"573274136","Spot":0.23,"SideOfStreet":"right","CountryId":"20448870","StateId":"20493453","CountyId":"20493454","CityId":"20493639","DistrictId":"20493640","AddressId":"763282425","RoadLinkId":"101875626"}}},{"Relevance":1.0,"Distance":33.5,"MatchLevel":"houseNumber","MatchQuality":{"Country":1.0,"State":1.0,"County":1.0,"City":1.0,"District":1.0,"Street":[1.0],"HouseNumber":1.0,"PostalCode":1.0},"MatchType":"interpolated","Location":{"LocationId":"NT_o1gaUDnSO2AUQhHXVhj-2B_4YD","LocationType":"point","DisplayPosition":{"Latitude":37.95564,"Longitude":23.63984},"MapView":{"TopLeft":{"Latitude":37.9567642,"Longitude":23.6384143},"BottomRight":{"Latitude":37.9545158,"Longitude":23.6412657}},"Address":{"Label":"86 Αιτωλικού, 185 45 Πειραιάς, Ελληνικη Δημοκρατια","Country":"GRC","State":"Αττική","County":"Αττική","City":"Πειραιάς","District":"Πειραιάς","Street":"Αιτωλικού","HouseNumber":"86","PostalCode":"185 45","AdditionalData":[{"value":"Ελληνικη Δημοκρατια","key":"CountryName"},{"value":"Αττική","key":"StateName"},{"value":"Αττική","key":"CountyName"}]},"MapReference":{"ReferenceId":"573274005","Spot":0.44,"SideOfStreet":"right","CountryId":"20448870","StateId":"20493453","CountyId":"20493454","CityId":"20493639","DistrictId":"20493640","AddressId":"763233419","RoadLinkId":"101708321"}}},{"Relevance":1.0,"Distance":37.3,"MatchLevel":"houseNumber","MatchQuality":{"Country":1.0,"State":1.0,"County":1.0,"City":1.0,"District":1.0,"Street":[1.0],"HouseNumber":1.0,"PostalCode":1.0},"MatchType":"interpolated","Location":{"LocationId":"NT_Lkq0ufAZZJtcJCr1ZeF2LD_3gD","LocationType":"point","DisplayPosition":{"Latitude":37.95555,"Longitude":23.64},"MapView":{"TopLeft":{"Latitude":37.9566742,"Longitude":23.6385743},"BottomRight":{"Latitude":37.9544258,"Longitude":23.6414257}},"Address":{"Label":"78 Παλαμηδίου, 185 45 Πειραιάς, Ελληνικη Δημοκρατια","Country":"GRC","State":"Αττική","County":"Αττική","City":"Πειραιάς","District":"Πειραιάς","Street":"Παλαμηδίου","HouseNumber":"78","PostalCode":"185 45","AdditionalData":[{"value":"Ελληνικη Δημοκρατια","key":"CountryName"},{"value":"Αττική","key":"StateName"},{"value":"Αττική","key":"CountyName"}]},"MapReference":{"ReferenceId":"573274129","Spot":0.63,"SideOfStreet":"right","CountryId":"20448870","StateId":"20493453","CountyId":"20493454","CityId":"20493639","DistrictId":"20493640","AddressId":"762853198","RoadLinkId":"101884321"}}},{"Relevance":1.0,"Distance":39.5,"MatchLevel":"houseNumber","MatchQuality":{"Country":1.0,"State":1.0,"County":1.0,"City":1.0,"District":1.0,"Street":[1.0],"HouseNumber":1.0,"PostalCode":1.0},"MatchType":"interpolated","Location":{"LocationId":"NT_6Rw-4sAYK5Zb0bG4jrSFQB_xQD","LocationType":"point","DisplayPosition":{"Latitude":37.95513,"Longitude":23.64},"MapView":{"TopLeft":{"Latitude":37.9562542,"Longitude":23.6385743},"BottomRight":{"Latitude":37.9540058,"Longitude":23.6414257}},"Address":{"Label":"14 Ροδόπης, 185 45 Πειραιάς, Ελληνικη Δημοκρατια","Country":"GRC","State":"Αττική","County":"Αττική","City":"Πειραιάς","District":"Πειραιάς","Street":"Ροδόπης","HouseNumber":"14","PostalCode":"185 45","AdditionalData":[{"value":"Ελληνικη Δημοκρατια","key":"CountryName"},{"value":"Αττική","key":"StateName"},{"value":"Αττική","key":"CountyName"}]},"MapReference":{"ReferenceId":"573274427","Spot":0.12,"SideOfStreet":"left","CountryId":"20448870","StateId":"20493453","CountyId":"20493454","CityId":"20493639","DistrictId":"20493640","AddressId":"763133817","RoadLinkId":"101783103"}}}]}]}}