{"Response":{"MetaInfo":{"Timestamp":"2020-03-28T09:40:05.014+0000","NextPageInformation":"2"},"View":[{"_type":"SearchResultsViewType","ViewId":0,"Result":[{"Relevance":1.0,"Distance":0.0,"Direction":0.0,"MatchLevel":"city","MatchQuality":{"Country":1.0,"State":1.0,"County":1.0,"City":1.0,"PostalCode":1.0},"Location":{"LocationId":"NT_q5e4hAZW6mB5EFjlgIWYlD","LocationType":"point","DisplayPosition":{"Latitude":37.9935335,"Longitude":-1.5076802},"MapView":{"TopLeft":{"Latitude":38.01373,"Longitude":-1.53948},"BottomRight":{"Latitude":37.94648,"Longitude":-1.46639}},"Address":{"Label":"Pliego, Región de Murcia, España","Country":"ESP","State":"Región de Murcia","County":"Murcia","City":"Pliego","PostalCode":"30176","AdditionalData":[{"value":"España","key":"CountryName"},{"value":"Región de Murcia","key":"StateName"},{"value":"Murcia","key":"CountyName"}]},"MapReference":{"ReferenceId":"1007146801","SideOfStreet":"neither","CountryId":"20215059","StateId":"20226810","CountyId":"20226811","CityId":"20288928"}}},{"Relevance":1.0,"Distance":16.6,"MatchLevel":"houseNumber","MatchQuality":{"Country":1.0,"State":1.0,"County":1.0,"City":1.0,"Street":[1.0],"HouseNumber":1.0,"PostalCode":1.0},"MatchType":"interpolated","Location":{"LocationId":"NT_zBisAPTMHwS5Yytp9Kyj0D_zA","LocationType":"point","DisplayPosition":{"Latitude":37.99366,"Longitude":-1.50778},"MapView":{"TopLeft":{"Latitude":37.9947842,"Longitude":-1.5092064},"BottomRight":{"Latitude":37.9925358,"Longitude":-1.5063536}},"Address":{"Label":"Avenida José Manuel Ortín, 3, 30176 Pliego (Murcia), España","Country":"ESP","State":"Región de Murcia","County":"Murcia","City":"Pliego","Street":"Avenida José Manuel Ortín","HouseNumber":"3","PostalCode":"30176","AdditionalData":[{"value":"España","key":"CountryName"},{"value":"Región de Murcia","key":"StateName"},{"value":"Murcia","key":"CountyName"}]},"MapReference":{"ReferenceId":"816175729","Spot":0.84,"SideOfStreet":"right","CountryId":"20215059","StateId":"20226810","CountyId":"20226811","CityId":"20288928","AddressId":"352177404","RoadLinkId":"480034836"}}},{"Relevance":1.0,"Distance":34.7,"MatchLevel":"houseNumber","MatchQuality":{"Country":1.0,"State":1.0,"County":1.0,"City":1.0,"Street":[1.0],"HouseNumber":1.0,"PostalCode":1.0},"MatchType":"interpolated","Location":{"LocationId":"NT_ise.GZh9JHReM1S59gZ2OD_yA","LocationType":"point","DisplayPosition":{"Latitude":37.99348,"Longitude":-1.50807},"MapView":{"TopLeft":{"Latitude":37.9946042,"Longitude":-1.5094964},"BottomRight":{"Latitude":37.9923558,"Longitude":-1.5066436}},"Address":{"Label":"Calle Juan Ramón Jiménez, 2, 30176 Pliego (Murcia), España","Country":"ESP","State":"Región de Murcia","County":"Murcia","City":"Pliego","Street":"Calle Juan Ramón Jiménez","HouseNumber":"2","PostalCode":"30176","AdditionalData":[{"value":"España","key":"CountryName"},{"value":"Región de Murcia","key":"StateName"},{"value":"Murcia","key":"CountyName"}]},"MapReference":{"ReferenceId":"816175726","Spot":0.69,"SideOfStreet":"left","CountryId":"20215059","StateId":"20226810","CountyId":"20226811","CityId":"20288928","AddressId":"352032794","RoadLinkId":"203582768"}}},{"Relevance":1.0,"Distance":42.2,"MatchLevel":"street","MatchQuality":{"Country":1.0,"State":1.0,"County":1.0,"City":1.0,"PostalCode":1.0},"Location":{"LocationId":"NT_zSDt6FxjsKtXLEbV51M7rB_l_816175731_L","LocationType":"point","DisplayPosition":{"Latitude":37.9934163,"Longitude":-1.5072221},"MapView":{"TopLeft":{"Latitude":37.99362,"Longitude":-1.50728},"BottomRight":{"Latitude":37.99319,"Longitude":-1.50717}},"Address":{"Label":"30176 Pliego (Murcia), España","Country":"ESP","State":"Región de Murcia","County":"Murcia","City":"Pliego","PostalCode":"30176","AdditionalData":[{"value":"España","key":"CountryName"},{"value":"Región de Murcia","key":"StateName"},{"value":"Murcia","key":"CountyName"}]},"MapReference":{"ReferenceId":"816175731","Spot":0.53,"SideOfStreet":"left","CountryId":"20215059","StateId":"20226810","CountyId":"20226811","CityId":"20288928"}}},{"Relevance":1.0,"Distance":45.7,"MatchLevel":"street","MatchQuality":{"Country":1.0,"State":1.0,"County":1.0,"City":1.0,"Street":[1.0],"PostalCode":1.0},"Location":{"LocationId":"NT_zBisAPTMHwS5Yytp9Kyj0D_l_816175728_L","LocationType":"point","DisplayPosition":{"Latitude":37.99362,"Longitude":-1.50717},"MapView":{"TopLeft":{"Latitude":37.99362,"Longitude":-1.50717},"BottomRight":{"Latitude":37.99322,"Longitude":-1.50599}},"Address":{"Label":"Avenida José Manuel Ortín, 30176 Pliego (Murcia), España","Country":"ESP","State":"Región de Murcia","County":"Murcia","City":"Pliego","Street":"Avenida José Manuel Ortín","PostalCode":"30176","AdditionalData":[{"value":"España","key":"CountryName"},{"value":"Región de Murcia","key":"StateName"},{"value":"Murcia","key":"CountyName"}]},"MapReference":{"ReferenceId":"816175728","Spot":1.0,"SideOfStreet":"left","CountryId":"20215059","StateId":"20226810","CountyId":"20226811","CityId":"20288928"}}},{"Relevance":1.0,"Distance":45.7,"MatchLevel":"street","MatchQuality":{"Country":1.0,"State":1.0,"County":1.0,"City":1.0,"PostalCode":1.0},"Location":{"LocationId":"NT_zSDt6FxjsKtXLEbV51M7rB_l_816175730_L","LocationType":"point","DisplayPosition":{"Latitude":37.99362,"Longitude":-1.50717},"MapView":{"TopLeft":{"Latitude":37.99391,"Longitude":-1.50717},"BottomRight":{"Latitude":37.99362,"Longitude":-1.50612}},"Address":{"Label":"30176 Pliego (Murcia), España","Country":"ESP","State":"Región de Murcia","County":"Murcia","City":"Pliego","PostalCode":"30176","AdditionalData":[{"value":"España","key":"CountryName"},{"value":"Región de Murcia","key":"StateName"},{"value":"Murcia","key":"CountyName"}]},"MapReference":{"ReferenceId":"816175730","Spot":0.0,"SideOfStreet":"left","CountryId":"20215059","StateId":"20226810","CountyId":"20226811","CityId":"20288928"}}},{"Relevance":1.0,"Distance":46.6,"MatchLevel":"houseNumber","MatchQuality":{"Country":1.0,"State":1.0,"County":1.0,"City":1.0,"Street":[1.0],"HouseNumber":1.0,"PostalCode":1.0},"MatchType":"interpolated","Location":{"LocationId":"NT_MekbXTIKiVDBMx3Jln6IjC_1AD","LocationType":"point","DisplayPosition":{"Latitude":37.99373,"Longitude":-1.50827},"MapView":{"TopLeft":{"Latitude":37.9948542,"Longitude":-1.5096964},"BottomRight":{"Latitude":37.9926058,"Longitude":-1.5068436}},"Address":{"Label":"Avenida de Mula, 50, 30176 Pliego (Murcia), España","Country":"ESP","State":"Región de Murcia","County":"Murcia","City":"Pliego","Street":"Avenida de Mula","HouseNumber":"50","PostalCode":"30176","AdditionalData":[{"value":"España","key":"CountryName"},{"value":"Región de Murcia","key":"StateName"},{"value":"Murcia","key":"CountyName"}]},"MapReference":{"ReferenceId":"1217967481","Spot":0.44,"SideOfStreet":"right","CountryId":"20215059","StateId":"20226810","CountyId":"20226811","CityId":"20288928","AddressId":"352048694","RoadLinkId":"534512594"}}},{"Relevance":1.0,"Distance":49.4,"MatchLevel":"houseNumber","MatchQuality":{"Country":1.0,"State":1.0,"County":1.0,"City":1.0,"Street":[1.0],"HouseNumber":1.0,"PostalCode":1.0},"MatchType":"interpolated","Location":{"LocationId":"NT_MekbXTIKiVDBMx3Jln6IjC_0gD","LocationType":"point","DisplayPosition":{"Latitude":37.99348,"Longitude":-1.50831},"MapView":{"TopLeft":{"Latitude":37.9946042,"Longitude":-1.5097364},"BottomRight":{"Latitude":37.9923558,"Longitude":-1.5068836}},"Address":{"Label":"Avenida de Mula, 48, 30176 Pliego (Murcia), España","Country":"ESP","State":"Región de Murcia","County":"Murcia","City":"Pliego","Street":"Avenida de Mula","HouseNumber":"48","PostalCode":"30176","AdditionalData":[{"value":"España","key":"CountryName"},{"value":"Región de Murcia","key":"StateName"},{"value":"Murcia","key":"CountyName"}]},"MapReference":{"ReferenceId":"1217967480","Spot":0.53,"SideOfStreet":"right","CountryId":"20215059","StateId":"20226810","CountyId":"20226811","CityId":"20288928","AddressId":"352048692","RoadLinkId":"534512590"}}},{"Relevance":1.0,"Distance":51.9,"MatchLevel":"street","MatchQuality":{"Country":1.0,"State":1.0,"County":1.0,"City":1.0,"PostalCode":1.0},"Location":{"LocationId":"NT_zSDt6FxjsKtXLEbV51M7rB_l_816175732_R","LocationType":"point","DisplayPosition":{"Latitude":37.99319,"Longitude":-1.50728},"MapView":{"TopLeft":{"Latitude":37.99319,"Longitude":-1.50728},"BottomRight":{"Latitude":37.9929,"Longitude":-1.50644}},"Address":{"Label":"30176 Pliego (Murcia), España","Country":"ESP","State":"Región de Murcia","County":"Murcia","City":"Pliego","PostalCode":"30176","AdditionalData":[{"value":"España","key":"CountryName"},{"value":"Región de Murcia","key":"StateName"},{"value":"Murcia","key":"CountyName"}]},"MapReference":{"ReferenceId":"816175732","Spot":1.0,"SideOfStreet":"right","CountryId":"20215059","StateId":"20226810","CountyId":"20226811","CityId":"20288928"}}},{"Relevance":1.0,"Distance":51.9,"MatchLevel":"street","MatchQuality":{"Country":1.0,"State":1.0,"County":1.0,"City":1.0,"PostalCode":1.0},"Location":{"LocationId":"NT_zSDt6FxjsKtXLEbV51M7rB_l_816175734_L","LocationType":"point","DisplayPosition":{"Latitude":37.99319,"Longitude":-1.50728},"MapView":{"TopLeft":{"Latitude":37.99319,"Longitude":-1.5074},"BottomRight":{"Latitude":37.9929,"Longitude":-1.50728}},"Address":{"Label":"30176 Pliego (Murcia), España","Country":"ESP","State":"Región de Murcia","County":"Murcia","City":"Pliego","PostalCode":"30176","AdditionalData":[{"value":"España","key":"CountryName"},{"value":"Región de Murcia","key":"StateName"},{"value":"Murcia","key":"CountyName"}]},"MapReference":{"ReferenceId":"816175734","Spot":1.0,"SideOfStreet":"left","CountryId":"20215059","StateId":"20226810","CountyId":"20226811","CityId":"20288928"}}}]}]}}