{"Response":{"MetaInfo":{"Timestamp":"2020-03-28T12:06:45.721+0000","NextPageInformation":"2"},"View":[{"_type":"SearchResultsViewType","ViewId":0,"Result":[{"Relevance":1.0,"Distance":0.0,"Direction":0.0,"MatchLevel":"district","MatchQuality":{"Country":1.0,"County":1.0,"City":1.0,"District":1.0,"PostalCode":1.0},"Location":{"LocationId":"NT_t2wggBZtRkt.wqVhBI-tsC","LocationType":"point","DisplayPosition":{"Latitude":37.9576088,"Longitude":-8.8638532},"MapView":{"TopLeft":{"Latitude":37.96471,"Longitude":-8.89018},"BottomRight":{"Latitude":37.93747,"Longitude":-8.84084}},"Address":{"Label":"Sines, Portugal","Country":"PRT","County":"Setúbal","City":"Sines","District":"Sines","PostalCode":"7520-103","AdditionalData":[{"value":"Portugal","key":"CountryName"},{"value":"Setúbal","key":"CountyName"}]},"MapReference":{"ReferenceId":"973240461","SideOfStreet":"neither","CountryId":"20317122","CountyId":"20320375","CityId":"20320465","DistrictId":"20320466"}}},{"Relevance":1.0,"Distance":3.7,"MatchLevel":"houseNumber","MatchQuality":{"Country":1.0,"County":1.0,"City":1.0,"District":1.0,"Street":[1.0],"HouseNumber":1.0,"PostalCode":1.0},"MatchType":"interpolated","Location":{"LocationId":"NT_TTwQUijeMOXPnGtpTvH6sA_l_576230979_R_yMD","LocationType":"point","DisplayPosition":{"Latitude":37.9575316,"Longitude":-8.8639558},"MapView":{"TopLeft":{"Latitude":37.9586558,"Longitude":-8.8653816},"BottomRight":{"Latitude":37.9564075,"Longitude":-8.8625301}},"Address":{"Label":"Praça da República 23, 7520-160 Sines, Portugal","Country":"PRT","County":"Setúbal","City":"Sines","District":"Sines","Street":"Praça da República","HouseNumber":"23","PostalCode":"7520-160","AdditionalData":[{"value":"Portugal","key":"CountryName"},{"value":"Setúbal","key":"CountyName"}]},"MapReference":{"ReferenceId":"576230979","Spot":0.58,"SideOfStreet":"right","CountryId":"20317122","CountyId":"20320375","CityId":"20320465","DistrictId":"20320466"}}},{"Relevance":1.0,"Distance":5.4,"MatchLevel":"houseNumber","MatchQuality":{"Country":1.0,"County":1.0,"City":1.0,"District":1.0,"Street":[1.0],"HouseNumber":1.0,"PostalCode":1.0},"MatchType":"interpolated","Location":{"LocationId":"NT_hNYJds5gnTP.6Lxr2yigOB_l_973050064_L_1A","LocationType":"point","DisplayPosition":{"Latitude":37.95761,"Longitude":-8.863915},"MapView":{"TopLeft":{"Latitude":37.9587342,"Longitude":-8.8653407},"BottomRight":{"Latitude":37.9564859,"Longitude":-8.8624892}},"Address":{"Label":"Rua das Barradas 5, 7520-191 Sines, Portugal","Country":"PRT","County":"Setúbal","City":"Sines","District":"Sines","Street":"Rua das Barradas","HouseNumber":"5","PostalCode":"7520-191","AdditionalData":[{"value":"Portugal","key":"CountryName"},{"value":"Setúbal","key":"CountyName"}]},"MapReference":{"ReferenceId":"973050064","Spot":0.5,"SideOfStreet":"left","CountryId":"20317122","CountyId":"20320375","CityId":"20320465","DistrictId":"20320466"}}},{"Relevance":1.0,"Distance":6.0,"MatchLevel":"street","MatchQuality":{"Country":1.0,"County":1.0,"City":1.0,"District":1.0,"Street":[1.0],"PostalCode":1.0},"Location":{"LocationId":"NT_CxiH9oL-oo0KDWXhAoNSuD_l_588928768_L","LocationType":"point","DisplayPosition":{"Latitude":37.9575568,"Longitude":-8.8638364},"MapView":{"TopLeft":{"Latitude":37.95771,"Longitude":-8.86395},"BottomRight":{"Latitude":37.95752,"Longitude":-8.86341}},"Address":{"Label":"Rua Zeca Afonso, 7520-246 Sines, Portugal","Country":"PRT","County":"Setúbal","City":"Sines","District":"Sines","Street":"Rua Zeca Afonso","PostalCode":"7520-246","AdditionalData":[{"value":"Portugal","key":"CountryName"},{"value":"Setúbal","key":"CountyName"}]},"MapReference":{"ReferenceId":"588928768","Spot":0.21,"SideOfStreet":"left","CountryId":"20317122","CountyId":"20320375","CityId":"20320465","DistrictId":"20320466"}}},{"Relevance":1.0,"Distance":13.0,"MatchLevel":"street","MatchQuality":{"Country":1.0,"County":1.0,"City":1.0,"District":1.0,"Street":[1.0],"PostalCode":1.0},"Location":{"LocationId":"NT_TTwQUijeMOXPnGtpTvH6sA_l_576230990_R","LocationType":"point","DisplayPosition":{"Latitude":37.95752,"Longitude":-8.86395},"MapView":{"TopLeft":{"Latitude":37.95752,"Longitude":-8.86395},"BottomRight":{"Latitude":37.95749,"Longitude":-8.86394}},"Address":{"Label":"Praça da República, 7520-160 Sines, Portugal","Country":"PRT","County":"Setúbal","City":"Sines","District":"Sines","Street":"Praça da República","PostalCode":"7520-160","AdditionalData":[{"value":"Portugal","key":"CountryName"},{"value":"Setúbal","key":"CountyName"}]},"MapReference":{"ReferenceId":"576230990","Spot":1.0,"SideOfStreet":"right","CountryId":"20317122","CountyId":"20320375","CityId":"20320465","DistrictId":"20320466"}}},{"Relevance":1.0,"Distance":15.2,"MatchLevel":"street","MatchQuality":{"Country":1.0,"County":1.0,"City":1.0,"District":1.0,"Street":[1.0],"PostalCode":1.0},"Location":{"LocationId":"NT_TTwQUijeMOXPnGtpTvH6sA_l_576231015_R","LocationType":"point","DisplayPosition":{"Latitude":37.95749,"Longitude":-8.86394},"MapView":{"TopLeft":{"Latitude":37.95749,"Longitude":-8.86412},"BottomRight":{"Latitude":37.95742,"Longitude":-8.86394}},"Address":{"Label":"Praça da República, 7520-160 Sines, Portugal","Country":"PRT","County":"Setúbal","City":"Sines","District":"Sines","Street":"Praça da República","PostalCode":"7520-160","AdditionalData":[{"value":"Portugal","key":"CountryName"},{"value":"Setúbal","key":"CountyName"}]},"MapReference":{"ReferenceId":"576231015","Spot":1.0,"SideOfStreet":"right","CountryId":"20317122","CountyId":"20320375","CityId":"20320465","DistrictId":"20320466"}}},{"Relevance":1.0,"Distance":16.8,"MatchLevel":"houseNumber","MatchQuality":{"Country":1.0,"County":1.0,"City":1.0,"District":1.0,"Street":[1.0],"HouseNumber":1.0,"PostalCode":1.0},"MatchType":"interpolated","Location":{"LocationId":"NT_TTwQUijeMOXPnGtpTvH6sA_l_576231036_L_yMD","LocationType":"point","DisplayPosition":{"Latitude":37.95756,"Longitude":-8.8640342},"MapView":{"TopLeft":{"Latitude":37.9586842,"Longitude":-8.8654599},"BottomRight":{"Latitude":37.9564358,"Longitude":-8.8626084}},"Address":{"Label":"Praça da República 23, 7520-160 Sines, Portugal","Country":"PRT","County":"Setúbal","City":"Sines","District":"Sines","Street":"Praça da República","HouseNumber":"23","PostalCode":"7520-160","AdditionalData":[{"value":"Portugal","key":"CountryName"},{"value":"Setúbal","key":"CountyName"}]},"MapReference":{"ReferenceId":"576231036","Spot":0.54,"SideOfStreet":"left","CountryId":"20317122","CountyId":"20320375","CityId":"20320465","DistrictId":"20320466"}}},{"Relevance":1.0,"Distance":18.8,"MatchLevel":"houseNumber","MatchQuality":{"Country":1.0,"County":1.0,"City":1.0,"District":1.0,"Street":[1.0],"HouseNumber":1.0,"PostalCode":1.0},"MatchType":"interpolated","Location":{"LocationId":"NT_PpwIhUgyjMFqHhAnaoweyA_l_576231040_R_yA","LocationType":"point","DisplayPosition":{"Latitude":37.95764,"Longitude":-8.8642},"MapView":{"TopLeft":{"Latitude":37.9587642,"Longitude":-8.8656258},"BottomRight":{"Latitude":37.9565159,"Longitude":-8.8627743}},"Address":{"Label":"Avenida de Domingos Rodrigues Pablo 2, 7520-102 Sines, Portugal","Country":"PRT","County":"Setúbal","City":"Sines","District":"Sines","Street":"Avenida de Domingos Rodrigues Pablo","HouseNumber":"2","PostalCode":"7520-102","AdditionalData":[{"value":"Portugal","key":"CountryName"},{"value":"Setúbal","key":"CountyName"}]},"MapReference":{"ReferenceId":"576231040","Spot":0.17,"SideOfStreet":"right","CountryId":"20317122","CountyId":"20320375","CityId":"20320465","DistrictId":"20320466"}}},{"Relevance":1.0,"Distance":25.0,"MatchLevel":"street","MatchQuality":{"Country":1.0,"County":1.0,"City":1.0,"District":1.0,"Street":[1.0],"PostalCode":1.0},"Location":{"LocationId":"NT_TTwQUijeMOXPnGtpTvH6sA_l_576231008_R","LocationType":"point","DisplayPosition":{"Latitude":37.95753,"Longitude":-8.86412},"MapView":{"TopLeft":{"Latitude":37.95753,"Longitude":-8.86413},"BottomRight":{"Latitude":37.95745,"Longitude":-8.86412}},"Address":{"Label":"Praça da República, 7520-160 Sines, Portugal","Country":"PRT","County":"Setúbal","City":"Sines","District":"Sines","Street":"Praça da República","PostalCode":"7520-160","AdditionalData":[{"value":"Portugal","key":"CountryName"},{"value":"Setúbal","key":"CountyName"}]},"MapReference":{"ReferenceId":"576231008","Spot":1.0,"SideOfStreet":"right","CountryId":"20317122","CountyId":"20320375","CityId":"20320465","DistrictId":"20320466"}}},{"Relevance":1.0,"Distance":30.2,"MatchLevel":"houseNumber","MatchQuality":{"Country":1.0,"County":1.0,"City":1.0,"District":1.0,"Street":[1.0],"HouseNumber":1.0,"PostalCode":1.0},"MatchType":"interpolated","Location":{"LocationId":"NT_TTwQUijeMOXPnGtpTvH6sA_l_973049509_R_yMD","LocationType":"point","DisplayPosition":{"Latitude":37.9573271,"Longitude":-8.8638435},"MapView":{"TopLeft":{"Latitude":37.9584513,"Longitude":-8.8652692},"BottomRight":{"Latitude":37.956203,"Longitude":-8.8624177}},"Address":{"Label":"Praça da República 23, 7520-160 Sines, Portugal","Country":"PRT","County":"Setúbal","City":"Sines","District":"Sines","Street":"Praça da República","HouseNumber":"23","PostalCode":"7520-160","AdditionalData":[{"value":"Portugal","key":"CountryName"},{"value":"Setúbal","key":"CountyName"}]},"MapReference":{"ReferenceId":"973049509","Spot":0.77,"SideOfStreet":"right","CountryId":"20317122","CountyId":"20320375","CityId":"20320465","DistrictId":"20320466"}}}]}]}}