{"Response":{"MetaInfo":{"Timestamp":"2020-03-28T10:27:09.051+0000","NextPageInformation":"2"},"View":[{"_type":"SearchResultsViewType","ViewId":0,"Result":[{"Relevance":1.0,"Distance":0.0,"Direction":0.0,"MatchLevel":"district","MatchQuality":{"Country":1.0,"State":1.0,"County":1.0,"City":1.0,"District":1.0,"PostalCode":1.0},"Location":{"LocationId":"NT_-V9033x98Ry.-Mp6orgMVC","LocationType":"point","DisplayPosition":{"Latitude":37.9043095,"Longitude":-4.793033},"MapView":{"TopLeft":{"Latitude":37.92716,"Longitude":-4.82101},"BottomRight":{"Latitude":37.89817,"Longitude":-4.77583}},"Address":{"Label":"Brillante, Córdoba, Andalucía, España","Country":"ESP","State":"Andalucía","County":"Córdoba","City":"Córdoba","District":"Brillante","PostalCode":"14012","AdditionalData":[{"value":"España","key":"CountryName"},{"value":"Andalucía","key":"StateName"},{"value":"Córdoba","key":"CountyName"}]},"MapReference":{"ReferenceId":"564396240","SideOfStreet":"neither","CountryId":"20215059","StateId":"20221885","CountyId":"20221888","CityId":"20234002"}}},{"Relevance":1.0,"Distance":19.4,"MatchLevel":"houseNumber","MatchQuality":{"Country":1.0,"State":1.0,"County":1.0,"City":1.0,"District":1.0,"Street":[1.0],"HouseNumber":1.0,"PostalCode":1.0},"MatchType":"interpolated","Location":{"LocationId":"NT_uPmW..0Cr301GF0W8CUwDA_5A","LocationType":"point","DisplayPosition":{"Latitude":37.90456,"Longitude":-4.79311},"MapView":{"TopLeft":{"Latitude":37.9056842,"Longitude":-4.7945347},"BottomRight":{"Latitude":37.9034358,"Longitude":-4.7916853}},"Address":{"Label":"Avenida de la Arruzafa, 9, 14012 Córdoba (Córdoba), España","Country":"ESP","State":"Andalucía","County":"Córdoba","City":"Córdoba","District":"Brillante","Street":"Avenida de la Arruzafa","HouseNumber":"9","PostalCode":"14012","AdditionalData":[{"value":"España","key":"CountryName"},{"value":"Andalucía","key":"StateName"},{"value":"Córdoba","key":"CountyName"}]},"MapReference":{"ReferenceId":"1027026963","Spot":0.57,"SideOfStreet":"left","CountryId":"20215059","StateId":"20221885","CountyId":"20221888","CityId":"20234002","AddressId":"268602147","RoadLinkId":"349888195"}}},{"Relevance":1.0,"Distance":35.7,"MatchLevel":"houseNumber","MatchQuality":{"Country":1.0,"State":1.0,"County":1.0,"City":1.0,"District":1.0,"Street":[1.0],"HouseNumber":1.0,"PostalCode":1.0},"MatchType":"interpolated","Location":{"LocationId":"NT_uPmW..0Cr301GF0W8CUwDA_xED","LocationType":"point","DisplayPosition":{"Latitude":37.90459,"Longitude":-4.79342},"MapView":{"TopLeft":{"Latitude":37.9057142,"Longitude":-4.7948447},"BottomRight":{"Latitude":37.9034658,"Longitude":-4.7919953}},"Address":{"Label":"Avenida de la Arruzafa, 11, 14012 Córdoba (Córdoba), España","Country":"ESP","State":"Andalucía","County":"Córdoba","City":"Córdoba","District":"Brillante","Street":"Avenida de la Arruzafa","HouseNumber":"11","PostalCode":"14012","AdditionalData":[{"value":"España","key":"CountryName"},{"value":"Andalucía","key":"StateName"},{"value":"Córdoba","key":"CountyName"}]},"MapReference":{"ReferenceId":"564396350","Spot":0.0,"SideOfStreet":"left","CountryId":"20215059","StateId":"20221885","CountyId":"20221888","CityId":"20234002","AddressId":"268195830","RoadLinkId":"67669418"}}},{"Relevance":1.0,"Distance":36.7,"MatchLevel":"houseNumber","MatchQuality":{"Country":1.0,"State":1.0,"County":1.0,"City":1.0,"District":1.0,"Street":[1.0],"HouseNumber":1.0,"PostalCode":1.0},"MatchType":"interpolated","Location":{"LocationId":"NT_VZl.dPWWbcarI-WOJofJWC_1A","LocationType":"point","DisplayPosition":{"Latitude":37.90414,"Longitude":-4.79257},"MapView":{"TopLeft":{"Latitude":37.9052642,"Longitude":-4.7939947},"BottomRight":{"Latitude":37.9030158,"Longitude":-4.7911453}},"Address":{"Label":"Calle Marino Alcalá Galiano, 5, 14012 Córdoba (Córdoba), España","Country":"ESP","State":"Andalucía","County":"Córdoba","City":"Córdoba","District":"Brillante","Street":"Calle Marino Alcalá Galiano","HouseNumber":"5","PostalCode":"14012","AdditionalData":[{"value":"España","key":"CountryName"},{"value":"Andalucía","key":"StateName"},{"value":"Córdoba","key":"CountyName"}]},"MapReference":{"ReferenceId":"1220830763","Spot":0.58,"SideOfStreet":"left","CountryId":"20215059","StateId":"20221885","CountyId":"20221888","CityId":"20234002","AddressId":"268458491","RoadLinkId":"538096795"}}},{"Relevance":1.0,"Distance":37.4,"MatchLevel":"street","MatchQuality":{"Country":1.0,"State":1.0,"County":1.0,"City":1.0,"District":1.0,"Street":[1.0],"PostalCode":1.0},"Location":{"LocationId":"NT_uPmW..0Cr301GF0W8CUwDA_l_1027026962_L","LocationType":"point","DisplayPosition":{"Latitude":37.90452,"Longitude":-4.7927},"MapView":{"TopLeft":{"Latitude":37.90452,"Longitude":-4.7927},"BottomRight":{"Latitude":37.90449,"Longitude":-4.79247}},"Address":{"Label":"Avenida de la Arruzafa, 14012 Córdoba (Córdoba), España","Country":"ESP","State":"Andalucía","County":"Córdoba","City":"Córdoba","District":"Brillante","Street":"Avenida de la Arruzafa","PostalCode":"14012","AdditionalData":[{"value":"España","key":"CountryName"},{"value":"Andalucía","key":"StateName"},{"value":"Córdoba","key":"CountyName"}]},"MapReference":{"ReferenceId":"1027026962","Spot":1.0,"SideOfStreet":"left","CountryId":"20215059","StateId":"20221885","CountyId":"20221888","CityId":"20234002"}}},{"Relevance":1.0,"Distance":52.7,"MatchLevel":"houseNumber","MatchQuality":{"Country":1.0,"State":1.0,"County":1.0,"City":1.0,"District":1.0,"Street":[1.0],"HouseNumber":1.0,"PostalCode":1.0},"MatchType":"interpolated","Location":{"LocationId":"NT_VZl.dPWWbcarI-WOJofJWC_l_1220830764_R_0A","LocationType":"point","DisplayPosition":{"Latitude":37.9044813,"Longitude":-4.7924729},"MapView":{"TopLeft":{"Latitude":37.9056055,"Longitude":-4.7938976},"BottomRight":{"Latitude":37.9033572,"Longitude":-4.7910482}},"Address":{"Label":"Calle Marino Alcalá Galiano, 4, 14012 Córdoba (Córdoba), España","Country":"ESP","State":"Andalucía","County":"Córdoba","City":"Córdoba","District":"Brillante","Street":"Calle Marino Alcalá Galiano","HouseNumber":"4","PostalCode":"14012","AdditionalData":[{"value":"España","key":"CountryName"},{"value":"Andalucía","key":"StateName"},{"value":"Córdoba","key":"CountyName"}]},"MapReference":{"ReferenceId":"1220830764","Spot":0.71,"SideOfStreet":"right","CountryId":"20215059","StateId":"20221885","CountyId":"20221888","CityId":"20234002"}}},{"Relevance":1.0,"Distance":64.2,"MatchLevel":"houseNumber","MatchQuality":{"Country":1.0,"State":1.0,"County":1.0,"City":1.0,"District":1.0,"Street":[1.0],"HouseNumber":1.0,"PostalCode":1.0},"MatchType":"interpolated","Location":{"LocationId":"NT_J6EoeE.U5odmq9jSmm0wZD_yA","LocationType":"point","DisplayPosition":{"Latitude":37.90482,"Longitude":-4.79343},"MapView":{"TopLeft":{"Latitude":37.9059442,"Longitude":-4.7948547},"BottomRight":{"Latitude":37.9036958,"Longitude":-4.7920053}},"Address":{"Label":"Calle Princesa Walada, 2, 14012 Córdoba (Córdoba), España","Country":"ESP","State":"Andalucía","County":"Córdoba","City":"Córdoba","District":"Brillante","Street":"Calle Princesa Walada","HouseNumber":"2","PostalCode":"14012","AdditionalData":[{"value":"España","key":"CountryName"},{"value":"Andalucía","key":"StateName"},{"value":"Córdoba","key":"CountyName"}]},"MapReference":{"ReferenceId":"564396332","Spot":0.07,"SideOfStreet":"right","CountryId":"20215059","StateId":"20221885","CountyId":"20221888","CityId":"20234002","AddressId":"268586509","RoadLinkId":"67131746"}}},{"Relevance":1.0,"Distance":72.9,"MatchLevel":"houseNumber","MatchQuality":{"Country":1.0,"State":1.0,"County":1.0,"City":1.0,"District":1.0,"Street":[1.0],"HouseNumber":1.0,"PostalCode":1.0},"MatchType":"interpolated","Location":{"LocationId":"NT_vJimueCynDIgOtJRVRedJC_xgD","LocationType":"point","DisplayPosition":{"Latitude":37.90376,"Longitude":-4.7936},"MapView":{"TopLeft":{"Latitude":37.9048842,"Longitude":-4.7950247},"BottomRight":{"Latitude":37.9026358,"Longitude":-4.7921753}},"Address":{"Label":"Calle Poeta Valdelomar Pineda, 18, 14012 Córdoba (Córdoba), España","Country":"ESP","State":"Andalucía","County":"Córdoba","City":"Córdoba","District":"Brillante","Street":"Calle Poeta Valdelomar Pineda","HouseNumber":"18","PostalCode":"14012","AdditionalData":[{"value":"España","key":"CountryName"},{"value":"Andalucía","key":"StateName"},{"value":"Córdoba","key":"CountyName"}]},"MapReference":{"ReferenceId":"564396524","Spot":0.4,"SideOfStreet":"right","CountryId":"20215059","StateId":"20221885","CountyId":"20221888","CityId":"20234002","AddressId":"268154010","RoadLinkId":"67084685"}}},{"Relevance":1.0,"Distance":80.3,"MatchLevel":"houseNumber","MatchQuality":{"Country":1.0,"State":1.0,"County":1.0,"City":1.0,"District":1.0,"Street":[1.0],"HouseNumber":1.0,"PostalCode":1.0},"MatchType":"interpolated","Location":{"LocationId":"NT_vJimueCynDIgOtJRVRedJC_xYD","LocationType":"point","DisplayPosition":{"Latitude":37.90366,"Longitude":-4.79248},"MapView":{"TopLeft":{"Latitude":37.9047842,"Longitude":-4.7939047},"BottomRight":{"Latitude":37.9025358,"Longitude":-4.7910553}},"Address":{"Label":"Calle Poeta Valdelomar Pineda, 16, 14012 Córdoba (Córdoba), España","Country":"ESP","State":"Andalucía","County":"Córdoba","City":"Córdoba","District":"Brillante","Street":"Calle Poeta Valdelomar Pineda","HouseNumber":"16","PostalCode":"14012","AdditionalData":[{"value":"España","key":"CountryName"},{"value":"Andalucía","key":"StateName"},{"value":"Córdoba","key":"CountyName"}]},"MapReference":{"ReferenceId":"564403825","Spot":0.92,"SideOfStreet":"right","CountryId":"20215059","StateId":"20221885","CountyId":"20221888","CityId":"20234002","AddressId":"268691770","RoadLinkId":"67599963"}}},{"Relevance":1.0,"Distance":85.4,"MatchLevel":"houseNumber","MatchQuality":{"Country":1.0,"State":1.0,"County":1.0,"City":1.0,"District":1.0,"Street":[1.0],"HouseNumber":1.0,"PostalCode":1.0},"MatchType":"interpolated","Location":{"LocationId":"NT_uPmW..0Cr301GF0W8CUwDA_3A","LocationType":"point","DisplayPosition":{"Latitude":37.90441,"Longitude":-4.79203},"MapView":{"TopLeft":{"Latitude":37.9055342,"Longitude":-4.7934547},"BottomRight":{"Latitude":37.9032858,"Longitude":-4.7906053}},"Address":{"Label":"Avenida de la Arruzafa, 7, 14012 Córdoba (Córdoba), España","Country":"ESP","State":"Andalucía","County":"Córdoba","City":"Córdoba","District":"Brillante","Street":"Avenida de la Arruzafa","HouseNumber":"7","PostalCode":"14012","AdditionalData":[{"value":"España","key":"CountryName"},{"value":"Andalucía","key":"StateName"},{"value":"Córdoba","key":"CountyName"}]},"MapReference":{"ReferenceId":"1091686350","Spot":0.71,"SideOfStreet":"left","CountryId":"20215059","StateId":"20221885","CountyId":"20221888","CityId":"20234002","AddressId":"268294860","RoadLinkId":"406620600"}}}]}]}}