{"Response":{"MetaInfo":{"Timestamp":"2020-03-28T09:54:01.053+0000","NextPageInformation":"2"},"View":[{"_type":"SearchResultsViewType","ViewId":0,"Result":[{"Relevance":1.0,"Distance":0.0,"Direction":0.0,"MatchLevel":"district","MatchQuality":{"Country":1.0,"State":1.0,"County":1.0,"City":1.0,"District":1.0,"PostalCode":1.0},"Location":{"LocationId":"NT_lX8BwaAtOMyKJ2H9YvT6-A","LocationType":"point","DisplayPosition":{"Latitude":37.9854035,"Longitude":23.7326506},"MapView":{"TopLeft":{"Latitude":38.03343,"Longitude":23.68693},"BottomRight":{"Latitude":37.94882,"Longitude":23.78976}},"Address":{"Label":"Αθήνα, Αττική, Ελληνικη Δημοκρατια","Country":"GRC","State":"Αττική","County":"Αττική","City":"Αθήνα","District":"Αθήνα","PostalCode":"106 71","AdditionalData":[{"value":"Ελληνικη Δημοκρατια","key":"CountryName"},{"value":"Αττική","key":"StateName"},{"value":"Αττική","key":"CountyName"}]},"MapReference":{"ReferenceId":"715104209","SideOfStreet":"neither","CountryId":"20448870","StateId":"20493453","CountyId":"20493454","CityId":"20493491","DistrictId":"20493492"}}},{"Relevance":1.0,"Distance":7.3,"MatchLevel":"houseNumber","MatchQuality":{"Country":1.0,"State":1.0,"County":1.0,"City":1.0,"District":1.0,"Street":[1.0],"HouseNumber":1.0,"PostalCode":1.0},"MatchType":"interpolated","Location":{"LocationId":"NT_lyNoIX81HbYdfLosrFFdzB_xIzN","LocationType":"point","DisplayPosition":{"Latitude":37.98542,"Longitude":23.73277},"MapView":{"TopLeft":{"Latitude":37.9865442,"Longitude":23.7313437},"BottomRight":{"Latitude":37.9842958,"Longitude":23.7341963}},"Address":{"Label":"127 Σόλωνος, 106 77 Αθήνα, Ελληνικη Δημοκρατια","Country":"GRC","State":"Αττική","County":"Αττική","City":"Αθήνα","District":"Αθήνα","Street":"Σόλωνος","HouseNumber":"127","PostalCode":"106 77","AdditionalData":[{"value":"Ελληνικη Δημοκρατια","key":"CountryName"},{"value":"Αττική","key":"StateName"},{"value":"Αττική","key":"CountyName"}]},"MapReference":{"ReferenceId":"842463547","Spot":0.59,"SideOfStreet":"left","CountryId":"20448870","StateId":"20493453","CountyId":"20493454","CityId":"20493491","DistrictId":"20493492","AddressId":"688784585","RoadLinkId":"224442277"}}},{"Relevance":1.0,"Distance":7.9,"MatchLevel":"houseNumber","MatchQuality":{"Country":1.0,"State":1.0,"County":1.0,"City":1.0,"District":1.0,"Street":[1.0],"HouseNumber":1.0,"PostalCode":1.0},"MatchType":"interpolated","Location":{"LocationId":"NT_LEWq0YKpMVu.EphKzCvIiC_zMD","LocationType":"point","DisplayPosition":{"Latitude":37.98526,"Longitude":23.73266},"MapView":{"TopLeft":{"Latitude":37.9863842,"Longitude":23.7312337},"BottomRight":{"Latitude":37.9841358,"Longitude":23.7340863}},"Address":{"Label":"33 Θεμιστοκλέους, 106 77 Αθήνα, Ελληνικη Δημοκρατια","Country":"GRC","State":"Αττική","County":"Αττική","City":"Αθήνα","District":"Αθήνα","Street":"Θεμιστοκλέους","HouseNumber":"33","PostalCode":"106 77","AdditionalData":[{"value":"Ελληνικη Δημοκρατια","key":"CountryName"},{"value":"Αττική","key":"StateName"},{"value":"Αττική","key":"CountyName"}]},"MapReference":{"ReferenceId":"573253734","Spot":0.68,"SideOfStreet":"left","CountryId":"20448870","StateId":"20493453","CountyId":"20493454","CityId":"20493491","DistrictId":"20493492","AddressId":"689610440","RoadLinkId":"101791143"}}},{"Relevance":1.0,"Distance":8.8,"MatchLevel":"houseNumber","MatchQuality":{"Country":1.0,"State":1.0,"County":1.0,"City":1.0,"District":1.0,"Street":[1.0],"HouseNumber":1.0,"PostalCode":1.0},"MatchType":"interpolated","Location":{"LocationId":"NT_lyNoIX81HbYdfLosrFFdzB_xITO","LocationType":"point","DisplayPosition":{"Latitude":37.98549,"Longitude":23.73271},"MapView":{"TopLeft":{"Latitude":37.9866142,"Longitude":23.7312837},"BottomRight":{"Latitude":37.9843658,"Longitude":23.7341363}},"Address":{"Label":"129 Σόλωνος, 106 77 Αθήνα, Ελληνικη Δημοκρατια","Country":"GRC","State":"Αττική","County":"Αττική","City":"Αθήνα","District":"Αθήνα","Street":"Σόλωνος","HouseNumber":"129","PostalCode":"106 77","AdditionalData":[{"value":"Ελληνικη Δημοκρατια","key":"CountryName"},{"value":"Αττική","key":"StateName"},{"value":"Αττική","key":"CountyName"}]},"MapReference":{"ReferenceId":"844785365","Spot":0.05,"SideOfStreet":"left","CountryId":"20448870","StateId":"20493453","CountyId":"20493454","CityId":"20493491","DistrictId":"20493492","AddressId":"688789244","RoadLinkId":"226187399"}}},{"Relevance":1.0,"Distance":22.2,"MatchLevel":"houseNumber","MatchQuality":{"Country":1.0,"State":1.0,"County":1.0,"City":1.0,"District":1.0,"Street":[1.0],"HouseNumber":1.0,"PostalCode":1.0},"MatchType":"interpolated","Location":{"LocationId":"NT_LEWq0YKpMVu.EphKzCvIiC_zUD","LocationType":"point","DisplayPosition":{"Latitude":37.98539,"Longitude":23.73293},"MapView":{"TopLeft":{"Latitude":37.9865142,"Longitude":23.7315037},"BottomRight":{"Latitude":37.9842658,"Longitude":23.7343563}},"Address":{"Label":"35 Θεμιστοκλέους, 106 77 Αθήνα, Ελληνικη Δημοκρατια","Country":"GRC","State":"Αττική","County":"Αττική","City":"Αθήνα","District":"Αθήνα","Street":"Θεμιστοκλέους","HouseNumber":"35","PostalCode":"106 77","AdditionalData":[{"value":"Ελληνικη Δημοκρατια","key":"CountryName"},{"value":"Αττική","key":"StateName"},{"value":"Αττική","key":"CountyName"}]},"MapReference":{"ReferenceId":"573253582","Spot":0.2,"SideOfStreet":"left","CountryId":"20448870","StateId":"20493453","CountyId":"20493454","CityId":"20493491","DistrictId":"20493492","AddressId":"689601034","RoadLinkId":"101734588"}}},{"Relevance":1.0,"Distance":28.7,"MatchLevel":"houseNumber","MatchQuality":{"Country":1.0,"State":1.0,"County":1.0,"City":1.0,"District":1.0,"Street":[1.0],"HouseNumber":1.0,"PostalCode":1.0},"MatchType":"interpolated","Location":{"LocationId":"NT_r65S7fCRZHcmQdo7FWCBpC_xITN","LocationType":"point","DisplayPosition":{"Latitude":37.98523,"Longitude":23.73292},"MapView":{"TopLeft":{"Latitude":37.9863542,"Longitude":23.7314937},"BottomRight":{"Latitude":37.9841058,"Longitude":23.7343463}},"Address":{"Label":"125 Σόλωνος, 106 78 Αθήνα, Ελληνικη Δημοκρατια","Country":"GRC","State":"Αττική","County":"Αττική","City":"Αθήνα","District":"Αθήνα","Street":"Σόλωνος","HouseNumber":"125","PostalCode":"106 78","AdditionalData":[{"value":"Ελληνικη Δημοκρατια","key":"CountryName"},{"value":"Αττική","key":"StateName"},{"value":"Αττική","key":"CountyName"}]},"MapReference":{"ReferenceId":"573253974","Spot":0.81,"SideOfStreet":"left","CountryId":"20448870","StateId":"20493453","CountyId":"20493454","CityId":"20493491","DistrictId":"20493492","AddressId":"688795952","RoadLinkId":"101714486"}}},{"Relevance":1.0,"Distance":36.1,"MatchLevel":"houseNumber","MatchQuality":{"Country":1.0,"State":1.0,"County":1.0,"City":1.0,"District":1.0,"Street":[1.0],"HouseNumber":1.0,"PostalCode":1.0},"MatchType":"interpolated","Location":{"LocationId":"NT_6VwC2UuwXW3Yq0bQ4E5eZB_0A","LocationType":"point","DisplayPosition":{"Latitude":37.98516,"Longitude":23.73225},"MapView":{"TopLeft":{"Latitude":37.9862842,"Longitude":23.7308237},"BottomRight":{"Latitude":37.9840358,"Longitude":23.7336763}},"Address":{"Label":"4 Κλεισόβης, 106 77 Αθήνα, Ελληνικη Δημοκρατια","Country":"GRC","State":"Αττική","County":"Αττική","City":"Αθήνα","District":"Αθήνα","Street":"Κλεισόβης","HouseNumber":"4","PostalCode":"106 77","AdditionalData":[{"value":"Ελληνικη Δημοκρατια","key":"CountryName"},{"value":"Αττική","key":"StateName"},{"value":"Αττική","key":"CountyName"}]},"MapReference":{"ReferenceId":"755501615","Spot":0.39,"SideOfStreet":"right","CountryId":"20448870","StateId":"20493453","CountyId":"20493454","CityId":"20493491","DistrictId":"20493492","AddressId":"689604674","RoadLinkId":"150890920"}}},{"Relevance":1.0,"Distance":40.4,"MatchLevel":"houseNumber","MatchQuality":{"Country":1.0,"State":1.0,"County":1.0,"City":1.0,"District":1.0,"Street":[1.0],"HouseNumber":1.0,"PostalCode":1.0},"MatchType":"interpolated","Location":{"LocationId":"NT_6VwC2UuwXW3Yq0bQ4E5eZB_4A","LocationType":"point","DisplayPosition":{"Latitude":37.98535,"Longitude":23.73208},"MapView":{"TopLeft":{"Latitude":37.9864742,"Longitude":23.7306537},"BottomRight":{"Latitude":37.9842258,"Longitude":23.7335063}},"Address":{"Label":"8 Κλεισόβης, 106 77 Αθήνα, Ελληνικη Δημοκρατια","Country":"GRC","State":"Αττική","County":"Αττική","City":"Αθήνα","District":"Αθήνα","Street":"Κλεισόβης","HouseNumber":"8","PostalCode":"106 77","AdditionalData":[{"value":"Ελληνικη Δημοκρατια","key":"CountryName"},{"value":"Αττική","key":"StateName"},{"value":"Αττική","key":"CountyName"}]},"MapReference":{"ReferenceId":"755501616","Spot":0.23,"SideOfStreet":"right","CountryId":"20448870","StateId":"20493453","CountyId":"20493454","CityId":"20493491","DistrictId":"20493492","AddressId":"689610932","RoadLinkId":"150890921"}}},{"Relevance":1.0,"Distance":41.3,"MatchLevel":"houseNumber","MatchQuality":{"Country":1.0,"State":1.0,"County":1.0,"City":1.0,"District":1.0,"Street":[1.0],"HouseNumber":1.0,"PostalCode":1.0},"MatchType":"interpolated","Location":{"LocationId":"NT_8XoK3I0HHDwYZkkdq-uxvC_yMjzRC","LocationType":"point","DisplayPosition":{"Latitude":37.98578,"Longitude":23.73303},"MapView":{"TopLeft":{"Latitude":37.9869042,"Longitude":23.7316037},"BottomRight":{"Latitude":37.9846558,"Longitude":23.7344563}},"Address":{"Label":"23Α Κωλέττη, 106 77 Αθήνα, Ελληνικη Δημοκρατια","Country":"GRC","State":"Αττική","County":"Αττική","City":"Αθήνα","District":"Αθήνα","Street":"Κωλέττη","HouseNumber":"23Α","PostalCode":"106 77","AdditionalData":[{"value":"Ελληνικη Δημοκρατια","key":"CountryName"},{"value":"Αττική","key":"StateName"},{"value":"Αττική","key":"CountyName"}]},"MapReference":{"ReferenceId":"842463550","Spot":0.22,"SideOfStreet":"left","CountryId":"20448870","StateId":"20493453","CountyId":"20493454","CityId":"20493491","DistrictId":"20493492","AddressId":"689619808","RoadLinkId":"224442280"}}},{"Relevance":1.0,"Distance":48.0,"MatchLevel":"houseNumber","MatchQuality":{"Country":1.0,"State":1.0,"County":1.0,"City":1.0,"District":1.0,"Street":[1.0],"HouseNumber":1.0,"PostalCode":1.0},"MatchType":"interpolated","Location":{"LocationId":"NT_8XoK3I0HHDwYZkkdq-uxvC_l_842463549_L_yUD","LocationType":"point","DisplayPosition":{"Latitude":37.9856647,"Longitude":23.7332361},"MapView":{"TopLeft":{"Latitude":37.9867889,"Longitude":23.7318099},"BottomRight":{"Latitude":37.9845406,"Longitude":23.7346624}},"Address":{"Label":"25 Κωλέττη, 106 77 Αθήνα, Ελληνικη Δημοκρατια","Country":"GRC","State":"Αττική","County":"Αττική","City":"Αθήνα","District":"Αθήνα","Street":"Κωλέττη","HouseNumber":"25","PostalCode":"106 77","AdditionalData":[{"value":"Ελληνικη Δημοκρατια","key":"CountryName"},{"value":"Αττική","key":"StateName"},{"value":"Αττική","key":"CountyName"}]},"MapReference":{"ReferenceId":"842463549","Spot":0.56,"SideOfStreet":"left","CountryId":"20448870","StateId":"20493453","CountyId":"20493454","CityId":"20493491","DistrictId":"20493492"}}}]}]}}