{"Response":{"MetaInfo":{"Timestamp":"2020-03-28T11:20:55.342+0000","NextPageInformation":"2"},"View":[{"_type":"SearchResultsViewType","ViewId":0,"Result":[{"Relevance":1.0,"Distance":-6.7,"MatchLevel":"landmark","MatchQuality":{"Country":1.0,"State":1.0,"County":1.0,"City":1.0,"District":1.0,"Street":[1.0],"PostalCode":1.0,"Name":1.0},"Location":{"LocationId":"NT_fdNdrwLZvLyg7kaK3S3INA_p_Xi-PJoYBNKjbq822DOK-5D","LocationType":"hospital","Name":"Γενικό Νοσοκομείο Νίκαιας Πειραιά","DisplayPosition":{"Latitude":37.97318,"Longitude":23.66246},"MapView":{"TopLeft":{"Latitude":37.97369,"Longitude":23.66122},"BottomRight":{"Latitude":37.97037,"Longitude":23.66443}},"Address":{"Label":"Φαναριωτών, 184 54 Νίκαια, Ελληνικη Δημοκρατια","Country":"GRC","State":"Αττική","County":"Αττική","City":"Νίκαια","District":"Νίκαια","Street":"Φαναριωτών","PostalCode":"184 54","AdditionalData":[{"value":"Ελληνικη Δημοκρατια","key":"CountryName"},{"value":"Αττική","key":"StateName"},{"value":"Αττική","key":"CountyName"}]},"MapReference":{"CountryId":"20448870","StateId":"20493453","CountyId":"20493454","CityId":"20493613","DistrictId":"20493614","PlaceId":"801769108"}}},{"Relevance":1.0,"Distance":0.0,"Direction":0.0,"MatchLevel":"district","MatchQuality":{"Country":1.0,"State":1.0,"County":1.0,"City":1.0,"District":1.0,"PostalCode":1.0},"Location":{"LocationId":"NT_OLcUGrb7IndbMjmNkrgKxA","LocationType":"point","DisplayPosition":{"Latitude":37.9735352,"Longitude":23.6635521},"MapView":{"TopLeft":{"Latitude":37.98985,"Longitude":23.62372},"BottomRight":{"Latitude":37.96172,"Longitude":23.67078}},"Address":{"Label":"Νίκαια, Αττική, Ελληνικη Δημοκρατια","Country":"GRC","State":"Αττική","County":"Αττική","City":"Νίκαια","District":"Νίκαια","PostalCode":"184 51","AdditionalData":[{"value":"Ελληνικη Δημοκρατια","key":"CountryName"},{"value":"Αττική","key":"StateName"},{"value":"Αττική","key":"CountyName"}]},"MapReference":{"ReferenceId":"959740098","SideOfStreet":"neither","CountryId":"20448870","StateId":"20493453","CountyId":"20493454","CityId":"20493613","DistrictId":"20493614"}}},{"Relevance":1.0,"Distance":6.8,"MatchLevel":"street","MatchQuality":{"Country":1.0,"State":1.0,"County":1.0,"City":1.0,"District":1.0,"PostalCode":1.0},"Location":{"LocationId":"NT_1.sNfJxvpGNfpwZ49A5yfC_l_1258762757_L","LocationType":"point","DisplayPosition":{"Latitude":37.9735799,"Longitude":23.6636053},"MapView":{"TopLeft":{"Latitude":37.97369,"Longitude":23.66348},"BottomRight":{"Latitude":37.97336,"Longitude":23.66379}},"Address":{"Label":"184 54 Νίκαια, Ελληνικη Δημοκρατια","Country":"GRC","State":"Αττική","County":"Αττική","City":"Νίκαια","District":"Νίκαια","PostalCode":"184 54","AdditionalData":[{"value":"Ελληνικη Δημοκρατια","key":"CountryName"},{"value":"Αττική","key":"StateName"},{"value":"Αττική","key":"CountyName"}]},"MapReference":{"ReferenceId":"1258762757","Spot":0.63,"SideOfStreet":"left","CountryId":"20448870","StateId":"20493453","CountyId":"20493454","CityId":"20493613","DistrictId":"20493614"}}},{"Relevance":1.0,"Distance":25.9,"MatchLevel":"houseNumber","MatchQuality":{"Country":1.0,"State":1.0,"County":1.0,"City":1.0,"District":1.0,"Street":[1.0],"HouseNumber":1.0,"PostalCode":1.0},"MatchType":"interpolated","Location":{"LocationId":"NT_wInlIOrlj8yiAduDjRsB8D_3A","LocationType":"point","DisplayPosition":{"Latitude":37.97376,"Longitude":23.66363},"MapView":{"TopLeft":{"Latitude":37.9748842,"Longitude":23.6622039},"BottomRight":{"Latitude":37.9726358,"Longitude":23.6650561}},"Address":{"Label":"7 Φαναριωτών, 184 54 Νίκαια, Ελληνικη Δημοκρατια","Country":"GRC","State":"Αττική","County":"Αττική","City":"Νίκαια","District":"Νίκαια","Street":"Φαναριωτών","HouseNumber":"7","PostalCode":"184 54","AdditionalData":[{"value":"Ελληνικη Δημοκρατια","key":"CountryName"},{"value":"Αττική","key":"StateName"},{"value":"Αττική","key":"CountyName"}]},"MapReference":{"ReferenceId":"575362741","Spot":0.17,"SideOfStreet":"right","CountryId":"20448870","StateId":"20493453","CountyId":"20493454","CityId":"20493613","DistrictId":"20493614","AddressId":"762713552","RoadLinkId":"101857747"}}},{"Relevance":1.0,"Distance":28.5,"MatchLevel":"street","MatchQuality":{"Country":1.0,"State":1.0,"County":1.0,"City":1.0,"District":1.0,"PostalCode":1.0},"Location":{"LocationId":"NT_1.sNfJxvpGNfpwZ49A5yfC_l_1258762756_L","LocationType":"point","DisplayPosition":{"Latitude":37.97336,"Longitude":23.66379},"MapView":{"TopLeft":{"Latitude":37.97336,"Longitude":23.66379},"BottomRight":{"Latitude":37.97259,"Longitude":23.66443}},"Address":{"Label":"184 54 Νίκαια, Ελληνικη Δημοκρατια","Country":"GRC","State":"Αττική","County":"Αττική","City":"Νίκαια","District":"Νίκαια","PostalCode":"184 54","AdditionalData":[{"value":"Ελληνικη Δημοκρατια","key":"CountryName"},{"value":"Αττική","key":"StateName"},{"value":"Αττική","key":"CountyName"}]},"MapReference":{"ReferenceId":"1258762756","Spot":1.0,"SideOfStreet":"left","CountryId":"20448870","StateId":"20493453","CountyId":"20493454","CityId":"20493613","DistrictId":"20493614"}}},{"Relevance":1.0,"Distance":43.3,"MatchLevel":"houseNumber","MatchQuality":{"Country":1.0,"State":1.0,"County":1.0,"City":1.0,"District":1.0,"Street":[1.0],"HouseNumber":1.0,"PostalCode":1.0},"MatchType":"interpolated","Location":{"LocationId":"NT_wInlIOrlj8yiAduDjRsB8D_2A","LocationType":"point","DisplayPosition":{"Latitude":37.97347,"Longitude":23.66304},"MapView":{"TopLeft":{"Latitude":37.9745942,"Longitude":23.6616139},"BottomRight":{"Latitude":37.9723458,"Longitude":23.6644661}},"Address":{"Label":"6 Φαναριωτών, 184 54 Νίκαια, Ελληνικη Δημοκρατια","Country":"GRC","State":"Αττική","County":"Αττική","City":"Νίκαια","District":"Νίκαια","Street":"Φαναριωτών","HouseNumber":"6","PostalCode":"184 54","AdditionalData":[{"value":"Ελληνικη Δημοκρατια","key":"CountryName"},{"value":"Αττική","key":"StateName"},{"value":"Αττική","key":"CountyName"}]},"MapReference":{"ReferenceId":"1259521761","Spot":0.81,"SideOfStreet":"right","CountryId":"20448870","StateId":"20493453","CountyId":"20493454","CityId":"20493613","DistrictId":"20493614","AddressId":"763066887","RoadLinkId":"584771098"}}},{"Relevance":1.0,"Distance":75.4,"MatchLevel":"houseNumber","MatchQuality":{"Country":1.0,"State":1.0,"County":1.0,"City":1.0,"District":1.0,"Street":[1.0],"HouseNumber":1.0,"PostalCode":1.0},"MatchType":"interpolated","Location":{"LocationId":"NT_cwZXPoWYIemJmqQPs6RwxB_xMTN","LocationType":"point","DisplayPosition":{"Latitude":37.97421,"Longitude":23.66322},"MapView":{"TopLeft":{"Latitude":37.9753342,"Longitude":23.6617939},"BottomRight":{"Latitude":37.9730858,"Longitude":23.6646461}},"Address":{"Label":"135 Ράλλη Πέτρου, 184 54 Νίκαια, Ελληνικη Δημοκρατια","Country":"GRC","State":"Αττική","County":"Αττική","City":"Νίκαια","District":"Νίκαια","Street":"Ράλλη Πέτρου","HouseNumber":"135","PostalCode":"184 54","AdditionalData":[{"value":"Ελληνικη Δημοκρατια","key":"CountryName"},{"value":"Αττική","key":"StateName"},{"value":"Αττική","key":"CountyName"}]},"MapReference":{"ReferenceId":"573259430","Spot":0.21,"SideOfStreet":"right","CountryId":"20448870","StateId":"20493453","CountyId":"20493454","CityId":"20493613","DistrictId":"20493614","AddressId":"763042012","RoadLinkId":"101854618"}}},{"Relevance":1.0,"Distance":80.2,"MatchLevel":"houseNumber","MatchQuality":{"Country":1.0,"State":1.0,"County":1.0,"City":1.0,"District":1.0,"Street":[1.0],"HouseNumber":1.0,"PostalCode":1.0},"MatchType":"interpolated","Location":{"LocationId":"NT_cwZXPoWYIemJmqQPs6RwxB_xMzN","LocationType":"point","DisplayPosition":{"Latitude":37.97396,"Longitude":23.66273},"MapView":{"TopLeft":{"Latitude":37.9750842,"Longitude":23.6613039},"BottomRight":{"Latitude":37.9728358,"Longitude":23.6641561}},"Address":{"Label":"137 Ράλλη Πέτρου, 184 54 Νίκαια, Ελληνικη Δημοκρατια","Country":"GRC","State":"Αττική","County":"Αττική","City":"Νίκαια","District":"Νίκαια","Street":"Ράλλη Πέτρου","HouseNumber":"137","PostalCode":"184 54","AdditionalData":[{"value":"Ελληνικη Δημοκρατια","key":"CountryName"},{"value":"Αττική","key":"StateName"},{"value":"Αττική","key":"CountyName"}]},"MapReference":{"ReferenceId":"573259811","Spot":0.69,"SideOfStreet":"right","CountryId":"20448870","StateId":"20493453","CountyId":"20493454","CityId":"20493613","DistrictId":"20493614","AddressId":"763135916","RoadLinkId":"101805978"}}},{"Relevance":1.0,"Distance":91.1,"MatchLevel":"houseNumber","MatchQuality":{"Country":1.0,"State":1.0,"County":1.0,"City":1.0,"District":1.0,"Street":[1.0],"HouseNumber":1.0,"PostalCode":1.0},"MatchType":"interpolated","Location":{"LocationId":"NT_yy26MbligTyh7hSc5yoO3A_xMDN","LocationType":"point","DisplayPosition":{"Latitude":37.97428,"Longitude":23.66312},"MapView":{"TopLeft":{"Latitude":37.9754042,"Longitude":23.6616939},"BottomRight":{"Latitude":37.9731558,"Longitude":23.6645461}},"Address":{"Label":"134 Ράλλη Πέτρου, 184 54 Νίκαια, Ελληνικη Δημοκρατια","Country":"GRC","State":"Αττική","County":"Αττική","City":"Νίκαια","District":"Νίκαια","Street":"Ράλλη Πέτρου","HouseNumber":"134","PostalCode":"184 54","AdditionalData":[{"value":"Ελληνικη Δημοκρατια","key":"CountryName"},{"value":"Αττική","key":"StateName"},{"value":"Αττική","key":"CountyName"}]},"MapReference":{"ReferenceId":"573281423","Spot":0.17,"SideOfStreet":"left","CountryId":"20448870","StateId":"20493453","CountyId":"20493454","CityId":"20493613","DistrictId":"20493614","AddressId":"762842195","RoadLinkId":"101809898"}}},{"Relevance":1.0,"Distance":91.2,"MatchLevel":"houseNumber","MatchQuality":{"Country":1.0,"State":1.0,"County":1.0,"City":1.0,"District":1.0,"Street":[1.0],"HouseNumber":1.0,"PostalCode":1.0},"MatchType":"interpolated","Location":{"LocationId":"NT_yy26MbligTyh7hSc5yoO3A_xMjN","LocationType":"point","DisplayPosition":{"Latitude":37.97414,"Longitude":23.66285},"MapView":{"TopLeft":{"Latitude":37.9752642,"Longitude":23.6614239},"BottomRight":{"Latitude":37.9730158,"Longitude":23.6642761}},"Address":{"Label":"136 Ράλλη Πέτρου, 184 54 Νίκαια, Ελληνικη Δημοκρατια","Country":"GRC","State":"Αττική","County":"Αττική","City":"Νίκαια","District":"Νίκαια","Street":"Ράλλη Πέτρου","HouseNumber":"136","PostalCode":"184 54","AdditionalData":[{"value":"Ελληνικη Δημοκρατια","key":"CountryName"},{"value":"Αττική","key":"StateName"},{"value":"Αττική","key":"CountyName"}]},"MapReference":{"ReferenceId":"573281422","Spot":0.84,"SideOfStreet":"left","CountryId":"20448870","StateId":"20493453","CountyId":"20493454","CityId":"20493613","DistrictId":"20493614","AddressId":"762565078","RoadLinkId":"101919275"}}}]}]}}