{"Response":{"MetaInfo":{"Timestamp":"2020-03-28T11:05:31.525+0000","NextPageInformation":"2"},"View":[{"_type":"SearchResultsViewType","ViewId":0,"Result":[{"Relevance":1.0,"Distance":0.0,"Direction":0.0,"MatchLevel":"city","MatchQuality":{"Country":1.0,"State":1.0,"County":1.0,"City":1.0,"PostalCode":1.0},"Location":{"LocationId":"NT_unJZMtThazQAswGWPjtI2D","LocationType":"point","DisplayPosition":{"Latitude":37.9157269,"Longitude":-3.0150241},"MapView":{"TopLeft":{"Latitude":38.01455,"Longitude":-3.19164},"BottomRight":{"Latitude":37.79115,"Longitude":-2.77353}},"Address":{"Label":"Cazorla, Andalucía, España","Country":"ESP","State":"Andalucía","County":"Jaén","City":"Cazorla","PostalCode":"23470","AdditionalData":[{"value":"España","key":"CountryName"},{"value":"Andalucía","key":"StateName"},{"value":"Jaén","key":"CountyName"}]},"MapReference":{"ReferenceId":"892172003","SideOfStreet":"neither","CountryId":"20215059","StateId":"20221885","CountyId":"20221891","CityId":"20235462"}}},{"Relevance":1.0,"Distance":18.4,"MatchLevel":"street","MatchQuality":{"Country":1.0,"State":1.0,"County":1.0,"City":1.0,"PostalCode":1.0},"Location":{"LocationId":"NT_GlKN1mK0eGwN8XZmgEuwsB_l_1269240256_L","LocationType":"point","DisplayPosition":{"Latitude":37.9156,"Longitude":-3.01489},"MapView":{"TopLeft":{"Latitude":37.91597,"Longitude":-3.01489},"BottomRight":{"Latitude":37.9156,"Longitude":-3.01448}},"Address":{"Label":"23470 Cazorla (Jaén), España","Country":"ESP","State":"Andalucía","County":"Jaén","City":"Cazorla","PostalCode":"23470","AdditionalData":[{"value":"España","key":"CountryName"},{"value":"Andalucía","key":"StateName"},{"value":"Jaén","key":"CountyName"}]},"MapReference":{"ReferenceId":"1269240256","Spot":0.0,"SideOfStreet":"left","CountryId":"20215059","StateId":"20221885","CountyId":"20221891","CityId":"20235462"}}},{"Relevance":1.0,"Distance":18.8,"MatchLevel":"street","MatchQuality":{"Country":1.0,"State":1.0,"County":1.0,"City":1.0,"PostalCode":1.0},"Location":{"LocationId":"NT_GlKN1mK0eGwN8XZmgEuwsB_l_1269240255_L","LocationType":"point","DisplayPosition":{"Latitude":37.9155841,"Longitude":-3.0149099},"MapView":{"TopLeft":{"Latitude":37.9156,"Longitude":-3.01494},"BottomRight":{"Latitude":37.91455,"Longitude":-3.01423}},"Address":{"Label":"23470 Cazorla (Jaén), España","Country":"ESP","State":"Andalucía","County":"Jaén","City":"Cazorla","PostalCode":"23470","AdditionalData":[{"value":"España","key":"CountryName"},{"value":"Andalucía","key":"StateName"},{"value":"Jaén","key":"CountyName"}]},"MapReference":{"ReferenceId":"1269240255","Spot":0.98,"SideOfStreet":"left","CountryId":"20215059","StateId":"20221885","CountyId":"20221891","CityId":"20235462"}}},{"Relevance":1.0,"Distance":40.7,"MatchLevel":"street","MatchQuality":{"Country":1.0,"State":1.0,"County":1.0,"City":1.0,"Street":[1.0],"PostalCode":1.0},"Location":{"LocationId":"NT_o-GY4Wd167Icbk2SnW5HqA_l_1226510737_R","LocationType":"point","DisplayPosition":{"Latitude":37.91555,"Longitude":-3.01543},"MapView":{"TopLeft":{"Latitude":37.91585,"Longitude":-3.01559},"BottomRight":{"Latitude":37.91555,"Longitude":-3.01543}},"Address":{"Label":"A-322, 23470 Cazorla (Jaén), España","Country":"ESP","State":"Andalucía","County":"Jaén","City":"Cazorla","Street":"A-322","PostalCode":"23470","AdditionalData":[{"value":"España","key":"CountryName"},{"value":"Andalucía","key":"StateName"},{"value":"Jaén","key":"CountyName"}]},"MapReference":{"ReferenceId":"1226510737","Spot":0.0,"SideOfStreet":"right","CountryId":"20215059","StateId":"20221885","CountyId":"20221891","CityId":"20235462"}}},{"Relevance":1.0,"Distance":41.1,"MatchLevel":"street","MatchQuality":{"Country":1.0,"State":1.0,"County":1.0,"City":1.0,"Street":[1.0],"PostalCode":1.0},"Location":{"LocationId":"NT_o-GY4Wd167Icbk2SnW5HqA_l_1226510736_R","LocationType":"point","DisplayPosition":{"Latitude":37.9155248,"Longitude":-3.015417},"MapView":{"TopLeft":{"Latitude":37.91555,"Longitude":-3.01543},"BottomRight":{"Latitude":37.91516,"Longitude":-3.01523}},"Address":{"Label":"A-322, 23470 Cazorla (Jaén), España","Country":"ESP","State":"Andalucía","County":"Jaén","City":"Cazorla","Street":"A-322","PostalCode":"23470","AdditionalData":[{"value":"España","key":"CountryName"},{"value":"Andalucía","key":"StateName"},{"value":"Jaén","key":"CountyName"}]},"MapReference":{"ReferenceId":"1226510736","Spot":0.94,"SideOfStreet":"right","CountryId":"20215059","StateId":"20221885","CountyId":"20221891","CityId":"20235462"}}},{"Relevance":1.0,"Distance":51.5,"MatchLevel":"street","MatchQuality":{"Country":1.0,"State":1.0,"County":1.0,"City":1.0,"Street":[1.0],"PostalCode":1.0},"Location":{"LocationId":"NT_o-GY4Wd167Icbk2SnW5HqA_l_1056152700_R","LocationType":"point","DisplayPosition":{"Latitude":37.91585,"Longitude":-3.01559},"MapView":{"TopLeft":{"Latitude":37.91594,"Longitude":-3.01563},"BottomRight":{"Latitude":37.91585,"Longitude":-3.01559}},"Address":{"Label":"A-322, 23470 Cazorla (Jaén), España","Country":"ESP","State":"Andalucía","County":"Jaén","City":"Cazorla","Street":"A-322","PostalCode":"23470","AdditionalData":[{"value":"España","key":"CountryName"},{"value":"Andalucía","key":"StateName"},{"value":"Jaén","key":"CountyName"}]},"MapReference":{"ReferenceId":"1056152700","Spot":0.0,"SideOfStreet":"right","CountryId":"20215059","StateId":"20221885","CountyId":"20221891","CityId":"20235462"}}},{"Relevance":1.0,"Distance":54.9,"MatchLevel":"street","MatchQuality":{"Country":1.0,"State":1.0,"County":1.0,"City":1.0,"PostalCode":1.0},"Location":{"LocationId":"NT_GlKN1mK0eGwN8XZmgEuwsB_l_1268284005_L","LocationType":"point","DisplayPosition":{"Latitude":37.91597,"Longitude":-3.01448},"MapView":{"TopLeft":{"Latitude":37.91599,"Longitude":-3.01448},"BottomRight":{"Latitude":37.91595,"Longitude":-3.01416}},"Address":{"Label":"23470 Cazorla (Jaén), España","Country":"ESP","State":"Andalucía","County":"Jaén","City":"Cazorla","PostalCode":"23470","AdditionalData":[{"value":"España","key":"CountryName"},{"value":"Andalucía","key":"StateName"},{"value":"Jaén","key":"CountyName"}]},"MapReference":{"ReferenceId":"1268284005","Spot":1.0,"SideOfStreet":"left","CountryId":"20215059","StateId":"20221885","CountyId":"20221891","CityId":"20235462"}}},{"Relevance":1.0,"Distance":54.9,"MatchLevel":"street","MatchQuality":{"Country":1.0,"State":1.0,"County":1.0,"City":1.0,"PostalCode":1.0},"Location":{"LocationId":"NT_GlKN1mK0eGwN8XZmgEuwsB_l_1268284006_L","LocationType":"point","DisplayPosition":{"Latitude":37.91597,"Longitude":-3.01448},"MapView":{"TopLeft":{"Latitude":37.91626,"Longitude":-3.01448},"BottomRight":{"Latitude":37.91597,"Longitude":-3.01442}},"Address":{"Label":"23470 Cazorla (Jaén), España","Country":"ESP","State":"Andalucía","County":"Jaén","City":"Cazorla","PostalCode":"23470","AdditionalData":[{"value":"España","key":"CountryName"},{"value":"Andalucía","key":"StateName"},{"value":"Jaén","key":"CountyName"}]},"MapReference":{"ReferenceId":"1268284006","Spot":0.0,"SideOfStreet":"left","CountryId":"20215059","StateId":"20221885","CountyId":"20221891","CityId":"20235462"}}},{"Relevance":1.0,"Distance":58.2,"MatchLevel":"street","MatchQuality":{"Country":1.0,"State":1.0,"County":1.0,"City":1.0,"Street":[1.0],"PostalCode":1.0},"Location":{"LocationId":"NT_o-GY4Wd167Icbk2SnW5HqA_l_1226510833_R","LocationType":"point","DisplayPosition":{"Latitude":37.91594,"Longitude":-3.01563},"MapView":{"TopLeft":{"Latitude":37.91618,"Longitude":-3.01573},"BottomRight":{"Latitude":37.91594,"Longitude":-3.01563}},"Address":{"Label":"A-322, 23470 Cazorla (Jaén), España","Country":"ESP","State":"Andalucía","County":"Jaén","City":"Cazorla","Street":"A-322","PostalCode":"23470","AdditionalData":[{"value":"España","key":"CountryName"},{"value":"Andalucía","key":"StateName"},{"value":"Jaén","key":"CountyName"}]},"MapReference":{"ReferenceId":"1226510833","Spot":0.0,"SideOfStreet":"right","CountryId":"20215059","StateId":"20221885","CountyId":"20221891","CityId":"20235462"}}},{"Relevance":1.0,"Distance":65.6,"MatchLevel":"street","MatchQuality":{"Country":1.0,"State":1.0,"County":1.0,"City":1.0,"Street":[1.0],"PostalCode":1.0},"Location":{"LocationId":"NT_o-GY4Wd167Icbk2SnW5HqA_l_1226510735_R","LocationType":"point","DisplayPosition":{"Latitude":37.91516,"Longitude":-3.01523},"MapView":{"TopLeft":{"Latitude":37.91516,"Longitude":-3.01523},"BottomRight":{"Latitude":37.91474,"Longitude":-3.01504}},"Address":{"Label":"A-322, 23470 Cazorla (Jaén), España","Country":"ESP","State":"Andalucía","County":"Jaén","City":"Cazorla","Street":"A-322","PostalCode":"23470","AdditionalData":[{"value":"España","key":"CountryName"},{"value":"Andalucía","key":"StateName"},{"value":"Jaén","key":"CountyName"}]},"MapReference":{"ReferenceId":"1226510735","Spot":1.0,"SideOfStreet":"right","CountryId":"20215059","StateId":"20221885","CountyId":"20221891","CityId":"20235462"}}}]}]}}