{"Response":{"MetaInfo":{"Timestamp":"2020-03-28T09:45:10.961+0000","NextPageInformation":"2"},"View":[{"_type":"SearchResultsViewType","ViewId":0,"Result":[{"Relevance":1.0,"Distance":0.0,"Direction":0.0,"MatchLevel":"district","MatchQuality":{"Country":1.0,"State":1.0,"County":1.0,"City":1.0,"District":1.0,"PostalCode":1.0},"Location":{"LocationId":"NT_xflPC.dYdmcILdK8Nyx3yB","LocationType":"point","DisplayPosition":{"Latitude":37.9891349,"Longitude":-3.1722609},"MapView":{"TopLeft":{"Latitude":37.99031,"Longitude":-3.17356},"BottomRight":{"Latitude":37.98658,"Longitude":-3.16998}},"Address":{"Label":"Solana de Torralba, Úbeda, Andalucía, España","Country":"ESP","State":"Andalucía","County":"Jaén","City":"Úbeda","District":"Solana de Torralba","PostalCode":"23314","AdditionalData":[{"value":"España","key":"CountryName"},{"value":"Andalucía","key":"StateName"},{"value":"Jaén","key":"CountyName"}]},"MapReference":{"ReferenceId":"709094716","SideOfStreet":"neither","CountryId":"20215059","StateId":"20221885","CountyId":"20221891","CityId":"20235737","DistrictId":"20235741"}}},{"Relevance":1.0,"Distance":7.1,"MatchLevel":"houseNumber","MatchQuality":{"Country":1.0,"State":1.0,"County":1.0,"City":1.0,"District":1.0,"Street":[1.0],"HouseNumber":1.0,"PostalCode":1.0},"MatchType":"interpolated","Location":{"LocationId":"NT_BuDcIZwY2x5Xdho0w64gMC_xMD","LocationType":"point","DisplayPosition":{"Latitude":37.98912,"Longitude":-3.17214},"MapView":{"TopLeft":{"Latitude":37.9902442,"Longitude":-3.1735664},"BottomRight":{"Latitude":37.9879958,"Longitude":-3.1707136}},"Address":{"Label":"Calle Juan Carlos I de España, 13, 23314 Úbeda (Jaén), España","Country":"ESP","State":"Andalucía","County":"Jaén","City":"Úbeda","District":"Solana de Torralba","Street":"Calle Juan Carlos I de España","HouseNumber":"13","PostalCode":"23314","AdditionalData":[{"value":"España","key":"CountryName"},{"value":"Andalucía","key":"StateName"},{"value":"Jaén","key":"CountyName"}]},"MapReference":{"ReferenceId":"709094717","Spot":0.38,"SideOfStreet":"left","CountryId":"20215059","StateId":"20221885","CountyId":"20221891","CityId":"20235737","DistrictId":"20235741","AddressId":"347214254","RoadLinkId":"114401541"}}},{"Relevance":1.0,"Distance":21.0,"MatchLevel":"street","MatchQuality":{"Country":1.0,"State":1.0,"County":1.0,"City":1.0,"District":1.0,"PostalCode":1.0},"Location":{"LocationId":"NT_CCdr-HorjjjG90oLYeuc3A_l_709094667_R","LocationType":"point","DisplayPosition":{"Latitude":37.9893053,"Longitude":-3.1723642},"MapView":{"TopLeft":{"Latitude":37.98932,"Longitude":-3.17267},"BottomRight":{"Latitude":37.98912,"Longitude":-3.17234}},"Address":{"Label":"23314 Úbeda (Jaén), España","Country":"ESP","State":"Andalucía","County":"Jaén","City":"Úbeda","District":"Solana de Torralba","PostalCode":"23314","AdditionalData":[{"value":"España","key":"CountryName"},{"value":"Andalucía","key":"StateName"},{"value":"Jaén","key":"CountyName"}]},"MapReference":{"ReferenceId":"709094667","Spot":0.93,"SideOfStreet":"right","CountryId":"20215059","StateId":"20221885","CountyId":"20221891","CityId":"20235737","DistrictId":"20235741"}}},{"Relevance":1.0,"Distance":21.7,"MatchLevel":"street","MatchQuality":{"Country":1.0,"State":1.0,"County":1.0,"City":1.0,"District":1.0,"PostalCode":1.0},"Location":{"LocationId":"NT_CCdr-HorjjjG90oLYeuc3A_l_709094668_R","LocationType":"point","DisplayPosition":{"Latitude":37.98932,"Longitude":-3.17234},"MapView":{"TopLeft":{"Latitude":37.98954,"Longitude":-3.17234},"BottomRight":{"Latitude":37.98932,"Longitude":-3.17198}},"Address":{"Label":"23314 Úbeda (Jaén), España","Country":"ESP","State":"Andalucía","County":"Jaén","City":"Úbeda","District":"Solana de Torralba","PostalCode":"23314","AdditionalData":[{"value":"España","key":"CountryName"},{"value":"Andalucía","key":"StateName"},{"value":"Jaén","key":"CountyName"}]},"MapReference":{"ReferenceId":"709094668","Spot":0.0,"SideOfStreet":"right","CountryId":"20215059","StateId":"20221885","CountyId":"20221891","CityId":"20235737","DistrictId":"20235741"}}},{"Relevance":1.0,"Distance":24.4,"MatchLevel":"houseNumber","MatchQuality":{"Country":1.0,"State":1.0,"County":1.0,"City":1.0,"District":1.0,"Street":[1.0],"HouseNumber":1.0,"PostalCode":1.0},"MatchType":"interpolated","Location":{"LocationId":"NT_BuDcIZwY2x5Xdho0w64gMC_xED","LocationType":"point","DisplayPosition":{"Latitude":37.98934,"Longitude":-3.17236},"MapView":{"TopLeft":{"Latitude":37.9904642,"Longitude":-3.1737864},"BottomRight":{"Latitude":37.9882158,"Longitude":-3.1709336}},"Address":{"Label":"Calle Juan Carlos I de España, 11, 23314 Úbeda (Jaén), España","Country":"ESP","State":"Andalucía","County":"Jaén","City":"Úbeda","District":"Solana de Torralba","Street":"Calle Juan Carlos I de España","HouseNumber":"11","PostalCode":"23314","AdditionalData":[{"value":"España","key":"CountryName"},{"value":"Andalucía","key":"StateName"},{"value":"Jaén","key":"CountyName"}]},"MapReference":{"ReferenceId":"709094669","Spot":0.06,"SideOfStreet":"left","CountryId":"20215059","StateId":"20221885","CountyId":"20221891","CityId":"20235737","DistrictId":"20235741","AddressId":"347604584","RoadLinkId":"114401542"}}},{"Relevance":1.0,"Distance":26.9,"MatchLevel":"houseNumber","MatchQuality":{"Country":1.0,"State":1.0,"County":1.0,"City":1.0,"District":1.0,"Street":[1.0],"HouseNumber":1.0,"PostalCode":1.0},"MatchType":"interpolated","Location":{"LocationId":"NT_nHEvRX3KsusIGPUq3I2LBD_xUD","LocationType":"point","DisplayPosition":{"Latitude":37.98892,"Longitude":-3.17212},"MapView":{"TopLeft":{"Latitude":37.9900442,"Longitude":-3.1735464},"BottomRight":{"Latitude":37.9877958,"Longitude":-3.1706936}},"Address":{"Label":"Plaza de San Juan Bautista, 15, 23314 Úbeda (Jaén), España","Country":"ESP","State":"Andalucía","County":"Jaén","City":"Úbeda","District":"Solana de Torralba","Street":"Plaza de San Juan Bautista","HouseNumber":"15","PostalCode":"23314","AdditionalData":[{"value":"España","key":"CountryName"},{"value":"Andalucía","key":"StateName"},{"value":"Jaén","key":"CountyName"}]},"MapReference":{"ReferenceId":"709094718","Spot":0.71,"SideOfStreet":"right","CountryId":"20215059","StateId":"20221885","CountyId":"20221891","CityId":"20235737","DistrictId":"20235741","AddressId":"347458941","RoadLinkId":"114401555"}}},{"Relevance":1.0,"Distance":29.5,"MatchLevel":"houseNumber","MatchQuality":{"Country":1.0,"State":1.0,"County":1.0,"City":1.0,"District":1.0,"Street":[1.0],"HouseNumber":1.0,"PostalCode":1.0},"MatchType":"interpolated","Location":{"LocationId":"NT_75XOaS4IN-W3hIX5gCfKVB_5A","LocationType":"point","DisplayPosition":{"Latitude":37.98894,"Longitude":-3.17249},"MapView":{"TopLeft":{"Latitude":37.9900642,"Longitude":-3.1739164},"BottomRight":{"Latitude":37.9878158,"Longitude":-3.1710636}},"Address":{"Label":"Calle Guadalquivir, 9, 23314 Úbeda (Jaén), España","Country":"ESP","State":"Andalucía","County":"Jaén","City":"Úbeda","District":"Solana de Torralba","Street":"Calle Guadalquivir","HouseNumber":"9","PostalCode":"23314","AdditionalData":[{"value":"España","key":"CountryName"},{"value":"Andalucía","key":"StateName"},{"value":"Jaén","key":"CountyName"}]},"MapReference":{"ReferenceId":"709094663","Spot":0.37,"SideOfStreet":"left","CountryId":"20215059","StateId":"20221885","CountyId":"20221891","CityId":"20235737","DistrictId":"20235741","AddressId":"347462053","RoadLinkId":"114401543"}}},{"Relevance":1.0,"Distance":32.8,"MatchLevel":"houseNumber","MatchQuality":{"Country":1.0,"State":1.0,"County":1.0,"City":1.0,"District":1.0,"Street":[1.0],"HouseNumber":1.0,"PostalCode":1.0},"MatchType":"interpolated","Location":{"LocationId":"NT_BuDcIZwY2x5Xdho0w64gMC_ygD","LocationType":"point","DisplayPosition":{"Latitude":37.98895,"Longitude":-3.17197},"MapView":{"TopLeft":{"Latitude":37.9900742,"Longitude":-3.1733964},"BottomRight":{"Latitude":37.9878258,"Longitude":-3.1705436}},"Address":{"Label":"Calle Juan Carlos I de España, 28, 23314 Úbeda (Jaén), España","Country":"ESP","State":"Andalucía","County":"Jaén","City":"Úbeda","District":"Solana de Torralba","Street":"Calle Juan Carlos I de España","HouseNumber":"28","PostalCode":"23314","AdditionalData":[{"value":"España","key":"CountryName"},{"value":"Andalucía","key":"StateName"},{"value":"Jaén","key":"CountyName"}]},"MapReference":{"ReferenceId":"709094716","Spot":0.89,"SideOfStreet":"right","CountryId":"20215059","StateId":"20221885","CountyId":"20221891","CityId":"20235737","DistrictId":"20235741","AddressId":"347683002","RoadLinkId":"114401540"}}},{"Relevance":1.0,"Distance":36.1,"MatchLevel":"houseNumber","MatchQuality":{"Country":1.0,"State":1.0,"County":1.0,"City":1.0,"District":1.0,"Street":[1.0],"HouseNumber":1.0,"PostalCode":1.0},"MatchType":"interpolated","Location":{"LocationId":"NT_75XOaS4IN-W3hIX5gCfKVB_xID","LocationType":"point","DisplayPosition":{"Latitude":37.98915,"Longitude":-3.1727},"MapView":{"TopLeft":{"Latitude":37.9902742,"Longitude":-3.1741264},"BottomRight":{"Latitude":37.9880258,"Longitude":-3.1712736}},"Address":{"Label":"Calle Guadalquivir, 12, 23314 Úbeda (Jaén), España","Country":"ESP","State":"Andalucía","County":"Jaén","City":"Úbeda","District":"Solana de Torralba","Street":"Calle Guadalquivir","HouseNumber":"12","PostalCode":"23314","AdditionalData":[{"value":"España","key":"CountryName"},{"value":"Andalucía","key":"StateName"},{"value":"Jaén","key":"CountyName"}]},"MapReference":{"ReferenceId":"709094664","Spot":0.16,"SideOfStreet":"right","CountryId":"20215059","StateId":"20221885","CountyId":"20221891","CityId":"20235737","DistrictId":"20235741","AddressId":"347448462","RoadLinkId":"114401492"}}},{"Relevance":1.0,"Distance":39.3,"MatchLevel":"houseNumber","MatchQuality":{"Country":1.0,"State":1.0,"County":1.0,"City":1.0,"District":1.0,"Street":[1.0],"HouseNumber":1.0,"PostalCode":1.0},"MatchType":"interpolated","Location":{"LocationId":"NT_VjSJTdfAUrRvDyeBX7TV0B_xUD","LocationType":"point","DisplayPosition":{"Latitude":37.9894,"Longitude":-3.17191},"MapView":{"TopLeft":{"Latitude":37.9905242,"Longitude":-3.1733364},"BottomRight":{"Latitude":37.9882758,"Longitude":-3.1704836}},"Address":{"Label":"Calle Úbeda, 15, 23314 Úbeda (Jaén), España","Country":"ESP","State":"Andalucía","County":"Jaén","City":"Úbeda","District":"Solana de Torralba","Street":"Calle Úbeda","HouseNumber":"15","PostalCode":"23314","AdditionalData":[{"value":"España","key":"CountryName"},{"value":"Andalucía","key":"StateName"},{"value":"Jaén","key":"CountyName"}]},"MapReference":{"ReferenceId":"709094672","Spot":0.87,"SideOfStreet":"left","CountryId":"20215059","StateId":"20221885","CountyId":"20221891","CityId":"20235737","DistrictId":"20235741","AddressId":"383518257","RoadLinkId":"249433190"}}}]}]}}