{"Response":{"MetaInfo":{"Timestamp":"2020-03-28T09:46:55.195+0000","NextPageInformation":"2"},"View":[{"_type":"SearchResultsViewType","ViewId":0,"Result":[{"Relevance":1.0,"Distance":0.0,"Direction":0.0,"MatchLevel":"district","MatchQuality":{"Country":1.0,"State":1.0,"County":1.0,"City":1.0,"District":1.0,"PostalCode":1.0},"Location":{"LocationId":"NT_QAusVXIzg5D5XkcyBB2n.D","LocationType":"point","DisplayPosition":{"Latitude":37.9883655,"Longitude":-1.15144},"MapView":{"TopLeft":{"Latitude":38.00066,"Longitude":-1.16677},"BottomRight":{"Latitude":37.98551,"Longitude":-1.14214}},"Address":{"Label":"La Albatalia, Murcia, Región de Murcia, España","Country":"ESP","State":"Región de Murcia","County":"Murcia","City":"Murcia","District":"La Albatalia","PostalCode":"30009","AdditionalData":[{"value":"España","key":"CountryName"},{"value":"Región de Murcia","key":"StateName"},{"value":"Murcia","key":"CountyName"}]},"MapReference":{"ReferenceId":"571999381","SideOfStreet":"neither","CountryId":"20215059","StateId":"20226810","CountyId":"20226811","CityId":"20288732","DistrictId":"20465388"}}},{"Relevance":1.0,"Distance":8.4,"MatchLevel":"street","MatchQuality":{"Country":1.0,"State":1.0,"County":1.0,"City":1.0,"District":1.0,"PostalCode":1.0},"Location":{"LocationId":"NT_8Kr5qfzc4tAnHQikYcPdTA_l_1216476341_R","LocationType":"point","DisplayPosition":{"Latitude":37.9882899,"Longitude":-1.1514494},"MapView":{"TopLeft":{"Latitude":37.98833,"Longitude":-1.15177},"BottomRight":{"Latitude":37.98828,"Longitude":-1.15137}},"Address":{"Label":"30009 Murcia (Murcia), España","Country":"ESP","State":"Región de Murcia","County":"Murcia","City":"Murcia","District":"La Albatalia","PostalCode":"30009","AdditionalData":[{"value":"España","key":"CountryName"},{"value":"Región de Murcia","key":"StateName"},{"value":"Murcia","key":"CountyName"}]},"MapReference":{"ReferenceId":"1216476341","Spot":0.2,"SideOfStreet":"right","CountryId":"20215059","StateId":"20226810","CountyId":"20226811","CityId":"20288732","DistrictId":"20465388"}}},{"Relevance":1.0,"Distance":11.3,"MatchLevel":"street","MatchQuality":{"Country":1.0,"State":1.0,"County":1.0,"City":1.0,"District":1.0,"PostalCode":1.0},"Location":{"LocationId":"NT_8Kr5qfzc4tAnHQikYcPdTA_l_1216476340_R","LocationType":"point","DisplayPosition":{"Latitude":37.98828,"Longitude":-1.15137},"MapView":{"TopLeft":{"Latitude":37.98828,"Longitude":-1.15137},"BottomRight":{"Latitude":37.98827,"Longitude":-1.15121}},"Address":{"Label":"30009 Murcia (Murcia), España","Country":"ESP","State":"Región de Murcia","County":"Murcia","City":"Murcia","District":"La Albatalia","PostalCode":"30009","AdditionalData":[{"value":"España","key":"CountryName"},{"value":"Región de Murcia","key":"StateName"},{"value":"Murcia","key":"CountyName"}]},"MapReference":{"ReferenceId":"1216476340","Spot":1.0,"SideOfStreet":"right","CountryId":"20215059","StateId":"20226810","CountyId":"20226811","CityId":"20288732","DistrictId":"20465388"}}},{"Relevance":1.0,"Distance":21.6,"MatchLevel":"street","MatchQuality":{"Country":1.0,"State":1.0,"County":1.0,"City":1.0,"District":1.0,"PostalCode":1.0},"Location":{"LocationId":"NT_8Kr5qfzc4tAnHQikYcPdTA_l_940550765_L","LocationType":"point","DisplayPosition":{"Latitude":37.9883206,"Longitude":-1.1512005},"MapView":{"TopLeft":{"Latitude":37.98859,"Longitude":-1.15121},"BottomRight":{"Latitude":37.98827,"Longitude":-1.15115}},"Address":{"Label":"30009 Murcia (Murcia), España","Country":"ESP","State":"Región de Murcia","County":"Murcia","City":"Murcia","District":"La Albatalia","PostalCode":"30009","AdditionalData":[{"value":"España","key":"CountryName"},{"value":"Región de Murcia","key":"StateName"},{"value":"Murcia","key":"CountyName"}]},"MapReference":{"ReferenceId":"940550765","Spot":0.16,"SideOfStreet":"left","CountryId":"20215059","StateId":"20226810","CountyId":"20226811","CityId":"20288732","DistrictId":"20465388"}}},{"Relevance":1.0,"Distance":22.8,"MatchLevel":"street","MatchQuality":{"Country":1.0,"State":1.0,"County":1.0,"City":1.0,"District":1.0,"PostalCode":1.0},"Location":{"LocationId":"NT_8Kr5qfzc4tAnHQikYcPdTA_l_1216472311_R","LocationType":"point","DisplayPosition":{"Latitude":37.98827,"Longitude":-1.15121},"MapView":{"TopLeft":{"Latitude":37.98827,"Longitude":-1.15121},"BottomRight":{"Latitude":37.98822,"Longitude":-1.15063}},"Address":{"Label":"30009 Murcia (Murcia), España","Country":"ESP","State":"Región de Murcia","County":"Murcia","City":"Murcia","District":"La Albatalia","PostalCode":"30009","AdditionalData":[{"value":"España","key":"CountryName"},{"value":"Región de Murcia","key":"StateName"},{"value":"Murcia","key":"CountyName"}]},"MapReference":{"ReferenceId":"1216472311","Spot":1.0,"SideOfStreet":"right","CountryId":"20215059","StateId":"20226810","CountyId":"20226811","CityId":"20288732","DistrictId":"20465388"}}},{"Relevance":1.0,"Distance":29.2,"MatchLevel":"street","MatchQuality":{"Country":1.0,"State":1.0,"County":1.0,"City":1.0,"District":1.0,"Street":[1.0],"PostalCode":1.0},"Location":{"LocationId":"NT_qhRXIZ9L5G2nrBO2uCFpJB_l_1216476346_R","LocationType":"point","DisplayPosition":{"Latitude":37.98833,"Longitude":-1.15177},"MapView":{"TopLeft":{"Latitude":37.98838,"Longitude":-1.15237},"BottomRight":{"Latitude":37.98833,"Longitude":-1.15177}},"Address":{"Label":"Carretera Ñora, 30009 Murcia (Murcia), España","Country":"ESP","State":"Región de Murcia","County":"Murcia","City":"Murcia","District":"La Albatalia","Street":"Carretera Ñora","PostalCode":"30009","AdditionalData":[{"value":"España","key":"CountryName"},{"value":"Región de Murcia","key":"StateName"},{"value":"Murcia","key":"CountyName"}]},"MapReference":{"ReferenceId":"1216476346","Spot":0.0,"SideOfStreet":"right","CountryId":"20215059","StateId":"20226810","CountyId":"20226811","CityId":"20288732","DistrictId":"20465388"}}},{"Relevance":1.0,"Distance":29.2,"MatchLevel":"street","MatchQuality":{"Country":1.0,"State":1.0,"County":1.0,"City":1.0,"District":1.0,"Street":[1.0],"PostalCode":1.0},"Location":{"LocationId":"NT_qhRXIZ9L5G2nrBO2uCFpJB_l_940550763_R","LocationType":"point","DisplayPosition":{"Latitude":37.98833,"Longitude":-1.15177},"MapView":{"TopLeft":{"Latitude":37.98862,"Longitude":-1.15185},"BottomRight":{"Latitude":37.98833,"Longitude":-1.15177}},"Address":{"Label":"Carretera Ñora, 30009 Murcia (Murcia), España","Country":"ESP","State":"Región de Murcia","County":"Murcia","City":"Murcia","District":"La Albatalia","Street":"Carretera Ñora","PostalCode":"30009","AdditionalData":[{"value":"España","key":"CountryName"},{"value":"Región de Murcia","key":"StateName"},{"value":"Murcia","key":"CountyName"}]},"MapReference":{"ReferenceId":"940550763","Spot":0.0,"SideOfStreet":"right","CountryId":"20215059","StateId":"20226810","CountyId":"20226811","CityId":"20288732","DistrictId":"20465388"}}},{"Relevance":1.0,"Distance":32.9,"MatchLevel":"houseNumber","MatchQuality":{"Country":1.0,"State":1.0,"County":1.0,"City":1.0,"District":1.0,"Street":[1.0],"HouseNumber":1.0,"PostalCode":1.0},"MatchType":"interpolated","Location":{"LocationId":"NT_jmIhxJc46YdUrwz35Gtt.D_1UD","LocationType":"point","DisplayPosition":{"Latitude":37.98812,"Longitude":-1.15165},"MapView":{"TopLeft":{"Latitude":37.9892442,"Longitude":-1.1530763},"BottomRight":{"Latitude":37.9869958,"Longitude":-1.1502237}},"Address":{"Label":"Carretera de la Ñora, 55, 30009 Murcia (Murcia), España","Country":"ESP","State":"Región de Murcia","County":"Murcia","City":"Murcia","District":"La Arboleja","Street":"Carretera de la Ñora","HouseNumber":"55","PostalCode":"30009","AdditionalData":[{"value":"España","key":"CountryName"},{"value":"Región de Murcia","key":"StateName"},{"value":"Murcia","key":"CountyName"}]},"MapReference":{"ReferenceId":"1216476569","Spot":0.49,"SideOfStreet":"left","CountryId":"20215059","StateId":"20226810","CountyId":"20226811","CityId":"20288732","DistrictId":"20288769","AddressId":"364862968","RoadLinkId":"532811695"}}},{"Relevance":1.0,"Distance":35.6,"MatchLevel":"street","MatchQuality":{"Country":1.0,"State":1.0,"County":1.0,"City":1.0,"District":1.0,"Street":[1.0],"PostalCode":1.0},"Location":{"LocationId":"NT_xhafsA3hCDVGrAwMBS8rNB_l_861742039_R","LocationType":"point","DisplayPosition":{"Latitude":37.98859,"Longitude":-1.15115},"MapView":{"TopLeft":{"Latitude":37.98861,"Longitude":-1.15115},"BottomRight":{"Latitude":37.98859,"Longitude":-1.15091}},"Address":{"Label":"Carril Los Clérigos, 30009 Murcia (Murcia), España","Country":"ESP","State":"Región de Murcia","County":"Murcia","City":"Murcia","District":"La Albatalia","Street":"Carril Los Clérigos","PostalCode":"30009","AdditionalData":[{"value":"España","key":"CountryName"},{"value":"Región de Murcia","key":"StateName"},{"value":"Murcia","key":"CountyName"}]},"MapReference":{"ReferenceId":"861742039","Spot":0.0,"SideOfStreet":"right","CountryId":"20215059","StateId":"20226810","CountyId":"20226811","CityId":"20288732","DistrictId":"20465388"}}},{"Relevance":1.0,"Distance":35.6,"MatchLevel":"street","MatchQuality":{"Country":1.0,"State":1.0,"County":1.0,"City":1.0,"District":1.0,"Street":[1.0],"PostalCode":1.0},"Location":{"LocationId":"NT_xhafsA3hCDVGrAwMBS8rNB_l_940550749_L","LocationType":"point","DisplayPosition":{"Latitude":37.98859,"Longitude":-1.15115},"MapView":{"TopLeft":{"Latitude":37.98885,"Longitude":-1.15115},"BottomRight":{"Latitude":37.98859,"Longitude":-1.15115}},"Address":{"Label":"Carril Los Clérigos, 30009 Murcia (Murcia), España","Country":"ESP","State":"Región de Murcia","County":"Murcia","City":"Murcia","District":"La Albatalia","Street":"Carril Los Clérigos","PostalCode":"30009","AdditionalData":[{"value":"España","key":"CountryName"},{"value":"Región de Murcia","key":"StateName"},{"value":"Murcia","key":"CountyName"}]},"MapReference":{"ReferenceId":"940550749","Spot":0.0,"SideOfStreet":"left","CountryId":"20215059","StateId":"20226810","CountyId":"20226811","CityId":"20288732","DistrictId":"20465388"}}}]}]}}