{"Response":{"MetaInfo":{"Timestamp":"2020-03-28T11:24:55.935+0000","NextPageInformation":"2"},"View":[{"_type":"SearchResultsViewType","ViewId":0,"Result":[{"Relevance":1.0,"Distance":-6.4,"MatchLevel":"landmark","MatchQuality":{"Country":1.0,"State":1.0,"County":1.0,"City":1.0,"Street":[1.0],"PostalCode":1.0,"Name":1.0},"Location":{"LocationId":"NT_T7NZEtjrt80MJt5mfpSVlB_p_xe2IT8RndC3a4b2V94qhLD","LocationType":"hospital","Name":"Tiberio Evoli","DisplayPosition":{"Latitude":37.91706,"Longitude":15.77975},"MapView":{"TopLeft":{"Latitude":37.919,"Longitude":15.77908},"BottomRight":{"Latitude":37.91704,"Longitude":15.78128}},"Address":{"Label":"Largo Tiberio Evoli, 89063 Melito di Porto Salvo RC, Italia","Country":"ITA","State":"Calabria","County":"RC","City":"Melito di Porto Salvo","Street":"Largo Tiberio Evoli","PostalCode":"89063","AdditionalData":[{"value":"Italia","key":"CountryName"},{"value":"Calabria","key":"StateName"},{"value":"Reggio di Calabria","key":"CountyName"}]},"MapReference":{"CountryId":"20110484","StateId":"20221521","CountyId":"20232126","CityId":"20232272","PlaceId":"555813048"}}},{"Relevance":1.0,"Distance":0.0,"Direction":0.0,"MatchLevel":"city","MatchQuality":{"Country":1.0,"State":1.0,"County":1.0,"City":1.0,"PostalCode":1.0},"Location":{"LocationId":"NT_nA.sY8wiWp0PTsQs7y7deD","LocationType":"point","DisplayPosition":{"Latitude":37.9170986,"Longitude":15.7805634},"MapView":{"TopLeft":{"Latitude":38.00389,"Longitude":15.74056},"BottomRight":{"Latitude":37.91622,"Longitude":15.82392}},"Address":{"Label":"Melito di Porto Salvo, Calabria, Italia","Country":"ITA","State":"Calabria","County":"RC","City":"Melito di Porto Salvo","PostalCode":"89063","AdditionalData":[{"value":"Italia","key":"CountryName"},{"value":"Calabria","key":"StateName"},{"value":"Reggio di Calabria","key":"CountyName"}]},"MapReference":{"ReferenceId":"578762098","SideOfStreet":"neither","CountryId":"20110484","StateId":"20221521","CountyId":"20232126","CityId":"20232272"}}},{"Relevance":1.0,"Distance":6.5,"MatchLevel":"street","MatchQuality":{"Country":1.0,"State":1.0,"County":1.0,"City":1.0,"Street":[1.0],"PostalCode":1.0},"Location":{"LocationId":"NT_9KVUZ4gnoGEZOJm.o9ffLD_l_578772331_R","LocationType":"point","DisplayPosition":{"Latitude":37.91704,"Longitude":15.7805634},"MapView":{"TopLeft":{"Latitude":37.91713,"Longitude":15.77952},"BottomRight":{"Latitude":37.91704,"Longitude":15.78074}},"Address":{"Label":"Largo Tiberio Evoli, 89063 Melito di Porto Salvo RC, Italia","Country":"ITA","State":"Calabria","County":"RC","City":"Melito di Porto Salvo","Street":"Largo Tiberio Evoli","PostalCode":"89063","AdditionalData":[{"value":"Italia","key":"CountryName"},{"value":"Calabria","key":"StateName"},{"value":"Reggio di Calabria","key":"CountyName"}]},"MapReference":{"ReferenceId":"578772331","Spot":0.14,"SideOfStreet":"right","CountryId":"20110484","StateId":"20221521","CountyId":"20232126","CityId":"20232272"}}},{"Relevance":1.0,"Distance":16.8,"MatchLevel":"street","MatchQuality":{"Country":1.0,"State":1.0,"County":1.0,"City":1.0,"PostalCode":1.0},"Location":{"LocationId":"NT_fpJwhkUvpGNWsCAV564QhA_l_588695716_L","LocationType":"point","DisplayPosition":{"Latitude":37.91704,"Longitude":15.78074},"MapView":{"TopLeft":{"Latitude":37.91704,"Longitude":15.78074},"BottomRight":{"Latitude":37.91677,"Longitude":15.7819}},"Address":{"Label":"89063 Melito di Porto Salvo RC, Italia","Country":"ITA","State":"Calabria","County":"RC","City":"Melito di Porto Salvo","PostalCode":"89063","AdditionalData":[{"value":"Italia","key":"CountryName"},{"value":"Calabria","key":"StateName"},{"value":"Reggio di Calabria","key":"CountyName"}]},"MapReference":{"ReferenceId":"588695716","Spot":1.0,"SideOfStreet":"left","CountryId":"20110484","StateId":"20221521","CountyId":"20232126","CityId":"20232272"}}},{"Relevance":1.0,"Distance":19.8,"MatchLevel":"houseNumber","MatchQuality":{"Country":1.0,"State":1.0,"County":1.0,"City":1.0,"Street":[1.0],"HouseNumber":1.0,"PostalCode":1.0},"MatchType":"interpolated","Location":{"LocationId":"NT_PdJe2lsDHJMLgjZDInsSKD_l_578772993_R_xUTO","LocationType":"point","DisplayPosition":{"Latitude":37.9171702,"Longitude":15.7807701},"MapView":{"TopLeft":{"Latitude":37.9182943,"Longitude":15.7793451},"BottomRight":{"Latitude":37.916046,"Longitude":15.782195}},"Address":{"Label":"Viale Giuseppe Garibaldi, 159, 89063 Melito di Porto Salvo RC, Italia","Country":"ITA","State":"Calabria","County":"RC","City":"Melito di Porto Salvo","Street":"Viale Giuseppe Garibaldi","HouseNumber":"159","PostalCode":"89063","AdditionalData":[{"value":"Italia","key":"CountryName"},{"value":"Calabria","key":"StateName"},{"value":"Reggio di Calabria","key":"CountyName"}]},"MapReference":{"ReferenceId":"578772993","Spot":0.13,"SideOfStreet":"right","CountryId":"20110484","StateId":"20221521","CountyId":"20232126","CityId":"20232272"}}},{"Relevance":1.0,"Distance":31.1,"MatchLevel":"houseNumber","MatchQuality":{"Country":1.0,"State":1.0,"County":1.0,"City":1.0,"Street":[1.0],"HouseNumber":1.0,"PostalCode":1.0},"MatchType":"interpolated","Location":{"LocationId":"NT_D3.foLIjcoBewa5s.XrEMB_l_578772333_L_xA","LocationType":"point","DisplayPosition":{"Latitude":37.91704,"Longitude":15.78091},"MapView":{"TopLeft":{"Latitude":37.9181642,"Longitude":15.7794851},"BottomRight":{"Latitude":37.9159158,"Longitude":15.782335}},"Address":{"Label":"Via Francesco Ramirez, 1, 89063 Melito di Porto Salvo RC, Italia","Country":"ITA","State":"Calabria","County":"RC","City":"Melito di Porto Salvo","Street":"Via Francesco Ramirez","HouseNumber":"1","PostalCode":"89063","AdditionalData":[{"value":"Italia","key":"CountryName"},{"value":"Calabria","key":"StateName"},{"value":"Reggio di Calabria","key":"CountyName"}]},"MapReference":{"ReferenceId":"578772333","Spot":0.12,"SideOfStreet":"left","CountryId":"20110484","StateId":"20221521","CountyId":"20232126","CityId":"20232272"}}},{"Relevance":1.0,"Distance":91.6,"MatchLevel":"street","MatchQuality":{"Country":1.0,"State":1.0,"County":1.0,"City":1.0,"Street":[1.0],"PostalCode":1.0},"Location":{"LocationId":"NT_IKSIEko9SGm2l1H0FPHyZC_l_1042141957_R","LocationType":"point","DisplayPosition":{"Latitude":37.91713,"Longitude":15.77952},"MapView":{"TopLeft":{"Latitude":37.91728,"Longitude":15.77908},"BottomRight":{"Latitude":37.91713,"Longitude":15.77952}},"Address":{"Label":"Via Aldo Moro, 89063 Melito di Porto Salvo RC, Italia","Country":"ITA","State":"Calabria","County":"RC","City":"Melito di Porto Salvo","Street":"Via Aldo Moro","PostalCode":"89063","AdditionalData":[{"value":"Italia","key":"CountryName"},{"value":"Calabria","key":"StateName"},{"value":"Reggio di Calabria","key":"CountyName"}]},"MapReference":{"ReferenceId":"1042141957","Spot":0.0,"SideOfStreet":"right","CountryId":"20110484","StateId":"20221521","CountyId":"20232126","CityId":"20232272"}}},{"Relevance":1.0,"Distance":98.6,"MatchLevel":"houseNumber","MatchQuality":{"Country":1.0,"State":1.0,"County":1.0,"City":1.0,"Street":[1.0],"HouseNumber":1.0,"PostalCode":1.0},"MatchType":"interpolated","Location":{"LocationId":"NT_C6pWyEyqa-Ieh.FwEUBbbA_xA","LocationType":"point","DisplayPosition":{"Latitude":37.91708,"Longitude":15.77942},"MapView":{"TopLeft":{"Latitude":37.9182042,"Longitude":15.777995},"BottomRight":{"Latitude":37.9159558,"Longitude":15.780845}},"Address":{"Label":"Via Cristoforo Colombo, 1, 89063 Melito di Porto Salvo RC, Italia","Country":"ITA","State":"Calabria","County":"RC","City":"Melito di Porto Salvo","Street":"Via Cristoforo Colombo","HouseNumber":"1","PostalCode":"89063","AdditionalData":[{"value":"Italia","key":"CountryName"},{"value":"Calabria","key":"StateName"},{"value":"Reggio di Calabria","key":"CountyName"}]},"MapReference":{"ReferenceId":"578772332","Spot":0.91,"SideOfStreet":"right","CountryId":"20110484","StateId":"20221521","CountyId":"20232126","CityId":"20232272","AddressId":"709865198","RoadLinkId":"58293260"}}},{"Relevance":1.0,"Distance":105.2,"MatchLevel":"houseNumber","MatchQuality":{"Country":1.0,"State":1.0,"County":1.0,"City":1.0,"Street":[1.0],"HouseNumber":1.0,"PostalCode":1.0},"MatchType":"interpolated","Location":{"LocationId":"NT_HZ0q9C8TyYvfj.whLjfuEA_yA","LocationType":"point","DisplayPosition":{"Latitude":37.91801,"Longitude":15.78103},"MapView":{"TopLeft":{"Latitude":37.9191342,"Longitude":15.779605},"BottomRight":{"Latitude":37.9168858,"Longitude":15.782455}},"Address":{"Label":"Via Fratelli Rosselli, 2, 89063 Melito di Porto Salvo RC, Italia","Country":"ITA","State":"Calabria","County":"RC","City":"Melito di Porto Salvo","Street":"Via Fratelli Rosselli","HouseNumber":"2","PostalCode":"89063","AdditionalData":[{"value":"Italia","key":"CountryName"},{"value":"Calabria","key":"StateName"},{"value":"Reggio di Calabria","key":"CountyName"}]},"MapReference":{"ReferenceId":"578773144","Spot":1.0,"SideOfStreet":"left","CountryId":"20110484","StateId":"20221521","CountyId":"20232126","CityId":"20232272","AddressId":"709865404","RoadLinkId":"57321258"}}},{"Relevance":1.0,"Distance":109.9,"MatchLevel":"houseNumber","MatchQuality":{"Country":1.0,"State":1.0,"County":1.0,"City":1.0,"Street":[1.0],"HouseNumber":1.0,"PostalCode":1.0},"MatchType":"interpolated","Location":{"LocationId":"NT_HZ0q9C8TyYvfj.whLjfuEA_4A","LocationType":"point","DisplayPosition":{"Latitude":37.91794,"Longitude":15.78137},"MapView":{"TopLeft":{"Latitude":37.9190642,"Longitude":15.779945},"BottomRight":{"Latitude":37.9168158,"Longitude":15.782795}},"Address":{"Label":"Via Fratelli Rosselli, 8, 89063 Melito di Porto Salvo RC, Italia","Country":"ITA","State":"Calabria","County":"RC","City":"Melito di Porto Salvo","Street":"Via Fratelli Rosselli","HouseNumber":"8","PostalCode":"89063","AdditionalData":[{"value":"Italia","key":"CountryName"},{"value":"Calabria","key":"StateName"},{"value":"Reggio di Calabria","key":"CountyName"}]},"MapReference":{"ReferenceId":"578773143","Spot":1.0,"SideOfStreet":"left","CountryId":"20110484","StateId":"20221521","CountyId":"20232126","CityId":"20232272","AddressId":"709865391","RoadLinkId":"58300251"}}}]}]}}