{"Response":{"MetaInfo":{"Timestamp":"2020-03-28T09:46:25.498+0000","NextPageInformation":"2"},"View":[{"_type":"SearchResultsViewType","ViewId":0,"Result":[{"Relevance":1.0,"Distance":0.0,"Direction":0.0,"MatchLevel":"city","MatchQuality":{"Country":1.0,"State":1.0,"County":1.0,"City":1.0,"PostalCode":1.0},"Location":{"LocationId":"NT_OCvHQmUuqoG1zz4jGDvJ9A","LocationType":"point","DisplayPosition":{"Latitude":37.9710284,"Longitude":-3.9911308},"MapView":{"TopLeft":{"Latitude":38.00089,"Longitude":-4.03531},"BottomRight":{"Latitude":37.92971,"Longitude":-3.93738}},"Address":{"Label":"Lahiguera, Andalucía, España","Country":"ESP","State":"Andalucía","County":"Jaén","City":"Lahiguera","PostalCode":"23746","AdditionalData":[{"value":"España","key":"CountryName"},{"value":"Andalucía","key":"StateName"},{"value":"Jaén","key":"CountyName"}]},"MapReference":{"ReferenceId":"811617250","SideOfStreet":"neither","CountryId":"20215059","StateId":"20221885","CountyId":"20221891","CityId":"20235526"}}},{"Relevance":1.0,"Distance":2.9,"MatchLevel":"houseNumber","MatchQuality":{"Country":1.0,"State":1.0,"County":1.0,"City":1.0,"Street":[1.0],"HouseNumber":1.0,"PostalCode":1.0},"MatchType":"interpolated","Location":{"LocationId":"NT_JUznW5OjFd8biMlSYnj9OD_xA","LocationType":"point","DisplayPosition":{"Latitude":37.97104,"Longitude":-3.99116},"MapView":{"TopLeft":{"Latitude":37.9721642,"Longitude":-3.992586},"BottomRight":{"Latitude":37.9699158,"Longitude":-3.989734}},"Address":{"Label":"Calle Gran Vía, 1, 23746 Lahiguera (Jaén), España","Country":"ESP","State":"Andalucía","County":"Jaén","City":"Lahiguera","Street":"Calle Gran Vía","HouseNumber":"1","PostalCode":"23746","AdditionalData":[{"value":"España","key":"CountryName"},{"value":"Andalucía","key":"StateName"},{"value":"Jaén","key":"CountyName"}]},"MapReference":{"ReferenceId":"558365030","Spot":0.11,"SideOfStreet":"left","CountryId":"20215059","StateId":"20221885","CountyId":"20221891","CityId":"20235526","AddressId":"404871176","RoadLinkId":"67100843"}}},{"Relevance":1.0,"Distance":29.5,"MatchLevel":"houseNumber","MatchQuality":{"Country":1.0,"State":1.0,"County":1.0,"City":1.0,"Street":[1.0],"HouseNumber":1.0,"PostalCode":1.0},"MatchType":"interpolated","Location":{"LocationId":"NT_iGTB-2UtQ0QSeyU7Pu4peA_0A","LocationType":"point","DisplayPosition":{"Latitude":37.97128,"Longitude":-3.9913},"MapView":{"TopLeft":{"Latitude":37.9724042,"Longitude":-3.992726},"BottomRight":{"Latitude":37.9701558,"Longitude":-3.989874}},"Address":{"Label":"Avenida Blas Infante, 4, 23746 Lahiguera (Jaén), España","Country":"ESP","State":"Andalucía","County":"Jaén","City":"Lahiguera","Street":"Avenida Blas Infante","HouseNumber":"4","PostalCode":"23746","AdditionalData":[{"value":"España","key":"CountryName"},{"value":"Andalucía","key":"StateName"},{"value":"Jaén","key":"CountyName"}]},"MapReference":{"ReferenceId":"558365035","Spot":0.45,"SideOfStreet":"right","CountryId":"20215059","StateId":"20221885","CountyId":"20221891","CityId":"20235526","AddressId":"404920857","RoadLinkId":"67626405"}}},{"Relevance":1.0,"Distance":33.0,"MatchLevel":"houseNumber","MatchQuality":{"Country":1.0,"State":1.0,"County":1.0,"City":1.0,"Street":[1.0],"HouseNumber":1.0,"PostalCode":1.0},"MatchType":"interpolated","Location":{"LocationId":"NT_iGTB-2UtQ0QSeyU7Pu4peA_yA","LocationType":"point","DisplayPosition":{"Latitude":37.97074,"Longitude":-3.99127},"MapView":{"TopLeft":{"Latitude":37.9718642,"Longitude":-3.992696},"BottomRight":{"Latitude":37.9696158,"Longitude":-3.989844}},"Address":{"Label":"Avenida Blas Infante, 2, 23746 Lahiguera (Jaén), España","Country":"ESP","State":"Andalucía","County":"Jaén","City":"Lahiguera","Street":"Avenida Blas Infante","HouseNumber":"2","PostalCode":"23746","AdditionalData":[{"value":"España","key":"CountryName"},{"value":"Andalucía","key":"StateName"},{"value":"Jaén","key":"CountyName"}]},"MapReference":{"ReferenceId":"558365020","Spot":0.22,"SideOfStreet":"right","CountryId":"20215059","StateId":"20221885","CountyId":"20221891","CityId":"20235526","AddressId":"404528479","RoadLinkId":"66872793"}}},{"Relevance":1.0,"Distance":46.3,"MatchLevel":"houseNumber","MatchQuality":{"Country":1.0,"State":1.0,"County":1.0,"City":1.0,"Street":[1.0],"HouseNumber":1.0,"PostalCode":1.0},"MatchType":"interpolated","Location":{"LocationId":"NT_PPbZE2hOrSNv6ApLnaSvxB_1QE","LocationType":"point","DisplayPosition":{"Latitude":37.97159,"Longitude":-3.99123},"MapView":{"TopLeft":{"Latitude":37.9727142,"Longitude":-3.992656},"BottomRight":{"Latitude":37.9704658,"Longitude":-3.989804}},"Address":{"Label":"Calle Cervantes, 5D, 23746 Lahiguera (Jaén), España","Country":"ESP","State":"Andalucía","County":"Jaén","City":"Lahiguera","Street":"Calle Cervantes","HouseNumber":"5D","PostalCode":"23746","AdditionalData":[{"value":"España","key":"CountryName"},{"value":"Andalucía","key":"StateName"},{"value":"Jaén","key":"CountyName"}]},"MapReference":{"ReferenceId":"558365015","Spot":0.07,"SideOfStreet":"right","CountryId":"20215059","StateId":"20221885","CountyId":"20221891","CityId":"20235526","AddressId":"404879475","RoadLinkId":"67372331"}}},{"Relevance":1.0,"Distance":54.4,"MatchLevel":"houseNumber","MatchQuality":{"Country":1.0,"State":1.0,"County":1.0,"City":1.0,"Street":[1.0],"HouseNumber":1.0,"PostalCode":1.0},"MatchType":"interpolated","Location":{"LocationId":"NT_iGTB-2UtQ0QSeyU7Pu4peA_zA","LocationType":"point","DisplayPosition":{"Latitude":37.97055,"Longitude":-3.99126},"MapView":{"TopLeft":{"Latitude":37.9716742,"Longitude":-3.992686},"BottomRight":{"Latitude":37.9694258,"Longitude":-3.989834}},"Address":{"Label":"Avenida Blas Infante, 3, 23746 Lahiguera (Jaén), España","Country":"ESP","State":"Andalucía","County":"Jaén","City":"Lahiguera","Street":"Avenida Blas Infante","HouseNumber":"3","PostalCode":"23746","AdditionalData":[{"value":"España","key":"CountryName"},{"value":"Andalucía","key":"StateName"},{"value":"Jaén","key":"CountyName"}]},"MapReference":{"ReferenceId":"558365083","Spot":0.79,"SideOfStreet":"left","CountryId":"20215059","StateId":"20221885","CountyId":"20221891","CityId":"20235526","AddressId":"404941967","RoadLinkId":"67424497"}}},{"Relevance":1.0,"Distance":57.9,"MatchLevel":"houseNumber","MatchQuality":{"Country":1.0,"State":1.0,"County":1.0,"City":1.0,"Street":[1.0],"HouseNumber":1.0,"PostalCode":1.0},"MatchType":"interpolated","Location":{"LocationId":"NT_rzQEKEfky2mY3qVKGvnyGD_yA","LocationType":"point","DisplayPosition":{"Latitude":37.97061,"Longitude":-3.9916},"MapView":{"TopLeft":{"Latitude":37.9717342,"Longitude":-3.993026},"BottomRight":{"Latitude":37.9694858,"Longitude":-3.990174}},"Address":{"Label":"Calle Federico García Lorca, 2, 23746 Lahiguera (Jaén), España","Country":"ESP","State":"Andalucía","County":"Jaén","City":"Lahiguera","Street":"Calle Federico García Lorca","HouseNumber":"2","PostalCode":"23746","AdditionalData":[{"value":"España","key":"CountryName"},{"value":"Andalucía","key":"StateName"},{"value":"Jaén","key":"CountyName"}]},"MapReference":{"ReferenceId":"564234217","Spot":0.15,"SideOfStreet":"right","CountryId":"20215059","StateId":"20221885","CountyId":"20221891","CityId":"20235526","AddressId":"404783391","RoadLinkId":"67442563"}}},{"Relevance":1.0,"Distance":60.8,"MatchLevel":"houseNumber","MatchQuality":{"Country":1.0,"State":1.0,"County":1.0,"City":1.0,"Street":[1.0],"HouseNumber":1.0,"PostalCode":1.0},"MatchType":"interpolated","Location":{"LocationId":"NT_7C1DJzCcsjTe1s1xMnSjBA_zA","LocationType":"point","DisplayPosition":{"Latitude":37.97078,"Longitude":-3.99048},"MapView":{"TopLeft":{"Latitude":37.9719042,"Longitude":-3.991906},"BottomRight":{"Latitude":37.9696558,"Longitude":-3.989054}},"Address":{"Label":"Travesia Plaza, 3, 23746 Lahiguera (Jaén), España","Country":"ESP","State":"Andalucía","County":"Jaén","City":"Lahiguera","Street":"Travesia Plaza","HouseNumber":"3","PostalCode":"23746","AdditionalData":[{"value":"España","key":"CountryName"},{"value":"Andalucía","key":"StateName"},{"value":"Jaén","key":"CountyName"}]},"MapReference":{"ReferenceId":"558365014","Spot":0.54,"SideOfStreet":"left","CountryId":"20215059","StateId":"20221885","CountyId":"20221891","CityId":"20235526","AddressId":"784147383","RoadLinkId":"67516655"}}},{"Relevance":1.0,"Distance":68.5,"MatchLevel":"houseNumber","MatchQuality":{"Country":1.0,"State":1.0,"County":1.0,"City":1.0,"Street":[1.0],"HouseNumber":1.0,"PostalCode":1.0},"MatchType":"interpolated","Location":{"LocationId":"NT_iGTB-2UtQ0QSeyU7Pu4peA_yMD","LocationType":"point","DisplayPosition":{"Latitude":37.97162,"Longitude":-3.99135},"MapView":{"TopLeft":{"Latitude":37.9727442,"Longitude":-3.992776},"BottomRight":{"Latitude":37.9704958,"Longitude":-3.989924}},"Address":{"Label":"Avenida Blas Infante, 23, 23746 Lahiguera (Jaén), España","Country":"ESP","State":"Andalucía","County":"Jaén","City":"Lahiguera","Street":"Avenida Blas Infante","HouseNumber":"23","PostalCode":"23746","AdditionalData":[{"value":"España","key":"CountryName"},{"value":"Andalucía","key":"StateName"},{"value":"Jaén","key":"CountyName"}]},"MapReference":{"ReferenceId":"558365027","Spot":0.04,"SideOfStreet":"left","CountryId":"20215059","StateId":"20221885","CountyId":"20221891","CityId":"20235526","AddressId":"404640588","RoadLinkId":"66907143"}}},{"Relevance":1.0,"Distance":74.8,"MatchLevel":"houseNumber","MatchQuality":{"Country":1.0,"State":1.0,"County":1.0,"City":1.0,"Street":[1.0],"HouseNumber":1.0,"PostalCode":1.0},"MatchType":"interpolated","Location":{"LocationId":"NT_p7qw..cpeHhSjSl3i4IIdD_xA","LocationType":"point","DisplayPosition":{"Latitude":37.97154,"Longitude":-3.99172},"MapView":{"TopLeft":{"Latitude":37.9726642,"Longitude":-3.993146},"BottomRight":{"Latitude":37.9704158,"Longitude":-3.990294}},"Address":{"Label":"Calle Santa Clara, 1, 23746 Lahiguera (Jaén), España","Country":"ESP","State":"Andalucía","County":"Jaén","City":"Lahiguera","Street":"Calle Santa Clara","HouseNumber":"1","PostalCode":"23746","AdditionalData":[{"value":"España","key":"CountryName"},{"value":"Andalucía","key":"StateName"},{"value":"Jaén","key":"CountyName"}]},"MapReference":{"ReferenceId":"779638721","Spot":0.42,"SideOfStreet":"left","CountryId":"20215059","StateId":"20221885","CountyId":"20221891","CityId":"20235526","AddressId":"404878633","RoadLinkId":"172941849"}}}]}]}}