{"Response":{"MetaInfo":{"Timestamp":"2020-03-28T09:56:02.179+0000","NextPageInformation":"2"},"View":[{"_type":"SearchResultsViewType","ViewId":0,"Result":[{"Relevance":1.0,"Distance":-8377.1,"MatchLevel":"landmark","MatchQuality":{"Country":1.0,"State":1.0,"Name":1.0},"Location":{"LocationId":"NT_WbRHZaUNmJdoEGyLvAjbjA","LocationType":"island","Name":"Sicilia","DisplayPosition":{"Latitude":37.4742,"Longitude":14.13844},"MapView":{"TopLeft":{"Latitude":38.30149,"Longitude":12.42414},"BottomRight":{"Latitude":36.6469,"Longitude":15.65312}},"Address":{"Label":"Italia","Country":"ITA","State":"Sicilia","AdditionalData":[{"value":"Italia","key":"CountryName"},{"value":"Sicilia","key":"StateName"}]},"MapReference":{"CountryId":"20110484","StateId":"20126201","PlaceId":"82846424"}}},{"Relevance":1.0,"Distance":0.0,"Direction":0.0,"MatchLevel":"city","MatchQuality":{"Country":1.0,"State":1.0,"County":1.0,"City":1.0,"PostalCode":1.0},"Location":{"LocationId":"NT_-zwdotjJu3uENbsY5d3U7B","LocationType":"point","DisplayPosition":{"Latitude":38.0206742,"Longitude":14.7012973},"MapView":{"TopLeft":{"Latitude":38.04408,"Longitude":14.65905},"BottomRight":{"Latitude":37.93207,"Longitude":14.76257}},"Address":{"Label":"Alcara Li Fusi, Sicilia, Italia","Country":"ITA","State":"Sicilia","County":"ME","City":"Alcara Li Fusi","PostalCode":"98070","AdditionalData":[{"value":"Italia","key":"CountryName"},{"value":"Sicilia","key":"StateName"},{"value":"Messina","key":"CountyName"}]},"MapReference":{"ReferenceId":"579424360","SideOfStreet":"neither","CountryId":"20110484","StateId":"20126201","CountyId":"20246213","CityId":"20246214"}}},{"Relevance":1.0,"Distance":14.8,"MatchLevel":"street","MatchQuality":{"Country":1.0,"State":1.0,"County":1.0,"City":1.0,"PostalCode":1.0},"Location":{"LocationId":"NT_k3IjXVgUol4E3Qwm0U2jqD_l_579424821_R","LocationType":"point","DisplayPosition":{"Latitude":38.0208054,"Longitude":14.7013233},"MapView":{"TopLeft":{"Latitude":38.02122,"Longitude":14.7013},"BottomRight":{"Latitude":38.02063,"Longitude":14.70221}},"Address":{"Label":"98070 Alcara Li Fusi ME, Italia","Country":"ITA","State":"Sicilia","County":"ME","City":"Alcara Li Fusi","PostalCode":"98070","AdditionalData":[{"value":"Italia","key":"CountryName"},{"value":"Sicilia","key":"StateName"},{"value":"Messina","key":"CountyName"}]},"MapReference":{"ReferenceId":"579424821","Spot":0.01,"SideOfStreet":"right","CountryId":"20110484","StateId":"20126201","CountyId":"20246213","CityId":"20246214"}}},{"Relevance":1.0,"Distance":15.1,"MatchLevel":"street","MatchQuality":{"Country":1.0,"State":1.0,"County":1.0,"City":1.0,"PostalCode":1.0},"Location":{"LocationId":"NT_k3IjXVgUol4E3Qwm0U2jqD_l_579424818_L","LocationType":"point","DisplayPosition":{"Latitude":38.02081,"Longitude":14.7013},"MapView":{"TopLeft":{"Latitude":38.02098,"Longitude":14.70077},"BottomRight":{"Latitude":38.02081,"Longitude":14.7013}},"Address":{"Label":"98070 Alcara Li Fusi ME, Italia","Country":"ITA","State":"Sicilia","County":"ME","City":"Alcara Li Fusi","PostalCode":"98070","AdditionalData":[{"value":"Italia","key":"CountryName"},{"value":"Sicilia","key":"StateName"},{"value":"Messina","key":"CountyName"}]},"MapReference":{"ReferenceId":"579424818","Spot":0.0,"SideOfStreet":"left","CountryId":"20110484","StateId":"20126201","CountyId":"20246213","CityId":"20246214"}}},{"Relevance":1.0,"Distance":52.1,"MatchLevel":"houseNumber","MatchQuality":{"Country":1.0,"State":1.0,"County":1.0,"City":1.0,"Street":[1.0],"HouseNumber":1.0,"PostalCode":1.0},"MatchType":"interpolated","Location":{"LocationId":"NT_LQyUpX1gwk.Y6tuqzp36kC_3A","LocationType":"point","DisplayPosition":{"Latitude":38.02102,"Longitude":14.70078},"MapView":{"TopLeft":{"Latitude":38.0221442,"Longitude":14.699353},"BottomRight":{"Latitude":38.0198958,"Longitude":14.702207}},"Address":{"Label":"Via Ugo Foscolo, 7, 98070 Alcara Li Fusi ME, Italia","Country":"ITA","State":"Sicilia","County":"ME","City":"Alcara Li Fusi","Street":"Via Ugo Foscolo","HouseNumber":"7","PostalCode":"98070","AdditionalData":[{"value":"Italia","key":"CountryName"},{"value":"Sicilia","key":"StateName"},{"value":"Messina","key":"CountyName"}]},"MapReference":{"ReferenceId":"579424360","Spot":0.03,"SideOfStreet":"right","CountryId":"20110484","StateId":"20126201","CountyId":"20246213","CityId":"20246214","AddressId":"710475235","RoadLinkId":"59822558"}}},{"Relevance":1.0,"Distance":57.4,"MatchLevel":"street","MatchQuality":{"Country":1.0,"State":1.0,"County":1.0,"City":1.0,"Street":[1.0],"PostalCode":1.0},"Location":{"LocationId":"NT_UWaFe7AjAv8HL2nc5gxfaA_l_591686811_R","LocationType":"point","DisplayPosition":{"Latitude":38.02098,"Longitude":14.70077},"MapView":{"TopLeft":{"Latitude":38.02098,"Longitude":14.69986},"BottomRight":{"Latitude":38.02096,"Longitude":14.70077}},"Address":{"Label":"SP161, 98070 Alcara Li Fusi ME, Italia","Country":"ITA","State":"Sicilia","County":"ME","City":"Alcara Li Fusi","Street":"SP161","PostalCode":"98070","AdditionalData":[{"value":"Italia","key":"CountryName"},{"value":"Sicilia","key":"StateName"},{"value":"Messina","key":"CountyName"}]},"MapReference":{"ReferenceId":"591686811","Spot":1.0,"SideOfStreet":"right","CountryId":"20110484","StateId":"20126201","CountyId":"20246213","CityId":"20246214"}}},{"Relevance":1.0,"Distance":76.1,"MatchLevel":"houseNumber","MatchQuality":{"Country":1.0,"State":1.0,"County":1.0,"City":1.0,"Street":[1.0],"HouseNumber":1.0,"PostalCode":1.0},"MatchType":"interpolated","Location":{"LocationId":"NT_E2HKWcsK7dCQaxDYfOiq9D_xYD","LocationType":"point","DisplayPosition":{"Latitude":38.02137,"Longitude":14.70152},"MapView":{"TopLeft":{"Latitude":38.0224942,"Longitude":14.700093},"BottomRight":{"Latitude":38.0202458,"Longitude":14.702947}},"Address":{"Label":"Via della Rinascita, 16, 98070 Alcara Li Fusi ME, Italia","Country":"ITA","State":"Sicilia","County":"ME","City":"Alcara Li Fusi","Street":"Via della Rinascita","HouseNumber":"16","PostalCode":"98070","AdditionalData":[{"value":"Italia","key":"CountryName"},{"value":"Sicilia","key":"StateName"},{"value":"Messina","key":"CountyName"}]},"MapReference":{"ReferenceId":"586987341","Spot":0.53,"SideOfStreet":"left","CountryId":"20110484","StateId":"20126201","CountyId":"20246213","CityId":"20246214","AddressId":"710418245","RoadLinkId":"60080978"}}},{"Relevance":1.0,"Distance":80.4,"MatchLevel":"street","MatchQuality":{"Country":1.0,"State":1.0,"County":1.0,"City":1.0,"Street":[1.0],"PostalCode":1.0},"Location":{"LocationId":"NT_b7YYLWVUQUQrogZTE3hxgA_l_579424755_L","LocationType":"point","DisplayPosition":{"Latitude":38.02122,"Longitude":14.7019},"MapView":{"TopLeft":{"Latitude":38.02134,"Longitude":14.7019},"BottomRight":{"Latitude":38.02122,"Longitude":14.7019}},"Address":{"Label":"Via Giardini, 98070 Alcara Li Fusi ME, Italia","Country":"ITA","State":"Sicilia","County":"ME","City":"Alcara Li Fusi","Street":"Via Giardini","PostalCode":"98070","AdditionalData":[{"value":"Italia","key":"CountryName"},{"value":"Sicilia","key":"StateName"},{"value":"Messina","key":"CountyName"}]},"MapReference":{"ReferenceId":"579424755","Spot":0.0,"SideOfStreet":"left","CountryId":"20110484","StateId":"20126201","CountyId":"20246213","CityId":"20246214"}}},{"Relevance":1.0,"Distance":87.3,"MatchLevel":"houseNumber","MatchQuality":{"Country":1.0,"State":1.0,"County":1.0,"City":1.0,"Street":[1.0],"HouseNumber":1.0,"PostalCode":1.0},"MatchType":"interpolated","Location":{"LocationId":"NT_E2HKWcsK7dCQaxDYfOiq9D_xgTQ","LocationType":"point","DisplayPosition":{"Latitude":38.02118,"Longitude":14.7021},"MapView":{"TopLeft":{"Latitude":38.0223042,"Longitude":14.700673},"BottomRight":{"Latitude":38.0200558,"Longitude":14.703527}},"Address":{"Label":"Via della Rinascita, 18A, 98070 Alcara Li Fusi ME, Italia","Country":"ITA","State":"Sicilia","County":"ME","City":"Alcara Li Fusi","Street":"Via della Rinascita","HouseNumber":"18A","PostalCode":"98070","AdditionalData":[{"value":"Italia","key":"CountryName"},{"value":"Sicilia","key":"StateName"},{"value":"Messina","key":"CountyName"}]},"MapReference":{"ReferenceId":"579424361","Spot":0.6,"SideOfStreet":"left","CountryId":"20110484","StateId":"20126201","CountyId":"20246213","CityId":"20246214","AddressId":"710475180","RoadLinkId":"60046726"}}},{"Relevance":1.0,"Distance":91.1,"MatchLevel":"street","MatchQuality":{"Country":1.0,"State":1.0,"County":1.0,"City":1.0,"Street":[1.0],"PostalCode":1.0},"Location":{"LocationId":"NT_b7YYLWVUQUQrogZTE3hxgA_l_579424753_L","LocationType":"point","DisplayPosition":{"Latitude":38.0214095,"Longitude":14.7017568},"MapView":{"TopLeft":{"Latitude":38.02142,"Longitude":14.70174},"BottomRight":{"Latitude":38.02134,"Longitude":14.7019}},"Address":{"Label":"Via Giardini, 98070 Alcara Li Fusi ME, Italia","Country":"ITA","State":"Sicilia","County":"ME","City":"Alcara Li Fusi","Street":"Via Giardini","PostalCode":"98070","AdditionalData":[{"value":"Italia","key":"CountryName"},{"value":"Sicilia","key":"StateName"},{"value":"Messina","key":"CountyName"}]},"MapReference":{"ReferenceId":"579424753","Spot":0.89,"SideOfStreet":"left","CountryId":"20110484","StateId":"20126201","CountyId":"20246213","CityId":"20246214"}}}]}]}}