{"Response":{"MetaInfo":{"Timestamp":"2020-03-28T11:21:14.926+0000","NextPageInformation":"2"},"View":[{"_type":"SearchResultsViewType","ViewId":0,"Result":[{"Relevance":1.0,"Distance":0.0,"Direction":0.0,"MatchLevel":"district","MatchQuality":{"Country":1.0,"State":1.0,"County":1.0,"City":1.0,"District":1.0,"PostalCode":1.0},"Location":{"LocationId":"NT_LmQd3PVYN5LGp3aSrWXPfA","LocationType":"point","DisplayPosition":{"Latitude":38.0722009,"Longitude":23.7372634},"MapView":{"TopLeft":{"Latitude":38.14378,"Longitude":23.71345},"BottomRight":{"Latitude":38.04981,"Longitude":23.82726}},"Address":{"Label":"Αχαρνές, Αττική, Ελληνικη Δημοκρατια","Country":"GRC","State":"Αττική","County":"Αττική","City":"Αχαρνές","District":"Αχαρνές","PostalCode":"136 74","AdditionalData":[{"value":"Ελληνικη Δημοκρατια","key":"CountryName"},{"value":"Αττική","key":"StateName"},{"value":"Αττική","key":"CountyName"}]},"MapReference":{"ReferenceId":"843948770","SideOfStreet":"neither","CountryId":"20448870","StateId":"20493453","CountyId":"20493454","CityId":"20493471","DistrictId":"20493472"}}},{"Relevance":1.0,"Distance":14.0,"MatchLevel":"houseNumber","MatchQuality":{"Country":1.0,"State":1.0,"County":1.0,"City":1.0,"District":1.0,"Street":[1.0],"HouseNumber":1.0,"PostalCode":1.0},"MatchType":"interpolated","Location":{"LocationId":"NT_68UgKsCLFf5IWLkkAQea8A_l_718229838_R_yEjN","LocationType":"point","DisplayPosition":{"Latitude":38.0719721,"Longitude":23.7371075},"MapView":{"TopLeft":{"Latitude":38.0730963,"Longitude":23.7356795},"BottomRight":{"Latitude":38.070848,"Longitude":23.7385354}},"Address":{"Label":"216 Κωνσταντινουπόλεως, 136 73 Αχαρνές, Ελληνικη Δημοκρατια","Country":"GRC","State":"Αττική","County":"Αττική","City":"Αχαρνές","District":"Αχαρνές","Street":"Κωνσταντινουπόλεως","HouseNumber":"216","PostalCode":"136 73","AdditionalData":[{"value":"Ελληνικη Δημοκρατια","key":"CountryName"},{"value":"Αττική","key":"StateName"},{"value":"Αττική","key":"CountyName"}]},"MapReference":{"ReferenceId":"718229838","Spot":0.36,"SideOfStreet":"right","CountryId":"20448870","StateId":"20493453","CountyId":"20493454","CityId":"20493471","DistrictId":"20493472"}}},{"Relevance":1.0,"Distance":35.5,"MatchLevel":"street","MatchQuality":{"Country":1.0,"State":1.0,"County":1.0,"City":1.0,"District":1.0,"Street":[1.0],"PostalCode":1.0},"Location":{"LocationId":"NT_QCF7wNLj-14MEHdoJoIQYD_l_575224897_R","LocationType":"point","DisplayPosition":{"Latitude":38.07249,"Longitude":23.73709},"MapView":{"TopLeft":{"Latitude":38.07249,"Longitude":23.73664},"BottomRight":{"Latitude":38.07239,"Longitude":23.73709}},"Address":{"Label":"Πενταλόφου, 136 73 Αχαρνές, Ελληνικη Δημοκρατια","Country":"GRC","State":"Αττική","County":"Αττική","City":"Αχαρνές","District":"Αχαρνές","Street":"Πενταλόφου","PostalCode":"136 73","AdditionalData":[{"value":"Ελληνικη Δημοκρατια","key":"CountryName"},{"value":"Αττική","key":"StateName"},{"value":"Αττική","key":"CountyName"}]},"MapReference":{"ReferenceId":"575224897","Spot":1.0,"SideOfStreet":"right","CountryId":"20448870","StateId":"20493453","CountyId":"20493454","CityId":"20493471","DistrictId":"20493472"}}},{"Relevance":1.0,"Distance":53.8,"MatchLevel":"street","MatchQuality":{"Country":1.0,"State":1.0,"County":1.0,"City":1.0,"District":1.0,"PostalCode":1.0},"Location":{"LocationId":"NT_9wE0X19Bx4eXqUCCz2nlhC_l_902194055_R","LocationType":"point","DisplayPosition":{"Latitude":38.0726141,"Longitude":23.7369441},"MapView":{"TopLeft":{"Latitude":38.07289,"Longitude":23.73664},"BottomRight":{"Latitude":38.0724,"Longitude":23.73722}},"Address":{"Label":"136 73 Αχαρνές, Ελληνικη Δημοκρατια","Country":"GRC","State":"Αττική","County":"Αττική","City":"Αχαρνές","District":"Αχαρνές","PostalCode":"136 73","AdditionalData":[{"value":"Ελληνικη Δημοκρατια","key":"CountryName"},{"value":"Αττική","key":"StateName"},{"value":"Αττική","key":"CountyName"}]},"MapReference":{"ReferenceId":"902194055","Spot":0.49,"SideOfStreet":"right","CountryId":"20448870","StateId":"20493453","CountyId":"20493454","CityId":"20493471","DistrictId":"20493472"}}},{"Relevance":1.0,"Distance":67.6,"MatchLevel":"houseNumber","MatchQuality":{"Country":1.0,"State":1.0,"County":1.0,"City":1.0,"District":1.0,"Street":[1.0],"HouseNumber":1.0,"PostalCode":1.0},"MatchType":"interpolated","Location":{"LocationId":"NT_68UgKsCLFf5IWLkkAQea8A_l_575224896_R_yIDM","LocationType":"point","DisplayPosition":{"Latitude":38.07252,"Longitude":23.73656},"MapView":{"TopLeft":{"Latitude":38.0736442,"Longitude":23.735132},"BottomRight":{"Latitude":38.0713959,"Longitude":23.737988}},"Address":{"Label":"220 Κωνσταντινουπόλεως, 136 73 Αχαρνές, Ελληνικη Δημοκρατια","Country":"GRC","State":"Αττική","County":"Αττική","City":"Αχαρνές","District":"Αχαρνές","Street":"Κωνσταντινουπόλεως","HouseNumber":"220","PostalCode":"136 73","AdditionalData":[{"value":"Ελληνικη Δημοκρατια","key":"CountryName"},{"value":"Αττική","key":"StateName"},{"value":"Αττική","key":"CountyName"}]},"MapReference":{"ReferenceId":"575224896","Spot":0.23,"SideOfStreet":"right","CountryId":"20448870","StateId":"20493453","CountyId":"20493454","CityId":"20493471","DistrictId":"20493472"}}},{"Relevance":1.0,"Distance":75.1,"MatchLevel":"houseNumber","MatchQuality":{"Country":1.0,"State":1.0,"County":1.0,"City":1.0,"District":1.0,"Street":[1.0],"HouseNumber":1.0,"PostalCode":1.0},"MatchType":"interpolated","Location":{"LocationId":"NT_68UgKsCLFf5IWLkkAQea8A_l_902187009_R_yEjM","LocationType":"point","DisplayPosition":{"Latitude":38.07145,"Longitude":23.73722},"MapView":{"TopLeft":{"Latitude":38.0725742,"Longitude":23.735792},"BottomRight":{"Latitude":38.0703259,"Longitude":23.738648}},"Address":{"Label":"212 Κωνσταντινουπόλεως, 136 73 Αχαρνές, Ελληνικη Δημοκρατια","Country":"GRC","State":"Αττική","County":"Αττική","City":"Αχαρνές","District":"Αχαρνές","Street":"Κωνσταντινουπόλεως","HouseNumber":"212","PostalCode":"136 73","AdditionalData":[{"value":"Ελληνικη Δημοκρατια","key":"CountryName"},{"value":"Αττική","key":"StateName"},{"value":"Αττική","key":"CountyName"}]},"MapReference":{"ReferenceId":"902187009","Spot":0.5,"SideOfStreet":"right","CountryId":"20448870","StateId":"20493453","CountyId":"20493454","CityId":"20493471","DistrictId":"20493472"}}},{"Relevance":1.0,"Distance":75.6,"MatchLevel":"houseNumber","MatchQuality":{"Country":1.0,"State":1.0,"County":1.0,"City":1.0,"District":1.0,"Street":[1.0],"HouseNumber":1.0,"PostalCode":1.0},"MatchType":"interpolated","Location":{"LocationId":"NT_RszVpfTYACKjjc08fa3P8C_xA","LocationType":"point","DisplayPosition":{"Latitude":38.07291,"Longitude":23.73706},"MapView":{"TopLeft":{"Latitude":38.0740342,"Longitude":23.735632},"BottomRight":{"Latitude":38.0717858,"Longitude":23.738488}},"Address":{"Label":"1 Οινοφύτων, 136 73 Αχαρνές, Ελληνικη Δημοκρατια","Country":"GRC","State":"Αττική","County":"Αττική","City":"Αχαρνές","District":"Αχαρνές","Street":"Οινοφύτων","HouseNumber":"1","PostalCode":"136 73","AdditionalData":[{"value":"Ελληνικη Δημοκρατια","key":"CountryName"},{"value":"Αττική","key":"StateName"},{"value":"Αττική","key":"CountyName"}]},"MapReference":{"ReferenceId":"718229856","Spot":0.17,"SideOfStreet":"left","CountryId":"20448870","StateId":"20493453","CountyId":"20493454","CityId":"20493471","DistrictId":"20493472","AddressId":"763066803","RoadLinkId":"123081864"}}},{"Relevance":1.0,"Distance":90.6,"MatchLevel":"street","MatchQuality":{"Country":1.0,"State":1.0,"County":1.0,"City":1.0,"District":1.0,"Street":[1.0],"PostalCode":1.0},"Location":{"LocationId":"NT_DNqzzsXos-p4mLqWVdi5CD_l_718229884_R","LocationType":"point","DisplayPosition":{"Latitude":38.07224,"Longitude":23.73623},"MapView":{"TopLeft":{"Latitude":38.07224,"Longitude":23.73491},"BottomRight":{"Latitude":38.07224,"Longitude":23.73623}},"Address":{"Label":"Αγίου Δημητρίου, 136 72 Αχαρνές, Ελληνικη Δημοκρατια","Country":"GRC","State":"Αττική","County":"Αττική","City":"Αχαρνές","District":"Αχαρνές","Street":"Αγίου Δημητρίου","PostalCode":"136 72","AdditionalData":[{"value":"Ελληνικη Δημοκρατια","key":"CountryName"},{"value":"Αττική","key":"StateName"},{"value":"Αττική","key":"CountyName"}]},"MapReference":{"ReferenceId":"718229884","Spot":1.0,"SideOfStreet":"right","CountryId":"20448870","StateId":"20493453","CountyId":"20493454","CityId":"20493471","DistrictId":"20493472"}}},{"Relevance":1.0,"Distance":91.4,"MatchLevel":"houseNumber","MatchQuality":{"Country":1.0,"State":1.0,"County":1.0,"City":1.0,"District":1.0,"Street":[1.0],"HouseNumber":1.0,"PostalCode":1.0},"MatchType":"interpolated","Location":{"LocationId":"NT_LZuKVCWUl-zZHYS1BNOgNB_yID","LocationType":"point","DisplayPosition":{"Latitude":38.07302,"Longitude":23.73735},"MapView":{"TopLeft":{"Latitude":38.0741442,"Longitude":23.735922},"BottomRight":{"Latitude":38.0718958,"Longitude":23.738778}},"Address":{"Label":"22 Αφροδίτης, 136 73 Αχαρνές, Ελληνικη Δημοκρατια","Country":"GRC","State":"Αττική","County":"Αττική","City":"Αχαρνές","District":"Αχαρνές","Street":"Αφροδίτης","HouseNumber":"22","PostalCode":"136 73","AdditionalData":[{"value":"Ελληνικη Δημοκρατια","key":"CountryName"},{"value":"Αττική","key":"StateName"},{"value":"Αττική","key":"CountyName"}]},"MapReference":{"ReferenceId":"718229867","Spot":0.32,"SideOfStreet":"left","CountryId":"20448870","StateId":"20493453","CountyId":"20493454","CityId":"20493471","DistrictId":"20493472","AddressId":"763189082","RoadLinkId":"123081878"}}},{"Relevance":1.0,"Distance":93.4,"MatchLevel":"houseNumber","MatchQuality":{"Country":1.0,"State":1.0,"County":1.0,"City":1.0,"District":1.0,"Street":[1.0],"HouseNumber":1.0,"PostalCode":1.0},"MatchType":"interpolated","Location":{"LocationId":"NT_GNCERFTUC6jIlq0n5Jjm8A_xA","LocationType":"point","DisplayPosition":{"Latitude":38.07169,"Longitude":23.73811},"MapView":{"TopLeft":{"Latitude":38.0728142,"Longitude":23.736682},"BottomRight":{"Latitude":38.0705658,"Longitude":23.739538}},"Address":{"Label":"1 Ιαλυσού, 136 73 Αχαρνές, Ελληνικη Δημοκρατια","Country":"GRC","State":"Αττική","County":"Αττική","City":"Αχαρνές","District":"Αχαρνές","Street":"Ιαλυσού","HouseNumber":"1","PostalCode":"136 73","AdditionalData":[{"value":"Ελληνικη Δημοκρατια","key":"CountryName"},{"value":"Αττική","key":"StateName"},{"value":"Αττική","key":"CountyName"}]},"MapReference":{"ReferenceId":"718229854","Spot":0.05,"SideOfStreet":"right","CountryId":"20448870","StateId":"20493453","CountyId":"20493454","CityId":"20493471","DistrictId":"20493472","AddressId":"763039091","RoadLinkId":"123081862"}}}]}]}}