{"Response":{"MetaInfo":{"Timestamp":"2020-03-28T09:47:39.443+0000","NextPageInformation":"2"},"View":[{"_type":"SearchResultsViewType","ViewId":0,"Result":[{"Relevance":1.0,"Distance":0.0,"Direction":0.0,"MatchLevel":"district","MatchQuality":{"Country":1.0,"State":1.0,"County":1.0,"City":1.0,"District":1.0,"PostalCode":1.0},"Location":{"LocationId":"NT_P8LLQ1cGPljorPdUT4wpbB","LocationType":"point","DisplayPosition":{"Latitude":38.007551,"Longitude":-1.1484358},"MapView":{"TopLeft":{"Latitude":38.01414,"Longitude":-1.16602},"BottomRight":{"Latitude":38.00098,"Longitude":-1.1429}},"Address":{"Label":"Espinardo, Murcia, Región de Murcia, España","Country":"ESP","State":"Región de Murcia","County":"Murcia","City":"Murcia","District":"Espinardo","PostalCode":"30100","AdditionalData":[{"value":"España","key":"CountryName"},{"value":"Región de Murcia","key":"StateName"},{"value":"Murcia","key":"CountyName"}]},"MapReference":{"ReferenceId":"572006506","SideOfStreet":"neither","CountryId":"20215059","StateId":"20226810","CountyId":"20226811","CityId":"20288732"}}},{"Relevance":1.0,"Distance":12.8,"MatchLevel":"houseNumber","MatchQuality":{"Country":1.0,"State":1.0,"County":1.0,"City":1.0,"District":1.0,"Street":[1.0],"HouseNumber":1.0,"PostalCode":1.0},"MatchType":"interpolated","Location":{"LocationId":"NT_K-JWBVGFrw9AgKPm3T1NSD_xcD","LocationType":"point","DisplayPosition":{"Latitude":38.00765,"Longitude":-1.14851},"MapView":{"TopLeft":{"Latitude":38.0087742,"Longitude":-1.1499367},"BottomRight":{"Latitude":38.0065258,"Longitude":-1.1470833}},"Address":{"Label":"Calle Central, 17, 30100 Murcia (Murcia), España","Country":"ESP","State":"Región de Murcia","County":"Murcia","City":"Murcia","District":"Espinardo","Street":"Calle Central","HouseNumber":"17","PostalCode":"30100","AdditionalData":[{"value":"España","key":"CountryName"},{"value":"Región de Murcia","key":"StateName"},{"value":"Murcia","key":"CountyName"}]},"MapReference":{"ReferenceId":"572019816","Spot":1.0,"SideOfStreet":"left","CountryId":"20215059","StateId":"20226810","CountyId":"20226811","CityId":"20288732","AddressId":"266473610","RoadLinkId":"116457196"}}},{"Relevance":1.0,"Distance":55.4,"MatchLevel":"houseNumber","MatchQuality":{"Country":1.0,"State":1.0,"County":1.0,"City":1.0,"District":1.0,"Street":[1.0],"HouseNumber":1.0,"PostalCode":1.0},"MatchType":"interpolated","Location":{"LocationId":"NT_K-JWBVGFrw9AgKPm3T1NSD_l_572015849_L_4A","LocationType":"point","DisplayPosition":{"Latitude":38.0079707,"Longitude":-1.1488106},"MapView":{"TopLeft":{"Latitude":38.0090948,"Longitude":-1.1502373},"BottomRight":{"Latitude":38.0068465,"Longitude":-1.1473839}},"Address":{"Label":"Calle Central, 8, 30100 Murcia (Murcia), España","Country":"ESP","State":"Región de Murcia","County":"Murcia","City":"Murcia","District":"Espinardo","Street":"Calle Central","HouseNumber":"8","PostalCode":"30100","AdditionalData":[{"value":"España","key":"CountryName"},{"value":"Región de Murcia","key":"StateName"},{"value":"Murcia","key":"CountyName"}]},"MapReference":{"ReferenceId":"572015849","Spot":0.49,"SideOfStreet":"left","CountryId":"20215059","StateId":"20226810","CountyId":"20226811","CityId":"20288732"}}},{"Relevance":1.0,"Distance":93.7,"MatchLevel":"houseNumber","MatchQuality":{"Country":1.0,"State":1.0,"County":1.0,"City":1.0,"District":1.0,"Street":[1.0],"HouseNumber":1.0,"PostalCode":1.0},"MatchType":"interpolated","Location":{"LocationId":"NT_YbtN8.vn0GnXhVO8Y78PLA_yA","LocationType":"point","DisplayPosition":{"Latitude":38.00796,"Longitude":-1.14958},"MapView":{"TopLeft":{"Latitude":38.0090842,"Longitude":-1.1510067},"BottomRight":{"Latitude":38.0068358,"Longitude":-1.1481533}},"Address":{"Label":"Calle Antonio Rocamora, 2, 30100 Murcia (Murcia), España","Country":"ESP","State":"Región de Murcia","County":"Murcia","City":"Murcia","District":"Espinardo","Street":"Calle Antonio Rocamora","HouseNumber":"2","PostalCode":"30100","AdditionalData":[{"value":"España","key":"CountryName"},{"value":"Región de Murcia","key":"StateName"},{"value":"Murcia","key":"CountyName"}]},"MapReference":{"ReferenceId":"572007325","Spot":0.32,"SideOfStreet":"right","CountryId":"20215059","StateId":"20226810","CountyId":"20226811","CityId":"20288732","AddressId":"364876759","RoadLinkId":"364301142"}}},{"Relevance":1.0,"Distance":103.9,"MatchLevel":"street","MatchQuality":{"Country":1.0,"State":1.0,"County":1.0,"City":1.0,"District":1.0,"PostalCode":1.0},"Location":{"LocationId":"NT_QC2WMVMgq1uca7eJygCxhA_l_594692171_L","LocationType":"point","DisplayPosition":{"Latitude":38.00753,"Longitude":-1.14725},"MapView":{"TopLeft":{"Latitude":38.00753,"Longitude":-1.14725},"BottomRight":{"Latitude":38.00735,"Longitude":-1.14697}},"Address":{"Label":"30100 Murcia (Murcia), España","Country":"ESP","State":"Región de Murcia","County":"Murcia","City":"Murcia","District":"Espinardo","PostalCode":"30100","AdditionalData":[{"value":"España","key":"CountryName"},{"value":"Región de Murcia","key":"StateName"},{"value":"Murcia","key":"CountyName"}]},"MapReference":{"ReferenceId":"594692171","Spot":1.0,"SideOfStreet":"left","CountryId":"20215059","StateId":"20226810","CountyId":"20226811","CityId":"20288732"}}},{"Relevance":1.0,"Distance":107.1,"MatchLevel":"houseNumber","MatchQuality":{"Country":1.0,"State":1.0,"County":1.0,"City":1.0,"District":1.0,"Street":[1.0],"HouseNumber":1.0,"PostalCode":1.0},"MatchType":"interpolated","Location":{"LocationId":"NT_YbtN8.vn0GnXhVO8Y78PLA_0A","LocationType":"point","DisplayPosition":{"Latitude":38.00858,"Longitude":-1.14882},"MapView":{"TopLeft":{"Latitude":38.0097042,"Longitude":-1.1502467},"BottomRight":{"Latitude":38.0074558,"Longitude":-1.1473933}},"Address":{"Label":"Calle Antonio Rocamora, 4, 30100 Murcia (Murcia), España","Country":"ESP","State":"Región de Murcia","County":"Murcia","City":"Murcia","District":"Espinardo","Street":"Calle Antonio Rocamora","HouseNumber":"4","PostalCode":"30100","AdditionalData":[{"value":"España","key":"CountryName"},{"value":"Región de Murcia","key":"StateName"},{"value":"Murcia","key":"CountyName"}]},"MapReference":{"ReferenceId":"572007318","Spot":0.59,"SideOfStreet":"right","CountryId":"20215059","StateId":"20226810","CountyId":"20226811","CityId":"20288732","AddressId":"364873636","RoadLinkId":"364301141"}}},{"Relevance":1.0,"Distance":115.3,"MatchLevel":"houseNumber","MatchQuality":{"Country":1.0,"State":1.0,"County":1.0,"City":1.0,"District":1.0,"Street":[1.0],"HouseNumber":1.0,"PostalCode":1.0},"MatchType":"interpolated","Location":{"LocationId":"NT_Rk36sRrGzpH9dnmHDZIo9C_l_594692170_L_xA","LocationType":"point","DisplayPosition":{"Latitude":38.0070575,"Longitude":-1.1470869},"MapView":{"TopLeft":{"Latitude":38.0081816,"Longitude":-1.1485136},"BottomRight":{"Latitude":38.0059333,"Longitude":-1.1456602}},"Address":{"Label":"Calle San Vicente de Paúl, 1, 30100 Murcia (Murcia), España","Country":"ESP","State":"Región de Murcia","County":"Murcia","City":"Murcia","District":"Espinardo","Street":"Calle San Vicente de Paúl","HouseNumber":"1","PostalCode":"30100","AdditionalData":[{"value":"España","key":"CountryName"},{"value":"Región de Murcia","key":"StateName"},{"value":"Murcia","key":"CountyName"}]},"MapReference":{"ReferenceId":"594692170","Spot":0.51,"SideOfStreet":"left","CountryId":"20215059","StateId":"20226810","CountyId":"20226811","CityId":"20288732"}}},{"Relevance":1.0,"Distance":121.8,"MatchLevel":"street","MatchQuality":{"Country":1.0,"State":1.0,"County":1.0,"City":1.0,"District":1.0,"Street":[1.0],"PostalCode":1.0},"Location":{"LocationId":"NT_YbtN8.vn0GnXhVO8Y78PLA_l_1039882227_R","LocationType":"point","DisplayPosition":{"Latitude":38.0078,"Longitude":-1.14979},"MapView":{"TopLeft":{"Latitude":38.0078,"Longitude":-1.15008},"BottomRight":{"Latitude":38.00749,"Longitude":-1.14979}},"Address":{"Label":"Calle Antonio Rocamora, 30100 Murcia (Murcia), España","Country":"ESP","State":"Región de Murcia","County":"Murcia","City":"Murcia","District":"Espinardo","Street":"Calle Antonio Rocamora","PostalCode":"30100","AdditionalData":[{"value":"España","key":"CountryName"},{"value":"Región de Murcia","key":"StateName"},{"value":"Murcia","key":"CountyName"}]},"MapReference":{"ReferenceId":"1039882227","Spot":1.0,"SideOfStreet":"right","CountryId":"20215059","StateId":"20226810","CountyId":"20226811","CityId":"20288732"}}},{"Relevance":1.0,"Distance":121.8,"MatchLevel":"street","MatchQuality":{"Country":1.0,"State":1.0,"County":1.0,"City":1.0,"District":1.0,"PostalCode":1.0},"Location":{"LocationId":"NT_QC2WMVMgq1uca7eJygCxhA_l_572007326_R","LocationType":"point","DisplayPosition":{"Latitude":38.0078,"Longitude":-1.14979},"MapView":{"TopLeft":{"Latitude":38.00803,"Longitude":-1.14994},"BottomRight":{"Latitude":38.0078,"Longitude":-1.14979}},"Address":{"Label":"30100 Murcia (Murcia), España","Country":"ESP","State":"Región de Murcia","County":"Murcia","City":"Murcia","District":"Espinardo","PostalCode":"30100","AdditionalData":[{"value":"España","key":"CountryName"},{"value":"Región de Murcia","key":"StateName"},{"value":"Murcia","key":"CountyName"}]},"MapReference":{"ReferenceId":"572007326","Spot":0.0,"SideOfStreet":"right","CountryId":"20215059","StateId":"20226810","CountyId":"20226811","CityId":"20288732"}}},{"Relevance":1.0,"Distance":134.0,"MatchLevel":"houseNumber","MatchQuality":{"Country":1.0,"State":1.0,"County":1.0,"City":1.0,"District":1.0,"Street":[1.0],"HouseNumber":1.0,"PostalCode":1.0},"MatchType":"interpolated","Location":{"LocationId":"NT_YbtN8.vn0GnXhVO8Y78PLA_zA","LocationType":"point","DisplayPosition":{"Latitude":38.00836,"Longitude":-1.14957},"MapView":{"TopLeft":{"Latitude":38.0094842,"Longitude":-1.1509967},"BottomRight":{"Latitude":38.0072358,"Longitude":-1.1481433}},"Address":{"Label":"Calle Antonio Rocamora, 3, 30100 Murcia (Murcia), España","Country":"ESP","State":"Región de Murcia","County":"Murcia","City":"Murcia","District":"Espinardo","Street":"Calle Antonio Rocamora","HouseNumber":"3","PostalCode":"30100","AdditionalData":[{"value":"España","key":"CountryName"},{"value":"Región de Murcia","key":"StateName"},{"value":"Murcia","key":"CountyName"}]},"MapReference":{"ReferenceId":"1039882183","Spot":0.39,"SideOfStreet":"left","CountryId":"20215059","StateId":"20226810","CountyId":"20226811","CityId":"20288732","AddressId":"266453585","RoadLinkId":"361790518"}}}]}]}}