{"Response":{"MetaInfo":{"Timestamp":"2020-03-28T11:20:36.813+0000","NextPageInformation":"2"},"View":[{"_type":"SearchResultsViewType","ViewId":0,"Result":[{"Relevance":1.0,"Distance":0.0,"Direction":0.0,"MatchLevel":"city","MatchQuality":{"Country":1.0,"State":1.0,"County":1.0,"City":1.0,"PostalCode":1.0},"Location":{"LocationId":"NT_7KDtJ4eLdM7kKu5t8DQ6VD","LocationType":"point","DisplayPosition":{"Latitude":38.0595865,"Longitude":23.871822},"MapView":{"TopLeft":{"Latitude":38.10173,"Longitude":23.85322},"BottomRight":{"Latitude":38.03623,"Longitude":23.97036}},"Address":{"Label":"Πεντέλη, Αττική, Ελληνικη Δημοκρατια","Country":"GRC","State":"Αττική","County":"Αττική","City":"Πεντέλη","PostalCode":"152 36","AdditionalData":[{"value":"Ελληνικη Δημοκρατια","key":"CountryName"},{"value":"Αττική","key":"StateName"},{"value":"Αττική","key":"CountyName"}]},"MapReference":{"ReferenceId":"1133755062","SideOfStreet":"neither","CountryId":"20448870","StateId":"20493453","CountyId":"20493454","CityId":"20493629"}}},{"Relevance":1.0,"Distance":50.4,"MatchLevel":"street","MatchQuality":{"Country":1.0,"State":1.0,"County":1.0,"City":1.0,"PostalCode":1.0},"Location":{"LocationId":"NT_T9MVAxHJEwUwKvpn4WKf8D_l_1204190209_R","LocationType":"point","DisplayPosition":{"Latitude":38.0600062,"Longitude":23.8716041},"MapView":{"TopLeft":{"Latitude":38.06052,"Longitude":23.86832},"BottomRight":{"Latitude":38.0577,"Longitude":23.87236}},"Address":{"Label":"152 36 Πεντέλη, Ελληνικη Δημοκρατια","Country":"GRC","State":"Αττική","County":"Αττική","City":"Πεντέλη","PostalCode":"152 36","AdditionalData":[{"value":"Ελληνικη Δημοκρατια","key":"CountryName"},{"value":"Αττική","key":"StateName"},{"value":"Αττική","key":"CountyName"}]},"MapReference":{"ReferenceId":"1204190209","Spot":0.83,"SideOfStreet":"right","CountryId":"20448870","StateId":"20493453","CountyId":"20493454","CityId":"20493629"}}},{"Relevance":1.0,"Distance":190.4,"MatchLevel":"street","MatchQuality":{"Country":1.0,"State":1.0,"County":1.0,"City":1.0,"PostalCode":1.0},"Location":{"LocationId":"NT_T9MVAxHJEwUwKvpn4WKf8D_l_1204190276_R","LocationType":"point","DisplayPosition":{"Latitude":38.0607009,"Longitude":23.8701711},"MapView":{"TopLeft":{"Latitude":38.06268,"Longitude":23.86832},"BottomRight":{"Latitude":38.05806,"Longitude":23.87207}},"Address":{"Label":"152 36 Πεντέλη, Ελληνικη Δημοκρατια","Country":"GRC","State":"Αττική","County":"Αττική","City":"Πεντέλη","PostalCode":"152 36","AdditionalData":[{"value":"Ελληνικη Δημοκρατια","key":"CountryName"},{"value":"Αττική","key":"StateName"},{"value":"Αττική","key":"CountyName"}]},"MapReference":{"ReferenceId":"1204190276","Spot":0.54,"SideOfStreet":"right","CountryId":"20448870","StateId":"20493453","CountyId":"20493454","CityId":"20493629"}}},{"Relevance":1.0,"Distance":246.6,"MatchLevel":"houseNumber","MatchQuality":{"Country":1.0,"State":1.0,"County":1.0,"City":1.0,"District":1.0,"Street":[1.0],"HouseNumber":1.0,"PostalCode":1.0},"MatchType":"interpolated","Location":{"LocationId":"NT_QwiDWwFWKgJW7azBBf236C_5A","LocationType":"point","DisplayPosition":{"Latitude":38.06028,"Longitude":23.87457},"MapView":{"TopLeft":{"Latitude":38.0614042,"Longitude":23.8731423},"BottomRight":{"Latitude":38.0591558,"Longitude":23.8759977}},"Address":{"Label":"9 Ταξιάρχου Βέλλιου, 152 36 Πεντέλη, Ελληνικη Δημοκρατια","Country":"GRC","State":"Αττική","County":"Αττική","City":"Πεντέλη","District":"Πεντέλη","Street":"Ταξιάρχου Βέλλιου","HouseNumber":"9","PostalCode":"152 36","AdditionalData":[{"value":"Ελληνικη Δημοκρατια","key":"CountryName"},{"value":"Αττική","key":"StateName"},{"value":"Αττική","key":"CountyName"}]},"MapReference":{"ReferenceId":"575231463","Spot":0.83,"SideOfStreet":"left","CountryId":"20448870","StateId":"20493453","CountyId":"20493454","CityId":"20493629","DistrictId":"20493630","AddressId":"763200493","RoadLinkId":"101729312"}}},{"Relevance":1.0,"Distance":312.4,"MatchLevel":"street","MatchQuality":{"Country":1.0,"State":1.0,"County":1.0,"City":1.0,"District":1.0,"Street":[1.0],"PostalCode":1.0},"Location":{"LocationId":"NT_V7Sq1MKYDwypHRaG49BPiA_l_575233376_L","LocationType":"point","DisplayPosition":{"Latitude":38.05678,"Longitude":23.87167},"MapView":{"TopLeft":{"Latitude":38.05678,"Longitude":23.8715},"BottomRight":{"Latitude":38.0563,"Longitude":23.87167}},"Address":{"Label":"Μεσολογγίου, 152 36 Πεντέλη, Ελληνικη Δημοκρατια","Country":"GRC","State":"Αττική","County":"Αττική","City":"Πεντέλη","District":"Πεντέλη","Street":"Μεσολογγίου","PostalCode":"152 36","AdditionalData":[{"value":"Ελληνικη Δημοκρατια","key":"CountryName"},{"value":"Αττική","key":"StateName"},{"value":"Αττική","key":"CountyName"}]},"MapReference":{"ReferenceId":"575233376","Spot":1.0,"SideOfStreet":"left","CountryId":"20448870","StateId":"20493453","CountyId":"20493454","CityId":"20493629","DistrictId":"20493630"}}},{"Relevance":1.0,"Distance":320.9,"MatchLevel":"houseNumber","MatchQuality":{"Country":1.0,"State":1.0,"County":1.0,"City":1.0,"District":1.0,"Street":[1.0],"HouseNumber":1.0,"PostalCode":1.0},"MatchType":"interpolated","Location":{"LocationId":"NT_uBCrmDe.xuDRWRC4LiflNA_5A","LocationType":"point","DisplayPosition":{"Latitude":38.05659,"Longitude":23.87262},"MapView":{"TopLeft":{"Latitude":38.0577142,"Longitude":23.8711923},"BottomRight":{"Latitude":38.0554658,"Longitude":23.8740477}},"Address":{"Label":"9 Αγίου Τρύφωνος, 152 36 Πεντέλη, Ελληνικη Δημοκρατια","Country":"GRC","State":"Αττική","County":"Αττική","City":"Πεντέλη","District":"Πεντέλη","Street":"Αγίου Τρύφωνος","HouseNumber":"9","PostalCode":"152 36","AdditionalData":[{"value":"Ελληνικη Δημοκρατια","key":"CountryName"},{"value":"Αττική","key":"StateName"},{"value":"Αττική","key":"CountyName"}]},"MapReference":{"ReferenceId":"575233225","Spot":0.18,"SideOfStreet":"left","CountryId":"20448870","StateId":"20493453","CountyId":"20493454","CityId":"20493629","DistrictId":"20493630","AddressId":"715303891","RoadLinkId":"101755125"}}},{"Relevance":1.0,"Distance":322.0,"MatchLevel":"street","MatchQuality":{"Country":1.0,"State":1.0,"County":1.0,"City":1.0,"PostalCode":1.0},"Location":{"LocationId":"NT_T9MVAxHJEwUwKvpn4WKf8D_l_1204190228_R","LocationType":"point","DisplayPosition":{"Latitude":38.06225,"Longitude":23.87038},"MapView":{"TopLeft":{"Latitude":38.06296,"Longitude":23.8694},"BottomRight":{"Latitude":38.06208,"Longitude":23.87129}},"Address":{"Label":"152 36 Πεντέλη, Ελληνικη Δημοκρατια","Country":"GRC","State":"Αττική","County":"Αττική","City":"Πεντέλη","PostalCode":"152 36","AdditionalData":[{"value":"Ελληνικη Δημοκρατια","key":"CountryName"},{"value":"Αττική","key":"StateName"},{"value":"Αττική","key":"CountyName"}]},"MapReference":{"ReferenceId":"1204190228","Spot":0.46,"SideOfStreet":"right","CountryId":"20448870","StateId":"20493453","CountyId":"20493454","CityId":"20493629"}}},{"Relevance":1.0,"Distance":328.0,"MatchLevel":"houseNumber","MatchQuality":{"Country":1.0,"State":1.0,"County":1.0,"City":1.0,"District":1.0,"Street":[1.0],"HouseNumber":1.0,"PostalCode":1.0},"MatchType":"interpolated","Location":{"LocationId":"NT_uBCrmDe.xuDRWRC4LiflNA_3A","LocationType":"point","DisplayPosition":{"Latitude":38.05645,"Longitude":23.87207},"MapView":{"TopLeft":{"Latitude":38.0575742,"Longitude":23.8706423},"BottomRight":{"Latitude":38.0553258,"Longitude":23.8734977}},"Address":{"Label":"7 Αγίου Τρύφωνος, 152 36 Πεντέλη, Ελληνικη Δημοκρατια","Country":"GRC","State":"Αττική","County":"Αττική","City":"Πεντέλη","District":"Πεντέλη","Street":"Αγίου Τρύφωνος","HouseNumber":"7","PostalCode":"152 36","AdditionalData":[{"value":"Ελληνικη Δημοκρατια","key":"CountryName"},{"value":"Αττική","key":"StateName"},{"value":"Αττική","key":"CountyName"}]},"MapReference":{"ReferenceId":"575332914","Spot":0.67,"SideOfStreet":"left","CountryId":"20448870","StateId":"20493453","CountyId":"20493454","CityId":"20493629","DistrictId":"20493630","AddressId":"715309509","RoadLinkId":"101861203"}}},{"Relevance":1.0,"Distance":344.4,"MatchLevel":"street","MatchQuality":{"Country":1.0,"State":1.0,"County":1.0,"City":1.0,"PostalCode":1.0},"Location":{"LocationId":"NT_T9MVAxHJEwUwKvpn4WKf8D_l_1204190251_L","LocationType":"point","DisplayPosition":{"Latitude":38.06268,"Longitude":23.87201},"MapView":{"TopLeft":{"Latitude":38.06296,"Longitude":23.87129},"BottomRight":{"Latitude":38.06268,"Longitude":23.87201}},"Address":{"Label":"152 36 Πεντέλη, Ελληνικη Δημοκρατια","Country":"GRC","State":"Αττική","County":"Αττική","City":"Πεντέλη","PostalCode":"152 36","AdditionalData":[{"value":"Ελληνικη Δημοκρατια","key":"CountryName"},{"value":"Αττική","key":"StateName"},{"value":"Αττική","key":"CountyName"}]},"MapReference":{"ReferenceId":"1204190251","Spot":0.0,"SideOfStreet":"left","CountryId":"20448870","StateId":"20493453","CountyId":"20493454","CityId":"20493629"}}},{"Relevance":1.0,"Distance":344.4,"MatchLevel":"street","MatchQuality":{"Country":1.0,"State":1.0,"County":1.0,"City":1.0,"PostalCode":1.0},"Location":{"LocationId":"NT_T9MVAxHJEwUwKvpn4WKf8D_l_1204190245_R","LocationType":"point","DisplayPosition":{"Latitude":38.06268,"Longitude":23.87201},"MapView":{"TopLeft":{"Latitude":38.06588,"Longitude":23.87201},"BottomRight":{"Latitude":38.06268,"Longitude":23.87467}},"Address":{"Label":"152 36 Πεντέλη, Ελληνικη Δημοκρατια","Country":"GRC","State":"Αττική","County":"Αττική","City":"Πεντέλη","PostalCode":"152 36","AdditionalData":[{"value":"Ελληνικη Δημοκρατια","key":"CountryName"},{"value":"Αττική","key":"StateName"},{"value":"Αττική","key":"CountyName"}]},"MapReference":{"ReferenceId":"1204190245","Spot":0.0,"SideOfStreet":"right","CountryId":"20448870","StateId":"20493453","CountyId":"20493454","CityId":"20493629"}}}]}]}}