{"Response":{"MetaInfo":{"Timestamp":"2020-03-28T11:20:44.972+0000","NextPageInformation":"2"},"View":[{"_type":"SearchResultsViewType","ViewId":0,"Result":[{"Relevance":1.0,"Distance":-696.8,"MatchLevel":"landmark","MatchQuality":{"Country":1.0,"State":1.0,"County":1.0,"Name":1.0},"Location":{"LocationId":"NT_Syq46BBfCI.yDs090jIuJA","LocationType":"island","Name":"Εύβοια","DisplayPosition":{"Latitude":38.4942,"Longitude":23.91108},"MapView":{"TopLeft":{"Latitude":39.03944,"Longitude":22.82863},"BottomRight":{"Latitude":37.94896,"Longitude":24.5933}},"Address":{"Label":"Ελληνικη Δημοκρατια","Country":"GRC","State":"Στερεά Ελλάδα","County":"Εύβοια","AdditionalData":[{"value":"Ελληνικη Δημοκρατια","key":"CountryName"},{"value":"Στερεά Ελλάδα","key":"StateName"},{"value":"Εύβοια","key":"CountyName"}]},"MapReference":{"CountryId":"20448870","StateId":"20653321","CountyId":"20653396","PlaceId":"552273690"}}},{"Relevance":1.0,"Distance":0.0,"Direction":0.0,"MatchLevel":"district","MatchQuality":{"Country":1.0,"State":1.0,"County":1.0,"City":1.0,"District":1.0,"PostalCode":1.0},"Location":{"LocationId":"NT_9ebRj6uJnvzH7njoWaEDQD","LocationType":"point","DisplayPosition":{"Latitude":38.0188716,"Longitude":24.4241087},"MapView":{"TopLeft":{"Latitude":38.02263,"Longitude":24.41097},"BottomRight":{"Latitude":38.01064,"Longitude":24.4325}},"Address":{"Label":"Κάρυστος, Στερεά Ελλάδα, Ελληνικη Δημοκρατια","Country":"GRC","State":"Στερεά Ελλάδα","County":"Εύβοια","City":"Κάρυστος","District":"Κάρυστος","PostalCode":"340 01","AdditionalData":[{"value":"Ελληνικη Δημοκρατια","key":"CountryName"},{"value":"Στερεά Ελλάδα","key":"StateName"},{"value":"Εύβοια","key":"CountyName"}]},"MapReference":{"ReferenceId":"724990129","SideOfStreet":"neither","CountryId":"20448870","StateId":"20653321","CountyId":"20653396","CityId":"20668954","DistrictId":"22994795"}}},{"Relevance":1.0,"Distance":21.3,"MatchLevel":"street","MatchQuality":{"Country":1.0,"State":1.0,"County":1.0,"City":1.0,"District":1.0,"Street":[1.0],"PostalCode":1.0},"Location":{"LocationId":"NT_WYTR6eosxMlcK58p6S018C_l_723456406_L","LocationType":"point","DisplayPosition":{"Latitude":38.0188136,"Longitude":24.4243409},"MapView":{"TopLeft":{"Latitude":38.01909,"Longitude":24.42428},"BottomRight":{"Latitude":38.01851,"Longitude":24.42441}},"Address":{"Label":"Μαυρομιχάλη, 340 01 Κάρυστος, Ελληνικη Δημοκρατια","Country":"GRC","State":"Στερεά Ελλάδα","County":"Εύβοια","City":"Κάρυστος","District":"Κάρυστος","Street":"Μαυρομιχάλη","PostalCode":"340 01","AdditionalData":[{"value":"Ελληνικη Δημοκρατια","key":"CountryName"},{"value":"Στερεά Ελλάδα","key":"StateName"},{"value":"Εύβοια","key":"CountyName"}]},"MapReference":{"ReferenceId":"723456406","Spot":0.52,"SideOfStreet":"left","CountryId":"20448870","StateId":"20653321","CountyId":"20653396","CityId":"20668954","DistrictId":"22994795"}}},{"Relevance":1.0,"Distance":29.6,"MatchLevel":"houseNumber","MatchQuality":{"Country":1.0,"State":1.0,"County":1.0,"City":1.0,"District":1.0,"Street":[1.0],"HouseNumber":1.0,"PostalCode":1.0},"MatchType":"interpolated","Location":{"LocationId":"NT_34oqpUpcKeBR3iXvcNuRrC_l_723456877_L_1ED","LocationType":"point","DisplayPosition":{"Latitude":38.0191455,"Longitude":24.4238355},"MapView":{"TopLeft":{"Latitude":38.0202697,"Longitude":24.4224086},"BottomRight":{"Latitude":38.0180214,"Longitude":24.4252625}},"Address":{"Label":"51 Φαβιέρου, 340 01 Κάρυστος, Ελληνικη Δημοκρατια","Country":"GRC","State":"Στερεά Ελλάδα","County":"Εύβοια","City":"Κάρυστος","District":"Κάρυστος","Street":"Φαβιέρου","HouseNumber":"51","PostalCode":"340 01","AdditionalData":[{"value":"Ελληνικη Δημοκρατια","key":"CountryName"},{"value":"Στερεά Ελλάδα","key":"StateName"},{"value":"Εύβοια","key":"CountyName"}]},"MapReference":{"ReferenceId":"723456877","Spot":0.51,"SideOfStreet":"left","CountryId":"20448870","StateId":"20653321","CountyId":"20653396","CityId":"20668954","DistrictId":"22994795"}}},{"Relevance":1.0,"Distance":35.9,"MatchLevel":"street","MatchQuality":{"Country":1.0,"State":1.0,"County":1.0,"City":1.0,"District":1.0,"Street":[1.0],"PostalCode":1.0},"Location":{"LocationId":"NT_WYTR6eosxMlcK58p6S018C_l_723456677_L","LocationType":"point","DisplayPosition":{"Latitude":38.01909,"Longitude":24.42441},"MapView":{"TopLeft":{"Latitude":38.01965,"Longitude":24.42441},"BottomRight":{"Latitude":38.01909,"Longitude":24.42452}},"Address":{"Label":"Μαυρομιχάλη, 340 01 Κάρυστος, Ελληνικη Δημοκρατια","Country":"GRC","State":"Στερεά Ελλάδα","County":"Εύβοια","City":"Κάρυστος","District":"Κάρυστος","Street":"Μαυρομιχάλη","PostalCode":"340 01","AdditionalData":[{"value":"Ελληνικη Δημοκρατια","key":"CountryName"},{"value":"Στερεά Ελλάδα","key":"StateName"},{"value":"Εύβοια","key":"CountyName"}]},"MapReference":{"ReferenceId":"723456677","Spot":0.0,"SideOfStreet":"left","CountryId":"20448870","StateId":"20653321","CountyId":"20653396","CityId":"20668954","DistrictId":"22994795"}}},{"Relevance":1.0,"Distance":35.9,"MatchLevel":"street","MatchQuality":{"Country":1.0,"State":1.0,"County":1.0,"City":1.0,"District":1.0,"Street":[1.0],"PostalCode":1.0},"Location":{"LocationId":"NT_34oqpUpcKeBR3iXvcNuRrC_l_723456874_L","LocationType":"point","DisplayPosition":{"Latitude":38.01909,"Longitude":24.42441},"MapView":{"TopLeft":{"Latitude":38.01909,"Longitude":24.42441},"BottomRight":{"Latitude":38.01905,"Longitude":24.42473}},"Address":{"Label":"Φαβιέρου, 340 01 Κάρυστος, Ελληνικη Δημοκρατια","Country":"GRC","State":"Στερεά Ελλάδα","County":"Εύβοια","City":"Κάρυστος","District":"Κάρυστος","Street":"Φαβιέρου","PostalCode":"340 01","AdditionalData":[{"value":"Ελληνικη Δημοκρατια","key":"CountryName"},{"value":"Στερεά Ελλάδα","key":"StateName"},{"value":"Εύβοια","key":"CountyName"}]},"MapReference":{"ReferenceId":"723456874","Spot":1.0,"SideOfStreet":"left","CountryId":"20448870","StateId":"20653321","CountyId":"20653396","CityId":"20668954","DistrictId":"22994795"}}},{"Relevance":1.0,"Distance":36.5,"MatchLevel":"houseNumber","MatchQuality":{"Country":1.0,"State":1.0,"County":1.0,"City":1.0,"District":1.0,"Street":[1.0],"HouseNumber":1.0,"PostalCode":1.0},"MatchType":"interpolated","Location":{"LocationId":"NT_fiZE2oHYQiMrehCsMvDVlC_l_723456396_R_1AD","LocationType":"point","DisplayPosition":{"Latitude":38.0185859,"Longitude":24.4237241},"MapView":{"TopLeft":{"Latitude":38.01971,"Longitude":24.4222972},"BottomRight":{"Latitude":38.0174617,"Longitude":24.4251511}},"Address":{"Label":"50 Διοκλέους, 340 01 Κάρυστος, Ελληνικη Δημοκρατια","Country":"GRC","State":"Στερεά Ελλάδα","County":"Εύβοια","City":"Κάρυστος","District":"Κάρυστος","Street":"Διοκλέους","HouseNumber":"50","PostalCode":"340 01","AdditionalData":[{"value":"Ελληνικη Δημοκρατια","key":"CountryName"},{"value":"Στερεά Ελλάδα","key":"StateName"},{"value":"Εύβοια","key":"CountyName"}]},"MapReference":{"ReferenceId":"723456396","Spot":0.51,"SideOfStreet":"right","CountryId":"20448870","StateId":"20653321","CountyId":"20653396","CityId":"20668954","DistrictId":"22994795"}}},{"Relevance":1.0,"Distance":50.8,"MatchLevel":"houseNumber","MatchQuality":{"Country":1.0,"State":1.0,"County":1.0,"City":1.0,"District":1.0,"Street":[1.0],"HouseNumber":1.0,"PostalCode":1.0},"MatchType":"interpolated","Location":{"LocationId":"NT_WYTR6eosxMlcK58p6S018C_l_830649111_R_2QD","LocationType":"point","DisplayPosition":{"Latitude":38.0184304,"Longitude":24.4242613},"MapView":{"TopLeft":{"Latitude":38.0195546,"Longitude":24.4228343},"BottomRight":{"Latitude":38.0173063,"Longitude":24.4256882}},"Address":{"Label":"64 Μαυρομιχάλη, 340 01 Κάρυστος, Ελληνικη Δημοκρατια","Country":"GRC","State":"Στερεά Ελλάδα","County":"Εύβοια","City":"Κάρυστος","District":"Κάρυστος","Street":"Μαυρομιχάλη","HouseNumber":"64","PostalCode":"340 01","AdditionalData":[{"value":"Ελληνικη Δημοκρατια","key":"CountryName"},{"value":"Στερεά Ελλάδα","key":"StateName"},{"value":"Εύβοια","key":"CountyName"}]},"MapReference":{"ReferenceId":"830649111","Spot":0.53,"SideOfStreet":"right","CountryId":"20448870","StateId":"20653321","CountyId":"20653396","CityId":"20668954","DistrictId":"22994795"}}},{"Relevance":1.0,"Distance":57.9,"MatchLevel":"street","MatchQuality":{"Country":1.0,"State":1.0,"County":1.0,"City":1.0,"District":1.0,"Street":[1.0],"PostalCode":1.0},"Location":{"LocationId":"NT_34oqpUpcKeBR3iXvcNuRrC_l_723456873_L","LocationType":"point","DisplayPosition":{"Latitude":38.01905,"Longitude":24.42473},"MapView":{"TopLeft":{"Latitude":38.01905,"Longitude":24.42473},"BottomRight":{"Latitude":38.01896,"Longitude":24.42543}},"Address":{"Label":"Φαβιέρου, 340 01 Κάρυστος, Ελληνικη Δημοκρατια","Country":"GRC","State":"Στερεά Ελλάδα","County":"Εύβοια","City":"Κάρυστος","District":"Κάρυστος","Street":"Φαβιέρου","PostalCode":"340 01","AdditionalData":[{"value":"Ελληνικη Δημοκρατια","key":"CountryName"},{"value":"Στερεά Ελλάδα","key":"StateName"},{"value":"Εύβοια","key":"CountyName"}]},"MapReference":{"ReferenceId":"723456873","Spot":1.0,"SideOfStreet":"left","CountryId":"20448870","StateId":"20653321","CountyId":"20653396","CityId":"20668954","DistrictId":"22994795"}}},{"Relevance":1.0,"Distance":57.9,"MatchLevel":"street","MatchQuality":{"Country":1.0,"State":1.0,"County":1.0,"City":1.0,"District":1.0,"PostalCode":1.0},"Location":{"LocationId":"NT_TMPol2KpvbgORLbXp2UCJA_l_723456680_L","LocationType":"point","DisplayPosition":{"Latitude":38.01905,"Longitude":24.42473},"MapView":{"TopLeft":{"Latitude":38.01958,"Longitude":24.42473},"BottomRight":{"Latitude":38.01905,"Longitude":24.42516}},"Address":{"Label":"340 01 Κάρυστος, Ελληνικη Δημοκρατια","Country":"GRC","State":"Στερεά Ελλάδα","County":"Εύβοια","City":"Κάρυστος","District":"Κάρυστος","PostalCode":"340 01","AdditionalData":[{"value":"Ελληνικη Δημοκρατια","key":"CountryName"},{"value":"Στερεά Ελλάδα","key":"StateName"},{"value":"Εύβοια","key":"CountyName"}]},"MapReference":{"ReferenceId":"723456680","Spot":0.0,"SideOfStreet":"left","CountryId":"20448870","StateId":"20653321","CountyId":"20653396","CityId":"20668954","DistrictId":"22994795"}}}]}]}}