{"Response":{"MetaInfo":{"Timestamp":"2020-03-28T09:46:24.503+0000","NextPageInformation":"2"},"View":[{"_type":"SearchResultsViewType","ViewId":0,"Result":[{"Relevance":1.0,"Distance":0.0,"Direction":0.0,"MatchLevel":"city","MatchQuality":{"Country":1.0,"State":1.0,"County":1.0,"City":1.0,"PostalCode":1.0},"Location":{"LocationId":"NT_On34KRxIEHOesYh7UyUBwA","LocationType":"point","DisplayPosition":{"Latitude":38.1576765,"Longitude":-3.0338703},"MapView":{"TopLeft":{"Latitude":38.17516,"Longitude":-3.14304},"BottomRight":{"Latitude":38.07752,"Longitude":-2.83655}},"Address":{"Label":"Iznatoraf, Andalucía, España","Country":"ESP","State":"Andalucía","County":"Jaén","City":"Iznatoraf","PostalCode":"23338","AdditionalData":[{"value":"España","key":"CountryName"},{"value":"Andalucía","key":"StateName"},{"value":"Jaén","key":"CountyName"}]},"MapReference":{"ReferenceId":"560001252","SideOfStreet":"neither","CountryId":"20215059","StateId":"20221885","CountyId":"20221891","CityId":"20235557"}}},{"Relevance":1.0,"Distance":14.9,"MatchLevel":"houseNumber","MatchQuality":{"Country":1.0,"State":1.0,"County":1.0,"City":1.0,"Street":[1.0],"HouseNumber":1.0,"PostalCode":1.0},"MatchType":"interpolated","Location":{"LocationId":"NT_AGgPZ-t7f7VMvHDAEs3d2C_yA","LocationType":"point","DisplayPosition":{"Latitude":38.15758,"Longitude":-3.03362},"MapView":{"TopLeft":{"Latitude":38.1587042,"Longitude":-3.0350496},"BottomRight":{"Latitude":38.1564558,"Longitude":-3.0321904}},"Address":{"Label":"Calle Carretera, 2, 23338 Iznatoraf (Jaén), España","Country":"ESP","State":"Andalucía","County":"Jaén","City":"Iznatoraf","Street":"Calle Carretera","HouseNumber":"2","PostalCode":"23338","AdditionalData":[{"value":"España","key":"CountryName"},{"value":"Andalucía","key":"StateName"},{"value":"Jaén","key":"CountyName"}]},"MapReference":{"ReferenceId":"559992616","Spot":0.5,"SideOfStreet":"left","CountryId":"20215059","StateId":"20221885","CountyId":"20221891","CityId":"20235557","AddressId":"404875216","RoadLinkId":"67279747"}}},{"Relevance":1.0,"Distance":38.3,"MatchLevel":"houseNumber","MatchQuality":{"Country":1.0,"State":1.0,"County":1.0,"City":1.0,"Street":[1.0],"HouseNumber":1.0,"PostalCode":1.0},"MatchType":"interpolated","Location":{"LocationId":"NT_B1qCaRmaMiARP76KVgz-KA_ycD","LocationType":"point","DisplayPosition":{"Latitude":38.15747,"Longitude":-3.03346},"MapView":{"TopLeft":{"Latitude":38.1585942,"Longitude":-3.0348896},"BottomRight":{"Latitude":38.1563458,"Longitude":-3.0320304}},"Address":{"Label":"Calle Cruz, 27, 23338 Iznatoraf (Jaén), España","Country":"ESP","State":"Andalucía","County":"Jaén","City":"Iznatoraf","Street":"Calle Cruz","HouseNumber":"27","PostalCode":"23338","AdditionalData":[{"value":"España","key":"CountryName"},{"value":"Andalucía","key":"StateName"},{"value":"Jaén","key":"CountyName"}]},"MapReference":{"ReferenceId":"564241637","Spot":0.48,"SideOfStreet":"left","CountryId":"20215059","StateId":"20221885","CountyId":"20221891","CityId":"20235557","AddressId":"404911664","RoadLinkId":"67227832"}}},{"Relevance":1.0,"Distance":57.5,"MatchLevel":"houseNumber","MatchQuality":{"Country":1.0,"State":1.0,"County":1.0,"City":1.0,"Street":[1.0],"HouseNumber":1.0,"PostalCode":1.0},"MatchType":"interpolated","Location":{"LocationId":"NT_SOx.l7Onh1lfD7f-NX3sjC_xID","LocationType":"point","DisplayPosition":{"Latitude":38.15714,"Longitude":-3.03389},"MapView":{"TopLeft":{"Latitude":38.1582642,"Longitude":-3.0353196},"BottomRight":{"Latitude":38.1560158,"Longitude":-3.0324604}},"Address":{"Label":"Calle Comandante Barcina, 12, 23338 Iznatoraf (Jaén), España","Country":"ESP","State":"Andalucía","County":"Jaén","City":"Iznatoraf","Street":"Calle Comandante Barcina","HouseNumber":"12","PostalCode":"23338","AdditionalData":[{"value":"España","key":"CountryName"},{"value":"Andalucía","key":"StateName"},{"value":"Jaén","key":"CountyName"}]},"MapReference":{"ReferenceId":"559992725","Spot":0.84,"SideOfStreet":"right","CountryId":"20215059","StateId":"20221885","CountyId":"20221891","CityId":"20235557","AddressId":"404882028","RoadLinkId":"66920341"}}},{"Relevance":1.0,"Distance":65.4,"MatchLevel":"street","MatchQuality":{"Country":1.0,"State":1.0,"County":1.0,"City":1.0,"Street":[1.0],"PostalCode":1.0},"Location":{"LocationId":"NT_AGgPZ-t7f7VMvHDAEs3d2C_l_559992649_L","LocationType":"point","DisplayPosition":{"Latitude":38.15798,"Longitude":-3.03323},"MapView":{"TopLeft":{"Latitude":38.15814,"Longitude":-3.03323},"BottomRight":{"Latitude":38.15798,"Longitude":-3.03307}},"Address":{"Label":"Calle Carretera, 23338 Iznatoraf (Jaén), España","Country":"ESP","State":"Andalucía","County":"Jaén","City":"Iznatoraf","Street":"Calle Carretera","PostalCode":"23338","AdditionalData":[{"value":"España","key":"CountryName"},{"value":"Andalucía","key":"StateName"},{"value":"Jaén","key":"CountyName"}]},"MapReference":{"ReferenceId":"559992649","Spot":0.0,"SideOfStreet":"left","CountryId":"20215059","StateId":"20221885","CountyId":"20221891","CityId":"20235557"}}},{"Relevance":1.0,"Distance":70.1,"MatchLevel":"houseNumber","MatchQuality":{"Country":1.0,"State":1.0,"County":1.0,"City":1.0,"Street":[1.0],"HouseNumber":1.0,"PostalCode":1.0},"MatchType":"interpolated","Location":{"LocationId":"NT_AGgPZ-t7f7VMvHDAEs3d2C_zUD","LocationType":"point","DisplayPosition":{"Latitude":38.15707,"Longitude":-3.03409},"MapView":{"TopLeft":{"Latitude":38.1581942,"Longitude":-3.0355196},"BottomRight":{"Latitude":38.1559458,"Longitude":-3.0326604}},"Address":{"Label":"Calle Carretera, 35, 23338 Iznatoraf (Jaén), España","Country":"ESP","State":"Andalucía","County":"Jaén","City":"Iznatoraf","Street":"Calle Carretera","HouseNumber":"35","PostalCode":"23338","AdditionalData":[{"value":"España","key":"CountryName"},{"value":"Andalucía","key":"StateName"},{"value":"Jaén","key":"CountyName"}]},"MapReference":{"ReferenceId":"559992709","Spot":0.48,"SideOfStreet":"right","CountryId":"20215059","StateId":"20221885","CountyId":"20221891","CityId":"20235557","AddressId":"404940149","RoadLinkId":"67664376"}}},{"Relevance":1.0,"Distance":71.7,"MatchLevel":"houseNumber","MatchQuality":{"Country":1.0,"State":1.0,"County":1.0,"City":1.0,"Street":[1.0],"HouseNumber":1.0,"PostalCode":1.0},"MatchType":"interpolated","Location":{"LocationId":"NT_gmcepO0819LyA8VNHIDGUD_xAD","LocationType":"point","DisplayPosition":{"Latitude":38.15785,"Longitude":-3.03308},"MapView":{"TopLeft":{"Latitude":38.1589742,"Longitude":-3.0345097},"BottomRight":{"Latitude":38.1567258,"Longitude":-3.0316503}},"Address":{"Label":"Calle Obispo Tavira, 10, 23338 Iznatoraf (Jaén), España","Country":"ESP","State":"Andalucía","County":"Jaén","City":"Iznatoraf","Street":"Calle Obispo Tavira","HouseNumber":"10","PostalCode":"23338","AdditionalData":[{"value":"España","key":"CountryName"},{"value":"Andalucía","key":"StateName"},{"value":"Jaén","key":"CountyName"}]},"MapReference":{"ReferenceId":"559992690","Spot":0.0,"SideOfStreet":"right","CountryId":"20215059","StateId":"20221885","CountyId":"20221891","CityId":"20235557","AddressId":"404919294","RoadLinkId":"67085806"}}},{"Relevance":1.0,"Distance":75.7,"MatchLevel":"houseNumber","MatchQuality":{"Country":1.0,"State":1.0,"County":1.0,"City":1.0,"Street":[1.0],"HouseNumber":1.0,"PostalCode":1.0},"MatchType":"interpolated","Location":{"LocationId":"NT_GHFkx0xjKL4K2UHA4PlbQB_xQD","LocationType":"point","DisplayPosition":{"Latitude":38.1573,"Longitude":-3.03301},"MapView":{"TopLeft":{"Latitude":38.1584242,"Longitude":-3.0344396},"BottomRight":{"Latitude":38.1561758,"Longitude":-3.0315804}},"Address":{"Label":"Calle Carrera, 14, 23338 Iznatoraf (Jaén), España","Country":"ESP","State":"Andalucía","County":"Jaén","City":"Iznatoraf","Street":"Calle Carrera","HouseNumber":"14","PostalCode":"23338","AdditionalData":[{"value":"España","key":"CountryName"},{"value":"Andalucía","key":"StateName"},{"value":"Jaén","key":"CountyName"}]},"MapReference":{"ReferenceId":"559992703","Spot":0.15,"SideOfStreet":"left","CountryId":"20215059","StateId":"20221885","CountyId":"20221891","CityId":"20235557","AddressId":"404937029","RoadLinkId":"67114640"}}},{"Relevance":1.0,"Distance":77.9,"MatchLevel":"houseNumber","MatchQuality":{"Country":1.0,"State":1.0,"County":1.0,"City":1.0,"Street":[1.0],"HouseNumber":1.0,"PostalCode":1.0},"MatchType":"interpolated","Location":{"LocationId":"NT_gmcepO0819LyA8VNHIDGUD_zA","LocationType":"point","DisplayPosition":{"Latitude":38.1577,"Longitude":-3.03291},"MapView":{"TopLeft":{"Latitude":38.1588242,"Longitude":-3.0343396},"BottomRight":{"Latitude":38.1565758,"Longitude":-3.0314804}},"Address":{"Label":"Calle Obispo Tavira, 3, 23338 Iznatoraf (Jaén), España","Country":"ESP","State":"Andalucía","County":"Jaén","City":"Iznatoraf","Street":"Calle Obispo Tavira","HouseNumber":"3","PostalCode":"23338","AdditionalData":[{"value":"España","key":"CountryName"},{"value":"Andalucía","key":"StateName"},{"value":"Jaén","key":"CountyName"}]},"MapReference":{"ReferenceId":"559992594","Spot":0.47,"SideOfStreet":"left","CountryId":"20215059","StateId":"20221885","CountyId":"20221891","CityId":"20235557","AddressId":"404856503","RoadLinkId":"67520185"}}},{"Relevance":1.0,"Distance":79.7,"MatchLevel":"houseNumber","MatchQuality":{"Country":1.0,"State":1.0,"County":1.0,"City":1.0,"Street":[1.0],"HouseNumber":1.0,"PostalCode":1.0},"MatchType":"interpolated","Location":{"LocationId":"NT_qN7hCmckBx9YRrYLb0DhHB_xID","LocationType":"point","DisplayPosition":{"Latitude":38.1569,"Longitude":-3.03392},"MapView":{"TopLeft":{"Latitude":38.1580242,"Longitude":-3.0353496},"BottomRight":{"Latitude":38.1557758,"Longitude":-3.0324904}},"Address":{"Label":"Calle del Campo, 12, 23338 Iznatoraf (Jaén), España","Country":"ESP","State":"Andalucía","County":"Jaén","City":"Iznatoraf","Street":"Calle del Campo","HouseNumber":"12","PostalCode":"23338","AdditionalData":[{"value":"España","key":"CountryName"},{"value":"Andalucía","key":"StateName"},{"value":"Jaén","key":"CountyName"}]},"MapReference":{"ReferenceId":"559992608","Spot":0.7,"SideOfStreet":"right","CountryId":"20215059","StateId":"20221885","CountyId":"20221891","CityId":"20235557","AddressId":"404926877","RoadLinkId":"67258224"}}}]}]}}