{"Response":{"MetaInfo":{"Timestamp":"2020-03-28T11:25:25.694+0000","NextPageInformation":"2"},"View":[{"_type":"SearchResultsViewType","ViewId":0,"Result":[{"Relevance":1.0,"Distance":-172.2,"MatchLevel":"landmark","MatchQuality":{"Country":1.0,"State":1.0,"Name":1.0},"Location":{"LocationId":"NT_WbRHZaUNmJdoEGyLvAjbjA","LocationType":"island","Name":"Sicilia","DisplayPosition":{"Latitude":37.4742,"Longitude":14.13844},"MapView":{"TopLeft":{"Latitude":38.30149,"Longitude":12.42414},"BottomRight":{"Latitude":36.6469,"Longitude":15.65312}},"Address":{"Label":"Italia","Country":"ITA","State":"Sicilia","AdditionalData":[{"value":"Italia","key":"CountryName"},{"value":"Sicilia","key":"StateName"}]},"MapReference":{"CountryId":"20110484","StateId":"20126201","PlaceId":"82846424"}}},{"Relevance":1.0,"Distance":0.0,"Direction":0.0,"MatchLevel":"district","MatchQuality":{"Country":1.0,"State":1.0,"County":1.0,"City":1.0,"District":1.0,"PostalCode":1.0},"Location":{"LocationId":"NT_UbxrgoGvQfAYdq2bjMFIWB","LocationType":"point","DisplayPosition":{"Latitude":38.1510611,"Longitude":13.3713236},"MapView":{"TopLeft":{"Latitude":38.17887,"Longitude":13.36163},"BottomRight":{"Latitude":38.1459,"Longitude":13.37671}},"Address":{"Label":"Arenella-Vergine Maria, Palermo, Sicilia, Italia","Country":"ITA","State":"Sicilia","County":"PA","City":"Palermo","District":"Arenella-Vergine Maria","PostalCode":"90142","AdditionalData":[{"value":"Italia","key":"CountryName"},{"value":"Sicilia","key":"StateName"},{"value":"Palermo","key":"CountyName"}]},"MapReference":{"ReferenceId":"749423551","SideOfStreet":"neither","CountryId":"20110484","StateId":"20126201","CountyId":"20245944","CityId":"20246118"}}},{"Relevance":1.0,"Distance":1.5,"MatchLevel":"street","MatchQuality":{"Country":1.0,"State":1.0,"County":1.0,"City":1.0,"District":1.0,"Street":[1.0],"PostalCode":1.0},"Location":{"LocationId":"NT_rwCBO1-TF-ScOhMUGRFsJD_l_76284799_L","LocationType":"point","DisplayPosition":{"Latitude":38.1510602,"Longitude":13.3713068},"MapView":{"TopLeft":{"Latitude":38.15119,"Longitude":13.3713},"BottomRight":{"Latitude":38.151,"Longitude":13.37131}},"Address":{"Label":"Via Cardinale Guglielmo Massaia, 90142 Palermo PA, Italia","Country":"ITA","State":"Sicilia","County":"PA","City":"Palermo","District":"Arenella-Vergine Maria","Street":"Via Cardinale Guglielmo Massaia","PostalCode":"90142","AdditionalData":[{"value":"Italia","key":"CountryName"},{"value":"Sicilia","key":"StateName"},{"value":"Palermo","key":"CountyName"}]},"MapReference":{"ReferenceId":"76284799","Spot":0.32,"SideOfStreet":"neither","CountryId":"20110484","StateId":"20126201","CountyId":"20245944","CityId":"20246118"}}},{"Relevance":1.0,"Distance":6.9,"MatchLevel":"street","MatchQuality":{"Country":1.0,"State":1.0,"County":1.0,"City":1.0,"District":1.0,"Street":[1.0],"PostalCode":1.0},"Location":{"LocationId":"NT_rwCBO1-TF-ScOhMUGRFsJD_l_76284800_R","LocationType":"point","DisplayPosition":{"Latitude":38.151,"Longitude":13.37131},"MapView":{"TopLeft":{"Latitude":38.151,"Longitude":13.37125},"BottomRight":{"Latitude":38.15024,"Longitude":13.37131}},"Address":{"Label":"Via Cardinale Guglielmo Massaia, 90142 Palermo PA, Italia","Country":"ITA","State":"Sicilia","County":"PA","City":"Palermo","District":"Arenella-Vergine Maria","Street":"Via Cardinale Guglielmo Massaia","PostalCode":"90142","AdditionalData":[{"value":"Italia","key":"CountryName"},{"value":"Sicilia","key":"StateName"},{"value":"Palermo","key":"CountyName"}]},"MapReference":{"ReferenceId":"76284800","Spot":1.0,"SideOfStreet":"right","CountryId":"20110484","StateId":"20126201","CountyId":"20245944","CityId":"20246118"}}},{"Relevance":1.0,"Distance":14.5,"MatchLevel":"street","MatchQuality":{"Country":1.0,"State":1.0,"County":1.0,"City":1.0,"District":1.0,"Street":[1.0],"PostalCode":1.0},"Location":{"LocationId":"NT_iA2uWhCTeY-F59nmPyxjdD_l_76284829_R","LocationType":"point","DisplayPosition":{"Latitude":38.15119,"Longitude":13.3713},"MapView":{"TopLeft":{"Latitude":38.15119,"Longitude":13.37072},"BottomRight":{"Latitude":38.15119,"Longitude":13.3713}},"Address":{"Label":"Via Papa Pio XII, 90142 Palermo PA, Italia","Country":"ITA","State":"Sicilia","County":"PA","City":"Palermo","District":"Arenella-Vergine Maria","Street":"Via Papa Pio XII","PostalCode":"90142","AdditionalData":[{"value":"Italia","key":"CountryName"},{"value":"Sicilia","key":"StateName"},{"value":"Palermo","key":"CountyName"}]},"MapReference":{"ReferenceId":"76284829","Spot":1.0,"SideOfStreet":"right","CountryId":"20110484","StateId":"20126201","CountyId":"20245944","CityId":"20246118"}}},{"Relevance":1.0,"Distance":27.4,"MatchLevel":"houseNumber","MatchQuality":{"Country":1.0,"State":1.0,"County":1.0,"City":1.0,"District":1.0,"Street":[1.0],"HouseNumber":1.0,"PostalCode":1.0},"MatchType":"interpolated","Location":{"LocationId":"NT_crANIurWTEp4ZCwXaUkmVD_yA","LocationType":"point","DisplayPosition":{"Latitude":38.15099,"Longitude":13.37101},"MapView":{"TopLeft":{"Latitude":38.1521142,"Longitude":13.3695805},"BottomRight":{"Latitude":38.1498658,"Longitude":13.3724395}},"Address":{"Label":"Via Onofrio Trippodo, 2, 90142 Palermo PA, Italia","Country":"ITA","State":"Sicilia","County":"PA","City":"Palermo","District":"Arenella-Vergine Maria","Street":"Via Onofrio Trippodo","HouseNumber":"2","PostalCode":"90142","AdditionalData":[{"value":"Italia","key":"CountryName"},{"value":"Sicilia","key":"StateName"},{"value":"Palermo","key":"CountyName"}]},"MapReference":{"ReferenceId":"76284830","Spot":0.49,"SideOfStreet":"left","CountryId":"20110484","StateId":"20126201","CountyId":"20245944","CityId":"20246118","AddressId":"710866091","RoadLinkId":"60189830"}}},{"Relevance":1.0,"Distance":32.1,"MatchLevel":"houseNumber","MatchQuality":{"Country":1.0,"State":1.0,"County":1.0,"City":1.0,"District":1.0,"Street":[1.0],"HouseNumber":1.0,"PostalCode":1.0},"MatchType":"interpolated","Location":{"LocationId":"NT_rwCBO1-TF-ScOhMUGRFsJD_zA","LocationType":"point","DisplayPosition":{"Latitude":38.15135,"Longitude":13.37131},"MapView":{"TopLeft":{"Latitude":38.1524742,"Longitude":13.3698805},"BottomRight":{"Latitude":38.1502258,"Longitude":13.3727395}},"Address":{"Label":"Via Cardinale Guglielmo Massaia, 3, 90142 Palermo PA, Italia","Country":"ITA","State":"Sicilia","County":"PA","City":"Palermo","District":"Arenella-Vergine Maria","Street":"Via Cardinale Guglielmo Massaia","HouseNumber":"3","PostalCode":"90142","AdditionalData":[{"value":"Italia","key":"CountryName"},{"value":"Sicilia","key":"StateName"},{"value":"Palermo","key":"CountyName"}]},"MapReference":{"ReferenceId":"76284798","Spot":0.5,"SideOfStreet":"right","CountryId":"20110484","StateId":"20126201","CountyId":"20245944","CityId":"20246118","AddressId":"710866072","RoadLinkId":"59663083"}}},{"Relevance":1.0,"Distance":40.2,"MatchLevel":"houseNumber","MatchQuality":{"Country":1.0,"State":1.0,"County":1.0,"City":1.0,"District":1.0,"Street":[1.0],"HouseNumber":1.0,"PostalCode":1.0},"MatchType":"interpolated","Location":{"LocationId":"NT_QmtpIrUnMbiGpz.Co0vvcB_yEzR","LocationType":"point","DisplayPosition":{"Latitude":38.15118,"Longitude":13.37072},"MapView":{"TopLeft":{"Latitude":38.1523042,"Longitude":13.3692905},"BottomRight":{"Latitude":38.1500558,"Longitude":13.3721495}},"Address":{"Label":"Via Papa Sergio I, 21G, 90142 Palermo PA, Italia","Country":"ITA","State":"Sicilia","County":"PA","City":"Palermo","District":"Arenella-Vergine Maria","Street":"Via Papa Sergio I","HouseNumber":"21G","PostalCode":"90142","AdditionalData":[{"value":"Italia","key":"CountryName"},{"value":"Sicilia","key":"StateName"},{"value":"Palermo","key":"CountyName"}]},"MapReference":{"ReferenceId":"76284855","Spot":0.95,"SideOfStreet":"right","CountryId":"20110484","StateId":"20126201","CountyId":"20245944","CityId":"20246118","AddressId":"672196516","RoadLinkId":"60050320"}}},{"Relevance":1.0,"Distance":42.9,"MatchLevel":"houseNumber","MatchQuality":{"Country":1.0,"State":1.0,"County":1.0,"City":1.0,"District":1.0,"Street":[1.0],"HouseNumber":1.0,"PostalCode":1.0},"MatchType":"interpolated","Location":{"LocationId":"NT_QmtpIrUnMbiGpz.Co0vvcB_yEjR","LocationType":"point","DisplayPosition":{"Latitude":38.15095,"Longitude":13.37072},"MapView":{"TopLeft":{"Latitude":38.1520742,"Longitude":13.3692905},"BottomRight":{"Latitude":38.1498258,"Longitude":13.3721495}},"Address":{"Label":"Via Papa Sergio I, 21F, 90142 Palermo PA, Italia","Country":"ITA","State":"Sicilia","County":"PA","City":"Palermo","District":"Arenella-Vergine Maria","Street":"Via Papa Sergio I","HouseNumber":"21F","PostalCode":"90142","AdditionalData":[{"value":"Italia","key":"CountryName"},{"value":"Sicilia","key":"StateName"},{"value":"Palermo","key":"CountyName"}]},"MapReference":{"ReferenceId":"947564825","Spot":0.81,"SideOfStreet":"right","CountryId":"20110484","StateId":"20126201","CountyId":"20245944","CityId":"20246118","AddressId":"670801266","RoadLinkId":"295208388"}}},{"Relevance":1.0,"Distance":49.3,"MatchLevel":"houseNumber","MatchQuality":{"Country":1.0,"State":1.0,"County":1.0,"City":1.0,"District":1.0,"Street":[1.0],"HouseNumber":1.0,"PostalCode":1.0},"MatchType":"interpolated","Location":{"LocationId":"NT_CksaYwV7LYEXyAWpy7e0vA_xA","LocationType":"point","DisplayPosition":{"Latitude":38.15152,"Longitude":13.37119},"MapView":{"TopLeft":{"Latitude":38.1526442,"Longitude":13.3697605},"BottomRight":{"Latitude":38.1503958,"Longitude":13.3726195}},"Address":{"Label":"Piazza delle Galline, 1, 90142 Palermo PA, Italia","Country":"ITA","State":"Sicilia","County":"PA","City":"Palermo","District":"Arenella-Vergine Maria","Street":"Piazza delle Galline","HouseNumber":"1","PostalCode":"90142","AdditionalData":[{"value":"Italia","key":"CountryName"},{"value":"Sicilia","key":"StateName"},{"value":"Palermo","key":"CountyName"}]},"MapReference":{"ReferenceId":"76292160","Spot":0.26,"SideOfStreet":"left","CountryId":"20110484","StateId":"20126201","CountyId":"20245944","CityId":"20246118","AddressId":"672157609","RoadLinkId":"60094143"}}}]}]}}