{"Response":{"MetaInfo":{"Timestamp":"2020-03-28T11:26:28.116+0000","NextPageInformation":"2"},"View":[{"_type":"SearchResultsViewType","ViewId":0,"Result":[{"Relevance":1.0,"Distance":-5116.8,"MatchLevel":"landmark","MatchQuality":{"Country":1.0,"State":1.0,"Name":1.0},"Location":{"LocationId":"NT_WbRHZaUNmJdoEGyLvAjbjA","LocationType":"island","Name":"Sicilia","DisplayPosition":{"Latitude":37.4742,"Longitude":14.13844},"MapView":{"TopLeft":{"Latitude":38.30149,"Longitude":12.42414},"BottomRight":{"Latitude":36.6469,"Longitude":15.65312}},"Address":{"Label":"Italia","Country":"ITA","State":"Sicilia","AdditionalData":[{"value":"Italia","key":"CountryName"},{"value":"Sicilia","key":"StateName"}]},"MapReference":{"CountryId":"20110484","StateId":"20126201","PlaceId":"82846424"}}},{"Relevance":1.0,"Distance":0.0,"Direction":0.0,"MatchLevel":"district","MatchQuality":{"Country":1.0,"State":1.0,"County":1.0,"City":1.0,"District":1.0,"PostalCode":1.0},"Location":{"LocationId":"NT_2dn.cE41UQCGquRN1tXcFB","LocationType":"point","DisplayPosition":{"Latitude":38.1534417,"Longitude":13.3150601},"MapView":{"TopLeft":{"Latitude":38.15858,"Longitude":13.24771},"BottomRight":{"Latitude":38.12486,"Longitude":13.33128}},"Address":{"Label":"Cruillas-C.E.P., Palermo, Sicilia, Italia","Country":"ITA","State":"Sicilia","County":"PA","City":"Palermo","District":"Cruillas-C.E.P.","PostalCode":"90146","AdditionalData":[{"value":"Italia","key":"CountryName"},{"value":"Sicilia","key":"StateName"},{"value":"Palermo","key":"CountyName"}]},"MapReference":{"ReferenceId":"831850019","SideOfStreet":"neither","CountryId":"20110484","StateId":"20126201","CountyId":"20245944","CityId":"20246118"}}},{"Relevance":1.0,"Distance":9.1,"MatchLevel":"houseNumber","MatchQuality":{"Country":1.0,"State":1.0,"County":1.0,"City":1.0,"District":1.0,"Street":[1.0],"HouseNumber":1.0,"PostalCode":1.0},"MatchType":"interpolated","Location":{"LocationId":"NT_p8weSSSYzeqKzP6.xE4VlD_l_591669216_L_xgDM","LocationType":"point","DisplayPosition":{"Latitude":38.15336,"Longitude":13.3150514},"MapView":{"TopLeft":{"Latitude":38.1544842,"Longitude":13.3136219},"BottomRight":{"Latitude":38.1522358,"Longitude":13.316481}},"Address":{"Label":"Via Trabucco, 180, 90146 Palermo PA, Italia","Country":"ITA","State":"Sicilia","County":"PA","City":"Palermo","District":"Cruillas-C.E.P.","Street":"Via Trabucco","HouseNumber":"180","PostalCode":"90146","AdditionalData":[{"value":"Italia","key":"CountryName"},{"value":"Sicilia","key":"StateName"},{"value":"Palermo","key":"CountyName"}]},"MapReference":{"ReferenceId":"591669216","Spot":0.52,"SideOfStreet":"left","CountryId":"20110484","StateId":"20126201","CountyId":"20245944","CityId":"20246118"}}},{"Relevance":1.0,"Distance":12.9,"MatchLevel":"landmark","MatchQuality":{"Country":1.0,"State":1.0,"County":1.0,"City":1.0,"District":1.0,"Street":[1.0],"HouseNumber":1.0,"PostalCode":1.0,"Name":1.0},"Location":{"LocationId":"NT_jN3-RVcBML9R5q0S2WJ0wC_p_-1y6Ja3CJaFG98f9A3pCtB","LocationType":"hospital","Name":"V. Cervello","DisplayPosition":{"Latitude":38.15339,"Longitude":13.31492},"MapView":{"TopLeft":{"Latitude":38.1545142,"Longitude":13.3134904},"BottomRight":{"Latitude":38.1522658,"Longitude":13.3163496}},"Address":{"Label":"Via Trabucco, 180, 90146 Palermo PA, Italia","Country":"ITA","State":"Sicilia","County":"PA","City":"Palermo","District":"Cruillas-C.E.P.","Street":"Via Trabucco","HouseNumber":"180","PostalCode":"90146","AdditionalData":[{"value":"Italia","key":"CountryName"},{"value":"Sicilia","key":"StateName"},{"value":"Palermo","key":"CountyName"}]},"MapReference":{"CountryId":"20110484","StateId":"20126201","CountyId":"20245944","CityId":"20246118","PlaceId":"64225892"}}},{"Relevance":1.0,"Distance":12.9,"MatchLevel":"street","MatchQuality":{"Country":1.0,"State":1.0,"County":1.0,"City":1.0,"District":1.0,"Street":[1.0],"PostalCode":1.0},"Location":{"LocationId":"NT_p8weSSSYzeqKzP6.xE4VlD_l_591669217_R","LocationType":"point","DisplayPosition":{"Latitude":38.1535078,"Longitude":13.3149388},"MapView":{"TopLeft":{"Latitude":38.15511,"Longitude":13.31409},"BottomRight":{"Latitude":38.1534,"Longitude":13.31495}},"Address":{"Label":"Via Trabucco, 90146 Palermo PA, Italia","Country":"ITA","State":"Sicilia","County":"PA","City":"Palermo","District":"Cruillas-C.E.P.","Street":"Via Trabucco","PostalCode":"90146","AdditionalData":[{"value":"Italia","key":"CountryName"},{"value":"Sicilia","key":"StateName"},{"value":"Palermo","key":"CountyName"}]},"MapReference":{"ReferenceId":"591669217","Spot":0.06,"SideOfStreet":"right","CountryId":"20110484","StateId":"20126201","CountyId":"20245944","CityId":"20246118"}}},{"Relevance":1.0,"Distance":16.4,"MatchLevel":"street","MatchQuality":{"Country":1.0,"State":1.0,"County":1.0,"City":1.0,"District":1.0,"PostalCode":1.0},"Location":{"LocationId":"NT_Jjbnqd6-ATv59yYXEVhwPC_l_76284091_R","LocationType":"point","DisplayPosition":{"Latitude":38.1534,"Longitude":13.31488},"MapView":{"TopLeft":{"Latitude":38.15362,"Longitude":13.31387},"BottomRight":{"Latitude":38.1534,"Longitude":13.31488}},"Address":{"Label":"90146 Palermo PA, Italia","Country":"ITA","State":"Sicilia","County":"PA","City":"Palermo","District":"Cruillas-C.E.P.","PostalCode":"90146","AdditionalData":[{"value":"Italia","key":"CountryName"},{"value":"Sicilia","key":"StateName"},{"value":"Palermo","key":"CountyName"}]},"MapReference":{"ReferenceId":"76284091","Spot":0.0,"SideOfStreet":"right","CountryId":"20110484","StateId":"20126201","CountyId":"20245944","CityId":"20246118"}}},{"Relevance":1.0,"Distance":28.9,"MatchLevel":"houseNumber","MatchQuality":{"Country":1.0,"State":1.0,"County":1.0,"City":1.0,"District":1.0,"Street":[1.0],"HouseNumber":1.0,"PostalCode":1.0},"MatchType":"interpolated","Location":{"LocationId":"NT_p8weSSSYzeqKzP6.xE4VlD_xgDMBB","LocationType":"point","DisplayPosition":{"Latitude":38.15322,"Longitude":13.31527},"MapView":{"TopLeft":{"Latitude":38.1543442,"Longitude":13.3138404},"BottomRight":{"Latitude":38.1520958,"Longitude":13.3166996}},"Address":{"Label":"Via Trabucco, 180A, 90146 Palermo PA, Italia","Country":"ITA","State":"Sicilia","County":"PA","City":"Palermo","District":"Cruillas-C.E.P.","Street":"Via Trabucco","HouseNumber":"180A","PostalCode":"90146","AdditionalData":[{"value":"Italia","key":"CountryName"},{"value":"Sicilia","key":"StateName"},{"value":"Palermo","key":"CountyName"}]},"MapReference":{"ReferenceId":"1254031687","Spot":0.73,"SideOfStreet":"left","CountryId":"20110484","StateId":"20126201","CountyId":"20245944","CityId":"20246118","AddressId":"710815011","RoadLinkId":"577234060"}}},{"Relevance":1.0,"Distance":33.3,"MatchLevel":"houseNumber","MatchQuality":{"Country":1.0,"State":1.0,"County":1.0,"City":1.0,"District":1.0,"Street":[1.0],"HouseNumber":1.0,"PostalCode":1.0},"MatchType":"interpolated","Location":{"LocationId":"NT_p8weSSSYzeqKzP6.xE4VlD_xgjM","LocationType":"point","DisplayPosition":{"Latitude":38.15364,"Longitude":13.31534},"MapView":{"TopLeft":{"Latitude":38.1547642,"Longitude":13.3139104},"BottomRight":{"Latitude":38.1525158,"Longitude":13.3167696}},"Address":{"Label":"Via Trabucco, 182, 90146 Palermo PA, Italia","Country":"ITA","State":"Sicilia","County":"PA","City":"Palermo","District":"Cruillas-C.E.P.","Street":"Via Trabucco","HouseNumber":"182","PostalCode":"90146","AdditionalData":[{"value":"Italia","key":"CountryName"},{"value":"Sicilia","key":"StateName"},{"value":"Palermo","key":"CountyName"}]},"MapReference":{"ReferenceId":"1092467927","Spot":0.55,"SideOfStreet":"left","CountryId":"20110484","StateId":"20126201","CountyId":"20245944","CityId":"20246118","AddressId":"710340385","RoadLinkId":"407372543"}}},{"Relevance":1.0,"Distance":51.3,"MatchLevel":"street","MatchQuality":{"Country":1.0,"State":1.0,"County":1.0,"City":1.0,"District":1.0,"PostalCode":1.0},"Location":{"LocationId":"NT_Jjbnqd6-ATv59yYXEVhwPC_l_1254031688_R","LocationType":"point","DisplayPosition":{"Latitude":38.1529868,"Longitude":13.3149611},"MapView":{"TopLeft":{"Latitude":38.15327,"Longitude":13.31366},"BottomRight":{"Latitude":38.1529,"Longitude":13.31536}},"Address":{"Label":"90146 Palermo PA, Italia","Country":"ITA","State":"Sicilia","County":"PA","City":"Palermo","District":"Cruillas-C.E.P.","PostalCode":"90146","AdditionalData":[{"value":"Italia","key":"CountryName"},{"value":"Sicilia","key":"StateName"},{"value":"Palermo","key":"CountyName"}]},"MapReference":{"ReferenceId":"1254031688","Spot":0.23,"SideOfStreet":"right","CountryId":"20110484","StateId":"20126201","CountyId":"20245944","CityId":"20246118"}}},{"Relevance":1.0,"Distance":56.6,"MatchLevel":"houseNumber","MatchQuality":{"Country":1.0,"State":1.0,"County":1.0,"City":1.0,"District":1.0,"Street":[1.0],"HouseNumber":1.0,"PostalCode":1.0},"MatchType":"interpolated","Location":{"LocationId":"NT_p8weSSSYzeqKzP6.xE4VlD_xgDN","LocationType":"point","DisplayPosition":{"Latitude":38.1538,"Longitude":13.31559},"MapView":{"TopLeft":{"Latitude":38.1549242,"Longitude":13.3141604},"BottomRight":{"Latitude":38.1526758,"Longitude":13.3170196}},"Address":{"Label":"Via Trabucco, 184, 90146 Palermo PA, Italia","Country":"ITA","State":"Sicilia","County":"PA","City":"Palermo","District":"Cruillas-C.E.P.","Street":"Via Trabucco","HouseNumber":"184","PostalCode":"90146","AdditionalData":[{"value":"Italia","key":"CountryName"},{"value":"Sicilia","key":"StateName"},{"value":"Palermo","key":"CountyName"}]},"MapReference":{"ReferenceId":"1092467928","Spot":0.0,"SideOfStreet":"left","CountryId":"20110484","StateId":"20126201","CountyId":"20245944","CityId":"20246118","AddressId":"710341240","RoadLinkId":"407372544"}}}]}]}}