{"Response":{"MetaInfo":{"Timestamp":"2020-03-28T09:39:35.998+0000","NextPageInformation":"2"},"View":[{"_type":"SearchResultsViewType","ViewId":0,"Result":[{"Relevance":1.0,"Distance":0.0,"Direction":0.0,"MatchLevel":"city","MatchQuality":{"Country":1.0,"State":1.0,"County":1.0,"City":1.0,"PostalCode":1.0},"Location":{"LocationId":"NT_o1krl2soFcXOinozpwJvUD","LocationType":"point","DisplayPosition":{"Latitude":38.2534775,"Longitude":-3.2021327},"MapView":{"TopLeft":{"Latitude":38.48186,"Longitude":-3.38063},"BottomRight":{"Latitude":38.13293,"Longitude":-3.13745}},"Address":{"Label":"Santisteban del Puerto, Andalucía, España","Country":"ESP","State":"Andalucía","County":"Jaén","City":"Santisteban del Puerto","PostalCode":"23250","AdditionalData":[{"value":"España","key":"CountryName"},{"value":"Andalucía","key":"StateName"},{"value":"Jaén","key":"CountyName"}]},"MapReference":{"ReferenceId":"1056811107","SideOfStreet":"neither","CountryId":"20215059","StateId":"20221885","CountyId":"20221891","CityId":"20235687"}}},{"Relevance":1.0,"Distance":14.1,"MatchLevel":"houseNumber","MatchQuality":{"Country":1.0,"State":1.0,"County":1.0,"City":1.0,"Street":[1.0],"HouseNumber":1.0,"PostalCode":1.0},"MatchType":"interpolated","Location":{"LocationId":"NT_sdf.fyGLAv28bBsXD2zeDC_ycD","LocationType":"point","DisplayPosition":{"Latitude":38.25353,"Longitude":-3.20228},"MapView":{"TopLeft":{"Latitude":38.2546542,"Longitude":-3.2037115},"BottomRight":{"Latitude":38.2524058,"Longitude":-3.2008485}},"Address":{"Label":"Calle Alcalde Medina Berzosa, 27, 23250 Santisteban del Puerto (Jaén), España","Country":"ESP","State":"Andalucía","County":"Jaén","City":"Santisteban del Puerto","Street":"Calle Alcalde Medina Berzosa","HouseNumber":"27","PostalCode":"23250","AdditionalData":[{"value":"España","key":"CountryName"},{"value":"Andalucía","key":"StateName"},{"value":"Jaén","key":"CountyName"}]},"MapReference":{"ReferenceId":"559989357","Spot":0.51,"SideOfStreet":"left","CountryId":"20215059","StateId":"20221885","CountyId":"20221891","CityId":"20235687","AddressId":"745899486","RoadLinkId":"66847902"}}},{"Relevance":1.0,"Distance":18.2,"MatchLevel":"street","MatchQuality":{"Country":1.0,"State":1.0,"County":1.0,"City":1.0,"Street":[1.0],"PostalCode":1.0},"Location":{"LocationId":"NT_sdf.fyGLAv28bBsXD2zeDC_l_559989377_R","LocationType":"point","DisplayPosition":{"Latitude":38.25364,"Longitude":-3.20211},"MapView":{"TopLeft":{"Latitude":38.25412,"Longitude":-3.20211},"BottomRight":{"Latitude":38.25364,"Longitude":-3.20142}},"Address":{"Label":"Calle Alcalde Medina Berzosa, 23250 Santisteban del Puerto (Jaén), España","Country":"ESP","State":"Andalucía","County":"Jaén","City":"Santisteban del Puerto","Street":"Calle Alcalde Medina Berzosa","PostalCode":"23250","AdditionalData":[{"value":"España","key":"CountryName"},{"value":"Andalucía","key":"StateName"},{"value":"Jaén","key":"CountyName"}]},"MapReference":{"ReferenceId":"559989377","Spot":0.0,"SideOfStreet":"right","CountryId":"20215059","StateId":"20221885","CountyId":"20221891","CityId":"20235687"}}},{"Relevance":1.0,"Distance":20.3,"MatchLevel":"houseNumber","MatchQuality":{"Country":1.0,"State":1.0,"County":1.0,"City":1.0,"Street":[1.0],"HouseNumber":1.0,"PostalCode":1.0},"MatchType":"interpolated","Location":{"LocationId":"NT_cTqHocAEocGysHd3.Sp.9B_xA","LocationType":"point","DisplayPosition":{"Latitude":38.25348,"Longitude":-3.2019},"MapView":{"TopLeft":{"Latitude":38.2546042,"Longitude":-3.2033315},"BottomRight":{"Latitude":38.2523558,"Longitude":-3.2004685}},"Address":{"Label":"Calle del Condado, 1, 23250 Santisteban del Puerto (Jaén), España","Country":"ESP","State":"Andalucía","County":"Jaén","City":"Santisteban del Puerto","Street":"Calle del Condado","HouseNumber":"1","PostalCode":"23250","AdditionalData":[{"value":"España","key":"CountryName"},{"value":"Andalucía","key":"StateName"},{"value":"Jaén","key":"CountyName"}]},"MapReference":{"ReferenceId":"559989324","Spot":0.72,"SideOfStreet":"right","CountryId":"20215059","StateId":"20221885","CountyId":"20221891","CityId":"20235687","AddressId":"789075124","RoadLinkId":"66891125"}}},{"Relevance":1.0,"Distance":25.0,"MatchLevel":"houseNumber","MatchQuality":{"Country":1.0,"State":1.0,"County":1.0,"City":1.0,"Street":[1.0],"HouseNumber":1.0,"PostalCode":1.0},"MatchType":"interpolated","Location":{"LocationId":"NT_qXZEThzaFtJNO45cbbhN5A_5A","LocationType":"point","DisplayPosition":{"Latitude":38.25328,"Longitude":-3.20227},"MapView":{"TopLeft":{"Latitude":38.2544042,"Longitude":-3.2037015},"BottomRight":{"Latitude":38.2521558,"Longitude":-3.2008385}},"Address":{"Label":"Calle Doctor Frías, 9, 23250 Santisteban del Puerto (Jaén), España","Country":"ESP","State":"Andalucía","County":"Jaén","City":"Santisteban del Puerto","Street":"Calle Doctor Frías","HouseNumber":"9","PostalCode":"23250","AdditionalData":[{"value":"España","key":"CountryName"},{"value":"Andalucía","key":"StateName"},{"value":"Jaén","key":"CountyName"}]},"MapReference":{"ReferenceId":"559989359","Spot":0.51,"SideOfStreet":"left","CountryId":"20215059","StateId":"20221885","CountyId":"20221891","CityId":"20235687","AddressId":"404926336","RoadLinkId":"66980892"}}},{"Relevance":1.0,"Distance":36.2,"MatchLevel":"houseNumber","MatchQuality":{"Country":1.0,"State":1.0,"County":1.0,"City":1.0,"Street":[1.0],"HouseNumber":1.0,"PostalCode":1.0},"MatchType":"interpolated","Location":{"LocationId":"NT_sdf.fyGLAv28bBsXD2zeDC_yID","LocationType":"point","DisplayPosition":{"Latitude":38.25336,"Longitude":-3.20255},"MapView":{"TopLeft":{"Latitude":38.2544842,"Longitude":-3.2039815},"BottomRight":{"Latitude":38.2522358,"Longitude":-3.2011185}},"Address":{"Label":"Calle Alcalde Medina Berzosa, 22, 23250 Santisteban del Puerto (Jaén), España","Country":"ESP","State":"Andalucía","County":"Jaén","City":"Santisteban del Puerto","Street":"Calle Alcalde Medina Berzosa","HouseNumber":"22","PostalCode":"23250","AdditionalData":[{"value":"España","key":"CountryName"},{"value":"Andalucía","key":"StateName"},{"value":"Jaén","key":"CountyName"}]},"MapReference":{"ReferenceId":"559989376","Spot":0.81,"SideOfStreet":"right","CountryId":"20215059","StateId":"20221885","CountyId":"20221891","CityId":"20235687","AddressId":"404942371","RoadLinkId":"66695305"}}},{"Relevance":1.0,"Distance":44.2,"MatchLevel":"houseNumber","MatchQuality":{"Country":1.0,"State":1.0,"County":1.0,"City":1.0,"Street":[1.0],"HouseNumber":1.0,"PostalCode":1.0},"MatchType":"interpolated","Location":{"LocationId":"NT_qXZEThzaFtJNO45cbbhN5A_yIE","LocationType":"point","DisplayPosition":{"Latitude":38.25309,"Longitude":-3.20202},"MapView":{"TopLeft":{"Latitude":38.2542142,"Longitude":-3.2034515},"BottomRight":{"Latitude":38.2519658,"Longitude":-3.2005885}},"Address":{"Label":"Calle Doctor Frías, 2B, 23250 Santisteban del Puerto (Jaén), España","Country":"ESP","State":"Andalucía","County":"Jaén","City":"Santisteban del Puerto","Street":"Calle Doctor Frías","HouseNumber":"2B","PostalCode":"23250","AdditionalData":[{"value":"España","key":"CountryName"},{"value":"Andalucía","key":"StateName"},{"value":"Jaén","key":"CountyName"}]},"MapReference":{"ReferenceId":"559989345","Spot":0.91,"SideOfStreet":"left","CountryId":"20215059","StateId":"20221885","CountyId":"20221891","CityId":"20235687","AddressId":"404877842","RoadLinkId":"67073980"}}},{"Relevance":1.0,"Distance":48.2,"MatchLevel":"houseNumber","MatchQuality":{"Country":1.0,"State":1.0,"County":1.0,"City":1.0,"Street":[1.0],"HouseNumber":1.0,"PostalCode":1.0},"MatchType":"interpolated","Location":{"LocationId":"NT_DOdbNmVXXPCDoreXkttKHB_1UD","LocationType":"point","DisplayPosition":{"Latitude":38.25301,"Longitude":-3.20222},"MapView":{"TopLeft":{"Latitude":38.2541342,"Longitude":-3.2036515},"BottomRight":{"Latitude":38.2518858,"Longitude":-3.2007885}},"Address":{"Label":"Calle Mariano Sanjuán, 55, 23250 Santisteban del Puerto (Jaén), España","Country":"ESP","State":"Andalucía","County":"Jaén","City":"Santisteban del Puerto","Street":"Calle Mariano Sanjuán","HouseNumber":"55","PostalCode":"23250","AdditionalData":[{"value":"España","key":"CountryName"},{"value":"Andalucía","key":"StateName"},{"value":"Jaén","key":"CountyName"}]},"MapReference":{"ReferenceId":"559989368","Spot":0.68,"SideOfStreet":"left","CountryId":"20215059","StateId":"20221885","CountyId":"20221891","CityId":"20235687","AddressId":"404611488","RoadLinkId":"67546068"}}},{"Relevance":1.0,"Distance":48.3,"MatchLevel":"houseNumber","MatchQuality":{"Country":1.0,"State":1.0,"County":1.0,"City":1.0,"Street":[1.0],"HouseNumber":1.0,"PostalCode":1.0},"MatchType":"interpolated","Location":{"LocationId":"NT_qXZEThzaFtJNO45cbbhN5A_xUD","LocationType":"point","DisplayPosition":{"Latitude":38.25358,"Longitude":-3.20267},"MapView":{"TopLeft":{"Latitude":38.2547042,"Longitude":-3.2041015},"BottomRight":{"Latitude":38.2524558,"Longitude":-3.2012385}},"Address":{"Label":"Calle Doctor Frías, 15, 23250 Santisteban del Puerto (Jaén), España","Country":"ESP","State":"Andalucía","County":"Jaén","City":"Santisteban del Puerto","Street":"Calle Doctor Frías","HouseNumber":"15","PostalCode":"23250","AdditionalData":[{"value":"España","key":"CountryName"},{"value":"Andalucía","key":"StateName"},{"value":"Jaén","key":"CountyName"}]},"MapReference":{"ReferenceId":"559989360","Spot":0.37,"SideOfStreet":"left","CountryId":"20215059","StateId":"20221885","CountyId":"20221891","CityId":"20235687","AddressId":"404885009","RoadLinkId":"67063470"}}},{"Relevance":1.0,"Distance":74.5,"MatchLevel":"houseNumber","MatchQuality":{"Country":1.0,"State":1.0,"County":1.0,"City":1.0,"Street":[1.0],"HouseNumber":1.0,"PostalCode":1.0},"MatchType":"interpolated","Location":{"LocationId":"NT_jRIuIxTNmP8w1EV4Th6nfA_xYD","LocationType":"point","DisplayPosition":{"Latitude":38.25294,"Longitude":-3.20273},"MapView":{"TopLeft":{"Latitude":38.2540642,"Longitude":-3.2041615},"BottomRight":{"Latitude":38.2518158,"Longitude":-3.2012985}},"Address":{"Label":"Calle Alfonso X el Sabio, 16, 23250 Santisteban del Puerto (Jaén), España","Country":"ESP","State":"Andalucía","County":"Jaén","City":"Santisteban del Puerto","Street":"Calle Alfonso X el Sabio","HouseNumber":"16","PostalCode":"23250","AdditionalData":[{"value":"España","key":"CountryName"},{"value":"Andalucía","key":"StateName"},{"value":"Jaén","key":"CountyName"}]},"MapReference":{"ReferenceId":"559989373","Spot":0.49,"SideOfStreet":"right","CountryId":"20215059","StateId":"20221885","CountyId":"20221891","CityId":"20235687","AddressId":"404879168","RoadLinkId":"66798829"}}}]}]}}