{"Response":{"MetaInfo":{"Timestamp":"2020-03-28T09:39:23.641+0000","NextPageInformation":"2"},"View":[{"_type":"SearchResultsViewType","ViewId":0,"Result":[{"Relevance":1.0,"Distance":0.0,"Direction":0.0,"MatchLevel":"district","MatchQuality":{"Country":1.0,"State":1.0,"County":1.0,"City":1.0,"District":1.0,"PostalCode":1.0},"Location":{"LocationId":"NT_qhhju9L-gmwL1zfu5VynuC","LocationType":"point","DisplayPosition":{"Latitude":38.2686509,"Longitude":-0.7063047},"MapView":{"TopLeft":{"Latitude":38.27136,"Longitude":-0.71257},"BottomRight":{"Latitude":38.26419,"Longitude":-0.69938}},"Address":{"Label":"Puente Nuevo, Elche, Comunidad Valenciana, España","Country":"ESP","State":"Comunidad Valenciana","County":"Alicante","City":"Elche","District":"Puente Nuevo","PostalCode":"03201","AdditionalData":[{"value":"España","key":"CountryName"},{"value":"Comunidad Valenciana","key":"StateName"},{"value":"Alicante","key":"CountyName"}]},"MapReference":{"ReferenceId":"539624737","SideOfStreet":"neither","CountryId":"20215059","StateId":"20226784","CountyId":"20226785","CityId":"20249184"}}},{"Relevance":1.0,"Distance":21.9,"MatchLevel":"houseNumber","MatchQuality":{"Country":1.0,"State":1.0,"County":1.0,"City":1.0,"District":1.0,"Street":[1.0],"HouseNumber":1.0,"PostalCode":1.0},"MatchType":"interpolated","Location":{"LocationId":"NT_LwybAMBIimHU4dj-liL0AC_0QD","LocationType":"point","DisplayPosition":{"Latitude":38.26842,"Longitude":-0.70649},"MapView":{"TopLeft":{"Latitude":38.2695442,"Longitude":-0.7079218},"BottomRight":{"Latitude":38.2672958,"Longitude":-0.7050582}},"Address":{"Label":"Calle Jorge Juan, 44, 03201 Elche (Alicante), España","Country":"ESP","State":"Comunidad Valenciana","County":"Alicante","City":"Elche","District":"Puente Nuevo","Street":"Calle Jorge Juan","HouseNumber":"44","PostalCode":"03201","AdditionalData":[{"value":"España","key":"CountryName"},{"value":"Comunidad Valenciana","key":"StateName"},{"value":"Alicante","key":"CountyName"}]},"MapReference":{"ReferenceId":"539624549","Spot":0.31,"SideOfStreet":"right","CountryId":"20215059","StateId":"20226784","CountyId":"20226785","CityId":"20249184","AddressId":"269320758","RoadLinkId":"389669009"}}},{"Relevance":1.0,"Distance":23.3,"MatchLevel":"houseNumber","MatchQuality":{"Country":1.0,"State":1.0,"County":1.0,"City":1.0,"District":1.0,"Street":[1.0],"HouseNumber":1.0,"PostalCode":1.0},"MatchType":"interpolated","Location":{"LocationId":"NT_19wNO4-J.MaJWFse2gRj7D_2UD","LocationType":"point","DisplayPosition":{"Latitude":38.26887,"Longitude":-0.70621},"MapView":{"TopLeft":{"Latitude":38.2699942,"Longitude":-0.7076418},"BottomRight":{"Latitude":38.2677458,"Longitude":-0.7047782}},"Address":{"Label":"Calle Óscar Esplá, 65, 03201 Elche (Alicante), España","Country":"ESP","State":"Comunidad Valenciana","County":"Alicante","City":"Elche","District":"Puente Nuevo","Street":"Calle Óscar Esplá","HouseNumber":"65","PostalCode":"03201","AdditionalData":[{"value":"España","key":"CountryName"},{"value":"Comunidad Valenciana","key":"StateName"},{"value":"Alicante","key":"CountyName"}]},"MapReference":{"ReferenceId":"539624467","Spot":0.55,"SideOfStreet":"left","CountryId":"20215059","StateId":"20226784","CountyId":"20226785","CityId":"20249184","AddressId":"269391653","RoadLinkId":"389672163"}}},{"Relevance":1.0,"Distance":41.6,"MatchLevel":"houseNumber","MatchQuality":{"Country":1.0,"State":1.0,"County":1.0,"City":1.0,"District":1.0,"Street":[1.0],"HouseNumber":1.0,"PostalCode":1.0},"MatchType":"interpolated","Location":{"LocationId":"NT_f-IEAfKH4kOa9NdoYwt72D_l_539624478_R_0cD","LocationType":"point","DisplayPosition":{"Latitude":38.2688684,"Longitude":-0.7068338},"MapView":{"TopLeft":{"Latitude":38.2699926,"Longitude":-0.7082657},"BottomRight":{"Latitude":38.2677442,"Longitude":-0.705402}},"Address":{"Label":"Avenida Libertad, 47, 03201 Elche (Alicante), España","Country":"ESP","State":"Comunidad Valenciana","County":"Alicante","City":"Elche","District":"Puente Nuevo","Street":"Avenida Libertad","HouseNumber":"47","PostalCode":"03201","AdditionalData":[{"value":"España","key":"CountryName"},{"value":"Comunidad Valenciana","key":"StateName"},{"value":"Alicante","key":"CountyName"}]},"MapReference":{"ReferenceId":"539624478","Spot":0.53,"SideOfStreet":"right","CountryId":"20215059","StateId":"20226784","CountyId":"20226785","CityId":"20249184"}}},{"Relevance":1.0,"Distance":43.3,"MatchLevel":"houseNumber","MatchQuality":{"Country":1.0,"State":1.0,"County":1.0,"City":1.0,"District":1.0,"Street":[1.0],"HouseNumber":1.0,"PostalCode":1.0},"MatchType":"interpolated","Location":{"LocationId":"NT_LwybAMBIimHU4dj-liL0AC_zgD","LocationType":"point","DisplayPosition":{"Latitude":38.2682,"Longitude":-0.70624},"MapView":{"TopLeft":{"Latitude":38.2693242,"Longitude":-0.7076718},"BottomRight":{"Latitude":38.2670758,"Longitude":-0.7048082}},"Address":{"Label":"Calle Jorge Juan, 38, 03201 Elche (Alicante), España","Country":"ESP","State":"Comunidad Valenciana","County":"Alicante","City":"Elche","District":"Puente Nuevo","Street":"Calle Jorge Juan","HouseNumber":"38","PostalCode":"03201","AdditionalData":[{"value":"España","key":"CountryName"},{"value":"Comunidad Valenciana","key":"StateName"},{"value":"Alicante","key":"CountyName"}]},"MapReference":{"ReferenceId":"539624597","Spot":0.77,"SideOfStreet":"right","CountryId":"20215059","StateId":"20226784","CountyId":"20226785","CityId":"20249184","AddressId":"269528870","RoadLinkId":"65773604"}}},{"Relevance":1.0,"Distance":46.8,"MatchLevel":"street","MatchQuality":{"Country":1.0,"State":1.0,"County":1.0,"City":1.0,"District":1.0,"Street":[1.0],"PostalCode":1.0},"Location":{"LocationId":"NT_f-IEAfKH4kOa9NdoYwt72D_l_539624461_R","LocationType":"point","DisplayPosition":{"Latitude":38.2690409,"Longitude":-0.7065069},"MapView":{"TopLeft":{"Latitude":38.26906,"Longitude":-0.70674},"BottomRight":{"Latitude":38.26892,"Longitude":-0.70647}},"Address":{"Label":"Avenida Libertad, 03201 Elche (Alicante), España","Country":"ESP","State":"Comunidad Valenciana","County":"Alicante","City":"Elche","District":"Puente Nuevo","Street":"Avenida Libertad","PostalCode":"03201","AdditionalData":[{"value":"España","key":"CountryName"},{"value":"Comunidad Valenciana","key":"StateName"},{"value":"Alicante","key":"CountyName"}]},"MapReference":{"ReferenceId":"539624461","Spot":0.86,"SideOfStreet":"right","CountryId":"20215059","StateId":"20226784","CountyId":"20226785","CityId":"20249184"}}},{"Relevance":1.0,"Distance":47.7,"MatchLevel":"street","MatchQuality":{"Country":1.0,"State":1.0,"County":1.0,"City":1.0,"District":1.0,"PostalCode":1.0},"Location":{"LocationId":"NT_HNUelsuxnVSAYHlhwlB9EA_l_851519863_L","LocationType":"point","DisplayPosition":{"Latitude":38.26906,"Longitude":-0.70647},"MapView":{"TopLeft":{"Latitude":38.26913,"Longitude":-0.70671},"BottomRight":{"Latitude":38.26906,"Longitude":-0.70647}},"Address":{"Label":"03201 Elche (Alicante), España","Country":"ESP","State":"Comunidad Valenciana","County":"Alicante","City":"Elche","District":"Puente Nuevo","PostalCode":"03201","AdditionalData":[{"value":"España","key":"CountryName"},{"value":"Comunidad Valenciana","key":"StateName"},{"value":"Alicante","key":"CountyName"}]},"MapReference":{"ReferenceId":"851519863","Spot":0.0,"SideOfStreet":"left","CountryId":"20215059","StateId":"20226784","CountyId":"20226785","CityId":"20249184"}}},{"Relevance":1.0,"Distance":48.4,"MatchLevel":"street","MatchQuality":{"Country":1.0,"State":1.0,"County":1.0,"City":1.0,"District":1.0,"PostalCode":1.0},"Location":{"LocationId":"NT_HNUelsuxnVSAYHlhwlB9EA_l_851518515_L","LocationType":"point","DisplayPosition":{"Latitude":38.26892,"Longitude":-0.70674},"MapView":{"TopLeft":{"Latitude":38.26893,"Longitude":-0.70686},"BottomRight":{"Latitude":38.26892,"Longitude":-0.70674}},"Address":{"Label":"03201 Elche (Alicante), España","Country":"ESP","State":"Comunidad Valenciana","County":"Alicante","City":"Elche","District":"Puente Nuevo","PostalCode":"03201","AdditionalData":[{"value":"España","key":"CountryName"},{"value":"Comunidad Valenciana","key":"StateName"},{"value":"Alicante","key":"CountyName"}]},"MapReference":{"ReferenceId":"851518515","Spot":0.0,"SideOfStreet":"left","CountryId":"20215059","StateId":"20226784","CountyId":"20226785","CityId":"20249184"}}},{"Relevance":1.0,"Distance":53.9,"MatchLevel":"houseNumber","MatchQuality":{"Country":1.0,"State":1.0,"County":1.0,"City":1.0,"District":1.0,"Street":[1.0],"HouseNumber":1.0,"PostalCode":1.0},"MatchType":"interpolated","Location":{"LocationId":"NT_drtr.q0hXmfWPnmNxo.VdD_l_539624592_L_xcD","LocationType":"point","DisplayPosition":{"Latitude":38.2681523,"Longitude":-0.7063095},"MapView":{"TopLeft":{"Latitude":38.2692764,"Longitude":-0.7077414},"BottomRight":{"Latitude":38.2670281,"Longitude":-0.7048777}},"Address":{"Label":"Calle Maestro Giner, 17, 03201 Elche (Alicante), España","Country":"ESP","State":"Comunidad Valenciana","County":"Alicante","City":"Elche","District":"Puente Nuevo","Street":"Calle Maestro Giner","HouseNumber":"17","PostalCode":"03201","AdditionalData":[{"value":"España","key":"CountryName"},{"value":"Comunidad Valenciana","key":"StateName"},{"value":"Alicante","key":"CountyName"}]},"MapReference":{"ReferenceId":"539624592","Spot":0.51,"SideOfStreet":"left","CountryId":"20215059","StateId":"20226784","CountyId":"20226785","CityId":"20249184"}}},{"Relevance":1.0,"Distance":57.6,"MatchLevel":"street","MatchQuality":{"Country":1.0,"State":1.0,"County":1.0,"City":1.0,"District":1.0,"PostalCode":1.0},"Location":{"LocationId":"NT_VBD3CNsdtBhMJsv9HwkWBC_l_851518516_L","LocationType":"point","DisplayPosition":{"Latitude":38.26893,"Longitude":-0.70686},"MapView":{"TopLeft":{"Latitude":38.26904,"Longitude":-0.70717},"BottomRight":{"Latitude":38.26893,"Longitude":-0.70686}},"Address":{"Label":"03206 Elche (Alicante), España","Country":"ESP","State":"Comunidad Valenciana","County":"Alicante","City":"Elche","District":"Puente Nuevo","PostalCode":"03206","AdditionalData":[{"value":"España","key":"CountryName"},{"value":"Comunidad Valenciana","key":"StateName"},{"value":"Alicante","key":"CountyName"}]},"MapReference":{"ReferenceId":"851518516","Spot":0.0,"SideOfStreet":"left","CountryId":"20215059","StateId":"20226784","CountyId":"20226785","CityId":"20249184"}}}]}]}}