{"Response":{"MetaInfo":{"Timestamp":"2020-03-28T11:24:29.733+0000","NextPageInformation":"2"},"View":[{"_type":"SearchResultsViewType","ViewId":0,"Result":[{"Relevance":1.0,"Distance":-3593.9,"MatchLevel":"landmark","MatchQuality":{"Country":1.0,"State":1.0,"Name":1.0},"Location":{"LocationId":"NT_WbRHZaUNmJdoEGyLvAjbjA","LocationType":"island","Name":"Sicilia","DisplayPosition":{"Latitude":37.4742,"Longitude":14.13844},"MapView":{"TopLeft":{"Latitude":38.30149,"Longitude":12.42414},"BottomRight":{"Latitude":36.6469,"Longitude":15.65312}},"Address":{"Label":"Italia","Country":"ITA","State":"Sicilia","AdditionalData":[{"value":"Italia","key":"CountryName"},{"value":"Sicilia","key":"StateName"}]},"MapReference":{"CountryId":"20110484","StateId":"20126201","PlaceId":"82846424"}}},{"Relevance":1.0,"Distance":0.0,"Direction":0.0,"MatchLevel":"city","MatchQuality":{"Country":1.0,"State":1.0,"County":1.0,"City":1.0,"PostalCode":1.0},"Location":{"LocationId":"NT_7wWYz..qYVSIQkM8QH.FpC","LocationType":"point","DisplayPosition":{"Latitude":38.2064704,"Longitude":15.5185022},"MapView":{"TopLeft":{"Latitude":38.30149,"Longitude":15.40778},"BottomRight":{"Latitude":38.04921,"Longitude":15.65312}},"Address":{"Label":"Messina, Sicilia, Italia","Country":"ITA","State":"Sicilia","County":"ME","City":"Messina","PostalCode":"98123","AdditionalData":[{"value":"Italia","key":"CountryName"},{"value":"Sicilia","key":"StateName"},{"value":"Messina","key":"CountyName"}]},"MapReference":{"ReferenceId":"79104325","SideOfStreet":"neither","CountryId":"20110484","StateId":"20126201","CountyId":"20246213","CityId":"20246365"}}},{"Relevance":1.0,"Distance":11.0,"MatchLevel":"street","MatchQuality":{"Country":1.0,"State":1.0,"County":1.0,"City":1.0,"Street":[1.0],"PostalCode":1.0},"Location":{"LocationId":"NT_91AU52ot0KMd23-yNPrgYD_l_1113454172_R","LocationType":"point","DisplayPosition":{"Latitude":38.2063727,"Longitude":15.51852},"MapView":{"TopLeft":{"Latitude":38.20645,"Longitude":15.51845},"BottomRight":{"Latitude":38.20536,"Longitude":15.51927}},"Address":{"Label":"Contrada Seniazza, 98152 Messina ME, Italia","Country":"ITA","State":"Sicilia","County":"ME","City":"Messina","Street":"Contrada Seniazza","PostalCode":"98152","AdditionalData":[{"value":"Italia","key":"CountryName"},{"value":"Sicilia","key":"StateName"},{"value":"Messina","key":"CountyName"}]},"MapReference":{"ReferenceId":"1113454172","Spot":0.96,"SideOfStreet":"right","CountryId":"20110484","StateId":"20126201","CountyId":"20246213","CityId":"20246365"}}},{"Relevance":1.0,"Distance":61.0,"MatchLevel":"street","MatchQuality":{"Country":1.0,"State":1.0,"County":1.0,"City":1.0,"Street":[1.0],"PostalCode":1.0},"Location":{"LocationId":"NT_ro6g3YkVT0Z1DLAs2bY9gD_l_1114143654_L","LocationType":"point","DisplayPosition":{"Latitude":38.20701,"Longitude":15.51863},"MapView":{"TopLeft":{"Latitude":38.2074,"Longitude":15.51789},"BottomRight":{"Latitude":38.20689,"Longitude":15.51973}},"Address":{"Label":"Via Palermo, 98152 Messina ME, Italia","Country":"ITA","State":"Sicilia","County":"ME","City":"Messina","Street":"Via Palermo","PostalCode":"98152","AdditionalData":[{"value":"Italia","key":"CountryName"},{"value":"Sicilia","key":"StateName"},{"value":"Messina","key":"CountyName"}]},"MapReference":{"ReferenceId":"1114143654","Spot":0.59,"SideOfStreet":"left","CountryId":"20110484","StateId":"20126201","CountyId":"20246213","CityId":"20246365"}}},{"Relevance":1.0,"Distance":94.3,"MatchLevel":"street","MatchQuality":{"Country":1.0,"State":1.0,"County":1.0,"City":1.0,"Street":[1.0],"PostalCode":1.0},"Location":{"LocationId":"NT_91AU52ot0KMd23-yNPrgYD_l_1114143639_L","LocationType":"point","DisplayPosition":{"Latitude":38.2063,"Longitude":15.51956},"MapView":{"TopLeft":{"Latitude":38.20633,"Longitude":15.51956},"BottomRight":{"Latitude":38.20537,"Longitude":15.5199}},"Address":{"Label":"Contrada Seniazza, 98152 Messina ME, Italia","Country":"ITA","State":"Sicilia","County":"ME","City":"Messina","Street":"Contrada Seniazza","PostalCode":"98152","AdditionalData":[{"value":"Italia","key":"CountryName"},{"value":"Sicilia","key":"StateName"},{"value":"Messina","key":"CountyName"}]},"MapReference":{"ReferenceId":"1114143639","Spot":0.49,"SideOfStreet":"left","CountryId":"20110484","StateId":"20126201","CountyId":"20246213","CityId":"20246365"}}},{"Relevance":1.0,"Distance":108.4,"MatchLevel":"street","MatchQuality":{"Country":1.0,"State":1.0,"County":1.0,"City":1.0,"Street":[1.0],"PostalCode":1.0},"Location":{"LocationId":"NT_91AU52ot0KMd23-yNPrgYD_l_1114143652_L","LocationType":"point","DisplayPosition":{"Latitude":38.2068,"Longitude":15.51967},"MapView":{"TopLeft":{"Latitude":38.20689,"Longitude":15.51967},"BottomRight":{"Latitude":38.20557,"Longitude":15.5201}},"Address":{"Label":"Contrada Seniazza, 98152 Messina ME, Italia","Country":"ITA","State":"Sicilia","County":"ME","City":"Messina","Street":"Contrada Seniazza","PostalCode":"98152","AdditionalData":[{"value":"Italia","key":"CountryName"},{"value":"Sicilia","key":"StateName"},{"value":"Messina","key":"CountyName"}]},"MapReference":{"ReferenceId":"1114143652","Spot":0.92,"SideOfStreet":"left","CountryId":"20110484","StateId":"20126201","CountyId":"20246213","CityId":"20246365"}}},{"Relevance":1.0,"Distance":117.0,"MatchLevel":"street","MatchQuality":{"Country":1.0,"State":1.0,"County":1.0,"City":1.0,"Street":[1.0],"PostalCode":1.0},"Location":{"LocationId":"NT_ro6g3YkVT0Z1DLAs2bY9gD_l_1114143653_L","LocationType":"point","DisplayPosition":{"Latitude":38.20689,"Longitude":15.51973},"MapView":{"TopLeft":{"Latitude":38.20689,"Longitude":15.51973},"BottomRight":{"Latitude":38.20649,"Longitude":15.52022}},"Address":{"Label":"Contrada Seniazza, 98152 Messina ME, Italia","Country":"ITA","State":"Sicilia","County":"ME","City":"Messina","Street":"Contrada Seniazza","PostalCode":"98152","AdditionalData":[{"value":"Italia","key":"CountryName"},{"value":"Sicilia","key":"StateName"},{"value":"Messina","key":"CountyName"}]},"MapReference":{"ReferenceId":"1114143653","Spot":1.0,"SideOfStreet":"left","CountryId":"20110484","StateId":"20126201","CountyId":"20246213","CityId":"20246365"}}},{"Relevance":1.0,"Distance":140.5,"MatchLevel":"street","MatchQuality":{"Country":1.0,"State":1.0,"County":1.0,"City":1.0,"Street":[1.0],"PostalCode":1.0},"Location":{"LocationId":"NT_91AU52ot0KMd23-yNPrgYD_l_1113453829_L","LocationType":"point","DisplayPosition":{"Latitude":38.20536,"Longitude":15.51927},"MapView":{"TopLeft":{"Latitude":38.20557,"Longitude":15.51927},"BottomRight":{"Latitude":38.20509,"Longitude":15.5199}},"Address":{"Label":"Contrada Seniazza, 98152 Messina ME, Italia","Country":"ITA","State":"Sicilia","County":"ME","City":"Messina","Street":"Contrada Seniazza","PostalCode":"98152","AdditionalData":[{"value":"Italia","key":"CountryName"},{"value":"Sicilia","key":"StateName"},{"value":"Messina","key":"CountyName"}]},"MapReference":{"ReferenceId":"1113453829","Spot":0.0,"SideOfStreet":"left","CountryId":"20110484","StateId":"20126201","CountyId":"20246213","CityId":"20246365"}}},{"Relevance":1.0,"Distance":140.5,"MatchLevel":"street","MatchQuality":{"Country":1.0,"State":1.0,"County":1.0,"City":1.0,"Street":[1.0],"PostalCode":1.0},"Location":{"LocationId":"NT_91AU52ot0KMd23-yNPrgYD_l_1113454179_L","LocationType":"point","DisplayPosition":{"Latitude":38.20536,"Longitude":15.51927},"MapView":{"TopLeft":{"Latitude":38.20539,"Longitude":15.51927},"BottomRight":{"Latitude":38.20536,"Longitude":15.51956}},"Address":{"Label":"Contrada Seniazza, 98152 Messina ME, Italia","Country":"ITA","State":"Sicilia","County":"ME","City":"Messina","Street":"Contrada Seniazza","PostalCode":"98152","AdditionalData":[{"value":"Italia","key":"CountryName"},{"value":"Sicilia","key":"StateName"},{"value":"Messina","key":"CountyName"}]},"MapReference":{"ReferenceId":"1113454179","Spot":0.0,"SideOfStreet":"left","CountryId":"20110484","StateId":"20126201","CountyId":"20246213","CityId":"20246365"}}},{"Relevance":1.0,"Distance":150.1,"MatchLevel":"street","MatchQuality":{"Country":1.0,"State":1.0,"County":1.0,"City":1.0,"Street":[1.0],"PostalCode":1.0},"Location":{"LocationId":"NT_ro6g3YkVT0Z1DLAs2bY9gD_l_972029609_L","LocationType":"point","DisplayPosition":{"Latitude":38.20649,"Longitude":15.52022},"MapView":{"TopLeft":{"Latitude":38.20649,"Longitude":15.52022},"BottomRight":{"Latitude":38.20638,"Longitude":15.52035}},"Address":{"Label":"Via Palermo, 98152 Messina ME, Italia","Country":"ITA","State":"Sicilia","County":"ME","City":"Messina","Street":"Via Palermo","PostalCode":"98152","AdditionalData":[{"value":"Italia","key":"CountryName"},{"value":"Sicilia","key":"StateName"},{"value":"Messina","key":"CountyName"}]},"MapReference":{"ReferenceId":"972029609","Spot":1.0,"SideOfStreet":"left","CountryId":"20110484","StateId":"20126201","CountyId":"20246213","CityId":"20246365"}}}]}]}}