{"Response":{"MetaInfo":{"Timestamp":"2020-03-28T09:46:42.898+0000","NextPageInformation":"2"},"View":[{"_type":"SearchResultsViewType","ViewId":0,"Result":[{"Relevance":1.0,"Distance":0.0,"Direction":0.0,"MatchLevel":"city","MatchQuality":{"Country":1.0,"State":1.0,"County":1.0,"City":1.0,"PostalCode":1.0},"Location":{"LocationId":"NT_A6QcYdA3uaRcHvU0PTWTBC","LocationType":"point","DisplayPosition":{"Latitude":38.2557892,"Longitude":-3.1324631},"MapView":{"TopLeft":{"Latitude":38.45233,"Longitude":-3.23788},"BottomRight":{"Latitude":38.16894,"Longitude":-3.04982}},"Address":{"Label":"Castellar, Andalucía, España","Country":"ESP","State":"Andalucía","County":"Jaén","City":"Castellar","PostalCode":"23260","AdditionalData":[{"value":"España","key":"CountryName"},{"value":"Andalucía","key":"StateName"},{"value":"Jaén","key":"CountyName"}]},"MapReference":{"ReferenceId":"559990090","SideOfStreet":"neither","CountryId":"20215059","StateId":"20221885","CountyId":"20221891","CityId":"20235447"}}},{"Relevance":1.0,"Distance":8.1,"MatchLevel":"street","MatchQuality":{"Country":1.0,"State":1.0,"County":1.0,"City":1.0,"Street":[1.0],"PostalCode":1.0},"Location":{"LocationId":"NT_HV3xi-v7jJdmosUUwqziCA_l_559989980_R","LocationType":"point","DisplayPosition":{"Latitude":38.2558527,"Longitude":-3.1325077},"MapView":{"TopLeft":{"Latitude":38.25623,"Longitude":-3.13254},"BottomRight":{"Latitude":38.25583,"Longitude":-3.13197}},"Address":{"Label":"Calle Olivo, 23260 Castellar (Jaén), España","Country":"ESP","State":"Andalucía","County":"Jaén","City":"Castellar","Street":"Calle Olivo","PostalCode":"23260","AdditionalData":[{"value":"España","key":"CountryName"},{"value":"Andalucía","key":"StateName"},{"value":"Jaén","key":"CountyName"}]},"MapReference":{"ReferenceId":"559989980","Spot":0.06,"SideOfStreet":"right","CountryId":"20215059","StateId":"20221885","CountyId":"20221891","CityId":"20235447"}}},{"Relevance":1.0,"Distance":8.1,"MatchLevel":"street","MatchQuality":{"Country":1.0,"State":1.0,"County":1.0,"City":1.0,"Street":[1.0],"PostalCode":1.0},"Location":{"LocationId":"NT_HV3xi-v7jJdmosUUwqziCA_l_559990033_R","LocationType":"point","DisplayPosition":{"Latitude":38.25583,"Longitude":-3.13254},"MapView":{"TopLeft":{"Latitude":38.25583,"Longitude":-3.13311},"BottomRight":{"Latitude":38.25549,"Longitude":-3.13254}},"Address":{"Label":"Calle Olivo, 23260 Castellar (Jaén), España","Country":"ESP","State":"Andalucía","County":"Jaén","City":"Castellar","Street":"Calle Olivo","PostalCode":"23260","AdditionalData":[{"value":"España","key":"CountryName"},{"value":"Andalucía","key":"StateName"},{"value":"Jaén","key":"CountyName"}]},"MapReference":{"ReferenceId":"559990033","Spot":1.0,"SideOfStreet":"right","CountryId":"20215059","StateId":"20221885","CountyId":"20221891","CityId":"20235447"}}},{"Relevance":1.0,"Distance":10.0,"MatchLevel":"houseNumber","MatchQuality":{"Country":1.0,"State":1.0,"County":1.0,"City":1.0,"Street":[1.0],"HouseNumber":1.0,"PostalCode":1.0},"MatchType":"interpolated","Location":{"LocationId":"NT_ypY822pOQZZsy02N4zTRGC_xAD","LocationType":"point","DisplayPosition":{"Latitude":38.25569,"Longitude":-3.13249},"MapView":{"TopLeft":{"Latitude":38.2568142,"Longitude":-3.1339216},"BottomRight":{"Latitude":38.2545658,"Longitude":-3.1310584}},"Address":{"Label":"Calle Santiago, 10, 23260 Castellar (Jaén), España","Country":"ESP","State":"Andalucía","County":"Jaén","City":"Castellar","Street":"Calle Santiago","HouseNumber":"10","PostalCode":"23260","AdditionalData":[{"value":"España","key":"CountryName"},{"value":"Andalucía","key":"StateName"},{"value":"Jaén","key":"CountyName"}]},"MapReference":{"ReferenceId":"559989992","Spot":0.83,"SideOfStreet":"right","CountryId":"20215059","StateId":"20221885","CountyId":"20221891","CityId":"20235447","AddressId":"404860032","RoadLinkId":"67694819"}}},{"Relevance":1.0,"Distance":40.9,"MatchLevel":"houseNumber","MatchQuality":{"Country":1.0,"State":1.0,"County":1.0,"City":1.0,"Street":[1.0],"HouseNumber":1.0,"PostalCode":1.0},"MatchType":"interpolated","Location":{"LocationId":"NT_pisrnNK8apWEolb72bAo9C_5A","LocationType":"point","DisplayPosition":{"Latitude":38.25531,"Longitude":-3.13186},"MapView":{"TopLeft":{"Latitude":38.2564342,"Longitude":-3.1332916},"BottomRight":{"Latitude":38.2541858,"Longitude":-3.1304284}},"Address":{"Label":"Plaza de España, 9, 23260 Castellar (Jaén), España","Country":"ESP","State":"Andalucía","County":"Jaén","City":"Castellar","Street":"Plaza de España","HouseNumber":"9","PostalCode":"23260","AdditionalData":[{"value":"España","key":"CountryName"},{"value":"Andalucía","key":"StateName"},{"value":"Jaén","key":"CountyName"}]},"MapReference":{"ReferenceId":"79853647","Spot":0.54,"SideOfStreet":"left","CountryId":"20215059","StateId":"20221885","CountyId":"20221891","CityId":"20235447","AddressId":"404925064","RoadLinkId":"67465702"}}},{"Relevance":1.0,"Distance":51.4,"MatchLevel":"houseNumber","MatchQuality":{"Country":1.0,"State":1.0,"County":1.0,"City":1.0,"Street":[1.0],"HouseNumber":1.0,"PostalCode":1.0},"MatchType":"interpolated","Location":{"LocationId":"NT_qnm2glmfS27gw-iwaVb0aC_xkD","LocationType":"point","DisplayPosition":{"Latitude":38.25605,"Longitude":-3.13189},"MapView":{"TopLeft":{"Latitude":38.2571742,"Longitude":-3.1333216},"BottomRight":{"Latitude":38.2549258,"Longitude":-3.1304584}},"Address":{"Label":"Avenida L'Hospitalet, 19, 23260 Castellar (Jaén), España","Country":"ESP","State":"Andalucía","County":"Jaén","City":"Castellar","Street":"Avenida L'Hospitalet","HouseNumber":"19","PostalCode":"23260","AdditionalData":[{"value":"España","key":"CountryName"},{"value":"Andalucía","key":"StateName"},{"value":"Jaén","key":"CountyName"}]},"MapReference":{"ReferenceId":"559990075","Spot":0.81,"SideOfStreet":"left","CountryId":"20215059","StateId":"20221885","CountyId":"20221891","CityId":"20235447","AddressId":"745879878","RoadLinkId":"67137759"}}},{"Relevance":1.0,"Distance":65.2,"MatchLevel":"street","MatchQuality":{"Country":1.0,"State":1.0,"County":1.0,"City":1.0,"Street":[1.0],"PostalCode":1.0},"Location":{"LocationId":"NT_-pM2XTYaYndtT.eShoLIoC_l_559990028_R","LocationType":"point","DisplayPosition":{"Latitude":38.25623,"Longitude":-3.13197},"MapView":{"TopLeft":{"Latitude":38.25706,"Longitude":-3.13197},"BottomRight":{"Latitude":38.25623,"Longitude":-3.13093}},"Address":{"Label":"Paseo de la Alameda, 23260 Castellar (Jaén), España","Country":"ESP","State":"Andalucía","County":"Jaén","City":"Castellar","Street":"Paseo de la Alameda","PostalCode":"23260","AdditionalData":[{"value":"España","key":"CountryName"},{"value":"Andalucía","key":"StateName"},{"value":"Jaén","key":"CountyName"}]},"MapReference":{"ReferenceId":"559990028","Spot":0.0,"SideOfStreet":"right","CountryId":"20215059","StateId":"20221885","CountyId":"20221891","CityId":"20235447"}}},{"Relevance":1.0,"Distance":65.2,"MatchLevel":"street","MatchQuality":{"Country":1.0,"State":1.0,"County":1.0,"City":1.0,"Street":[1.0],"PostalCode":1.0},"Location":{"LocationId":"NT_qnm2glmfS27gw-iwaVb0aC_l_559990038_L","LocationType":"point","DisplayPosition":{"Latitude":38.25623,"Longitude":-3.13197},"MapView":{"TopLeft":{"Latitude":38.25697,"Longitude":-3.13222},"BottomRight":{"Latitude":38.25623,"Longitude":-3.13196}},"Address":{"Label":"Avenida L'Hospitalet, 23260 Castellar (Jaén), España","Country":"ESP","State":"Andalucía","County":"Jaén","City":"Castellar","Street":"Avenida L'Hospitalet","PostalCode":"23260","AdditionalData":[{"value":"España","key":"CountryName"},{"value":"Andalucía","key":"StateName"},{"value":"Jaén","key":"CountyName"}]},"MapReference":{"ReferenceId":"559990038","Spot":0.0,"SideOfStreet":"left","CountryId":"20215059","StateId":"20221885","CountyId":"20221891","CityId":"20235447"}}},{"Relevance":1.0,"Distance":67.0,"MatchLevel":"houseNumber","MatchQuality":{"Country":1.0,"State":1.0,"County":1.0,"City":1.0,"Street":[1.0],"HouseNumber":1.0,"PostalCode":1.0},"MatchType":"interpolated","Location":{"LocationId":"NT_y.SzmhoRHW4XSVJBrOdljA_3A","LocationType":"point","DisplayPosition":{"Latitude":38.25569,"Longitude":-3.13322},"MapView":{"TopLeft":{"Latitude":38.2568142,"Longitude":-3.1346516},"BottomRight":{"Latitude":38.2545658,"Longitude":-3.1317884}},"Address":{"Label":"Calle San Francisco, 7, 23260 Castellar (Jaén), España","Country":"ESP","State":"Andalucía","County":"Jaén","City":"Castellar","Street":"Calle San Francisco","HouseNumber":"7","PostalCode":"23260","AdditionalData":[{"value":"España","key":"CountryName"},{"value":"Andalucía","key":"StateName"},{"value":"Jaén","key":"CountyName"}]},"MapReference":{"ReferenceId":"559990037","Spot":0.36,"SideOfStreet":"left","CountryId":"20215059","StateId":"20221885","CountyId":"20221891","CityId":"20235447","AddressId":"404879464","RoadLinkId":"67424850"}}},{"Relevance":1.0,"Distance":68.3,"MatchLevel":"houseNumber","MatchQuality":{"Country":1.0,"State":1.0,"County":1.0,"City":1.0,"Street":[1.0],"HouseNumber":1.0,"PostalCode":1.0},"MatchType":"interpolated","Location":{"LocationId":"NT_y.SzmhoRHW4XSVJBrOdljA_4A","LocationType":"point","DisplayPosition":{"Latitude":38.25534,"Longitude":-3.13306},"MapView":{"TopLeft":{"Latitude":38.2564642,"Longitude":-3.1344916},"BottomRight":{"Latitude":38.2542158,"Longitude":-3.1316284}},"Address":{"Label":"Calle San Francisco, 8, 23260 Castellar (Jaén), España","Country":"ESP","State":"Andalucía","County":"Jaén","City":"Castellar","Street":"Calle San Francisco","HouseNumber":"8","PostalCode":"23260","AdditionalData":[{"value":"España","key":"CountryName"},{"value":"Andalucía","key":"StateName"},{"value":"Jaén","key":"CountyName"}]},"MapReference":{"ReferenceId":"559990022","Spot":0.76,"SideOfStreet":"right","CountryId":"20215059","StateId":"20221885","CountyId":"20221891","CityId":"20235447","AddressId":"404889711","RoadLinkId":"67348276"}}}]}]}}