{"Response":{"MetaInfo":{"Timestamp":"2020-03-28T09:58:51.104+0000","NextPageInformation":"2"},"View":[{"_type":"SearchResultsViewType","ViewId":0,"Result":[{"Relevance":1.0,"Distance":0.0,"Direction":0.0,"MatchLevel":"district","MatchQuality":{"Country":1.0,"County":1.0,"City":1.0,"District":1.0,"PostalCode":1.0},"Location":{"LocationId":"NT_kgFQoeKXbsGqmepRDvbfrD","LocationType":"point","DisplayPosition":{"Latitude":38.2586342,"Longitude":-7.9941584},"MapView":{"TopLeft":{"Latitude":38.26292,"Longitude":-7.99696},"BottomRight":{"Latitude":38.2508,"Longitude":-7.98233}},"Address":{"Label":"Alvito, Portugal","Country":"PRT","County":"Beja","City":"Alvito","District":"Alvito","PostalCode":"7920-023","AdditionalData":[{"value":"Portugal","key":"CountryName"},{"value":"Beja","key":"CountyName"}]},"MapReference":{"ReferenceId":"990155208","SideOfStreet":"neither","CountryId":"20317122","CountyId":"20317377","CityId":"20317393","DistrictId":"20317394"}}},{"Relevance":1.0,"Distance":12.0,"MatchLevel":"houseNumber","MatchQuality":{"Country":1.0,"County":1.0,"City":1.0,"District":1.0,"Street":[1.0],"HouseNumber":1.0,"PostalCode":1.0},"MatchType":"interpolated","Location":{"LocationId":"NT_W39hubmL3p7h8ScQeu1bwD_yQD","LocationType":"point","DisplayPosition":{"Latitude":38.2587,"Longitude":-7.99405},"MapView":{"TopLeft":{"Latitude":38.2598242,"Longitude":-7.9954816},"BottomRight":{"Latitude":38.2575758,"Longitude":-7.9926184}},"Address":{"Label":"Avenida dos Bombeiros Voluntários 24, 7920-011 Alvito, Portugal","Country":"PRT","County":"Beja","City":"Alvito","District":"Alvito","Street":"Avenida dos Bombeiros Voluntários","HouseNumber":"24","PostalCode":"7920-011","AdditionalData":[{"value":"Portugal","key":"CountryName"},{"value":"Beja","key":"CountyName"}]},"MapReference":{"ReferenceId":"990106481","Spot":0.61,"SideOfStreet":"right","CountryId":"20317122","CountyId":"20317377","CityId":"20317393","DistrictId":"20317394","AddressId":"343124804","RoadLinkId":"318745696"}}},{"Relevance":1.0,"Distance":22.2,"MatchLevel":"street","MatchQuality":{"Country":1.0,"County":1.0,"City":1.0,"District":1.0,"PostalCode":1.0},"Location":{"LocationId":"NT_Pinxs5IqFMcf8QCyUOP4kA_l_587691521_R","LocationType":"point","DisplayPosition":{"Latitude":38.2588335,"Longitude":-7.9941711},"MapView":{"TopLeft":{"Latitude":38.25884,"Longitude":-7.99454},"BottomRight":{"Latitude":38.25881,"Longitude":-7.99407}},"Address":{"Label":"7920 Alvito, Portugal","Country":"PRT","County":"Beja","City":"Alvito","District":"Alvito","PostalCode":"7920","AdditionalData":[{"value":"Portugal","key":"CountryName"},{"value":"Beja","key":"CountyName"}]},"MapReference":{"ReferenceId":"587691521","Spot":0.78,"SideOfStreet":"right","CountryId":"20317122","CountyId":"20317377","CityId":"20317393","DistrictId":"20317394"}}},{"Relevance":1.0,"Distance":28.4,"MatchLevel":"houseNumber","MatchQuality":{"Country":1.0,"County":1.0,"City":1.0,"District":1.0,"Street":[1.0],"HouseNumber":1.0,"PostalCode":1.0},"MatchType":"interpolated","Location":{"LocationId":"NT_W39hubmL3p7h8ScQeu1bwD_ygD","LocationType":"point","DisplayPosition":{"Latitude":38.25888,"Longitude":-7.99407},"MapView":{"TopLeft":{"Latitude":38.2600042,"Longitude":-7.9955016},"BottomRight":{"Latitude":38.2577558,"Longitude":-7.9926384}},"Address":{"Label":"Avenida dos Bombeiros Voluntários 28, 7920-011 Alvito, Portugal","Country":"PRT","County":"Beja","City":"Alvito","District":"Alvito","Street":"Avenida dos Bombeiros Voluntários","HouseNumber":"28","PostalCode":"7920-011","AdditionalData":[{"value":"Portugal","key":"CountryName"},{"value":"Beja","key":"CountyName"}]},"MapReference":{"ReferenceId":"990666537","Spot":0.44,"SideOfStreet":"right","CountryId":"20317122","CountyId":"20317377","CityId":"20317393","DistrictId":"20317394","AddressId":"342624273","RoadLinkId":"319329383"}}},{"Relevance":1.0,"Distance":38.4,"MatchLevel":"houseNumber","MatchQuality":{"Country":1.0,"County":1.0,"City":1.0,"District":1.0,"Street":[1.0],"HouseNumber":1.0,"PostalCode":1.0},"MatchType":"interpolated","Location":{"LocationId":"NT_yd9J.J--cLLZlpZ1X5A9aD_xUD","LocationType":"point","DisplayPosition":{"Latitude":38.2589,"Longitude":-7.99379},"MapView":{"TopLeft":{"Latitude":38.2600242,"Longitude":-7.9952216},"BottomRight":{"Latitude":38.2577758,"Longitude":-7.9923584}},"Address":{"Label":"Travessa do Cano 15, 7920-054 Alvito, Portugal","Country":"PRT","County":"Beja","City":"Alvito","District":"Alvito","Street":"Travessa do Cano","HouseNumber":"15","PostalCode":"7920-054","AdditionalData":[{"value":"Portugal","key":"CountryName"},{"value":"Beja","key":"CountyName"}]},"MapReference":{"ReferenceId":"587691517","Spot":0.77,"SideOfStreet":"left","CountryId":"20317122","CountyId":"20317377","CityId":"20317393","DistrictId":"20317394","AddressId":"342911475","RoadLinkId":"69784597"}}},{"Relevance":1.0,"Distance":38.6,"MatchLevel":"street","MatchQuality":{"Country":1.0,"County":1.0,"City":1.0,"District":1.0,"PostalCode":1.0},"Location":{"LocationId":"NT_Pinxs5IqFMcf8QCyUOP4kA_l_587691522_R","LocationType":"point","DisplayPosition":{"Latitude":38.25881,"Longitude":-7.99454},"MapView":{"TopLeft":{"Latitude":38.25921,"Longitude":-7.99456},"BottomRight":{"Latitude":38.25881,"Longitude":-7.99454}},"Address":{"Label":"7920 Alvito, Portugal","Country":"PRT","County":"Beja","City":"Alvito","District":"Alvito","PostalCode":"7920","AdditionalData":[{"value":"Portugal","key":"CountryName"},{"value":"Beja","key":"CountyName"}]},"MapReference":{"ReferenceId":"587691522","Spot":0.0,"SideOfStreet":"right","CountryId":"20317122","CountyId":"20317377","CityId":"20317393","DistrictId":"20317394"}}},{"Relevance":1.0,"Distance":38.6,"MatchLevel":"street","MatchQuality":{"Country":1.0,"County":1.0,"City":1.0,"District":1.0,"PostalCode":1.0},"Location":{"LocationId":"NT_Pinxs5IqFMcf8QCyUOP4kA_l_587691502_R","LocationType":"point","DisplayPosition":{"Latitude":38.25881,"Longitude":-7.99454},"MapView":{"TopLeft":{"Latitude":38.25881,"Longitude":-7.99528},"BottomRight":{"Latitude":38.25877,"Longitude":-7.99454}},"Address":{"Label":"7920 Alvito, Portugal","Country":"PRT","County":"Beja","City":"Alvito","District":"Alvito","PostalCode":"7920","AdditionalData":[{"value":"Portugal","key":"CountryName"},{"value":"Beja","key":"CountyName"}]},"MapReference":{"ReferenceId":"587691502","Spot":1.0,"SideOfStreet":"right","CountryId":"20317122","CountyId":"20317377","CityId":"20317393","DistrictId":"20317394"}}},{"Relevance":1.0,"Distance":39.1,"MatchLevel":"houseNumber","MatchQuality":{"Country":1.0,"County":1.0,"City":1.0,"District":1.0,"Street":[1.0],"HouseNumber":1.0,"PostalCode":1.0},"MatchType":"interpolated","Location":{"LocationId":"NT_W39hubmL3p7h8ScQeu1bwD_zAD","LocationType":"point","DisplayPosition":{"Latitude":38.25898,"Longitude":-7.99408},"MapView":{"TopLeft":{"Latitude":38.2601042,"Longitude":-7.9955116},"BottomRight":{"Latitude":38.2578558,"Longitude":-7.9926484}},"Address":{"Label":"Avenida dos Bombeiros Voluntários 30, 7920-011 Alvito, Portugal","Country":"PRT","County":"Beja","City":"Alvito","District":"Alvito","Street":"Avenida dos Bombeiros Voluntários","HouseNumber":"30","PostalCode":"7920-011","AdditionalData":[{"value":"Portugal","key":"CountryName"},{"value":"Beja","key":"CountyName"}]},"MapReference":{"ReferenceId":"990666538","Spot":0.45,"SideOfStreet":"right","CountryId":"20317122","CountyId":"20317377","CityId":"20317393","DistrictId":"20317394","AddressId":"342624272","RoadLinkId":"319329384"}}},{"Relevance":1.0,"Distance":45.5,"MatchLevel":"street","MatchQuality":{"Country":1.0,"County":1.0,"City":1.0,"District":1.0,"Street":[1.0],"PostalCode":1.0},"Location":{"LocationId":"NT_ka7PcYxgIpb21hAtONJdFC_l_990106478_L","LocationType":"point","DisplayPosition":{"Latitude":38.25904,"Longitude":-7.99409},"MapView":{"TopLeft":{"Latitude":38.25919,"Longitude":-7.99411},"BottomRight":{"Latitude":38.25904,"Longitude":-7.99409}},"Address":{"Label":"Avenida dos Bombeiros Voluntários, 7920-011 Alvito, Portugal","Country":"PRT","County":"Beja","City":"Alvito","District":"Alvito","Street":"Avenida dos Bombeiros Voluntários","PostalCode":"7920-011","AdditionalData":[{"value":"Portugal","key":"CountryName"},{"value":"Beja","key":"CountyName"}]},"MapReference":{"ReferenceId":"990106478","Spot":0.0,"SideOfStreet":"left","CountryId":"20317122","CountyId":"20317377","CityId":"20317393","DistrictId":"20317394"}}},{"Relevance":1.0,"Distance":52.5,"MatchLevel":"houseNumber","MatchQuality":{"Country":1.0,"County":1.0,"City":1.0,"District":1.0,"Street":[1.0],"HouseNumber":1.0,"PostalCode":1.0},"MatchType":"interpolated","Location":{"LocationId":"NT_-nrhjP8tsNAW9djXGhP2BD_zID","LocationType":"point","DisplayPosition":{"Latitude":38.25909,"Longitude":-7.994},"MapView":{"TopLeft":{"Latitude":38.2602142,"Longitude":-7.9954316},"BottomRight":{"Latitude":38.2579658,"Longitude":-7.9925684}},"Address":{"Label":"Travessa do Carrascal 32, 7920-062 Alvito, Portugal","Country":"PRT","County":"Beja","City":"Alvito","District":"Alvito","Street":"Travessa do Carrascal","HouseNumber":"32","PostalCode":"7920-062","AdditionalData":[{"value":"Portugal","key":"CountryName"},{"value":"Beja","key":"CountyName"}]},"MapReference":{"ReferenceId":"587691518","Spot":0.48,"SideOfStreet":"left","CountryId":"20317122","CountyId":"20317377","CityId":"20317393","DistrictId":"20317394","AddressId":"342651854","RoadLinkId":"70475444"}}}]}]}}