{"Response":{"MetaInfo":{"Timestamp":"2020-03-28T09:46:30.352+0000","NextPageInformation":"2"},"View":[{"_type":"SearchResultsViewType","ViewId":0,"Result":[{"Relevance":1.0,"Distance":0.0,"Direction":0.0,"MatchLevel":"city","MatchQuality":{"Country":1.0,"State":1.0,"County":1.0,"City":1.0,"PostalCode":1.0},"Location":{"LocationId":"NT_Rg8l5gYAns14xGUKqMLZ1C","LocationType":"point","DisplayPosition":{"Latitude":38.2290979,"Longitude":-3.6321746},"MapView":{"TopLeft":{"Latitude":38.2759,"Longitude":-3.6957},"BottomRight":{"Latitude":38.15349,"Longitude":-3.56275}},"Address":{"Label":"Carboneros, Andalucía, España","Country":"ESP","State":"Andalucía","County":"Jaén","City":"Carboneros","PostalCode":"23211","AdditionalData":[{"value":"España","key":"CountryName"},{"value":"Andalucía","key":"StateName"},{"value":"Jaén","key":"CountyName"}]},"MapReference":{"ReferenceId":"558329358","SideOfStreet":"neither","CountryId":"20215059","StateId":"20221885","CountyId":"20221891","CityId":"20235435"}}},{"Relevance":1.0,"Distance":10.5,"MatchLevel":"houseNumber","MatchQuality":{"Country":1.0,"State":1.0,"County":1.0,"City":1.0,"Street":[1.0],"HouseNumber":1.0,"PostalCode":1.0},"MatchType":"interpolated","Location":{"LocationId":"NT_Ljg5eZY3pMvTWFJ-6OhKbB_xMD","LocationType":"point","DisplayPosition":{"Latitude":38.22901,"Longitude":-3.63201},"MapView":{"TopLeft":{"Latitude":38.2301342,"Longitude":-3.633441},"BottomRight":{"Latitude":38.2278858,"Longitude":-3.630579}},"Address":{"Label":"Calle Barrionuevo, 13, 23211 Carboneros (Jaén), España","Country":"ESP","State":"Andalucía","County":"Jaén","City":"Carboneros","Street":"Calle Barrionuevo","HouseNumber":"13","PostalCode":"23211","AdditionalData":[{"value":"España","key":"CountryName"},{"value":"Andalucía","key":"StateName"},{"value":"Jaén","key":"CountyName"}]},"MapReference":{"ReferenceId":"558329318","Spot":0.07,"SideOfStreet":"left","CountryId":"20215059","StateId":"20221885","CountyId":"20221891","CityId":"20235435","AddressId":"404908448","RoadLinkId":"66995768"}}},{"Relevance":1.0,"Distance":21.0,"MatchLevel":"street","MatchQuality":{"Country":1.0,"State":1.0,"County":1.0,"City":1.0,"Street":[1.0],"PostalCode":1.0},"Location":{"LocationId":"NT_Ljg5eZY3pMvTWFJ-6OhKbB_l_558329322_L","LocationType":"point","DisplayPosition":{"Latitude":38.22896,"Longitude":-3.63201},"MapView":{"TopLeft":{"Latitude":38.22896,"Longitude":-3.63203},"BottomRight":{"Latitude":38.2288,"Longitude":-3.63201}},"Address":{"Label":"Calle Barrionuevo, 23211 Carboneros (Jaén), España","Country":"ESP","State":"Andalucía","County":"Jaén","City":"Carboneros","Street":"Calle Barrionuevo","PostalCode":"23211","AdditionalData":[{"value":"España","key":"CountryName"},{"value":"Andalucía","key":"StateName"},{"value":"Jaén","key":"CountyName"}]},"MapReference":{"ReferenceId":"558329322","Spot":1.0,"SideOfStreet":"left","CountryId":"20215059","StateId":"20221885","CountyId":"20221891","CityId":"20235435"}}},{"Relevance":1.0,"Distance":21.0,"MatchLevel":"street","MatchQuality":{"Country":1.0,"State":1.0,"County":1.0,"City":1.0,"Street":[1.0],"PostalCode":1.0},"Location":{"LocationId":"NT_T8-MsVjS.EoxtTb5hMiTHB_l_558329316_L","LocationType":"point","DisplayPosition":{"Latitude":38.22896,"Longitude":-3.63201},"MapView":{"TopLeft":{"Latitude":38.22901,"Longitude":-3.63201},"BottomRight":{"Latitude":38.22896,"Longitude":-3.63141}},"Address":{"Label":"Travesía Constitución, 23211 Carboneros (Jaén), España","Country":"ESP","State":"Andalucía","County":"Jaén","City":"Carboneros","Street":"Travesía Constitución","PostalCode":"23211","AdditionalData":[{"value":"España","key":"CountryName"},{"value":"Andalucía","key":"StateName"},{"value":"Jaén","key":"CountyName"}]},"MapReference":{"ReferenceId":"558329316","Spot":0.0,"SideOfStreet":"left","CountryId":"20215059","StateId":"20221885","CountyId":"20221891","CityId":"20235435"}}},{"Relevance":1.0,"Distance":25.0,"MatchLevel":"houseNumber","MatchQuality":{"Country":1.0,"State":1.0,"County":1.0,"City":1.0,"Street":[1.0],"HouseNumber":1.0,"PostalCode":1.0},"MatchType":"interpolated","Location":{"LocationId":"NT_TSMlhT9G7epYq9ieFUNT4A_4A","LocationType":"point","DisplayPosition":{"Latitude":38.22897,"Longitude":-3.63241},"MapView":{"TopLeft":{"Latitude":38.2300942,"Longitude":-3.633841},"BottomRight":{"Latitude":38.2278458,"Longitude":-3.630979}},"Address":{"Label":"Calle Carlos III, 8, 23211 Carboneros (Jaén), España","Country":"ESP","State":"Andalucía","County":"Jaén","City":"Carboneros","Street":"Calle Carlos III","HouseNumber":"8","PostalCode":"23211","AdditionalData":[{"value":"España","key":"CountryName"},{"value":"Andalucía","key":"StateName"},{"value":"Jaén","key":"CountyName"}]},"MapReference":{"ReferenceId":"558329326","Spot":1.0,"SideOfStreet":"right","CountryId":"20215059","StateId":"20221885","CountyId":"20221891","CityId":"20235435","AddressId":"404528926","RoadLinkId":"67251622"}}},{"Relevance":1.0,"Distance":25.0,"MatchLevel":"street","MatchQuality":{"Country":1.0,"State":1.0,"County":1.0,"City":1.0,"Street":[1.0],"PostalCode":1.0},"Location":{"LocationId":"NT_zY19lsuKpzo.Rf67ny9QjC_l_558329330_R","LocationType":"point","DisplayPosition":{"Latitude":38.22897,"Longitude":-3.63241},"MapView":{"TopLeft":{"Latitude":38.22897,"Longitude":-3.63255},"BottomRight":{"Latitude":38.22879,"Longitude":-3.63241}},"Address":{"Label":"Calle Pedro Munuera, 23211 Carboneros (Jaén), España","Country":"ESP","State":"Andalucía","County":"Jaén","City":"Carboneros","Street":"Calle Pedro Munuera","PostalCode":"23211","AdditionalData":[{"value":"España","key":"CountryName"},{"value":"Andalucía","key":"StateName"},{"value":"Jaén","key":"CountyName"}]},"MapReference":{"ReferenceId":"558329330","Spot":1.0,"SideOfStreet":"right","CountryId":"20215059","StateId":"20221885","CountyId":"20221891","CityId":"20235435"}}},{"Relevance":1.0,"Distance":47.7,"MatchLevel":"houseNumber","MatchQuality":{"Country":1.0,"State":1.0,"County":1.0,"City":1.0,"Street":[1.0],"HouseNumber":1.0,"PostalCode":1.0},"MatchType":"interpolated","Location":{"LocationId":"NT_4HHia8xo1nBBSVe0DSvjAD_yA","LocationType":"point","DisplayPosition":{"Latitude":38.2287,"Longitude":-3.63238},"MapView":{"TopLeft":{"Latitude":38.2298242,"Longitude":-3.633811},"BottomRight":{"Latitude":38.2275758,"Longitude":-3.630949}},"Address":{"Label":"Calle Juan Carlos I, 2, 23211 Carboneros (Jaén), España","Country":"ESP","State":"Andalucía","County":"Jaén","City":"Carboneros","Street":"Calle Juan Carlos I","HouseNumber":"2","PostalCode":"23211","AdditionalData":[{"value":"España","key":"CountryName"},{"value":"Andalucía","key":"StateName"},{"value":"Jaén","key":"CountyName"}]},"MapReference":{"ReferenceId":"558329294","Spot":0.81,"SideOfStreet":"left","CountryId":"20215059","StateId":"20221885","CountyId":"20221891","CityId":"20235435","AddressId":"404639031","RoadLinkId":"67389835"}}},{"Relevance":1.0,"Distance":50.7,"MatchLevel":"houseNumber","MatchQuality":{"Country":1.0,"State":1.0,"County":1.0,"City":1.0,"Street":[1.0],"HouseNumber":1.0,"PostalCode":1.0},"MatchType":"interpolated","Location":{"LocationId":"NT_TSMlhT9G7epYq9ieFUNT4A_5A","LocationType":"point","DisplayPosition":{"Latitude":38.22872,"Longitude":-3.63185},"MapView":{"TopLeft":{"Latitude":38.2298442,"Longitude":-3.633281},"BottomRight":{"Latitude":38.2275958,"Longitude":-3.630419}},"Address":{"Label":"Calle Carlos III, 9, 23211 Carboneros (Jaén), España","Country":"ESP","State":"Andalucía","County":"Jaén","City":"Carboneros","Street":"Calle Carlos III","HouseNumber":"9","PostalCode":"23211","AdditionalData":[{"value":"España","key":"CountryName"},{"value":"Andalucía","key":"StateName"},{"value":"Jaén","key":"CountyName"}]},"MapReference":{"ReferenceId":"558329283","Spot":0.73,"SideOfStreet":"left","CountryId":"20215059","StateId":"20221885","CountyId":"20221891","CityId":"20235435","AddressId":"404861407","RoadLinkId":"67306080"}}},{"Relevance":1.0,"Distance":56.0,"MatchLevel":"houseNumber","MatchQuality":{"Country":1.0,"State":1.0,"County":1.0,"City":1.0,"Street":[1.0],"HouseNumber":1.0,"PostalCode":1.0},"MatchType":"interpolated","Location":{"LocationId":"NT_axJ5zT.8hS7gdALHUYK7oD_0AD","LocationType":"point","DisplayPosition":{"Latitude":38.22918,"Longitude":-3.63143},"MapView":{"TopLeft":{"Latitude":38.2303042,"Longitude":-3.6328611},"BottomRight":{"Latitude":38.2280558,"Longitude":-3.6299989}},"Address":{"Label":"Calle Constitución, 40, 23211 Carboneros (Jaén), España","Country":"ESP","State":"Andalucía","County":"Jaén","City":"Carboneros","Street":"Calle Constitución","HouseNumber":"40","PostalCode":"23211","AdditionalData":[{"value":"España","key":"CountryName"},{"value":"Andalucía","key":"StateName"},{"value":"Jaén","key":"CountyName"}]},"MapReference":{"ReferenceId":"558329313","Spot":0.23,"SideOfStreet":"left","CountryId":"20215059","StateId":"20221885","CountyId":"20221891","CityId":"20235435","AddressId":"404839818","RoadLinkId":"67163602"}}},{"Relevance":1.0,"Distance":56.8,"MatchLevel":"houseNumber","MatchQuality":{"Country":1.0,"State":1.0,"County":1.0,"City":1.0,"Street":[1.0],"HouseNumber":1.0,"PostalCode":1.0},"MatchType":"interpolated","Location":{"LocationId":"NT_zY19lsuKpzo.Rf67ny9QjC_xA","LocationType":"point","DisplayPosition":{"Latitude":38.2287,"Longitude":-3.63262},"MapView":{"TopLeft":{"Latitude":38.2298242,"Longitude":-3.634051},"BottomRight":{"Latitude":38.2275758,"Longitude":-3.631189}},"Address":{"Label":"Calle Pedro Munuera, 1, 23211 Carboneros (Jaén), España","Country":"ESP","State":"Andalucía","County":"Jaén","City":"Carboneros","Street":"Calle Pedro Munuera","HouseNumber":"1","PostalCode":"23211","AdditionalData":[{"value":"España","key":"CountryName"},{"value":"Andalucía","key":"StateName"},{"value":"Jaén","key":"CountyName"}]},"MapReference":{"ReferenceId":"564232737","Spot":0.64,"SideOfStreet":"right","CountryId":"20215059","StateId":"20221885","CountyId":"20221891","CityId":"20235435","AddressId":"404628955","RoadLinkId":"67105695"}}}]}]}}