{"Response":{"MetaInfo":{"Timestamp":"2020-03-28T09:38:34.143+0000","NextPageInformation":"2"},"View":[{"_type":"SearchResultsViewType","ViewId":0,"Result":[{"Relevance":1.0,"Distance":0.0,"Direction":0.0,"MatchLevel":"district","MatchQuality":{"Country":1.0,"State":1.0,"County":1.0,"City":1.0,"District":1.0,"PostalCode":1.0},"Location":{"LocationId":"NT_bQ7GQHzfy8vykG29YrftTC","LocationType":"point","DisplayPosition":{"Latitude":38.3918212,"Longitude":-0.5177486},"MapView":{"TopLeft":{"Latitude":38.41189,"Longitude":-0.54728},"BottomRight":{"Latitude":38.37885,"Longitude":-0.49393}},"Address":{"Label":"San Vicente del Raspeig, Comunidad Valenciana, España","Country":"ESP","State":"Comunidad Valenciana","County":"Alicante","City":"San Vicente del Raspeig","District":"San Vicente del Raspeig","PostalCode":"03690","AdditionalData":[{"value":"España","key":"CountryName"},{"value":"Comunidad Valenciana","key":"StateName"},{"value":"Alicante","key":"CountyName"}]},"MapReference":{"ReferenceId":"1217651295","SideOfStreet":"neither","CountryId":"20215059","StateId":"20226784","CountyId":"20226785","CityId":"20249355","DistrictId":"20249358"}}},{"Relevance":1.0,"Distance":27.0,"MatchLevel":"houseNumber","MatchQuality":{"Country":1.0,"State":1.0,"County":1.0,"City":1.0,"District":1.0,"Street":[1.0],"HouseNumber":1.0,"PostalCode":1.0},"MatchType":"interpolated","Location":{"LocationId":"NT_bHgu5tyT5xk1m9ZN1qU23A_zA","LocationType":"point","DisplayPosition":{"Latitude":38.39172,"Longitude":-0.51806},"MapView":{"TopLeft":{"Latitude":38.3928442,"Longitude":-0.5194943},"BottomRight":{"Latitude":38.3905958,"Longitude":-0.5166257}},"Address":{"Label":"Calle Doctor Marañón, 3, 03690 San Vicente del Raspeig (Alicante), España","Country":"ESP","State":"Comunidad Valenciana","County":"Alicante","City":"San Vicente del Raspeig","District":"San Vicente del Raspeig","Street":"Calle Doctor Marañón","HouseNumber":"3","PostalCode":"03690","AdditionalData":[{"value":"España","key":"CountryName"},{"value":"Comunidad Valenciana","key":"StateName"},{"value":"Alicante","key":"CountyName"}]},"MapReference":{"ReferenceId":"852822943","Spot":0.6,"SideOfStreet":"right","CountryId":"20215059","StateId":"20226784","CountyId":"20226785","CityId":"20249355","DistrictId":"20249358","AddressId":"625471809","RoadLinkId":"391482516"}}},{"Relevance":1.0,"Distance":32.7,"MatchLevel":"houseNumber","MatchQuality":{"Country":1.0,"State":1.0,"County":1.0,"City":1.0,"District":1.0,"Street":[1.0],"HouseNumber":1.0,"PostalCode":1.0},"MatchType":"interpolated","Location":{"LocationId":"NT_bHgu5tyT5xk1m9ZN1qU23A_xA","LocationType":"point","DisplayPosition":{"Latitude":38.39208,"Longitude":-0.51757},"MapView":{"TopLeft":{"Latitude":38.3932042,"Longitude":-0.5190043},"BottomRight":{"Latitude":38.3909558,"Longitude":-0.5161357}},"Address":{"Label":"Calle Doctor Marañón, 1, 03690 San Vicente del Raspeig (Alicante), España","Country":"ESP","State":"Comunidad Valenciana","County":"Alicante","City":"San Vicente del Raspeig","District":"San Vicente del Raspeig","Street":"Calle Doctor Marañón","HouseNumber":"1","PostalCode":"03690","AdditionalData":[{"value":"España","key":"CountryName"},{"value":"Comunidad Valenciana","key":"StateName"},{"value":"Alicante","key":"CountyName"}]},"MapReference":{"ReferenceId":"537359930","Spot":0.43,"SideOfStreet":"right","CountryId":"20215059","StateId":"20226784","CountyId":"20226785","CityId":"20249355","DistrictId":"20249358","AddressId":"625450649","RoadLinkId":"66143357"}}},{"Relevance":1.0,"Distance":62.3,"MatchLevel":"street","MatchQuality":{"Country":1.0,"State":1.0,"County":1.0,"City":1.0,"District":1.0,"Street":[1.0],"PostalCode":1.0},"Location":{"LocationId":"NT_C7QwmBGr.bDiIM4ke35asD_l_852822944_R","LocationType":"point","DisplayPosition":{"Latitude":38.3914,"Longitude":-0.51822},"MapView":{"TopLeft":{"Latitude":38.39151,"Longitude":-0.51836},"BottomRight":{"Latitude":38.3914,"Longitude":-0.51822}},"Address":{"Label":"Avenida Barcelona, 03690 San Vicente del Raspeig (Alicante), España","Country":"ESP","State":"Comunidad Valenciana","County":"Alicante","City":"San Vicente del Raspeig","District":"San Vicente del Raspeig","Street":"Avenida Barcelona","PostalCode":"03690","AdditionalData":[{"value":"España","key":"CountryName"},{"value":"Comunidad Valenciana","key":"StateName"},{"value":"Alicante","key":"CountyName"}]},"MapReference":{"ReferenceId":"852822944","Spot":0.0,"SideOfStreet":"right","CountryId":"20215059","StateId":"20226784","CountyId":"20226785","CityId":"20249355","DistrictId":"20249358"}}},{"Relevance":1.0,"Distance":62.3,"MatchLevel":"street","MatchQuality":{"Country":1.0,"State":1.0,"County":1.0,"City":1.0,"District":1.0,"PostalCode":1.0},"Location":{"LocationId":"NT_dSgzjiTcaZHbY7qy08UI9C_l_852822946_L","LocationType":"point","DisplayPosition":{"Latitude":38.3914,"Longitude":-0.51822},"MapView":{"TopLeft":{"Latitude":38.3914,"Longitude":-0.51836},"BottomRight":{"Latitude":38.3913,"Longitude":-0.51822}},"Address":{"Label":"03690 San Vicente del Raspeig (Alicante), España","Country":"ESP","State":"Comunidad Valenciana","County":"Alicante","City":"San Vicente del Raspeig","District":"San Vicente del Raspeig","PostalCode":"03690","AdditionalData":[{"value":"España","key":"CountryName"},{"value":"Comunidad Valenciana","key":"StateName"},{"value":"Alicante","key":"CountyName"}]},"MapReference":{"ReferenceId":"852822946","Spot":1.0,"SideOfStreet":"left","CountryId":"20215059","StateId":"20226784","CountyId":"20226785","CityId":"20249355","DistrictId":"20249358"}}},{"Relevance":1.0,"Distance":63.5,"MatchLevel":"street","MatchQuality":{"Country":1.0,"State":1.0,"County":1.0,"City":1.0,"District":1.0,"Street":[1.0],"PostalCode":1.0},"Location":{"LocationId":"NT_bHgu5tyT5xk1m9ZN1qU23A_l_852822942_R","LocationType":"point","DisplayPosition":{"Latitude":38.39151,"Longitude":-0.51836},"MapView":{"TopLeft":{"Latitude":38.39151,"Longitude":-0.51849},"BottomRight":{"Latitude":38.39141,"Longitude":-0.51836}},"Address":{"Label":"Calle Doctor Marañón, 03690 San Vicente del Raspeig (Alicante), España","Country":"ESP","State":"Comunidad Valenciana","County":"Alicante","City":"San Vicente del Raspeig","District":"San Vicente del Raspeig","Street":"Calle Doctor Marañón","PostalCode":"03690","AdditionalData":[{"value":"España","key":"CountryName"},{"value":"Comunidad Valenciana","key":"StateName"},{"value":"Alicante","key":"CountyName"}]},"MapReference":{"ReferenceId":"852822942","Spot":1.0,"SideOfStreet":"right","CountryId":"20215059","StateId":"20226784","CountyId":"20226785","CityId":"20249355","DistrictId":"20249358"}}},{"Relevance":1.0,"Distance":63.7,"MatchLevel":"street","MatchQuality":{"Country":1.0,"State":1.0,"County":1.0,"City":1.0,"District":1.0,"Street":[1.0],"PostalCode":1.0},"Location":{"LocationId":"NT_C7QwmBGr.bDiIM4ke35asD_l_852822967_R","LocationType":"point","DisplayPosition":{"Latitude":38.391349,"Longitude":-0.5181617},"MapView":{"TopLeft":{"Latitude":38.3914,"Longitude":-0.51822},"BottomRight":{"Latitude":38.39112,"Longitude":-0.5179}},"Address":{"Label":"Avenida Barcelona, 03690 San Vicente del Raspeig (Alicante), España","Country":"ESP","State":"Comunidad Valenciana","County":"Alicante","City":"San Vicente del Raspeig","District":"San Vicente del Raspeig","Street":"Avenida Barcelona","PostalCode":"03690","AdditionalData":[{"value":"España","key":"CountryName"},{"value":"Comunidad Valenciana","key":"StateName"},{"value":"Alicante","key":"CountyName"}]},"MapReference":{"ReferenceId":"852822967","Spot":0.82,"SideOfStreet":"right","CountryId":"20215059","StateId":"20226784","CountyId":"20226785","CityId":"20249355","DistrictId":"20249358"}}},{"Relevance":1.0,"Distance":69.8,"MatchLevel":"houseNumber","MatchQuality":{"Country":1.0,"State":1.0,"County":1.0,"City":1.0,"District":1.0,"Street":[1.0],"HouseNumber":1.0,"PostalCode":1.0},"MatchType":"interpolated","Location":{"LocationId":"NT_TLzNqr2SVt7r96vPbFbUmC_3YD","LocationType":"point","DisplayPosition":{"Latitude":38.39246,"Longitude":-0.51731},"MapView":{"TopLeft":{"Latitude":38.3935842,"Longitude":-0.5187443},"BottomRight":{"Latitude":38.3913358,"Longitude":-0.5158757}},"Address":{"Label":"Calle de Alicante, 76, 03690 San Vicente del Raspeig (Alicante), España","Country":"ESP","State":"Comunidad Valenciana","County":"Alicante","City":"San Vicente del Raspeig","District":"San Vicente del Raspeig","Street":"Calle de Alicante","HouseNumber":"76","PostalCode":"03690","AdditionalData":[{"value":"España","key":"CountryName"},{"value":"Comunidad Valenciana","key":"StateName"},{"value":"Alicante","key":"CountyName"}]},"MapReference":{"ReferenceId":"1217666535","Spot":0.31,"SideOfStreet":"left","CountryId":"20215059","StateId":"20226784","CountyId":"20226785","CityId":"20249355","DistrictId":"20249358","AddressId":"350334876","RoadLinkId":"534157534"}}},{"Relevance":1.0,"Distance":72.2,"MatchLevel":"houseNumber","MatchQuality":{"Country":1.0,"State":1.0,"County":1.0,"City":1.0,"District":1.0,"Street":[1.0],"HouseNumber":1.0,"PostalCode":1.0},"MatchType":"interpolated","Location":{"LocationId":"NT_sIQ31Kx2zMafFRFSe57fxA_1UD","LocationType":"point","DisplayPosition":{"Latitude":38.39226,"Longitude":-0.51836},"MapView":{"TopLeft":{"Latitude":38.3933842,"Longitude":-0.5197943},"BottomRight":{"Latitude":38.3911358,"Longitude":-0.5169257}},"Address":{"Label":"Calle Gabriel Miró, 55, 03690 San Vicente del Raspeig (Alicante), España","Country":"ESP","State":"Comunidad Valenciana","County":"Alicante","City":"San Vicente del Raspeig","District":"San Vicente del Raspeig","Street":"Calle Gabriel Miró","HouseNumber":"55","PostalCode":"03690","AdditionalData":[{"value":"España","key":"CountryName"},{"value":"Comunidad Valenciana","key":"StateName"},{"value":"Alicante","key":"CountyName"}]},"MapReference":{"ReferenceId":"537359938","Spot":0.67,"SideOfStreet":"right","CountryId":"20215059","StateId":"20226784","CountyId":"20226785","CityId":"20249355","DistrictId":"20249358","AddressId":"625443226","RoadLinkId":"391516377"}}},{"Relevance":1.0,"Distance":77.8,"MatchLevel":"street","MatchQuality":{"Country":1.0,"State":1.0,"County":1.0,"City":1.0,"District":1.0,"Street":[1.0],"PostalCode":1.0},"Location":{"LocationId":"NT_TLzNqr2SVt7r96vPbFbUmC_l_962126022_L","LocationType":"point","DisplayPosition":{"Latitude":38.39236,"Longitude":-0.51718},"MapView":{"TopLeft":{"Latitude":38.39236,"Longitude":-0.51718},"BottomRight":{"Latitude":38.3923,"Longitude":-0.51709}},"Address":{"Label":"Calle de Alicante, 03690 San Vicente del Raspeig (Alicante), España","Country":"ESP","State":"Comunidad Valenciana","County":"Alicante","City":"San Vicente del Raspeig","District":"San Vicente del Raspeig","Street":"Calle de Alicante","PostalCode":"03690","AdditionalData":[{"value":"España","key":"CountryName"},{"value":"Comunidad Valenciana","key":"StateName"},{"value":"Alicante","key":"CountyName"}]},"MapReference":{"ReferenceId":"962126022","Spot":1.0,"SideOfStreet":"left","CountryId":"20215059","StateId":"20226784","CountyId":"20226785","CityId":"20249355","DistrictId":"20249358"}}}]}]}}