{"Response":{"MetaInfo":{"Timestamp":"2020-03-28T10:26:23.805+0000","NextPageInformation":"2"},"View":[{"_type":"SearchResultsViewType","ViewId":0,"Result":[{"Relevance":1.0,"Distance":0.0,"Direction":0.0,"MatchLevel":"district","MatchQuality":{"Country":1.0,"State":1.0,"County":1.0,"City":1.0,"District":1.0,"PostalCode":1.0},"Location":{"LocationId":"NT_HUKMbvLdRoz8qQaObzxG7C","LocationType":"point","DisplayPosition":{"Latitude":38.3554589,"Longitude":-0.4311056},"MapView":{"TopLeft":{"Latitude":38.39076,"Longitude":-0.47363},"BottomRight":{"Latitude":38.3481,"Longitude":-0.40339}},"Address":{"Label":"Albufereta, Alacant, Comunitat Valenciana, Espanya","Country":"ESP","State":"Comunitat Valenciana","County":"Alacant","City":"Alacant","District":"Albufereta","PostalCode":"03540","AdditionalData":[{"value":"Espanya","key":"CountryName"},{"value":"Comunitat Valenciana","key":"StateName"},{"value":"Alacant","key":"CountyName"}]},"MapReference":{"ReferenceId":"553386817","SideOfStreet":"neither","CountryId":"20215059","StateId":"20226784","CountyId":"20226785","CityId":"20249041","DistrictId":"20421600"}}},{"Relevance":1.0,"Distance":48.5,"MatchLevel":"houseNumber","MatchQuality":{"Country":1.0,"State":1.0,"County":1.0,"City":1.0,"District":1.0,"Street":[1.0],"HouseNumber":1.0,"PostalCode":1.0},"MatchType":"interpolated","Location":{"LocationId":"NT_-c2.LDITA9xZ1mxsljN-lC_xID","LocationType":"point","DisplayPosition":{"Latitude":38.35576,"Longitude":-0.43058},"MapView":{"TopLeft":{"Latitude":38.3568842,"Longitude":-0.4320136},"BottomRight":{"Latitude":38.3546358,"Longitude":-0.4291464}},"Address":{"Label":"Calle Velero, 12, 03540 Alicante (Alicante), España","Country":"ESP","State":"Comunidad Valenciana","County":"Alicante","City":"Alicante","District":"Albufereta","Street":"Calle Velero","HouseNumber":"12","PostalCode":"03540","AdditionalData":[{"value":"España","key":"CountryName"},{"value":"Comunidad Valenciana","key":"StateName"},{"value":"Alicante","key":"CountyName"}]},"MapReference":{"ReferenceId":"553388427","Spot":0.24,"SideOfStreet":"right","CountryId":"20215059","StateId":"20226784","CountyId":"20226785","CityId":"20249041","DistrictId":"20421600","AddressId":"625395576","RoadLinkId":"388501281"}}},{"Relevance":1.0,"Distance":98.8,"MatchLevel":"street","MatchQuality":{"Country":1.0,"State":1.0,"County":1.0,"City":1.0,"District":1.0,"PostalCode":1.0},"Location":{"LocationId":"NT_ybNaq5VTz3XUAOmo1Qe8hA_l_553388387_R","LocationType":"point","DisplayPosition":{"Latitude":38.35631,"Longitude":-0.43078},"MapView":{"TopLeft":{"Latitude":38.3565,"Longitude":-0.43078},"BottomRight":{"Latitude":38.35631,"Longitude":-0.43018}},"Address":{"Label":"03540 Alicante (Alicante), España","Country":"ESP","State":"Comunidad Valenciana","County":"Alicante","City":"Alicante","District":"Albufereta","PostalCode":"03540","AdditionalData":[{"value":"España","key":"CountryName"},{"value":"Comunidad Valenciana","key":"StateName"},{"value":"Alicante","key":"CountyName"}]},"MapReference":{"ReferenceId":"553388387","Spot":0.0,"SideOfStreet":"right","CountryId":"20215059","StateId":"20226784","CountyId":"20226785","CityId":"20249041","DistrictId":"20421600"}}},{"Relevance":1.0,"Distance":128.7,"MatchLevel":"houseNumber","MatchQuality":{"Country":1.0,"State":1.0,"County":1.0,"City":1.0,"District":1.0,"Street":[1.0],"HouseNumber":1.0,"PostalCode":1.0},"MatchType":"interpolated","Location":{"LocationId":"NT_-c2.LDITA9xZ1mxsljN-lC_zEE","LocationType":"point","DisplayPosition":{"Latitude":38.3566,"Longitude":-0.43086},"MapView":{"TopLeft":{"Latitude":38.3577242,"Longitude":-0.4322936},"BottomRight":{"Latitude":38.3554758,"Longitude":-0.4294264}},"Address":{"Label":"Calle Velero, 3A, 03540 Alicante (Alicante), España","Country":"ESP","State":"Comunidad Valenciana","County":"Alicante","City":"Alicante","District":"Albufereta","Street":"Calle Velero","HouseNumber":"3A","PostalCode":"03540","AdditionalData":[{"value":"España","key":"CountryName"},{"value":"Comunidad Valenciana","key":"StateName"},{"value":"Alicante","key":"CountyName"}]},"MapReference":{"ReferenceId":"553388388","Spot":0.56,"SideOfStreet":"right","CountryId":"20215059","StateId":"20226784","CountyId":"20226785","CityId":"20249041","DistrictId":"20421600","AddressId":"625330361","RoadLinkId":"388501282"}}},{"Relevance":1.0,"Distance":141.1,"MatchLevel":"street","MatchQuality":{"Country":1.0,"State":1.0,"County":1.0,"City":1.0,"District":1.0,"PostalCode":1.0},"Location":{"LocationId":"NT_ybNaq5VTz3XUAOmo1Qe8hA_l_553388368_R","LocationType":"point","DisplayPosition":{"Latitude":38.3565,"Longitude":-0.43018},"MapView":{"TopLeft":{"Latitude":38.35697,"Longitude":-0.43018},"BottomRight":{"Latitude":38.3565,"Longitude":-0.4299}},"Address":{"Label":"03540 Alicante (Alicante), España","Country":"ESP","State":"Comunidad Valenciana","County":"Alicante","City":"Alicante","District":"Albufereta","PostalCode":"03540","AdditionalData":[{"value":"España","key":"CountryName"},{"value":"Comunidad Valenciana","key":"StateName"},{"value":"Alicante","key":"CountyName"}]},"MapReference":{"ReferenceId":"553388368","Spot":0.0,"SideOfStreet":"right","CountryId":"20215059","StateId":"20226784","CountyId":"20226785","CityId":"20249041","DistrictId":"20421600"}}},{"Relevance":1.0,"Distance":142.7,"MatchLevel":"street","MatchQuality":{"Country":1.0,"State":1.0,"County":1.0,"City":1.0,"District":1.0,"PostalCode":1.0},"Location":{"LocationId":"NT_ybNaq5VTz3XUAOmo1Qe8hA_l_553388356_R","LocationType":"point","DisplayPosition":{"Latitude":38.35671,"Longitude":-0.43147},"MapView":{"TopLeft":{"Latitude":38.3568,"Longitude":-0.43212},"BottomRight":{"Latitude":38.35649,"Longitude":-0.43119}},"Address":{"Label":"03540 Alicante (Alicante), España","Country":"ESP","State":"Comunidad Valenciana","County":"Alicante","City":"Alicante","District":"Albufereta","PostalCode":"03540","AdditionalData":[{"value":"España","key":"CountryName"},{"value":"Comunidad Valenciana","key":"StateName"},{"value":"Alicante","key":"CountyName"}]},"MapReference":{"ReferenceId":"553388356","Spot":0.73,"SideOfStreet":"right","CountryId":"20215059","StateId":"20226784","CountyId":"20226785","CityId":"20249041","DistrictId":"20421600"}}},{"Relevance":1.0,"Distance":143.6,"MatchLevel":"houseNumber","MatchQuality":{"Country":1.0,"State":1.0,"County":1.0,"City":1.0,"District":1.0,"Street":[1.0],"HouseNumber":1.0,"PostalCode":1.0},"MatchType":"interpolated","Location":{"LocationId":"NT_-c2.LDITA9xZ1mxsljN-lC_0A","LocationType":"point","DisplayPosition":{"Latitude":38.35678,"Longitude":-0.43104},"MapView":{"TopLeft":{"Latitude":38.3579042,"Longitude":-0.4324736},"BottomRight":{"Latitude":38.3556558,"Longitude":-0.4296064}},"Address":{"Label":"Calle Velero, 4, 03540 Alicante (Alicante), España","Country":"ESP","State":"Comunidad Valenciana","County":"Alicante","City":"Alicante","District":"Albufereta","Street":"Calle Velero","HouseNumber":"4","PostalCode":"03540","AdditionalData":[{"value":"España","key":"CountryName"},{"value":"Comunidad Valenciana","key":"StateName"},{"value":"Alicante","key":"CountyName"}]},"MapReference":{"ReferenceId":"553388316","Spot":0.21,"SideOfStreet":"left","CountryId":"20215059","StateId":"20226784","CountyId":"20226785","CityId":"20249041","DistrictId":"20421600","AddressId":"625342975","RoadLinkId":"388501283"}}},{"Relevance":1.0,"Distance":147.2,"MatchLevel":"street","MatchQuality":{"Country":1.0,"State":1.0,"County":1.0,"City":1.0,"District":1.0,"PostalCode":1.0},"Location":{"LocationId":"NT_ybNaq5VTz3XUAOmo1Qe8hA_l_553393477_R","LocationType":"point","DisplayPosition":{"Latitude":38.35678,"Longitude":-0.431},"MapView":{"TopLeft":{"Latitude":38.35721,"Longitude":-0.431},"BottomRight":{"Latitude":38.35678,"Longitude":-0.43016}},"Address":{"Label":"03540 Alicante (Alicante), España","Country":"ESP","State":"Comunidad Valenciana","County":"Alicante","City":"Alicante","District":"Albufereta","PostalCode":"03540","AdditionalData":[{"value":"España","key":"CountryName"},{"value":"Comunidad Valenciana","key":"StateName"},{"value":"Alicante","key":"CountyName"}]},"MapReference":{"ReferenceId":"553393477","Spot":0.0,"SideOfStreet":"right","CountryId":"20215059","StateId":"20226784","CountyId":"20226785","CityId":"20249041","DistrictId":"20421600"}}},{"Relevance":1.0,"Distance":168.6,"MatchLevel":"street","MatchQuality":{"Country":1.0,"State":1.0,"County":1.0,"City":1.0,"District":1.0,"PostalCode":1.0},"Location":{"LocationId":"NT_ybNaq5VTz3XUAOmo1Qe8hA_l_553388373_R","LocationType":"point","DisplayPosition":{"Latitude":38.35644,"Longitude":-0.43258},"MapView":{"TopLeft":{"Latitude":38.35754,"Longitude":-0.43292},"BottomRight":{"Latitude":38.35644,"Longitude":-0.43258}},"Address":{"Label":"03540 Alicante (Alicante), España","Country":"ESP","State":"Comunidad Valenciana","County":"Alicante","City":"Alicante","District":"Albufereta","PostalCode":"03540","AdditionalData":[{"value":"España","key":"CountryName"},{"value":"Comunidad Valenciana","key":"StateName"},{"value":"Alicante","key":"CountyName"}]},"MapReference":{"ReferenceId":"553388373","Spot":0.0,"SideOfStreet":"right","CountryId":"20215059","StateId":"20226784","CountyId":"20226785","CityId":"20249041","DistrictId":"20421600"}}},{"Relevance":1.0,"Distance":177.3,"MatchLevel":"houseNumber","MatchQuality":{"Country":1.0,"State":1.0,"County":1.0,"City":1.0,"District":1.0,"Street":[1.0],"HouseNumber":1.0,"PostalCode":1.0},"MatchType":"interpolated","Location":{"LocationId":"NT_-c2.LDITA9xZ1mxsljN-lC_yA","LocationType":"point","DisplayPosition":{"Latitude":38.35705,"Longitude":-0.43131},"MapView":{"TopLeft":{"Latitude":38.3581742,"Longitude":-0.4327436},"BottomRight":{"Latitude":38.3559258,"Longitude":-0.4298764}},"Address":{"Label":"Calle Velero, 2, 03540 Alicante (Alicante), España","Country":"ESP","State":"Comunidad Valenciana","County":"Alicante","City":"Alicante","District":"Albufereta","Street":"Calle Velero","HouseNumber":"2","PostalCode":"03540","AdditionalData":[{"value":"España","key":"CountryName"},{"value":"Comunidad Valenciana","key":"StateName"},{"value":"Alicante","key":"CountyName"}]},"MapReference":{"ReferenceId":"553388310","Spot":0.27,"SideOfStreet":"left","CountryId":"20215059","StateId":"20226784","CountyId":"20226785","CityId":"20249041","DistrictId":"20421600","AddressId":"625328825","RoadLinkId":"388501285"}}}]}]}}