{"Response":{"MetaInfo":{"Timestamp":"2020-03-28T09:45:18.235+0000","NextPageInformation":"2"},"View":[{"_type":"SearchResultsViewType","ViewId":0,"Result":[{"Relevance":1.0,"Distance":0.0,"Direction":0.0,"MatchLevel":"district","MatchQuality":{"Country":1.0,"State":1.0,"County":1.0,"City":1.0,"District":1.0,"PostalCode":1.0},"Location":{"LocationId":"NT_x8EPEFw4WtePxjXoknNsAB","LocationType":"point","DisplayPosition":{"Latitude":38.3065355,"Longitude":-1.9070278},"MapView":{"TopLeft":{"Latitude":38.30843,"Longitude":-1.91596},"BottomRight":{"Latitude":38.30205,"Longitude":-1.90238}},"Address":{"Label":"Tazona, Socovos, Castilla-La Mancha, España","Country":"ESP","State":"Castilla-La Mancha","County":"Albacete","City":"Socovos","District":"Tazona","PostalCode":"02437","AdditionalData":[{"value":"España","key":"CountryName"},{"value":"Castilla-La Mancha","key":"StateName"},{"value":"Albacete","key":"CountyName"}]},"MapReference":{"ReferenceId":"569235973","SideOfStreet":"neither","CountryId":"20215059","StateId":"20221903","CountyId":"20221904","CityId":"20294157","DistrictId":"20294166"}}},{"Relevance":1.0,"Distance":0.8,"MatchLevel":"houseNumber","MatchQuality":{"Country":1.0,"State":1.0,"County":1.0,"City":1.0,"District":1.0,"Street":[1.0],"HouseNumber":1.0,"PostalCode":1.0},"MatchType":"interpolated","Location":{"LocationId":"NT_okVQEsyqrpYvFT3a3eye1A_yA","LocationType":"point","DisplayPosition":{"Latitude":38.30654,"Longitude":-1.90706},"MapView":{"TopLeft":{"Latitude":38.3076642,"Longitude":-1.9084926},"BottomRight":{"Latitude":38.3054158,"Longitude":-1.9056274}},"Address":{"Label":"Calle Ambulatorio, 2, 02437 Socovos (Albacete), España","Country":"ESP","State":"Castilla-La Mancha","County":"Albacete","City":"Socovos","District":"Tazona","Street":"Calle Ambulatorio","HouseNumber":"2","PostalCode":"02437","AdditionalData":[{"value":"España","key":"CountryName"},{"value":"Castilla-La Mancha","key":"StateName"},{"value":"Albacete","key":"CountyName"}]},"MapReference":{"ReferenceId":"570722575","Spot":0.33,"SideOfStreet":"right","CountryId":"20215059","StateId":"20221903","CountyId":"20221904","CityId":"20294157","DistrictId":"20294166","AddressId":"348247197","RoadLinkId":"65823639"}}},{"Relevance":1.0,"Distance":18.8,"MatchLevel":"houseNumber","MatchQuality":{"Country":1.0,"State":1.0,"County":1.0,"City":1.0,"District":1.0,"Street":[1.0],"HouseNumber":1.0,"PostalCode":1.0},"MatchType":"interpolated","Location":{"LocationId":"NT_-C5ywJuoHiu1akjpwxtCVC_yED","LocationType":"point","DisplayPosition":{"Latitude":38.30639,"Longitude":-1.90722},"MapView":{"TopLeft":{"Latitude":38.3075142,"Longitude":-1.9086526},"BottomRight":{"Latitude":38.3052658,"Longitude":-1.9057874}},"Address":{"Label":"Avenida El Carrascal, 21, 02437 Socovos (Albacete), España","Country":"ESP","State":"Castilla-La Mancha","County":"Albacete","City":"Socovos","District":"Tazona","Street":"Avenida El Carrascal","HouseNumber":"21","PostalCode":"02437","AdditionalData":[{"value":"España","key":"CountryName"},{"value":"Castilla-La Mancha","key":"StateName"},{"value":"Albacete","key":"CountyName"}]},"MapReference":{"ReferenceId":"537406460","Spot":0.52,"SideOfStreet":"right","CountryId":"20215059","StateId":"20221903","CountyId":"20221904","CityId":"20294157","DistrictId":"20294166","AddressId":"348201056","RoadLinkId":"65802997"}}},{"Relevance":1.0,"Distance":18.9,"MatchLevel":"houseNumber","MatchQuality":{"Country":1.0,"State":1.0,"County":1.0,"City":1.0,"District":1.0,"Street":[1.0],"HouseNumber":1.0,"PostalCode":1.0},"MatchType":"interpolated","Location":{"LocationId":"NT_MeI7-PbGYy9Aj6hMMrCrcC_xA","LocationType":"point","DisplayPosition":{"Latitude":38.30661,"Longitude":-1.9068},"MapView":{"TopLeft":{"Latitude":38.3077342,"Longitude":-1.9082326},"BottomRight":{"Latitude":38.3054858,"Longitude":-1.9053674}},"Address":{"Label":"Avenida Escuelas, 1, 02437 Socovos (Albacete), España","Country":"ESP","State":"Castilla-La Mancha","County":"Albacete","City":"Socovos","District":"Tazona","Street":"Avenida Escuelas","HouseNumber":"1","PostalCode":"02437","AdditionalData":[{"value":"España","key":"CountryName"},{"value":"Castilla-La Mancha","key":"StateName"},{"value":"Albacete","key":"CountyName"}]},"MapReference":{"ReferenceId":"76761308","Spot":0.14,"SideOfStreet":"left","CountryId":"20215059","StateId":"20221903","CountyId":"20221904","CityId":"20294157","DistrictId":"20294166","AddressId":"348419021","RoadLinkId":"65251848"}}},{"Relevance":1.0,"Distance":20.1,"MatchLevel":"houseNumber","MatchQuality":{"Country":1.0,"State":1.0,"County":1.0,"City":1.0,"District":1.0,"Street":[1.0],"HouseNumber":1.0,"PostalCode":1.0},"MatchType":"interpolated","Location":{"LocationId":"NT_-C5ywJuoHiu1akjpwxtCVC_yUD","LocationType":"point","DisplayPosition":{"Latitude":38.30635,"Longitude":-1.90686},"MapView":{"TopLeft":{"Latitude":38.3074742,"Longitude":-1.9082926},"BottomRight":{"Latitude":38.3052258,"Longitude":-1.9054274}},"Address":{"Label":"Avenida El Carrascal, 25, 02437 Socovos (Albacete), España","Country":"ESP","State":"Castilla-La Mancha","County":"Albacete","City":"Socovos","District":"Tazona","Street":"Avenida El Carrascal","HouseNumber":"25","PostalCode":"02437","AdditionalData":[{"value":"España","key":"CountryName"},{"value":"Castilla-La Mancha","key":"StateName"},{"value":"Albacete","key":"CountyName"}]},"MapReference":{"ReferenceId":"911742277","Spot":0.45,"SideOfStreet":"right","CountryId":"20215059","StateId":"20221903","CountyId":"20221904","CityId":"20294157","DistrictId":"20294166","AddressId":"348305444","RoadLinkId":"270382273"}}},{"Relevance":1.0,"Distance":35.6,"MatchLevel":"houseNumber","MatchQuality":{"Country":1.0,"State":1.0,"County":1.0,"City":1.0,"District":1.0,"Street":[1.0],"HouseNumber":1.0,"PostalCode":1.0},"MatchType":"interpolated","Location":{"LocationId":"NT_-C5ywJuoHiu1akjpwxtCVC_xkD","LocationType":"point","DisplayPosition":{"Latitude":38.30641,"Longitude":-1.90745},"MapView":{"TopLeft":{"Latitude":38.3075342,"Longitude":-1.9088826},"BottomRight":{"Latitude":38.3052858,"Longitude":-1.9060174}},"Address":{"Label":"Avenida El Carrascal, 19, 02437 Socovos (Albacete), España","Country":"ESP","State":"Castilla-La Mancha","County":"Albacete","City":"Socovos","District":"Tazona","Street":"Avenida El Carrascal","HouseNumber":"19","PostalCode":"02437","AdditionalData":[{"value":"España","key":"CountryName"},{"value":"Castilla-La Mancha","key":"StateName"},{"value":"Albacete","key":"CountyName"}]},"MapReference":{"ReferenceId":"911742280","Spot":0.3,"SideOfStreet":"right","CountryId":"20215059","StateId":"20221903","CountyId":"20221904","CityId":"20294157","DistrictId":"20294166","AddressId":"348553217","RoadLinkId":"270382278"}}},{"Relevance":1.0,"Distance":41.5,"MatchLevel":"houseNumber","MatchQuality":{"Country":1.0,"State":1.0,"County":1.0,"City":1.0,"District":1.0,"Street":[1.0],"HouseNumber":1.0,"PostalCode":1.0},"MatchType":"interpolated","Location":{"LocationId":"NT_-C5ywJuoHiu1akjpwxtCVC_ykD","LocationType":"point","DisplayPosition":{"Latitude":38.30632,"Longitude":-1.9066},"MapView":{"TopLeft":{"Latitude":38.3074442,"Longitude":-1.9080326},"BottomRight":{"Latitude":38.3051958,"Longitude":-1.9051674}},"Address":{"Label":"Avenida El Carrascal, 29, 02437 Socovos (Albacete), España","Country":"ESP","State":"Castilla-La Mancha","County":"Albacete","City":"Socovos","District":"Tazona","Street":"Avenida El Carrascal","HouseNumber":"29","PostalCode":"02437","AdditionalData":[{"value":"España","key":"CountryName"},{"value":"Castilla-La Mancha","key":"StateName"},{"value":"Albacete","key":"CountyName"}]},"MapReference":{"ReferenceId":"911742278","Spot":0.82,"SideOfStreet":"right","CountryId":"20215059","StateId":"20221903","CountyId":"20221904","CityId":"20294157","DistrictId":"20294166","AddressId":"348243168","RoadLinkId":"270382274"}}},{"Relevance":1.0,"Distance":47.2,"MatchLevel":"houseNumber","MatchQuality":{"Country":1.0,"State":1.0,"County":1.0,"City":1.0,"District":1.0,"Street":[1.0],"HouseNumber":1.0,"PostalCode":1.0},"MatchType":"interpolated","Location":{"LocationId":"NT_a2CZ4QLp1DhOuBSLHj1akB_xA","LocationType":"point","DisplayPosition":{"Latitude":38.30682,"Longitude":-1.90743},"MapView":{"TopLeft":{"Latitude":38.3079442,"Longitude":-1.9088626},"BottomRight":{"Latitude":38.3056958,"Longitude":-1.9059974}},"Address":{"Label":"Camino Regante, 1, 02437 Socovos (Albacete), España","Country":"ESP","State":"Castilla-La Mancha","County":"Albacete","City":"Socovos","District":"Tazona","Street":"Camino Regante","HouseNumber":"1","PostalCode":"02437","AdditionalData":[{"value":"España","key":"CountryName"},{"value":"Castilla-La Mancha","key":"StateName"},{"value":"Albacete","key":"CountyName"}]},"MapReference":{"ReferenceId":"570722583","Spot":0.74,"SideOfStreet":"left","CountryId":"20215059","StateId":"20221903","CountyId":"20221904","CityId":"20294157","DistrictId":"20294166","AddressId":"348619530","RoadLinkId":"66131149"}}},{"Relevance":1.0,"Distance":57.0,"MatchLevel":"houseNumber","MatchQuality":{"Country":1.0,"State":1.0,"County":1.0,"City":1.0,"District":1.0,"Street":[1.0],"HouseNumber":1.0,"PostalCode":1.0},"MatchType":"interpolated","Location":{"LocationId":"NT_-C5ywJuoHiu1akjpwxtCVC_xUD","LocationType":"point","DisplayPosition":{"Latitude":38.30644,"Longitude":-1.90769},"MapView":{"TopLeft":{"Latitude":38.3075642,"Longitude":-1.9091226},"BottomRight":{"Latitude":38.3053158,"Longitude":-1.9062574}},"Address":{"Label":"Avenida El Carrascal, 15, 02437 Socovos (Albacete), España","Country":"ESP","State":"Castilla-La Mancha","County":"Albacete","City":"Socovos","District":"Tazona","Street":"Avenida El Carrascal","HouseNumber":"15","PostalCode":"02437","AdditionalData":[{"value":"España","key":"CountryName"},{"value":"Castilla-La Mancha","key":"StateName"},{"value":"Albacete","key":"CountyName"}]},"MapReference":{"ReferenceId":"911742279","Spot":0.03,"SideOfStreet":"right","CountryId":"20215059","StateId":"20221903","CountyId":"20221904","CityId":"20294157","DistrictId":"20294166","AddressId":"348274086","RoadLinkId":"270382277"}}},{"Relevance":1.0,"Distance":60.5,"MatchLevel":"houseNumber","MatchQuality":{"Country":1.0,"State":1.0,"County":1.0,"City":1.0,"District":1.0,"Street":[1.0],"HouseNumber":1.0,"PostalCode":1.0},"MatchType":"interpolated","Location":{"LocationId":"NT_ExVJmSeDHPLsCVf-Sitw-A_0QD","LocationType":"point","DisplayPosition":{"Latitude":38.30624,"Longitude":-1.90761},"MapView":{"TopLeft":{"Latitude":38.3073642,"Longitude":-1.9090426},"BottomRight":{"Latitude":38.3051158,"Longitude":-1.9061774}},"Address":{"Label":"Avenida Tazona, 44, 02437 Socovos (Albacete), España","Country":"ESP","State":"Castilla-La Mancha","County":"Albacete","City":"Socovos","District":"Tazona","Street":"Avenida Tazona","HouseNumber":"44","PostalCode":"02437","AdditionalData":[{"value":"España","key":"CountryName"},{"value":"Castilla-La Mancha","key":"StateName"},{"value":"Albacete","key":"CountyName"}]},"MapReference":{"ReferenceId":"569235973","Spot":0.62,"SideOfStreet":"right","CountryId":"20215059","StateId":"20221903","CountyId":"20221904","CityId":"20294157","DistrictId":"20294166","AddressId":"348638309","RoadLinkId":"65183104"}}}]}]}}