{"Response":{"MetaInfo":{"Timestamp":"2020-03-28T09:45:46.253+0000","NextPageInformation":"2"},"View":[{"_type":"SearchResultsViewType","ViewId":0,"Result":[{"Relevance":1.0,"Distance":0.0,"Direction":0.0,"MatchLevel":"district","MatchQuality":{"Country":1.0,"State":1.0,"County":1.0,"City":1.0,"District":1.0,"PostalCode":1.0},"Location":{"LocationId":"NT_bQ7GQHzfy8vykG29YrftTC","LocationType":"point","DisplayPosition":{"Latitude":38.3832287,"Longitude":-0.5023676},"MapView":{"TopLeft":{"Latitude":38.41189,"Longitude":-0.54728},"BottomRight":{"Latitude":38.37885,"Longitude":-0.49393}},"Address":{"Label":"San Vicente del Raspeig, Comunidad Valenciana, España","Country":"ESP","State":"Comunidad Valenciana","County":"Alicante","City":"San Vicente del Raspeig","District":"San Vicente del Raspeig","PostalCode":"03690","AdditionalData":[{"value":"España","key":"CountryName"},{"value":"Comunidad Valenciana","key":"StateName"},{"value":"Alicante","key":"CountyName"}]},"MapReference":{"ReferenceId":"1217651295","SideOfStreet":"neither","CountryId":"20215059","StateId":"20226784","CountyId":"20226785","CityId":"20249355","DistrictId":"20249358"}}},{"Relevance":1.0,"Distance":15.7,"MatchLevel":"street","MatchQuality":{"Country":1.0,"State":1.0,"County":1.0,"City":1.0,"District":1.0,"Street":[1.0],"PostalCode":1.0},"Location":{"LocationId":"NT_IEnwV5KhT9isvXVbH4B-0C_l_537367032_R","LocationType":"point","DisplayPosition":{"Latitude":38.3832391,"Longitude":-0.5025473},"MapView":{"TopLeft":{"Latitude":38.38371,"Longitude":-0.50256},"BottomRight":{"Latitude":38.38302,"Longitude":-0.50252}},"Address":{"Label":"Avenida Haygón, 03690 San Vicente del Raspeig (Alicante), España","Country":"ESP","State":"Comunidad Valenciana","County":"Alicante","City":"San Vicente del Raspeig","District":"San Vicente del Raspeig","Street":"Avenida Haygón","PostalCode":"03690","AdditionalData":[{"value":"España","key":"CountryName"},{"value":"Comunidad Valenciana","key":"StateName"},{"value":"Alicante","key":"CountyName"}]},"MapReference":{"ReferenceId":"537367032","Spot":0.32,"SideOfStreet":"right","CountryId":"20215059","StateId":"20226784","CountyId":"20226785","CityId":"20249355","DistrictId":"20249358"}}},{"Relevance":1.0,"Distance":18.1,"MatchLevel":"street","MatchQuality":{"Country":1.0,"State":1.0,"County":1.0,"City":1.0,"District":1.0,"Street":[1.0],"PostalCode":1.0},"Location":{"LocationId":"NT_6XHgoo1V2L6SKU0tcEzTVA_l_537367031_L","LocationType":"point","DisplayPosition":{"Latitude":38.383068,"Longitude":-0.5023336},"MapView":{"TopLeft":{"Latitude":38.3832,"Longitude":-0.50256},"BottomRight":{"Latitude":38.38302,"Longitude":-0.50171}},"Address":{"Label":"Paseo de los Sauces, 03690 San Vicente del Raspeig (Alicante), España","Country":"ESP","State":"Comunidad Valenciana","County":"Alicante","City":"San Vicente del Raspeig","District":"San Vicente del Raspeig","Street":"Paseo de los Sauces","PostalCode":"03690","AdditionalData":[{"value":"España","key":"CountryName"},{"value":"Comunidad Valenciana","key":"StateName"},{"value":"Alicante","key":"CountyName"}]},"MapReference":{"ReferenceId":"537367031","Spot":0.27,"SideOfStreet":"left","CountryId":"20215059","StateId":"20226784","CountyId":"20226785","CityId":"20249355","DistrictId":"20249358"}}},{"Relevance":1.0,"Distance":28.6,"MatchLevel":"street","MatchQuality":{"Country":1.0,"State":1.0,"County":1.0,"City":1.0,"District":1.0,"Street":[1.0],"PostalCode":1.0},"Location":{"LocationId":"NT_6XHgoo1V2L6SKU0tcEzTVA_l_537367030_L","LocationType":"point","DisplayPosition":{"Latitude":38.38302,"Longitude":-0.50256},"MapView":{"TopLeft":{"Latitude":38.38302,"Longitude":-0.50396},"BottomRight":{"Latitude":38.3827,"Longitude":-0.50256}},"Address":{"Label":"Paseo de los Sauces, 03690 San Vicente del Raspeig (Alicante), España","Country":"ESP","State":"Comunidad Valenciana","County":"Alicante","City":"San Vicente del Raspeig","District":"San Vicente del Raspeig","Street":"Paseo de los Sauces","PostalCode":"03690","AdditionalData":[{"value":"España","key":"CountryName"},{"value":"Comunidad Valenciana","key":"StateName"},{"value":"Alicante","key":"CountyName"}]},"MapReference":{"ReferenceId":"537367030","Spot":1.0,"SideOfStreet":"left","CountryId":"20215059","StateId":"20226784","CountyId":"20226785","CityId":"20249355","DistrictId":"20249358"}}},{"Relevance":1.0,"Distance":28.6,"MatchLevel":"street","MatchQuality":{"Country":1.0,"State":1.0,"County":1.0,"City":1.0,"District":1.0,"PostalCode":1.0},"Location":{"LocationId":"NT_dSgzjiTcaZHbY7qy08UI9C_l_917572940_R","LocationType":"point","DisplayPosition":{"Latitude":38.38302,"Longitude":-0.50256},"MapView":{"TopLeft":{"Latitude":38.38302,"Longitude":-0.50256},"BottomRight":{"Latitude":38.38282,"Longitude":-0.50246}},"Address":{"Label":"03690 San Vicente del Raspeig (Alicante), España","Country":"ESP","State":"Comunidad Valenciana","County":"Alicante","City":"San Vicente del Raspeig","District":"San Vicente del Raspeig","PostalCode":"03690","AdditionalData":[{"value":"España","key":"CountryName"},{"value":"Comunidad Valenciana","key":"StateName"},{"value":"Alicante","key":"CountyName"}]},"MapReference":{"ReferenceId":"917572940","Spot":1.0,"SideOfStreet":"right","CountryId":"20215059","StateId":"20226784","CountyId":"20226785","CityId":"20249355","DistrictId":"20249358"}}},{"Relevance":1.0,"Distance":41.6,"MatchLevel":"houseNumber","MatchQuality":{"Country":1.0,"State":1.0,"County":1.0,"City":1.0,"District":1.0,"Street":[1.0],"HouseNumber":1.0,"PostalCode":1.0},"MatchType":"interpolated","Location":{"LocationId":"NT_BAVyfXV1mtDONq.myLk.AD_ygDT","LocationType":"point","DisplayPosition":{"Latitude":38.38293,"Longitude":-0.50198},"MapView":{"TopLeft":{"Latitude":38.3840542,"Longitude":-0.5034141},"BottomRight":{"Latitude":38.3818058,"Longitude":-0.5005459}},"Address":{"Label":"Calle Colonia Santa Isabel, 28L, 03690 San Vicente del Raspeig (Alicante), España","Country":"ESP","State":"Comunidad Valenciana","County":"Alicante","City":"San Vicente del Raspeig","District":"San Vicente del Raspeig","Street":"Calle Colonia Santa Isabel","HouseNumber":"28L","PostalCode":"03690","AdditionalData":[{"value":"España","key":"CountryName"},{"value":"Comunidad Valenciana","key":"StateName"},{"value":"Alicante","key":"CountyName"}]},"MapReference":{"ReferenceId":"537367144","Spot":0.52,"SideOfStreet":"left","CountryId":"20215059","StateId":"20226784","CountyId":"20226785","CityId":"20249355","DistrictId":"20249358","AddressId":"625283022","RoadLinkId":"66471566"}}},{"Relevance":1.0,"Distance":45.7,"MatchLevel":"houseNumber","MatchQuality":{"Country":1.0,"State":1.0,"County":1.0,"City":1.0,"District":1.0,"Street":[1.0],"HouseNumber":1.0,"PostalCode":1.0},"MatchType":"interpolated","Location":{"LocationId":"NT_BAVyfXV1mtDONq.myLk.AD_yIjQ","LocationType":"point","DisplayPosition":{"Latitude":38.3828,"Longitude":-0.50255},"MapView":{"TopLeft":{"Latitude":38.3839242,"Longitude":-0.5039841},"BottomRight":{"Latitude":38.3816758,"Longitude":-0.5011159}},"Address":{"Label":"Calle Colonia Santa Isabel, 22B, 03690 San Vicente del Raspeig (Alicante), España","Country":"ESP","State":"Comunidad Valenciana","County":"Alicante","City":"San Vicente del Raspeig","District":"San Vicente del Raspeig","Street":"Calle Colonia Santa Isabel","HouseNumber":"22B","PostalCode":"03690","AdditionalData":[{"value":"España","key":"CountryName"},{"value":"Comunidad Valenciana","key":"StateName"},{"value":"Alicante","key":"CountyName"}]},"MapReference":{"ReferenceId":"572153897","Spot":0.92,"SideOfStreet":"left","CountryId":"20215059","StateId":"20226784","CountyId":"20226785","CityId":"20249355","DistrictId":"20249358","AddressId":"625431583","RoadLinkId":"65908897"}}},{"Relevance":1.0,"Distance":53.7,"MatchLevel":"houseNumber","MatchQuality":{"Country":1.0,"State":1.0,"County":1.0,"City":1.0,"District":1.0,"Street":[1.0],"HouseNumber":1.0,"PostalCode":1.0},"MatchType":"interpolated","Location":{"LocationId":"NT_qnZkL4huJaqVsGnw5TkfNC_0A","LocationType":"point","DisplayPosition":{"Latitude":38.38373,"Longitude":-0.50211},"MapView":{"TopLeft":{"Latitude":38.3848542,"Longitude":-0.5035441},"BottomRight":{"Latitude":38.3826058,"Longitude":-0.5006759}},"Address":{"Label":"Paseo de la Malvarosa, 4, 03690 San Vicente del Raspeig (Alicante), España","Country":"ESP","State":"Comunidad Valenciana","County":"Alicante","City":"San Vicente del Raspeig","District":"San Vicente del Raspeig","Street":"Paseo de la Malvarosa","HouseNumber":"4","PostalCode":"03690","AdditionalData":[{"value":"España","key":"CountryName"},{"value":"Comunidad Valenciana","key":"StateName"},{"value":"Alicante","key":"CountyName"}]},"MapReference":{"ReferenceId":"537367170","Spot":0.56,"SideOfStreet":"right","CountryId":"20215059","StateId":"20226784","CountyId":"20226785","CityId":"20249355","DistrictId":"20249358","AddressId":"350308091","RoadLinkId":"66135292"}}},{"Relevance":1.0,"Distance":71.5,"MatchLevel":"houseNumber","MatchQuality":{"Country":1.0,"State":1.0,"County":1.0,"City":1.0,"District":1.0,"Street":[1.0],"HouseNumber":1.0,"PostalCode":1.0},"MatchType":"interpolated","Location":{"LocationId":"NT_IEnwV5KhT9isvXVbH4B-0C_0cjQ","LocationType":"point","DisplayPosition":{"Latitude":38.38388,"Longitude":-0.50251},"MapView":{"TopLeft":{"Latitude":38.3850042,"Longitude":-0.5039441},"BottomRight":{"Latitude":38.3827558,"Longitude":-0.5010759}},"Address":{"Label":"Avenida Haygón, 47B, 03690 San Vicente del Raspeig (Alicante), España","Country":"ESP","State":"Comunidad Valenciana","County":"Alicante","City":"San Vicente del Raspeig","District":"San Vicente del Raspeig","Street":"Avenida Haygón","HouseNumber":"47B","PostalCode":"03690","AdditionalData":[{"value":"España","key":"CountryName"},{"value":"Comunidad Valenciana","key":"StateName"},{"value":"Alicante","key":"CountyName"}]},"MapReference":{"ReferenceId":"537367033","Spot":0.3,"SideOfStreet":"right","CountryId":"20215059","StateId":"20226784","CountyId":"20226785","CityId":"20249355","DistrictId":"20249358","AddressId":"350482465","RoadLinkId":"65586124"}}},{"Relevance":1.0,"Distance":74.2,"MatchLevel":"houseNumber","MatchQuality":{"Country":1.0,"State":1.0,"County":1.0,"City":1.0,"District":1.0,"Street":[1.0],"HouseNumber":1.0,"PostalCode":1.0},"MatchType":"interpolated","Location":{"LocationId":"NT_BAVyfXV1mtDONq.myLk.AD_1oE","LocationType":"point","DisplayPosition":{"Latitude":38.38253,"Longitude":-0.50231},"MapView":{"TopLeft":{"Latitude":38.3836542,"Longitude":-0.5037441},"BottomRight":{"Latitude":38.3814058,"Longitude":-0.5008759}},"Address":{"Label":"Calle Colonia Santa Isabel, 5J, 03690 San Vicente del Raspeig (Alicante), España","Country":"ESP","State":"Comunidad Valenciana","County":"Alicante","City":"San Vicente del Raspeig","District":"San Vicente del Raspeig","Street":"Calle Colonia Santa Isabel","HouseNumber":"5J","PostalCode":"03690","AdditionalData":[{"value":"España","key":"CountryName"},{"value":"Comunidad Valenciana","key":"StateName"},{"value":"Alicante","key":"CountyName"}]},"MapReference":{"ReferenceId":"537367143","Spot":0.54,"SideOfStreet":"right","CountryId":"20215059","StateId":"20226784","CountyId":"20226785","CityId":"20249355","DistrictId":"20249358","AddressId":"625286279","RoadLinkId":"391448542"}}}]}]}}