{"Response":{"MetaInfo":{"Timestamp":"2020-03-28T09:40:33.492+0000","NextPageInformation":"2"},"View":[{"_type":"SearchResultsViewType","ViewId":0,"Result":[{"Relevance":1.0,"Distance":0.0,"Direction":0.0,"MatchLevel":"city","MatchQuality":{"Country":1.0,"State":1.0,"County":1.0,"City":1.0,"PostalCode":1.0},"Location":{"LocationId":"NT_DTNm.T6QbJSNlSEmcgCRlB","LocationType":"point","DisplayPosition":{"Latitude":38.3214845,"Longitude":-6.7647345},"MapView":{"TopLeft":{"Latitude":38.48175,"Longitude":-6.98847},"BottomRight":{"Latitude":38.17382,"Longitude":-6.59867}},"Address":{"Label":"Jerez de los Caballeros, Extremadura, España","Country":"ESP","State":"Extremadura","County":"Badajoz","City":"Jerez de los Caballeros","PostalCode":"06380","AdditionalData":[{"value":"España","key":"CountryName"},{"value":"Extremadura","key":"StateName"},{"value":"Badajoz","key":"CountyName"}]},"MapReference":{"ReferenceId":"945660004","SideOfStreet":"neither","CountryId":"20215059","StateId":"20226788","CountyId":"20226789","CityId":"20274092"}}},{"Relevance":1.0,"Distance":4.8,"MatchLevel":"street","MatchQuality":{"Country":1.0,"State":1.0,"County":1.0,"City":1.0,"Street":[1.0],"PostalCode":1.0},"Location":{"LocationId":"NT_2y08jceN6O83ZhLA6.VpXB_l_539593812_L","LocationType":"point","DisplayPosition":{"Latitude":38.3215272,"Longitude":-6.7647279},"MapView":{"TopLeft":{"Latitude":38.32154,"Longitude":-6.76481},"BottomRight":{"Latitude":38.32147,"Longitude":-6.76436}},"Address":{"Label":"Calle Pomar, 06380 Jerez de los Caballeros (Badajoz), España","Country":"ESP","State":"Extremadura","County":"Badajoz","City":"Jerez de los Caballeros","Street":"Calle Pomar","PostalCode":"06380","AdditionalData":[{"value":"España","key":"CountryName"},{"value":"Extremadura","key":"StateName"},{"value":"Badajoz","key":"CountyName"}]},"MapReference":{"ReferenceId":"539593812","Spot":0.82,"SideOfStreet":"left","CountryId":"20215059","StateId":"20226788","CountyId":"20226789","CityId":"20274092"}}},{"Relevance":1.0,"Distance":7.8,"MatchLevel":"street","MatchQuality":{"Country":1.0,"State":1.0,"County":1.0,"City":1.0,"Street":[1.0],"PostalCode":1.0},"Location":{"LocationId":"NT_9-Y53r.XBPaPhvwKNqs2XD_l_539593799_R","LocationType":"point","DisplayPosition":{"Latitude":38.3215077,"Longitude":-6.7648189},"MapView":{"TopLeft":{"Latitude":38.32154,"Longitude":-6.76506},"BottomRight":{"Latitude":38.32063,"Longitude":-6.76481}},"Address":{"Label":"Calle Rocinante, 06380 Jerez de los Caballeros (Badajoz), España","Country":"ESP","State":"Extremadura","County":"Badajoz","City":"Jerez de los Caballeros","Street":"Calle Rocinante","PostalCode":"06380","AdditionalData":[{"value":"España","key":"CountryName"},{"value":"Extremadura","key":"StateName"},{"value":"Badajoz","key":"CountyName"}]},"MapReference":{"ReferenceId":"539593799","Spot":0.96,"SideOfStreet":"right","CountryId":"20215059","StateId":"20226788","CountyId":"20226789","CityId":"20274092"}}},{"Relevance":1.0,"Distance":9.0,"MatchLevel":"street","MatchQuality":{"Country":1.0,"State":1.0,"County":1.0,"City":1.0,"Street":[1.0],"PostalCode":1.0},"Location":{"LocationId":"NT_LOBkSEt0aWTuA79XPiTThA_l_1162260963_R","LocationType":"point","DisplayPosition":{"Latitude":38.32154,"Longitude":-6.76481},"MapView":{"TopLeft":{"Latitude":38.32172,"Longitude":-6.76481},"BottomRight":{"Latitude":38.32154,"Longitude":-6.76429}},"Address":{"Label":"Urbanización Residencial Los Naranjos, 06380 Jerez de los Caballeros (Badajoz), España","Country":"ESP","State":"Extremadura","County":"Badajoz","City":"Jerez de los Caballeros","Street":"Urbanización Residencial Los Naranjos","PostalCode":"06380","AdditionalData":[{"value":"España","key":"CountryName"},{"value":"Extremadura","key":"StateName"},{"value":"Badajoz","key":"CountyName"}]},"MapReference":{"ReferenceId":"1162260963","Spot":0.0,"SideOfStreet":"right","CountryId":"20215059","StateId":"20226788","CountyId":"20226789","CityId":"20274092"}}},{"Relevance":1.0,"Distance":32.7,"MatchLevel":"street","MatchQuality":{"Country":1.0,"State":1.0,"County":1.0,"City":1.0,"Street":[1.0],"PostalCode":1.0},"Location":{"LocationId":"NT_2y08jceN6O83ZhLA6.VpXB_l_1162260966_L","LocationType":"point","DisplayPosition":{"Latitude":38.32147,"Longitude":-6.76436},"MapView":{"TopLeft":{"Latitude":38.32164,"Longitude":-6.76436},"BottomRight":{"Latitude":38.32147,"Longitude":-6.76429}},"Address":{"Label":"Calle Pomar, 06380 Jerez de los Caballeros (Badajoz), España","Country":"ESP","State":"Extremadura","County":"Badajoz","City":"Jerez de los Caballeros","Street":"Calle Pomar","PostalCode":"06380","AdditionalData":[{"value":"España","key":"CountryName"},{"value":"Extremadura","key":"StateName"},{"value":"Badajoz","key":"CountyName"}]},"MapReference":{"ReferenceId":"1162260966","Spot":0.0,"SideOfStreet":"left","CountryId":"20215059","StateId":"20226788","CountyId":"20226789","CityId":"20274092"}}},{"Relevance":1.0,"Distance":32.7,"MatchLevel":"street","MatchQuality":{"Country":1.0,"State":1.0,"County":1.0,"City":1.0,"Street":[1.0],"PostalCode":1.0},"Location":{"LocationId":"NT_2y08jceN6O83ZhLA6.VpXB_l_1162260965_R","LocationType":"point","DisplayPosition":{"Latitude":38.32147,"Longitude":-6.76436},"MapView":{"TopLeft":{"Latitude":38.32147,"Longitude":-6.76436},"BottomRight":{"Latitude":38.32146,"Longitude":-6.76403}},"Address":{"Label":"Calle Pomar, 06380 Jerez de los Caballeros (Badajoz), España","Country":"ESP","State":"Extremadura","County":"Badajoz","City":"Jerez de los Caballeros","Street":"Calle Pomar","PostalCode":"06380","AdditionalData":[{"value":"España","key":"CountryName"},{"value":"Extremadura","key":"StateName"},{"value":"Badajoz","key":"CountyName"}]},"MapReference":{"ReferenceId":"1162260965","Spot":1.0,"SideOfStreet":"right","CountryId":"20215059","StateId":"20226788","CountyId":"20226789","CityId":"20274092"}}},{"Relevance":1.0,"Distance":42.5,"MatchLevel":"street","MatchQuality":{"Country":1.0,"State":1.0,"County":1.0,"City":1.0,"Street":[1.0],"PostalCode":1.0},"Location":{"LocationId":"NT_LOBkSEt0aWTuA79XPiTThA_l_1162260964_L","LocationType":"point","DisplayPosition":{"Latitude":38.32164,"Longitude":-6.76429},"MapView":{"TopLeft":{"Latitude":38.32164,"Longitude":-6.76429},"BottomRight":{"Latitude":38.32158,"Longitude":-6.76399}},"Address":{"Label":"Urbanización Residencial Los Naranjos, 06380 Jerez de los Caballeros (Badajoz), España","Country":"ESP","State":"Extremadura","County":"Badajoz","City":"Jerez de los Caballeros","Street":"Urbanización Residencial Los Naranjos","PostalCode":"06380","AdditionalData":[{"value":"España","key":"CountryName"},{"value":"Extremadura","key":"StateName"},{"value":"Badajoz","key":"CountyName"}]},"MapReference":{"ReferenceId":"1162260964","Spot":1.0,"SideOfStreet":"left","CountryId":"20215059","StateId":"20226788","CountyId":"20226789","CityId":"20274092"}}},{"Relevance":1.0,"Distance":46.4,"MatchLevel":"houseNumber","MatchQuality":{"Country":1.0,"State":1.0,"County":1.0,"City":1.0,"Street":[1.0],"HouseNumber":1.0,"PostalCode":1.0},"MatchType":"interpolated","Location":{"LocationId":"NT_mmZwhWdmbutbYXtKH4MwQC_4A","LocationType":"point","DisplayPosition":{"Latitude":38.32198,"Longitude":-6.76466},"MapView":{"TopLeft":{"Latitude":38.3231042,"Longitude":-6.7660929},"BottomRight":{"Latitude":38.3208558,"Longitude":-6.7632271}},"Address":{"Label":"Barriada Pomar, 8, 06380 Jerez de los Caballeros (Badajoz), España","Country":"ESP","State":"Extremadura","County":"Badajoz","City":"Jerez de los Caballeros","Street":"Barriada Pomar","HouseNumber":"8","PostalCode":"06380","AdditionalData":[{"value":"España","key":"CountryName"},{"value":"Extremadura","key":"StateName"},{"value":"Badajoz","key":"CountyName"}]},"MapReference":{"ReferenceId":"539593841","Spot":0.35,"SideOfStreet":"left","CountryId":"20215059","StateId":"20226788","CountyId":"20226789","CityId":"20274092","AddressId":"350901823","RoadLinkId":"67704018"}}},{"Relevance":1.0,"Distance":50.8,"MatchLevel":"houseNumber","MatchQuality":{"Country":1.0,"State":1.0,"County":1.0,"City":1.0,"Street":[1.0],"HouseNumber":1.0,"PostalCode":1.0},"MatchType":"interpolated","Location":{"LocationId":"NT_mmZwhWdmbutbYXtKH4MwQC_l_539593847_L_xUD","LocationType":"point","DisplayPosition":{"Latitude":38.3215278,"Longitude":-6.7640074},"MapView":{"TopLeft":{"Latitude":38.3226519,"Longitude":-6.7654403},"BottomRight":{"Latitude":38.3204036,"Longitude":-6.7625745}},"Address":{"Label":"Barriada Pomar, 15, 06380 Jerez de los Caballeros (Badajoz), España","Country":"ESP","State":"Extremadura","County":"Badajoz","City":"Jerez de los Caballeros","Street":"Barriada Pomar","HouseNumber":"15","PostalCode":"06380","AdditionalData":[{"value":"España","key":"CountryName"},{"value":"Extremadura","key":"StateName"},{"value":"Badajoz","key":"CountyName"}]},"MapReference":{"ReferenceId":"539593847","Spot":0.56,"SideOfStreet":"left","CountryId":"20215059","StateId":"20226788","CountyId":"20226789","CityId":"20274092"}}},{"Relevance":1.0,"Distance":61.5,"MatchLevel":"street","MatchQuality":{"Country":1.0,"State":1.0,"County":1.0,"City":1.0,"Street":[1.0],"PostalCode":1.0},"Location":{"LocationId":"NT_b3cA02QeHSMwnI2KAv-EFD_l_539593846_R","LocationType":"point","DisplayPosition":{"Latitude":38.32146,"Longitude":-6.76403},"MapView":{"TopLeft":{"Latitude":38.32205,"Longitude":-6.76403},"BottomRight":{"Latitude":38.32142,"Longitude":-6.76343}},"Address":{"Label":"Calle Buenavista, 06380 Jerez de los Caballeros (Badajoz), España","Country":"ESP","State":"Extremadura","County":"Badajoz","City":"Jerez de los Caballeros","Street":"Calle Buenavista","PostalCode":"06380","AdditionalData":[{"value":"España","key":"CountryName"},{"value":"Extremadura","key":"StateName"},{"value":"Badajoz","key":"CountyName"}]},"MapReference":{"ReferenceId":"539593846","Spot":0.0,"SideOfStreet":"right","CountryId":"20215059","StateId":"20226788","CountyId":"20226789","CityId":"20274092"}}}]}]}}