{"Response":{"MetaInfo":{"Timestamp":"2020-03-28T09:40:09.628+0000","NextPageInformation":"2"},"View":[{"_type":"SearchResultsViewType","ViewId":0,"Result":[{"Relevance":1.0,"Distance":0.0,"Direction":0.0,"MatchLevel":"city","MatchQuality":{"Country":1.0,"State":1.0,"County":1.0,"City":1.0,"PostalCode":1.0},"Location":{"LocationId":"NT_0kF1DWErj5kd89LK7ZvkPA","LocationType":"point","DisplayPosition":{"Latitude":38.3851485,"Longitude":-4.848094},"MapView":{"TopLeft":{"Latitude":38.41023,"Longitude":-4.93273},"BottomRight":{"Latitude":38.10967,"Longitude":-4.69902}},"Address":{"Label":"Pozoblanco, Andalucía, España","Country":"ESP","State":"Andalucía","County":"Córdoba","City":"Pozoblanco","PostalCode":"14400","AdditionalData":[{"value":"España","key":"CountryName"},{"value":"Andalucía","key":"StateName"},{"value":"Córdoba","key":"CountyName"}]},"MapReference":{"ReferenceId":"573459330","SideOfStreet":"neither","CountryId":"20215059","StateId":"20221885","CountyId":"20221888","CityId":"20234224"}}},{"Relevance":1.0,"Distance":3.9,"MatchLevel":"houseNumber","MatchQuality":{"Country":1.0,"State":1.0,"County":1.0,"City":1.0,"Street":[1.0],"HouseNumber":1.0,"PostalCode":1.0},"MatchType":"interpolated","Location":{"LocationId":"NT_b0wZiD5-F6MErlcnDnc9lD_ycD","LocationType":"point","DisplayPosition":{"Latitude":38.38517,"Longitude":-4.84813},"MapView":{"TopLeft":{"Latitude":38.3862942,"Longitude":-4.8495641},"BottomRight":{"Latitude":38.3840458,"Longitude":-4.8466959}},"Address":{"Label":"Calle María Zambrano, 27, 14400 Pozoblanco (Córdoba), España","Country":"ESP","State":"Andalucía","County":"Córdoba","City":"Pozoblanco","Street":"Calle María Zambrano","HouseNumber":"27","PostalCode":"14400","AdditionalData":[{"value":"España","key":"CountryName"},{"value":"Andalucía","key":"StateName"},{"value":"Córdoba","key":"CountyName"}]},"MapReference":{"ReferenceId":"808232716","Spot":0.96,"SideOfStreet":"right","CountryId":"20215059","StateId":"20221885","CountyId":"20221888","CityId":"20234224","AddressId":"268248379","RoadLinkId":"195581448"}}},{"Relevance":1.0,"Distance":6.0,"MatchLevel":"street","MatchQuality":{"Country":1.0,"State":1.0,"County":1.0,"City":1.0,"Street":[1.0],"PostalCode":1.0},"Location":{"LocationId":"NT_QJZjpT8cTZnDHNko87qbtC_l_573459317_R","LocationType":"point","DisplayPosition":{"Latitude":38.385178,"Longitude":-4.848151},"MapView":{"TopLeft":{"Latitude":38.38518,"Longitude":-4.84847},"BottomRight":{"Latitude":38.38377,"Longitude":-4.84815}},"Address":{"Label":"Camino Las Mimbreras, 14400 Pozoblanco (Córdoba), España","Country":"ESP","State":"Andalucía","County":"Córdoba","City":"Pozoblanco","Street":"Camino Las Mimbreras","PostalCode":"14400","AdditionalData":[{"value":"España","key":"CountryName"},{"value":"Andalucía","key":"StateName"},{"value":"Córdoba","key":"CountyName"}]},"MapReference":{"ReferenceId":"573459317","Spot":1.0,"SideOfStreet":"right","CountryId":"20215059","StateId":"20221885","CountyId":"20221888","CityId":"20234224"}}},{"Relevance":1.0,"Distance":34.2,"MatchLevel":"houseNumber","MatchQuality":{"Country":1.0,"State":1.0,"County":1.0,"City":1.0,"Street":[1.0],"HouseNumber":1.0,"PostalCode":1.0},"MatchType":"interpolated","Location":{"LocationId":"NT_b0wZiD5-F6MErlcnDnc9lD_2A","LocationType":"point","DisplayPosition":{"Latitude":38.38526,"Longitude":-4.84846},"MapView":{"TopLeft":{"Latitude":38.3863842,"Longitude":-4.8498941},"BottomRight":{"Latitude":38.3841358,"Longitude":-4.8470259}},"Address":{"Label":"Calle María Zambrano, 6, 14400 Pozoblanco (Córdoba), España","Country":"ESP","State":"Andalucía","County":"Córdoba","City":"Pozoblanco","Street":"Calle María Zambrano","HouseNumber":"6","PostalCode":"14400","AdditionalData":[{"value":"España","key":"CountryName"},{"value":"Andalucía","key":"StateName"},{"value":"Córdoba","key":"CountyName"}]},"MapReference":{"ReferenceId":"808232714","Spot":0.23,"SideOfStreet":"left","CountryId":"20215059","StateId":"20221885","CountyId":"20221888","CityId":"20234224","AddressId":"268248375","RoadLinkId":"195581446"}}},{"Relevance":1.0,"Distance":46.6,"MatchLevel":"street","MatchQuality":{"Country":1.0,"State":1.0,"County":1.0,"City":1.0,"Street":[1.0],"PostalCode":1.0},"Location":{"LocationId":"NT_qFSOdJgvYJHqfaU9qKP.1C_l_808232715_L","LocationType":"point","DisplayPosition":{"Latitude":38.38501,"Longitude":-4.84759},"MapView":{"TopLeft":{"Latitude":38.38546,"Longitude":-4.84759},"BottomRight":{"Latitude":38.38501,"Longitude":-4.84737}},"Address":{"Label":"Calle Felipe II, 14400 Pozoblanco (Córdoba), España","Country":"ESP","State":"Andalucía","County":"Córdoba","City":"Pozoblanco","Street":"Calle Felipe II","PostalCode":"14400","AdditionalData":[{"value":"España","key":"CountryName"},{"value":"Andalucía","key":"StateName"},{"value":"Córdoba","key":"CountyName"}]},"MapReference":{"ReferenceId":"808232715","Spot":0.0,"SideOfStreet":"left","CountryId":"20215059","StateId":"20221885","CountyId":"20221888","CityId":"20234224"}}},{"Relevance":1.0,"Distance":47.4,"MatchLevel":"street","MatchQuality":{"Country":1.0,"State":1.0,"County":1.0,"City":1.0,"Street":[1.0],"PostalCode":1.0},"Location":{"LocationId":"NT_qFSOdJgvYJHqfaU9qKP.1C_l_808232734_L","LocationType":"point","DisplayPosition":{"Latitude":38.3849156,"Longitude":-4.8476383},"MapView":{"TopLeft":{"Latitude":38.38501,"Longitude":-4.84782},"BottomRight":{"Latitude":38.38456,"Longitude":-4.84759}},"Address":{"Label":"Calle Felipe II, 14400 Pozoblanco (Córdoba), España","Country":"ESP","State":"Andalucía","County":"Córdoba","City":"Pozoblanco","Street":"Calle Felipe II","PostalCode":"14400","AdditionalData":[{"value":"España","key":"CountryName"},{"value":"Andalucía","key":"StateName"},{"value":"Córdoba","key":"CountyName"}]},"MapReference":{"ReferenceId":"808232734","Spot":0.79,"SideOfStreet":"left","CountryId":"20215059","StateId":"20221885","CountyId":"20221888","CityId":"20234224"}}},{"Relevance":1.0,"Distance":47.4,"MatchLevel":"houseNumber","MatchQuality":{"Country":1.0,"State":1.0,"County":1.0,"City":1.0,"Street":[1.0],"HouseNumber":1.0,"PostalCode":1.0},"MatchType":"interpolated","Location":{"LocationId":"NT_WDZihLnIRxD-ZRqpNG79dA_ygD","LocationType":"point","DisplayPosition":{"Latitude":38.38561,"Longitude":-4.84792},"MapView":{"TopLeft":{"Latitude":38.3867342,"Longitude":-4.8493541},"BottomRight":{"Latitude":38.3844858,"Longitude":-4.8464859}},"Address":{"Label":"Avenida de Carlos Cano, 28, 14400 Pozoblanco (Córdoba), España","Country":"ESP","State":"Andalucía","County":"Córdoba","City":"Pozoblanco","Street":"Avenida de Carlos Cano","HouseNumber":"28","PostalCode":"14400","AdditionalData":[{"value":"España","key":"CountryName"},{"value":"Andalucía","key":"StateName"},{"value":"Córdoba","key":"CountyName"}]},"MapReference":{"ReferenceId":"808232725","Spot":0.35,"SideOfStreet":"left","CountryId":"20215059","StateId":"20221885","CountyId":"20221888","CityId":"20234224","AddressId":"268285301","RoadLinkId":"195581457"}}},{"Relevance":1.0,"Distance":55.1,"MatchLevel":"houseNumber","MatchQuality":{"Country":1.0,"State":1.0,"County":1.0,"City":1.0,"Street":[1.0],"HouseNumber":1.0,"PostalCode":1.0},"MatchType":"interpolated","Location":{"LocationId":"NT_b0wZiD5-F6MErlcnDnc9lD_xAD","LocationType":"point","DisplayPosition":{"Latitude":38.38498,"Longitude":-4.84749},"MapView":{"TopLeft":{"Latitude":38.3861042,"Longitude":-4.8489241},"BottomRight":{"Latitude":38.3838558,"Longitude":-4.8460559}},"Address":{"Label":"Calle María Zambrano, 10, 14400 Pozoblanco (Córdoba), España","Country":"ESP","State":"Andalucía","County":"Córdoba","City":"Pozoblanco","Street":"Calle María Zambrano","HouseNumber":"10","PostalCode":"14400","AdditionalData":[{"value":"España","key":"CountryName"},{"value":"Andalucía","key":"StateName"},{"value":"Córdoba","key":"CountyName"}]},"MapReference":{"ReferenceId":"808232718","Spot":0.9,"SideOfStreet":"left","CountryId":"20215059","StateId":"20221885","CountyId":"20221888","CityId":"20234224","AddressId":"268571227","RoadLinkId":"195581450"}}},{"Relevance":1.0,"Distance":69.7,"MatchLevel":"street","MatchQuality":{"Country":1.0,"State":1.0,"County":1.0,"City":1.0,"Street":[1.0],"PostalCode":1.0},"Location":{"LocationId":"NT_qFSOdJgvYJHqfaU9qKP.1C_l_808232733_L","LocationType":"point","DisplayPosition":{"Latitude":38.38456,"Longitude":-4.84782},"MapView":{"TopLeft":{"Latitude":38.38456,"Longitude":-4.84808},"BottomRight":{"Latitude":38.38411,"Longitude":-4.84782}},"Address":{"Label":"Calle Felipe II, 14400 Pozoblanco (Córdoba), España","Country":"ESP","State":"Andalucía","County":"Córdoba","City":"Pozoblanco","Street":"Calle Felipe II","PostalCode":"14400","AdditionalData":[{"value":"España","key":"CountryName"},{"value":"Andalucía","key":"StateName"},{"value":"Córdoba","key":"CountyName"}]},"MapReference":{"ReferenceId":"808232733","Spot":1.0,"SideOfStreet":"left","CountryId":"20215059","StateId":"20221885","CountyId":"20221888","CityId":"20234224"}}},{"Relevance":1.0,"Distance":71.9,"MatchLevel":"houseNumber","MatchQuality":{"Country":1.0,"State":1.0,"County":1.0,"City":1.0,"Street":[1.0],"HouseNumber":1.0,"PostalCode":1.0},"MatchType":"interpolated","Location":{"LocationId":"NT_xmgJh9xMgOt0Sf8h02URuD_xA","LocationType":"point","DisplayPosition":{"Latitude":38.38453,"Longitude":-4.84772},"MapView":{"TopLeft":{"Latitude":38.3856542,"Longitude":-4.8491541},"BottomRight":{"Latitude":38.3834058,"Longitude":-4.8462859}},"Address":{"Label":"Calle Rosalía de Castro, 1, 14400 Pozoblanco (Córdoba), España","Country":"ESP","State":"Andalucía","County":"Córdoba","City":"Pozoblanco","Street":"Calle Rosalía de Castro","HouseNumber":"1","PostalCode":"14400","AdditionalData":[{"value":"España","key":"CountryName"},{"value":"Andalucía","key":"StateName"},{"value":"Córdoba","key":"CountyName"}]},"MapReference":{"ReferenceId":"808232737","Spot":0.91,"SideOfStreet":"right","CountryId":"20215059","StateId":"20221885","CountyId":"20221888","CityId":"20234224","AddressId":"268726966","RoadLinkId":"195581471"}}}]}]}}