{"Response":{"MetaInfo":{"Timestamp":"2020-03-28T09:46:46.958+0000","NextPageInformation":"2"},"View":[{"_type":"SearchResultsViewType","ViewId":0,"Result":[{"Relevance":1.0,"Distance":-3148.2,"MatchLevel":"landmark","MatchQuality":{"Country":1.0,"State":1.0,"County":1.0,"Name":1.0},"Location":{"LocationId":"NT_7qnl2Eern3TGhIhelG-gYC","LocationType":"park","Name":"P. Nat. de Cazorla, Segura y Villas","DisplayPosition":{"Latitude":38.10924,"Longitude":-2.68029},"MapView":{"TopLeft":{"Latitude":38.51351,"Longitude":-3.10528},"BottomRight":{"Latitude":37.70496,"Longitude":-2.43513}},"Address":{"Label":"(Jaén), España","Country":"ESP","State":"Andalucía","County":"Jaén","AdditionalData":[{"value":"España","key":"CountryName"},{"value":"Andalucía","key":"StateName"},{"value":"Jaén","key":"CountyName"}]},"MapReference":{"CountryId":"20215059","StateId":"20221885","CountyId":"20221891","PlaceId":"58615227"}}},{"Relevance":1.0,"Distance":0.0,"Direction":0.0,"MatchLevel":"city","MatchQuality":{"Country":1.0,"State":1.0,"County":1.0,"City":1.0,"PostalCode":1.0},"Location":{"LocationId":"NT_qf3sLHcPMK1qIcQavvLaLC","LocationType":"point","DisplayPosition":{"Latitude":38.387075,"Longitude":-2.5806825},"MapView":{"TopLeft":{"Latitude":38.51351,"Longitude":-2.65712},"BottomRight":{"Latitude":38.27774,"Longitude":-2.48007}},"Address":{"Label":"Siles, Andalucía, España","Country":"ESP","State":"Andalucía","County":"Jaén","City":"Siles","PostalCode":"23380","AdditionalData":[{"value":"España","key":"CountryName"},{"value":"Andalucía","key":"StateName"},{"value":"Jaén","key":"CountyName"}]},"MapReference":{"ReferenceId":"1056216826","SideOfStreet":"neither","CountryId":"20215059","StateId":"20221885","CountyId":"20221891","CityId":"20235708"}}},{"Relevance":1.0,"Distance":4.4,"MatchLevel":"houseNumber","MatchQuality":{"Country":1.0,"State":1.0,"County":1.0,"City":1.0,"Street":[1.0],"HouseNumber":1.0,"PostalCode":1.0},"MatchType":"interpolated","Location":{"LocationId":"NT_jNxWAgdJEXj1gUDhCKL-7C_0A","LocationType":"point","DisplayPosition":{"Latitude":38.38704,"Longitude":-2.58066},"MapView":{"TopLeft":{"Latitude":38.3881642,"Longitude":-2.5820942},"BottomRight":{"Latitude":38.3859158,"Longitude":-2.5792258}},"Address":{"Label":"Calle Rodete, 4, 23380 Siles (Jaén), España","Country":"ESP","State":"Andalucía","County":"Jaén","City":"Siles","Street":"Calle Rodete","HouseNumber":"4","PostalCode":"23380","AdditionalData":[{"value":"España","key":"CountryName"},{"value":"Andalucía","key":"StateName"},{"value":"Jaén","key":"CountyName"}]},"MapReference":{"ReferenceId":"1188591012","Spot":0.68,"SideOfStreet":"left","CountryId":"20215059","StateId":"20221885","CountyId":"20221891","CityId":"20235708","AddressId":"404908742","RoadLinkId":"497501439"}}},{"Relevance":1.0,"Distance":16.0,"MatchLevel":"houseNumber","MatchQuality":{"Country":1.0,"State":1.0,"County":1.0,"City":1.0,"Street":[1.0],"HouseNumber":1.0,"PostalCode":1.0},"MatchType":"interpolated","Location":{"LocationId":"NT_khd0czQ0p-WuE16WvWtl1B_zA","LocationType":"point","DisplayPosition":{"Latitude":38.38696,"Longitude":-2.5809},"MapView":{"TopLeft":{"Latitude":38.3880842,"Longitude":-2.5823342},"BottomRight":{"Latitude":38.3858358,"Longitude":-2.5794658}},"Address":{"Label":"Calle Cava, 3, 23380 Siles (Jaén), España","Country":"ESP","State":"Andalucía","County":"Jaén","City":"Siles","Street":"Calle Cava","HouseNumber":"3","PostalCode":"23380","AdditionalData":[{"value":"España","key":"CountryName"},{"value":"Andalucía","key":"StateName"},{"value":"Jaén","key":"CountyName"}]},"MapReference":{"ReferenceId":"549345307","Spot":0.59,"SideOfStreet":"right","CountryId":"20215059","StateId":"20221885","CountyId":"20221891","CityId":"20235708","AddressId":"404934707","RoadLinkId":"67255472"}}},{"Relevance":1.0,"Distance":17.0,"MatchLevel":"houseNumber","MatchQuality":{"Country":1.0,"State":1.0,"County":1.0,"City":1.0,"Street":[1.0],"HouseNumber":1.0,"PostalCode":1.0},"MatchType":"interpolated","Location":{"LocationId":"NT_RsFba7C4XODqeLPManjyeB_yA","LocationType":"point","DisplayPosition":{"Latitude":38.38721,"Longitude":-2.58051},"MapView":{"TopLeft":{"Latitude":38.3883342,"Longitude":-2.5819442},"BottomRight":{"Latitude":38.3860858,"Longitude":-2.5790758}},"Address":{"Label":"Calle Los Jardines, 2, 23380 Siles (Jaén), España","Country":"ESP","State":"Andalucía","County":"Jaén","City":"Siles","Street":"Calle Los Jardines","HouseNumber":"2","PostalCode":"23380","AdditionalData":[{"value":"España","key":"CountryName"},{"value":"Andalucía","key":"StateName"},{"value":"Jaén","key":"CountyName"}]},"MapReference":{"ReferenceId":"549345522","Spot":0.69,"SideOfStreet":"left","CountryId":"20215059","StateId":"20221885","CountyId":"20221891","CityId":"20235708","AddressId":"745952106","RoadLinkId":"66973890"}}},{"Relevance":1.0,"Distance":24.1,"MatchLevel":"street","MatchQuality":{"Country":1.0,"State":1.0,"County":1.0,"City":1.0,"Street":[1.0],"PostalCode":1.0},"Location":{"LocationId":"NT_jNxWAgdJEXj1gUDhCKL-7C_l_1188591014_R","LocationType":"point","DisplayPosition":{"Latitude":38.3872607,"Longitude":-2.580824},"MapView":{"TopLeft":{"Latitude":38.38734,"Longitude":-2.58093},"BottomRight":{"Latitude":38.38718,"Longitude":-2.58072}},"Address":{"Label":"Calle Rodete, 23380 Siles (Jaén), España","Country":"ESP","State":"Andalucía","County":"Jaén","City":"Siles","Street":"Calle Rodete","PostalCode":"23380","AdditionalData":[{"value":"España","key":"CountryName"},{"value":"Andalucía","key":"StateName"},{"value":"Jaén","key":"CountyName"}]},"MapReference":{"ReferenceId":"1188591014","Spot":0.5,"SideOfStreet":"right","CountryId":"20215059","StateId":"20221885","CountyId":"20221891","CityId":"20235708"}}},{"Relevance":1.0,"Distance":25.1,"MatchLevel":"houseNumber","MatchQuality":{"Country":1.0,"State":1.0,"County":1.0,"City":1.0,"Street":[1.0],"HouseNumber":1.0,"PostalCode":1.0},"MatchType":"interpolated","Location":{"LocationId":"NT_jNxWAgdJEXj1gUDhCKL-7C_yA","LocationType":"point","DisplayPosition":{"Latitude":38.38715,"Longitude":-2.58103},"MapView":{"TopLeft":{"Latitude":38.3882742,"Longitude":-2.5824642},"BottomRight":{"Latitude":38.3860258,"Longitude":-2.5795958}},"Address":{"Label":"Calle Rodete, 2, 23380 Siles (Jaén), España","Country":"ESP","State":"Andalucía","County":"Jaén","City":"Siles","Street":"Calle Rodete","HouseNumber":"2","PostalCode":"23380","AdditionalData":[{"value":"España","key":"CountryName"},{"value":"Andalucía","key":"StateName"},{"value":"Jaén","key":"CountyName"}]},"MapReference":{"ReferenceId":"1188591013","Spot":0.47,"SideOfStreet":"right","CountryId":"20215059","StateId":"20221885","CountyId":"20221891","CityId":"20235708","AddressId":"404908739","RoadLinkId":"497501440"}}},{"Relevance":1.0,"Distance":31.0,"MatchLevel":"houseNumber","MatchQuality":{"Country":1.0,"State":1.0,"County":1.0,"City":1.0,"Street":[1.0],"HouseNumber":1.0,"PostalCode":1.0},"MatchType":"interpolated","Location":{"LocationId":"NT_RsFba7C4XODqeLPManjyeB_1A","LocationType":"point","DisplayPosition":{"Latitude":38.38735,"Longitude":-2.58074},"MapView":{"TopLeft":{"Latitude":38.3884742,"Longitude":-2.5821742},"BottomRight":{"Latitude":38.3862258,"Longitude":-2.5793058}},"Address":{"Label":"Calle Los Jardines, 5, 23380 Siles (Jaén), España","Country":"ESP","State":"Andalucía","County":"Jaén","City":"Siles","Street":"Calle Los Jardines","HouseNumber":"5","PostalCode":"23380","AdditionalData":[{"value":"España","key":"CountryName"},{"value":"Andalucía","key":"StateName"},{"value":"Jaén","key":"CountyName"}]},"MapReference":{"ReferenceId":"549345523","Spot":0.06,"SideOfStreet":"right","CountryId":"20215059","StateId":"20221885","CountyId":"20221891","CityId":"20235708","AddressId":"404893584","RoadLinkId":"66943955"}}},{"Relevance":1.0,"Distance":34.0,"MatchLevel":"street","MatchQuality":{"Country":1.0,"State":1.0,"County":1.0,"City":1.0,"Street":[1.0],"PostalCode":1.0},"Location":{"LocationId":"NT_khd0czQ0p-WuE16WvWtl1B_l_549345570_R","LocationType":"point","DisplayPosition":{"Latitude":38.38704,"Longitude":-2.58107},"MapView":{"TopLeft":{"Latitude":38.38708,"Longitude":-2.5811},"BottomRight":{"Latitude":38.38704,"Longitude":-2.58107}},"Address":{"Label":"Calle Cava, 23380 Siles (Jaén), España","Country":"ESP","State":"Andalucía","County":"Jaén","City":"Siles","Street":"Calle Cava","PostalCode":"23380","AdditionalData":[{"value":"España","key":"CountryName"},{"value":"Andalucía","key":"StateName"},{"value":"Jaén","key":"CountyName"}]},"MapReference":{"ReferenceId":"549345570","Spot":0.0,"SideOfStreet":"right","CountryId":"20215059","StateId":"20221885","CountyId":"20221891","CityId":"20235708"}}},{"Relevance":1.0,"Distance":37.1,"MatchLevel":"houseNumber","MatchQuality":{"Country":1.0,"State":1.0,"County":1.0,"City":1.0,"Street":[1.0],"HouseNumber":1.0,"PostalCode":1.0},"MatchType":"interpolated","Location":{"LocationId":"NT_QOvTvyW6GX.5wQfxndf7DD_xA","LocationType":"point","DisplayPosition":{"Latitude":38.38701,"Longitude":-2.58116},"MapView":{"TopLeft":{"Latitude":38.3881342,"Longitude":-2.5825942},"BottomRight":{"Latitude":38.3858858,"Longitude":-2.5797258}},"Address":{"Label":"Calle Señora, 1, 23380 Siles (Jaén), España","Country":"ESP","State":"Andalucía","County":"Jaén","City":"Siles","Street":"Calle Señora","HouseNumber":"1","PostalCode":"23380","AdditionalData":[{"value":"España","key":"CountryName"},{"value":"Andalucía","key":"StateName"},{"value":"Jaén","key":"CountyName"}]},"MapReference":{"ReferenceId":"549345324","Spot":0.65,"SideOfStreet":"right","CountryId":"20215059","StateId":"20221885","CountyId":"20221891","CityId":"20235708","AddressId":"404723339","RoadLinkId":"66791589"}}}]}]}}