{"Response":{"MetaInfo":{"Timestamp":"2020-03-28T11:25:53.020+0000","NextPageInformation":"2"},"View":[{"_type":"SearchResultsViewType","ViewId":0,"Result":[{"Relevance":1.0,"Distance":-33.5,"MatchLevel":"landmark","MatchQuality":{"Country":1.0,"State":1.0,"County":1.0,"City":1.0,"Street":[1.0],"PostalCode":1.0,"Name":1.0},"Location":{"LocationId":"NT_QdCHROA9sw8AOQKC3DUrTA_p_rUqkRapSmw6jvDE3Btp96D","LocationType":"hospital","Name":"Ospedale San Bruno","DisplayPosition":{"Latitude":38.57579,"Longitude":16.32143},"MapView":{"TopLeft":{"Latitude":38.57726,"Longitude":16.32061},"BottomRight":{"Latitude":38.57577,"Longitude":16.32243}},"Address":{"Label":"Via Alfonso Scrivo, 89822 Serra San Bruno VV, Italia","Country":"ITA","State":"Calabria","County":"VV","City":"Serra San Bruno","Street":"Via Alfonso Scrivo","PostalCode":"89822","AdditionalData":[{"value":"Italia","key":"CountryName"},{"value":"Calabria","key":"StateName"},{"value":"Vibo Valentia","key":"CountyName"}]},"MapReference":{"CountryId":"20110484","StateId":"20221521","CountyId":"20232496","CityId":"20232606","PlaceId":"555811415"}}},{"Relevance":1.0,"Distance":0.0,"Direction":0.0,"MatchLevel":"city","MatchQuality":{"Country":1.0,"State":1.0,"County":1.0,"City":1.0,"PostalCode":1.0},"Location":{"LocationId":"NT_.6tANfvJjw.9noZEG65t8B","LocationType":"point","DisplayPosition":{"Latitude":38.5763877,"Longitude":16.3213064},"MapView":{"TopLeft":{"Latitude":38.59022,"Longitude":16.26349},"BottomRight":{"Latitude":38.51656,"Longitude":16.37377}},"Address":{"Label":"Serra San Bruno, Calabria, Italia","Country":"ITA","State":"Calabria","County":"VV","City":"Serra San Bruno","PostalCode":"89822","AdditionalData":[{"value":"Italia","key":"CountryName"},{"value":"Calabria","key":"StateName"},{"value":"Vibo Valentia","key":"CountyName"}]},"MapReference":{"ReferenceId":"585922237","SideOfStreet":"neither","CountryId":"20110484","StateId":"20221521","CountyId":"20232496","CityId":"20232606"}}},{"Relevance":1.0,"Distance":23.4,"MatchLevel":"street","MatchQuality":{"Country":1.0,"State":1.0,"County":1.0,"City":1.0,"PostalCode":1.0},"Location":{"LocationId":"NT_H036gWMxqAzgd1JwV46UwD_l_585921980_R","LocationType":"point","DisplayPosition":{"Latitude":38.5762467,"Longitude":16.321107},"MapView":{"TopLeft":{"Latitude":38.57706,"Longitude":16.32079},"BottomRight":{"Latitude":38.57579,"Longitude":16.32193}},"Address":{"Label":"89822 Serra San Bruno VV, Italia","Country":"ITA","State":"Calabria","County":"VV","City":"Serra San Bruno","PostalCode":"89822","AdditionalData":[{"value":"Italia","key":"CountryName"},{"value":"Calabria","key":"StateName"},{"value":"Vibo Valentia","key":"CountyName"}]},"MapReference":{"ReferenceId":"585921980","Spot":0.22,"SideOfStreet":"right","CountryId":"20110484","StateId":"20221521","CountyId":"20232496","CityId":"20232606"}}},{"Relevance":1.0,"Distance":55.7,"MatchLevel":"street","MatchQuality":{"Country":1.0,"State":1.0,"County":1.0,"City":1.0,"PostalCode":1.0},"Location":{"LocationId":"NT_H036gWMxqAzgd1JwV46UwD_l_1260210453_R","LocationType":"point","DisplayPosition":{"Latitude":38.5760707,"Longitude":16.3208095},"MapView":{"TopLeft":{"Latitude":38.57723,"Longitude":16.32007},"BottomRight":{"Latitude":38.57607,"Longitude":16.32081}},"Address":{"Label":"89822 Serra San Bruno VV, Italia","Country":"ITA","State":"Calabria","County":"VV","City":"Serra San Bruno","PostalCode":"89822","AdditionalData":[{"value":"Italia","key":"CountryName"},{"value":"Calabria","key":"StateName"},{"value":"Vibo Valentia","key":"CountyName"}]},"MapReference":{"ReferenceId":"1260210453","Spot":0.0,"SideOfStreet":"right","CountryId":"20110484","StateId":"20221521","CountyId":"20232496","CityId":"20232606"}}},{"Relevance":1.0,"Distance":55.8,"MatchLevel":"street","MatchQuality":{"Country":1.0,"State":1.0,"County":1.0,"City":1.0,"PostalCode":1.0},"Location":{"LocationId":"NT_H036gWMxqAzgd1JwV46UwD_l_1260210452_R","LocationType":"point","DisplayPosition":{"Latitude":38.57607,"Longitude":16.32081},"MapView":{"TopLeft":{"Latitude":38.57607,"Longitude":16.3205},"BottomRight":{"Latitude":38.57591,"Longitude":16.32081}},"Address":{"Label":"89822 Serra San Bruno VV, Italia","Country":"ITA","State":"Calabria","County":"VV","City":"Serra San Bruno","PostalCode":"89822","AdditionalData":[{"value":"Italia","key":"CountryName"},{"value":"Calabria","key":"StateName"},{"value":"Vibo Valentia","key":"CountyName"}]},"MapReference":{"ReferenceId":"1260210452","Spot":1.0,"SideOfStreet":"right","CountryId":"20110484","StateId":"20221521","CountyId":"20232496","CityId":"20232606"}}},{"Relevance":1.0,"Distance":67.3,"MatchLevel":"street","MatchQuality":{"Country":1.0,"State":1.0,"County":1.0,"City":1.0,"Street":[1.0],"PostalCode":1.0},"Location":{"LocationId":"NT_elnX-y2gm1EsrGs3H0EwXB_l_585921984_R","LocationType":"point","DisplayPosition":{"Latitude":38.57579,"Longitude":16.32143},"MapView":{"TopLeft":{"Latitude":38.57579,"Longitude":16.32143},"BottomRight":{"Latitude":38.57562,"Longitude":16.32152}},"Address":{"Label":"Via Alfonso Scrivo, 89822 Serra San Bruno VV, Italia","Country":"ITA","State":"Calabria","County":"VV","City":"Serra San Bruno","Street":"Via Alfonso Scrivo","PostalCode":"89822","AdditionalData":[{"value":"Italia","key":"CountryName"},{"value":"Calabria","key":"StateName"},{"value":"Vibo Valentia","key":"CountyName"}]},"MapReference":{"ReferenceId":"585921984","Spot":1.0,"SideOfStreet":"right","CountryId":"20110484","StateId":"20221521","CountyId":"20232496","CityId":"20232606"}}},{"Relevance":1.0,"Distance":77.3,"MatchLevel":"street","MatchQuality":{"Country":1.0,"State":1.0,"County":1.0,"City":1.0,"PostalCode":1.0},"Location":{"LocationId":"NT_H036gWMxqAzgd1JwV46UwD_l_562198371_L","LocationType":"point","DisplayPosition":{"Latitude":38.57587,"Longitude":16.3219},"MapView":{"TopLeft":{"Latitude":38.57616,"Longitude":16.3219},"BottomRight":{"Latitude":38.57536,"Longitude":16.32292}},"Address":{"Label":"89822 Serra San Bruno VV, Italia","Country":"ITA","State":"Calabria","County":"VV","City":"Serra San Bruno","PostalCode":"89822","AdditionalData":[{"value":"Italia","key":"CountryName"},{"value":"Calabria","key":"StateName"},{"value":"Vibo Valentia","key":"CountyName"}]},"MapReference":{"ReferenceId":"562198371","Spot":0.36,"SideOfStreet":"left","CountryId":"20110484","StateId":"20221521","CountyId":"20232496","CityId":"20232606"}}},{"Relevance":1.0,"Distance":85.5,"MatchLevel":"street","MatchQuality":{"Country":1.0,"State":1.0,"County":1.0,"City":1.0,"PostalCode":1.0},"Location":{"LocationId":"NT_H036gWMxqAzgd1JwV46UwD_l_1260210456_R","LocationType":"point","DisplayPosition":{"Latitude":38.575997,"Longitude":16.3204599},"MapView":{"TopLeft":{"Latitude":38.57633,"Longitude":16.32025},"BottomRight":{"Latitude":38.57591,"Longitude":16.3205}},"Address":{"Label":"89822 Serra San Bruno VV, Italia","Country":"ITA","State":"Calabria","County":"VV","City":"Serra San Bruno","PostalCode":"89822","AdditionalData":[{"value":"Italia","key":"CountryName"},{"value":"Calabria","key":"StateName"},{"value":"Vibo Valentia","key":"CountyName"}]},"MapReference":{"ReferenceId":"1260210456","Spot":0.2,"SideOfStreet":"right","CountryId":"20110484","StateId":"20221521","CountyId":"20232496","CityId":"20232606"}}},{"Relevance":1.0,"Distance":87.4,"MatchLevel":"street","MatchQuality":{"Country":1.0,"State":1.0,"County":1.0,"City":1.0,"Street":[1.0],"PostalCode":1.0},"Location":{"LocationId":"NT_elnX-y2gm1EsrGs3H0EwXB_l_585921990_R","LocationType":"point","DisplayPosition":{"Latitude":38.57562,"Longitude":16.32152},"MapView":{"TopLeft":{"Latitude":38.57562,"Longitude":16.32152},"BottomRight":{"Latitude":38.57541,"Longitude":16.32161}},"Address":{"Label":"Via Alfonso Scrivo, 89822 Serra San Bruno VV, Italia","Country":"ITA","State":"Calabria","County":"VV","City":"Serra San Bruno","Street":"Via Alfonso Scrivo","PostalCode":"89822","AdditionalData":[{"value":"Italia","key":"CountryName"},{"value":"Calabria","key":"StateName"},{"value":"Vibo Valentia","key":"CountyName"}]},"MapReference":{"ReferenceId":"585921990","Spot":1.0,"SideOfStreet":"right","CountryId":"20110484","StateId":"20221521","CountyId":"20232496","CityId":"20232606"}}},{"Relevance":1.0,"Distance":87.4,"MatchLevel":"street","MatchQuality":{"Country":1.0,"State":1.0,"County":1.0,"City":1.0,"PostalCode":1.0},"Location":{"LocationId":"NT_H036gWMxqAzgd1JwV46UwD_l_585921986_L","LocationType":"point","DisplayPosition":{"Latitude":38.57562,"Longitude":16.32152},"MapView":{"TopLeft":{"Latitude":38.57562,"Longitude":16.32145},"BottomRight":{"Latitude":38.57531,"Longitude":16.32152}},"Address":{"Label":"89822 Serra San Bruno VV, Italia","Country":"ITA","State":"Calabria","County":"VV","City":"Serra San Bruno","PostalCode":"89822","AdditionalData":[{"value":"Italia","key":"CountryName"},{"value":"Calabria","key":"StateName"},{"value":"Vibo Valentia","key":"CountyName"}]},"MapReference":{"ReferenceId":"585921986","Spot":1.0,"SideOfStreet":"left","CountryId":"20110484","StateId":"20221521","CountyId":"20232496","CityId":"20232606"}}}]}]}}