{"Response":{"MetaInfo":{"Timestamp":"2020-03-28T09:45:57.416+0000","NextPageInformation":"2"},"View":[{"_type":"SearchResultsViewType","ViewId":0,"Result":[{"Relevance":1.0,"Distance":0.0,"Direction":0.0,"MatchLevel":"city","MatchQuality":{"Country":1.0,"State":1.0,"County":1.0,"City":1.0,"PostalCode":1.0},"Location":{"LocationId":"NT_3YvytO.4ghiXxyiP0ByAeB","LocationType":"point","DisplayPosition":{"Latitude":38.5779964,"Longitude":-5.8370174},"MapView":{"TopLeft":{"Latitude":38.64208,"Longitude":-5.94258},"BottomRight":{"Latitude":38.53911,"Longitude":-5.74913}},"Address":{"Label":"Retamal de Llerena, Extremadura, España","Country":"ESP","State":"Extremadura","County":"Badajoz","City":"Retamal de Llerena","PostalCode":"06442","AdditionalData":[{"value":"España","key":"CountryName"},{"value":"Extremadura","key":"StateName"},{"value":"Badajoz","key":"CountyName"}]},"MapReference":{"ReferenceId":"948166472","SideOfStreet":"neither","CountryId":"20215059","StateId":"20226788","CountyId":"20226789","CityId":"20274280"}}},{"Relevance":1.0,"Distance":15.1,"MatchLevel":"houseNumber","MatchQuality":{"Country":1.0,"State":1.0,"County":1.0,"City":1.0,"Street":[1.0],"HouseNumber":1.0,"PostalCode":1.0},"MatchType":"interpolated","Location":{"LocationId":"NT_F2t6SOsN4WAFNlCpi3cuNB_zME","LocationType":"point","DisplayPosition":{"Latitude":38.57783,"Longitude":-5.83717},"MapView":{"TopLeft":{"Latitude":38.5789542,"Longitude":-5.838608},"BottomRight":{"Latitude":38.5767058,"Longitude":-5.835732}},"Address":{"Label":"Calle Virgen de Guadalupe, 3C, 06442 Retamal de Llerena (Badajoz), España","Country":"ESP","State":"Extremadura","County":"Badajoz","City":"Retamal de Llerena","Street":"Calle Virgen de Guadalupe","HouseNumber":"3C","PostalCode":"06442","AdditionalData":[{"value":"España","key":"CountryName"},{"value":"Extremadura","key":"StateName"},{"value":"Badajoz","key":"CountyName"}]},"MapReference":{"ReferenceId":"958468432","Spot":0.03,"SideOfStreet":"right","CountryId":"20215059","StateId":"20226788","CountyId":"20226789","CityId":"20274280","AddressId":"350694878","RoadLinkId":"301449697"}}},{"Relevance":1.0,"Distance":16.4,"MatchLevel":"houseNumber","MatchQuality":{"Country":1.0,"State":1.0,"County":1.0,"City":1.0,"Street":[1.0],"HouseNumber":1.0,"PostalCode":1.0},"MatchType":"interpolated","Location":{"LocationId":"NT_F2t6SOsN4WAFNlCpi3cuNB_1A","LocationType":"point","DisplayPosition":{"Latitude":38.57779,"Longitude":-5.83693},"MapView":{"TopLeft":{"Latitude":38.5789142,"Longitude":-5.838368},"BottomRight":{"Latitude":38.5766658,"Longitude":-5.835492}},"Address":{"Label":"Calle Virgen de Guadalupe, 5, 06442 Retamal de Llerena (Badajoz), España","Country":"ESP","State":"Extremadura","County":"Badajoz","City":"Retamal de Llerena","Street":"Calle Virgen de Guadalupe","HouseNumber":"5","PostalCode":"06442","AdditionalData":[{"value":"España","key":"CountryName"},{"value":"Extremadura","key":"StateName"},{"value":"Badajoz","key":"CountyName"}]},"MapReference":{"ReferenceId":"958468431","Spot":0.5,"SideOfStreet":"right","CountryId":"20215059","StateId":"20226788","CountyId":"20226789","CityId":"20274280","AddressId":"417044707","RoadLinkId":"301449696"}}},{"Relevance":1.0,"Distance":27.0,"MatchLevel":"houseNumber","MatchQuality":{"Country":1.0,"State":1.0,"County":1.0,"City":1.0,"Street":[1.0],"HouseNumber":1.0,"PostalCode":1.0},"MatchType":"interpolated","Location":{"LocationId":"NT_F2t6SOsN4WAFNlCpi3cuNB_0A","LocationType":"point","DisplayPosition":{"Latitude":38.5778,"Longitude":-5.8372},"MapView":{"TopLeft":{"Latitude":38.5789242,"Longitude":-5.838638},"BottomRight":{"Latitude":38.5766758,"Longitude":-5.835762}},"Address":{"Label":"Calle Virgen de Guadalupe, 4, 06442 Retamal de Llerena (Badajoz), España","Country":"ESP","State":"Extremadura","County":"Badajoz","City":"Retamal de Llerena","Street":"Calle Virgen de Guadalupe","HouseNumber":"4","PostalCode":"06442","AdditionalData":[{"value":"España","key":"CountryName"},{"value":"Extremadura","key":"StateName"},{"value":"Badajoz","key":"CountyName"}]},"MapReference":{"ReferenceId":"564450218","Spot":0.95,"SideOfStreet":"right","CountryId":"20215059","StateId":"20226788","CountyId":"20226789","CityId":"20274280","AddressId":"350750952","RoadLinkId":"66890526"}}},{"Relevance":1.0,"Distance":57.5,"MatchLevel":"houseNumber","MatchQuality":{"Country":1.0,"State":1.0,"County":1.0,"City":1.0,"Street":[1.0],"HouseNumber":1.0,"PostalCode":1.0},"MatchType":"interpolated","Location":{"LocationId":"NT_F2t6SOsN4WAFNlCpi3cuNB_3A","LocationType":"point","DisplayPosition":{"Latitude":38.57773,"Longitude":-5.83641},"MapView":{"TopLeft":{"Latitude":38.5788542,"Longitude":-5.837848},"BottomRight":{"Latitude":38.5766058,"Longitude":-5.834972}},"Address":{"Label":"Calle Virgen de Guadalupe, 7, 06442 Retamal de Llerena (Badajoz), España","Country":"ESP","State":"Extremadura","County":"Badajoz","City":"Retamal de Llerena","Street":"Calle Virgen de Guadalupe","HouseNumber":"7","PostalCode":"06442","AdditionalData":[{"value":"España","key":"CountryName"},{"value":"Extremadura","key":"StateName"},{"value":"Badajoz","key":"CountyName"}]},"MapReference":{"ReferenceId":"1202724764","Spot":0.85,"SideOfStreet":"right","CountryId":"20215059","StateId":"20226788","CountyId":"20226789","CityId":"20274280","AddressId":"364698706","RoadLinkId":"515616164"}}},{"Relevance":1.0,"Distance":70.9,"MatchLevel":"houseNumber","MatchQuality":{"Country":1.0,"State":1.0,"County":1.0,"City":1.0,"Street":[1.0],"HouseNumber":1.0,"PostalCode":1.0},"MatchType":"interpolated","Location":{"LocationId":"NT_RXBjs.whuQ.KhDlJuDLihD_xQD","LocationType":"point","DisplayPosition":{"Latitude":38.57857,"Longitude":-5.83655},"MapView":{"TopLeft":{"Latitude":38.5796942,"Longitude":-5.837988},"BottomRight":{"Latitude":38.5774458,"Longitude":-5.835112}},"Address":{"Label":"Calle Nueva, 14, 06442 Retamal de Llerena (Badajoz), España","Country":"ESP","State":"Extremadura","County":"Badajoz","City":"Retamal de Llerena","Street":"Calle Nueva","HouseNumber":"14","PostalCode":"06442","AdditionalData":[{"value":"España","key":"CountryName"},{"value":"Extremadura","key":"StateName"},{"value":"Badajoz","key":"CountyName"}]},"MapReference":{"ReferenceId":"573472004","Spot":0.88,"SideOfStreet":"left","CountryId":"20215059","StateId":"20226788","CountyId":"20226789","CityId":"20274280","AddressId":"350648719","RoadLinkId":"67314490"}}},{"Relevance":1.0,"Distance":87.0,"MatchLevel":"street","MatchQuality":{"Country":1.0,"State":1.0,"County":1.0,"City":1.0,"Street":[1.0],"PostalCode":1.0},"Location":{"LocationId":"NT_RXBjs.whuQ.KhDlJuDLihD_l_573472006_L","LocationType":"point","DisplayPosition":{"Latitude":38.57868,"Longitude":-5.83653},"MapView":{"TopLeft":{"Latitude":38.57868,"Longitude":-5.83653},"BottomRight":{"Latitude":38.57862,"Longitude":-5.83641}},"Address":{"Label":"Calle Nueva, 06442 Retamal de Llerena (Badajoz), España","Country":"ESP","State":"Extremadura","County":"Badajoz","City":"Retamal de Llerena","Street":"Calle Nueva","PostalCode":"06442","AdditionalData":[{"value":"España","key":"CountryName"},{"value":"Extremadura","key":"StateName"},{"value":"Badajoz","key":"CountyName"}]},"MapReference":{"ReferenceId":"573472006","Spot":1.0,"SideOfStreet":"left","CountryId":"20215059","StateId":"20226788","CountyId":"20226789","CityId":"20274280"}}},{"Relevance":1.0,"Distance":88.6,"MatchLevel":"houseNumber","MatchQuality":{"Country":1.0,"State":1.0,"County":1.0,"City":1.0,"Street":[1.0],"HouseNumber":1.0,"PostalCode":1.0},"MatchType":"interpolated","Location":{"LocationId":"NT_RXBjs.whuQ.KhDlJuDLihD_xIDR","LocationType":"point","DisplayPosition":{"Latitude":38.57885,"Longitude":-5.83689},"MapView":{"TopLeft":{"Latitude":38.5799742,"Longitude":-5.838328},"BottomRight":{"Latitude":38.5777258,"Longitude":-5.835452}},"Address":{"Label":"Calle Nueva, 12D, 06442 Retamal de Llerena (Badajoz), España","Country":"ESP","State":"Extremadura","County":"Badajoz","City":"Retamal de Llerena","Street":"Calle Nueva","HouseNumber":"12D","PostalCode":"06442","AdditionalData":[{"value":"España","key":"CountryName"},{"value":"Extremadura","key":"StateName"},{"value":"Badajoz","key":"CountyName"}]},"MapReference":{"ReferenceId":"573472005","Spot":0.35,"SideOfStreet":"left","CountryId":"20215059","StateId":"20226788","CountyId":"20226789","CityId":"20274280","AddressId":"417048288","RoadLinkId":"67007971"}}},{"Relevance":1.0,"Distance":90.0,"MatchLevel":"houseNumber","MatchQuality":{"Country":1.0,"State":1.0,"County":1.0,"City":1.0,"Street":[1.0],"HouseNumber":1.0,"PostalCode":1.0},"MatchType":"interpolated","Location":{"LocationId":"NT_RXBjs.whuQ.KhDlJuDLihD_5A","LocationType":"point","DisplayPosition":{"Latitude":38.57854,"Longitude":-5.83625},"MapView":{"TopLeft":{"Latitude":38.5796642,"Longitude":-5.837688},"BottomRight":{"Latitude":38.5774158,"Longitude":-5.834812}},"Address":{"Label":"Calle Nueva, 9, 06442 Retamal de Llerena (Badajoz), España","Country":"ESP","State":"Extremadura","County":"Badajoz","City":"Retamal de Llerena","Street":"Calle Nueva","HouseNumber":"9","PostalCode":"06442","AdditionalData":[{"value":"España","key":"CountryName"},{"value":"Extremadura","key":"StateName"},{"value":"Badajoz","key":"CountyName"}]},"MapReference":{"ReferenceId":"1203113508","Spot":0.92,"SideOfStreet":"right","CountryId":"20215059","StateId":"20226788","CountyId":"20226789","CityId":"20274280","AddressId":"782160772","RoadLinkId":"516062430"}}},{"Relevance":1.0,"Distance":92.3,"MatchLevel":"houseNumber","MatchQuality":{"Country":1.0,"State":1.0,"County":1.0,"City":1.0,"Street":[1.0],"HouseNumber":1.0,"PostalCode":1.0},"MatchType":"interpolated","Location":{"LocationId":"NT_q9nX.ZmS2hmq1DsGE1D2AB_l_564450219_R_zED","LocationType":"point","DisplayPosition":{"Latitude":38.5780369,"Longitude":-5.8382377},"MapView":{"TopLeft":{"Latitude":38.579161,"Longitude":-5.8396757},"BottomRight":{"Latitude":38.5769127,"Longitude":-5.8367997}},"Address":{"Label":"Calle Zurbarán, 31, 06442 Retamal de Llerena (Badajoz), España","Country":"ESP","State":"Extremadura","County":"Badajoz","City":"Retamal de Llerena","Street":"Calle Zurbarán","HouseNumber":"31","PostalCode":"06442","AdditionalData":[{"value":"España","key":"CountryName"},{"value":"Extremadura","key":"StateName"},{"value":"Badajoz","key":"CountyName"}]},"MapReference":{"ReferenceId":"564450219","Spot":0.6,"SideOfStreet":"right","CountryId":"20215059","StateId":"20226788","CountyId":"20226789","CityId":"20274280"}}}]}]}}