{"Response":{"MetaInfo":{"Timestamp":"2020-03-28T09:59:35.859+0000","NextPageInformation":"2"},"View":[{"_type":"SearchResultsViewType","ViewId":0,"Result":[{"Relevance":1.0,"Distance":0.0,"Direction":0.0,"MatchLevel":"district","MatchQuality":{"Country":1.0,"County":1.0,"City":1.0,"District":1.0,"PostalCode":1.0},"Location":{"LocationId":"NT_JHYbRVNFw8dWwXAcQF07TD","LocationType":"point","DisplayPosition":{"Latitude":38.5783383,"Longitude":-7.9099139},"MapView":{"TopLeft":{"Latitude":38.61989,"Longitude":-7.93547},"BottomRight":{"Latitude":38.54069,"Longitude":-7.86745}},"Address":{"Label":"Évora, Portugal","Country":"PRT","County":"Évora","City":"Évora","District":"Évora","PostalCode":"7000-749","AdditionalData":[{"value":"Portugal","key":"CountryName"},{"value":"Évora","key":"CountyName"}]},"MapReference":{"ReferenceId":"855293840","SideOfStreet":"neither","CountryId":"20317122","CountyId":"20318723","CityId":"20318758","DistrictId":"20404516"}}},{"Relevance":1.0,"Distance":47.4,"MatchLevel":"houseNumber","MatchQuality":{"Country":1.0,"County":1.0,"City":1.0,"District":1.0,"Street":[1.0],"HouseNumber":1.0,"PostalCode":1.0},"MatchType":"interpolated","Location":{"LocationId":"NT_HqS-wuTtVAI7Z1k4fozn3D_1A","LocationType":"point","DisplayPosition":{"Latitude":38.57823,"Longitude":-7.90926},"MapView":{"TopLeft":{"Latitude":38.5793542,"Longitude":-7.910698},"BottomRight":{"Latitude":38.5771058,"Longitude":-7.907822}},"Address":{"Label":"Rua Ferragial do Poço Negro 5, 7005-204 Évora, Portugal","Country":"PRT","County":"Évora","City":"Évora","District":"Évora","Street":"Rua Ferragial do Poço Negro","HouseNumber":"5","PostalCode":"7005-204","AdditionalData":[{"value":"Portugal","key":"CountryName"},{"value":"Évora","key":"CountyName"}]},"MapReference":{"ReferenceId":"588768853","Spot":0.09,"SideOfStreet":"left","CountryId":"20317122","CountyId":"20318723","CityId":"20318758","DistrictId":"20404516","AddressId":"377389173","RoadLinkId":"249503747"}}},{"Relevance":1.0,"Distance":72.3,"MatchLevel":"houseNumber","MatchQuality":{"Country":1.0,"County":1.0,"City":1.0,"District":1.0,"Street":[1.0],"HouseNumber":1.0,"PostalCode":1.0},"MatchType":"interpolated","Location":{"LocationId":"NT_Kz.iKnr9yF0Wp-vMdSp5qD_xgD","LocationType":"point","DisplayPosition":{"Latitude":38.57795,"Longitude":-7.91071},"MapView":{"TopLeft":{"Latitude":38.5790742,"Longitude":-7.912148},"BottomRight":{"Latitude":38.5768258,"Longitude":-7.909272}},"Address":{"Label":"Estrada do Penedo de São Bartolomeu 18, 7005 Évora, Portugal","Country":"PRT","County":"Évora","City":"Évora","District":"Évora","Street":"Estrada do Penedo de São Bartolomeu","HouseNumber":"18","PostalCode":"7005","AdditionalData":[{"value":"Portugal","key":"CountryName"},{"value":"Évora","key":"CountyName"}]},"MapReference":{"ReferenceId":"855294891","Spot":0.22,"SideOfStreet":"right","CountryId":"20317122","CountyId":"20318723","CityId":"20318758","DistrictId":"20404516","AddressId":"377377999","RoadLinkId":"233166596"}}},{"Relevance":1.0,"Distance":72.4,"MatchLevel":"street","MatchQuality":{"Country":1.0,"County":1.0,"City":1.0,"District":1.0,"PostalCode":1.0},"Location":{"LocationId":"NT_7UPdVR2WYJKm-XcGZKkO4C_l_588740940_L","LocationType":"point","DisplayPosition":{"Latitude":38.57799,"Longitude":-7.90921},"MapView":{"TopLeft":{"Latitude":38.57799,"Longitude":-7.90921},"BottomRight":{"Latitude":38.57785,"Longitude":-7.909}},"Address":{"Label":"7000 Évora, Portugal","Country":"PRT","County":"Évora","City":"Évora","District":"Évora","PostalCode":"7000","AdditionalData":[{"value":"Portugal","key":"CountryName"},{"value":"Évora","key":"CountyName"}]},"MapReference":{"ReferenceId":"588740940","Spot":1.0,"SideOfStreet":"left","CountryId":"20317122","CountyId":"20318723","CityId":"20318758","DistrictId":"20404516"}}},{"Relevance":1.0,"Distance":72.4,"MatchLevel":"street","MatchQuality":{"Country":1.0,"County":1.0,"City":1.0,"District":1.0,"PostalCode":1.0},"Location":{"LocationId":"NT_7UPdVR2WYJKm-XcGZKkO4C_l_588740943_L","LocationType":"point","DisplayPosition":{"Latitude":38.57799,"Longitude":-7.90921},"MapView":{"TopLeft":{"Latitude":38.57806,"Longitude":-7.90921},"BottomRight":{"Latitude":38.57799,"Longitude":-7.90913}},"Address":{"Label":"7000 Évora, Portugal","Country":"PRT","County":"Évora","City":"Évora","District":"Évora","PostalCode":"7000","AdditionalData":[{"value":"Portugal","key":"CountryName"},{"value":"Évora","key":"CountyName"}]},"MapReference":{"ReferenceId":"588740943","Spot":0.0,"SideOfStreet":"left","CountryId":"20317122","CountyId":"20318723","CityId":"20318758","DistrictId":"20404516"}}},{"Relevance":1.0,"Distance":74.8,"MatchLevel":"street","MatchQuality":{"Country":1.0,"County":1.0,"City":1.0,"District":1.0,"PostalCode":1.0},"Location":{"LocationId":"NT_7UPdVR2WYJKm-XcGZKkO4C_l_588740942_R","LocationType":"point","DisplayPosition":{"Latitude":38.57806,"Longitude":-7.90913},"MapView":{"TopLeft":{"Latitude":38.57807,"Longitude":-7.90913},"BottomRight":{"Latitude":38.57798,"Longitude":-7.90891}},"Address":{"Label":"7000 Évora, Portugal","Country":"PRT","County":"Évora","City":"Évora","District":"Évora","PostalCode":"7000","AdditionalData":[{"value":"Portugal","key":"CountryName"},{"value":"Évora","key":"CountyName"}]},"MapReference":{"ReferenceId":"588740942","Spot":1.0,"SideOfStreet":"right","CountryId":"20317122","CountyId":"20318723","CityId":"20318758","DistrictId":"20404516"}}},{"Relevance":1.0,"Distance":83.4,"MatchLevel":"houseNumber","MatchQuality":{"Country":1.0,"County":1.0,"City":1.0,"District":1.0,"Street":[1.0],"HouseNumber":1.0,"PostalCode":1.0},"MatchType":"interpolated","Location":{"LocationId":"NT_F.LwUpJ4qyEdaCcHwAV3oB_4A","LocationType":"point","DisplayPosition":{"Latitude":38.57749,"Longitude":-7.91006},"MapView":{"TopLeft":{"Latitude":38.5786142,"Longitude":-7.911498},"BottomRight":{"Latitude":38.5763658,"Longitude":-7.908622}},"Address":{"Label":"N18 8, 7005-863 Évora, Portugal","Country":"PRT","County":"Évora","City":"Évora","District":"Évora","Street":"N18","HouseNumber":"8","PostalCode":"7005-863","AdditionalData":[{"value":"Portugal","key":"CountryName"},{"value":"Évora","key":"CountyName"}]},"MapReference":{"ReferenceId":"1165431146","Spot":0.04,"SideOfStreet":"left","CountryId":"20317122","CountyId":"20318723","CityId":"20318758","DistrictId":"20404516","AddressId":"377390507","RoadLinkId":"471876585"}}},{"Relevance":1.0,"Distance":89.7,"MatchLevel":"street","MatchQuality":{"Country":1.0,"County":1.0,"City":1.0,"District":1.0,"Street":[1.0],"PostalCode":1.0},"Location":{"LocationId":"NT_Kz.iKnr9yF0Wp-vMdSp5qD_l_855294893_R","LocationType":"point","DisplayPosition":{"Latitude":38.5780031,"Longitude":-7.9108525},"MapView":{"TopLeft":{"Latitude":38.57934,"Longitude":-7.91133},"BottomRight":{"Latitude":38.57751,"Longitude":-7.91068}},"Address":{"Label":"Estrada do Penedo de São Bartolomeu, 7005 Évora, Portugal","Country":"PRT","County":"Évora","City":"Évora","District":"Évora","Street":"Estrada do Penedo de São Bartolomeu","PostalCode":"7005","AdditionalData":[{"value":"Portugal","key":"CountryName"},{"value":"Évora","key":"CountyName"}]},"MapReference":{"ReferenceId":"855294893","Spot":0.27,"SideOfStreet":"right","CountryId":"20317122","CountyId":"20318723","CityId":"20318758","DistrictId":"20404516"}}},{"Relevance":1.0,"Distance":95.9,"MatchLevel":"street","MatchQuality":{"Country":1.0,"County":1.0,"City":1.0,"District":1.0,"Street":[1.0],"PostalCode":1.0},"Location":{"LocationId":"NT_F.LwUpJ4qyEdaCcHwAV3oB_l_588768852_L","LocationType":"point","DisplayPosition":{"Latitude":38.57798,"Longitude":-7.90891},"MapView":{"TopLeft":{"Latitude":38.57951,"Longitude":-7.90891},"BottomRight":{"Latitude":38.57795,"Longitude":-7.90543}},"Address":{"Label":"N18, 7005-863 Évora, Portugal","Country":"PRT","County":"Évora","City":"Évora","District":"Évora","Street":"N18","PostalCode":"7005-863","AdditionalData":[{"value":"Portugal","key":"CountryName"},{"value":"Évora","key":"CountyName"}]},"MapReference":{"ReferenceId":"588768852","Spot":0.0,"SideOfStreet":"left","CountryId":"20317122","CountyId":"20318723","CityId":"20318758","DistrictId":"20404516"}}},{"Relevance":1.0,"Distance":96.2,"MatchLevel":"street","MatchQuality":{"Country":1.0,"County":1.0,"City":1.0,"District":1.0,"PostalCode":1.0},"Location":{"LocationId":"NT_7UPdVR2WYJKm-XcGZKkO4C_l_588740941_L","LocationType":"point","DisplayPosition":{"Latitude":38.57785,"Longitude":-7.909},"MapView":{"TopLeft":{"Latitude":38.57798,"Longitude":-7.909},"BottomRight":{"Latitude":38.57785,"Longitude":-7.90891}},"Address":{"Label":"7000 Évora, Portugal","Country":"PRT","County":"Évora","City":"Évora","District":"Évora","PostalCode":"7000","AdditionalData":[{"value":"Portugal","key":"CountryName"},{"value":"Évora","key":"CountyName"}]},"MapReference":{"ReferenceId":"588740941","Spot":0.0,"SideOfStreet":"left","CountryId":"20317122","CountyId":"20318723","CityId":"20318758","DistrictId":"20404516"}}}]}]}}