{"Response":{"MetaInfo":{"Timestamp":"2020-03-28T09:40:18.777+0000","NextPageInformation":"2"},"View":[{"_type":"SearchResultsViewType","ViewId":0,"Result":[{"Relevance":1.0,"Distance":0.0,"Direction":0.0,"MatchLevel":"city","MatchQuality":{"Country":1.0,"State":1.0,"County":1.0,"City":1.0,"PostalCode":1.0},"Location":{"LocationId":"NT_q3J6S.o3ZsQTc1U3eM06sD","LocationType":"point","DisplayPosition":{"Latitude":38.5957838,"Longitude":-4.9022341},"MapView":{"TopLeft":{"Latitude":38.69674,"Longitude":-5.00707},"BottomRight":{"Latitude":38.54293,"Longitude":-4.74006}},"Address":{"Label":"Santa Eufemia, Andalucía, España","Country":"ESP","State":"Andalucía","County":"Córdoba","City":"Santa Eufemia","PostalCode":"14491","AdditionalData":[{"value":"España","key":"CountryName"},{"value":"Andalucía","key":"StateName"},{"value":"Córdoba","key":"CountyName"}]},"MapReference":{"ReferenceId":"559995767","SideOfStreet":"neither","CountryId":"20215059","StateId":"20221885","CountyId":"20221888","CityId":"20234309"}}},{"Relevance":1.0,"Distance":14.9,"MatchLevel":"houseNumber","MatchQuality":{"Country":1.0,"State":1.0,"County":1.0,"City":1.0,"Street":[1.0],"HouseNumber":1.0,"PostalCode":1.0},"MatchType":"interpolated","Location":{"LocationId":"NT_PNQbROMUrF05.IqOg9WB8B_3A","LocationType":"point","DisplayPosition":{"Latitude":38.59564,"Longitude":-4.90214},"MapView":{"TopLeft":{"Latitude":38.5967642,"Longitude":-4.9035783},"BottomRight":{"Latitude":38.5945158,"Longitude":-4.9007017}},"Address":{"Label":"Calle Pilar, 7, 14491 Santa Eufemia (Córdoba), España","Country":"ESP","State":"Andalucía","County":"Córdoba","City":"Santa Eufemia","Street":"Calle Pilar","HouseNumber":"7","PostalCode":"14491","AdditionalData":[{"value":"España","key":"CountryName"},{"value":"Andalucía","key":"StateName"},{"value":"Córdoba","key":"CountyName"}]},"MapReference":{"ReferenceId":"559985185","Spot":0.29,"SideOfStreet":"left","CountryId":"20215059","StateId":"20221885","CountyId":"20221888","CityId":"20234309","AddressId":"404887779","RoadLinkId":"67533948"}}},{"Relevance":1.0,"Distance":17.3,"MatchLevel":"houseNumber","MatchQuality":{"Country":1.0,"State":1.0,"County":1.0,"City":1.0,"Street":[1.0],"HouseNumber":1.0,"PostalCode":1.0},"MatchType":"interpolated","Location":{"LocationId":"NT_Ax9OTdyQARPzMF6USJlrAC_0A","LocationType":"point","DisplayPosition":{"Latitude":38.59581,"Longitude":-4.90245},"MapView":{"TopLeft":{"Latitude":38.5969342,"Longitude":-4.9038883},"BottomRight":{"Latitude":38.5946858,"Longitude":-4.9010117}},"Address":{"Label":"Calle Arco, 4, 14491 Santa Eufemia (Córdoba), España","Country":"ESP","State":"Andalucía","County":"Córdoba","City":"Santa Eufemia","Street":"Calle Arco","HouseNumber":"4","PostalCode":"14491","AdditionalData":[{"value":"España","key":"CountryName"},{"value":"Andalucía","key":"StateName"},{"value":"Córdoba","key":"CountyName"}]},"MapReference":{"ReferenceId":"559985123","Spot":0.36,"SideOfStreet":"right","CountryId":"20215059","StateId":"20221885","CountyId":"20221888","CityId":"20234309","AddressId":"404845959","RoadLinkId":"67353656"}}},{"Relevance":1.0,"Distance":17.5,"MatchLevel":"houseNumber","MatchQuality":{"Country":1.0,"State":1.0,"County":1.0,"City":1.0,"Street":[1.0],"HouseNumber":1.0,"PostalCode":1.0},"MatchType":"interpolated","Location":{"LocationId":"NT_tDeq6NvVJ2S9zUixIVxCeA_zA","LocationType":"point","DisplayPosition":{"Latitude":38.59602,"Longitude":-4.90201},"MapView":{"TopLeft":{"Latitude":38.5971442,"Longitude":-4.9034483},"BottomRight":{"Latitude":38.5948958,"Longitude":-4.9005717}},"Address":{"Label":"Calle Entretorres, 3, 14491 Santa Eufemia (Córdoba), España","Country":"ESP","State":"Andalucía","County":"Córdoba","City":"Santa Eufemia","Street":"Calle Entretorres","HouseNumber":"3","PostalCode":"14491","AdditionalData":[{"value":"España","key":"CountryName"},{"value":"Andalucía","key":"StateName"},{"value":"Córdoba","key":"CountyName"}]},"MapReference":{"ReferenceId":"567540208","Spot":0.1,"SideOfStreet":"left","CountryId":"20215059","StateId":"20221885","CountyId":"20221888","CityId":"20234309","AddressId":"404935984","RoadLinkId":"67143752"}}},{"Relevance":1.0,"Distance":28.5,"MatchLevel":"houseNumber","MatchQuality":{"Country":1.0,"State":1.0,"County":1.0,"City":1.0,"Street":[1.0],"HouseNumber":1.0,"PostalCode":1.0},"MatchType":"interpolated","Location":{"LocationId":"NT_tObtm6i6-DeRg4cBCoTK.C_xA","LocationType":"point","DisplayPosition":{"Latitude":38.59551,"Longitude":-4.90219},"MapView":{"TopLeft":{"Latitude":38.5966342,"Longitude":-4.9036283},"BottomRight":{"Latitude":38.5943858,"Longitude":-4.9007517}},"Address":{"Label":"Calle Cuartel, 1, 14491 Santa Eufemia (Córdoba), España","Country":"ESP","State":"Andalucía","County":"Córdoba","City":"Santa Eufemia","Street":"Calle Cuartel","HouseNumber":"1","PostalCode":"14491","AdditionalData":[{"value":"España","key":"CountryName"},{"value":"Andalucía","key":"StateName"},{"value":"Córdoba","key":"CountyName"}]},"MapReference":{"ReferenceId":"808239860","Spot":0.98,"SideOfStreet":"right","CountryId":"20215059","StateId":"20221885","CountyId":"20221888","CityId":"20234309","AddressId":"404724675","RoadLinkId":"195588847"}}},{"Relevance":1.0,"Distance":32.2,"MatchLevel":"street","MatchQuality":{"Country":1.0,"State":1.0,"County":1.0,"City":1.0,"Street":[1.0],"PostalCode":1.0},"Location":{"LocationId":"NT_PNQbROMUrF05.IqOg9WB8B_l_559985171_L","LocationType":"point","DisplayPosition":{"Latitude":38.59595,"Longitude":-4.90193},"MapView":{"TopLeft":{"Latitude":38.59601,"Longitude":-4.90193},"BottomRight":{"Latitude":38.59595,"Longitude":-4.90187}},"Address":{"Label":"Calle Pilar, 14491 Santa Eufemia (Córdoba), España","Country":"ESP","State":"Andalucía","County":"Córdoba","City":"Santa Eufemia","Street":"Calle Pilar","PostalCode":"14491","AdditionalData":[{"value":"España","key":"CountryName"},{"value":"Andalucía","key":"StateName"},{"value":"Córdoba","key":"CountyName"}]},"MapReference":{"ReferenceId":"559985171","Spot":0.0,"SideOfStreet":"left","CountryId":"20215059","StateId":"20221885","CountyId":"20221888","CityId":"20234309"}}},{"Relevance":1.0,"Distance":45.2,"MatchLevel":"houseNumber","MatchQuality":{"Country":1.0,"State":1.0,"County":1.0,"City":1.0,"Street":[1.0],"HouseNumber":1.0,"PostalCode":1.0},"MatchType":"interpolated","Location":{"LocationId":"NT_PNQbROMUrF05.IqOg9WB8B_xA","LocationType":"point","DisplayPosition":{"Latitude":38.59538,"Longitude":-4.90241},"MapView":{"TopLeft":{"Latitude":38.5965042,"Longitude":-4.9038483},"BottomRight":{"Latitude":38.5942558,"Longitude":-4.9009717}},"Address":{"Label":"Calle Pilar, 1, 14491 Santa Eufemia (Córdoba), España","Country":"ESP","State":"Andalucía","County":"Córdoba","City":"Santa Eufemia","Street":"Calle Pilar","HouseNumber":"1","PostalCode":"14491","AdditionalData":[{"value":"España","key":"CountryName"},{"value":"Andalucía","key":"StateName"},{"value":"Córdoba","key":"CountyName"}]},"MapReference":{"ReferenceId":"559985190","Spot":0.38,"SideOfStreet":"left","CountryId":"20215059","StateId":"20221885","CountyId":"20221888","CityId":"20234309","AddressId":"404930987","RoadLinkId":"67559500"}}},{"Relevance":1.0,"Distance":46.8,"MatchLevel":"houseNumber","MatchQuality":{"Country":1.0,"State":1.0,"County":1.0,"City":1.0,"Street":[1.0],"HouseNumber":1.0,"PostalCode":1.0},"MatchType":"interpolated","Location":{"LocationId":"NT_ZuPb9d0TFgftiD4O2lnx6A_yQE","LocationType":"point","DisplayPosition":{"Latitude":38.59594,"Longitude":-4.9017},"MapView":{"TopLeft":{"Latitude":38.5970642,"Longitude":-4.9031383},"BottomRight":{"Latitude":38.5948158,"Longitude":-4.9002617}},"Address":{"Label":"Calle Entrehuertas, 2D, 14491 Santa Eufemia (Córdoba), España","Country":"ESP","State":"Andalucía","County":"Córdoba","City":"Santa Eufemia","Street":"Calle Entrehuertas","HouseNumber":"2D","PostalCode":"14491","AdditionalData":[{"value":"España","key":"CountryName"},{"value":"Andalucía","key":"StateName"},{"value":"Córdoba","key":"CountyName"}]},"MapReference":{"ReferenceId":"559985178","Spot":0.85,"SideOfStreet":"left","CountryId":"20215059","StateId":"20221885","CountyId":"20221888","CityId":"20234309","AddressId":"404890816","RoadLinkId":"67674359"}}},{"Relevance":1.0,"Distance":60.1,"MatchLevel":"houseNumber","MatchQuality":{"Country":1.0,"State":1.0,"County":1.0,"City":1.0,"Street":[1.0],"HouseNumber":1.0,"PostalCode":1.0},"MatchType":"interpolated","Location":{"LocationId":"NT_gJICHiFUWCCV-tY0eJj1MB_xA","LocationType":"point","DisplayPosition":{"Latitude":38.59527,"Longitude":-4.9026},"MapView":{"TopLeft":{"Latitude":38.5963942,"Longitude":-4.9040383},"BottomRight":{"Latitude":38.5941458,"Longitude":-4.9011617}},"Address":{"Label":"Calle Peñalta, 1, 14491 Santa Eufemia (Córdoba), España","Country":"ESP","State":"Andalucía","County":"Córdoba","City":"Santa Eufemia","Street":"Calle Peñalta","HouseNumber":"1","PostalCode":"14491","AdditionalData":[{"value":"España","key":"CountryName"},{"value":"Andalucía","key":"StateName"},{"value":"Córdoba","key":"CountyName"}]},"MapReference":{"ReferenceId":"559985192","Spot":0.61,"SideOfStreet":"right","CountryId":"20215059","StateId":"20221885","CountyId":"20221888","CityId":"20234309","AddressId":"404884051","RoadLinkId":"67705908"}}},{"Relevance":1.0,"Distance":61.5,"MatchLevel":"houseNumber","MatchQuality":{"Country":1.0,"State":1.0,"County":1.0,"City":1.0,"Street":[1.0],"HouseNumber":1.0,"PostalCode":1.0},"MatchType":"interpolated","Location":{"LocationId":"NT_gJICHiFUWCCV-tY0eJj1MB_zA","LocationType":"point","DisplayPosition":{"Latitude":38.59523,"Longitude":-4.90242},"MapView":{"TopLeft":{"Latitude":38.5963542,"Longitude":-4.9038583},"BottomRight":{"Latitude":38.5941058,"Longitude":-4.9009817}},"Address":{"Label":"Calle Peñalta, 3, 14491 Santa Eufemia (Córdoba), España","Country":"ESP","State":"Andalucía","County":"Córdoba","City":"Santa Eufemia","Street":"Calle Peñalta","HouseNumber":"3","PostalCode":"14491","AdditionalData":[{"value":"España","key":"CountryName"},{"value":"Andalucía","key":"StateName"},{"value":"Córdoba","key":"CountyName"}]},"MapReference":{"ReferenceId":"559985182","Spot":0.95,"SideOfStreet":"right","CountryId":"20215059","StateId":"20221885","CountyId":"20221888","CityId":"20234309","AddressId":"404937070","RoadLinkId":"67571879"}}}]}]}}