{"Response":{"MetaInfo":{"Timestamp":"2020-03-28T11:33:00.673+0000","NextPageInformation":"2"},"View":[{"_type":"SearchResultsViewType","ViewId":0,"Result":[{"Relevance":1.0,"Distance":-571.1,"MatchLevel":"landmark","MatchQuality":{"Country":1.0,"County":1.0,"Name":1.0},"Location":{"LocationId":"NT_Hl6lqegCqfuVl-r6zqTvyA","LocationType":"island","Name":"Ilha do Pico","DisplayPosition":{"Latitude":38.47177,"Longitude":-28.36429},"MapView":{"TopLeft":{"Latitude":38.56142,"Longitude":-28.54189},"BottomRight":{"Latitude":38.38212,"Longitude":-28.02819}},"Address":{"Label":"Portugal","Country":"PRT","County":"Ilha do Pico","AdditionalData":[{"value":"Portugal","key":"CountryName"},{"value":"Ilha do Pico","key":"CountyName"}]},"MapReference":{"CountryId":"20317122","CountyId":"23489550","PlaceId":"1409516278"}}},{"Relevance":1.0,"Distance":0.0,"Direction":0.0,"MatchLevel":"district","MatchQuality":{"Country":1.0,"County":1.0,"City":1.0,"District":1.0,"PostalCode":1.0},"Location":{"LocationId":"NT_cnnhgb60rYlDHApFbBeDuC","LocationType":"point","DisplayPosition":{"Latitude":38.5308728,"Longitude":-28.5238778},"MapView":{"TopLeft":{"Latitude":38.53927,"Longitude":-28.53664},"BottomRight":{"Latitude":38.52336,"Longitude":-28.51833}},"Address":{"Label":"Madalena, Portugal","Country":"PRT","County":"Ilha do Pico","City":"Madalena","District":"Madalena","PostalCode":"9950-341","AdditionalData":[{"value":"Portugal","key":"CountryName"},{"value":"Ilha do Pico","key":"CountyName"}]},"MapReference":{"ReferenceId":"786799626","SideOfStreet":"neither","CountryId":"20317122","CountyId":"23489550","CityId":"23489571","DistrictId":"23489588"}}},{"Relevance":1.0,"Distance":22.6,"MatchLevel":"street","MatchQuality":{"Country":1.0,"County":1.0,"City":1.0,"District":1.0,"PostalCode":1.0},"Location":{"LocationId":"NT_ZcYUlt.OKGe56HDA2g.-iA_l_1066531155_L","LocationType":"point","DisplayPosition":{"Latitude":38.5307,"Longitude":-28.52374},"MapView":{"TopLeft":{"Latitude":38.53074,"Longitude":-28.52457},"BottomRight":{"Latitude":38.52938,"Longitude":-28.52358}},"Address":{"Label":"9950 Madalena, Portugal","Country":"PRT","County":"Ilha do Pico","City":"Madalena","District":"Madalena","PostalCode":"9950","AdditionalData":[{"value":"Portugal","key":"CountryName"},{"value":"Ilha do Pico","key":"CountyName"}]},"MapReference":{"ReferenceId":"1066531155","Spot":0.9,"SideOfStreet":"left","CountryId":"20317122","CountyId":"23489550","CityId":"23489571","DistrictId":"23489588"}}},{"Relevance":1.0,"Distance":29.8,"MatchLevel":"street","MatchQuality":{"Country":1.0,"County":1.0,"City":1.0,"District":1.0,"PostalCode":1.0},"Location":{"LocationId":"NT_ZcYUlt.OKGe56HDA2g.-iA_l_1066531153_R","LocationType":"point","DisplayPosition":{"Latitude":38.53074,"Longitude":-28.52358},"MapView":{"TopLeft":{"Latitude":38.53074,"Longitude":-28.52358},"BottomRight":{"Latitude":38.53068,"Longitude":-28.52342}},"Address":{"Label":"9950 Madalena, Portugal","Country":"PRT","County":"Ilha do Pico","City":"Madalena","District":"Cabo Branco","PostalCode":"9950","AdditionalData":[{"value":"Portugal","key":"CountryName"},{"value":"Ilha do Pico","key":"CountyName"}]},"MapReference":{"ReferenceId":"1066531153","Spot":1.0,"SideOfStreet":"right","CountryId":"20317122","CountyId":"23489550","CityId":"23489571","DistrictId":"23489857"}}},{"Relevance":1.0,"Distance":43.0,"MatchLevel":"street","MatchQuality":{"Country":1.0,"County":1.0,"City":1.0,"District":1.0,"PostalCode":1.0},"Location":{"LocationId":"NT_ZcYUlt.OKGe56HDA2g.-iA_l_1066531150_L","LocationType":"point","DisplayPosition":{"Latitude":38.5305846,"Longitude":-28.5235485},"MapView":{"TopLeft":{"Latitude":38.53068,"Longitude":-28.52436},"BottomRight":{"Latitude":38.5293,"Longitude":-28.52342}},"Address":{"Label":"9950 Madalena, Portugal","Country":"PRT","County":"Ilha do Pico","City":"Madalena","District":"Madalena","PostalCode":"9950","AdditionalData":[{"value":"Portugal","key":"CountryName"},{"value":"Ilha do Pico","key":"CountyName"}]},"MapReference":{"ReferenceId":"1066531150","Spot":0.9,"SideOfStreet":"left","CountryId":"20317122","CountyId":"23489550","CityId":"23489571","DistrictId":"23489588"}}},{"Relevance":1.0,"Distance":45.2,"MatchLevel":"street","MatchQuality":{"Country":1.0,"County":1.0,"City":1.0,"District":1.0,"PostalCode":1.0},"Location":{"LocationId":"NT_ZcYUlt.OKGe56HDA2g.-iA_l_1066531148_R","LocationType":"point","DisplayPosition":{"Latitude":38.53068,"Longitude":-28.52342},"MapView":{"TopLeft":{"Latitude":38.53068,"Longitude":-28.52342},"BottomRight":{"Latitude":38.53035,"Longitude":-28.52263}},"Address":{"Label":"9950 Madalena, Portugal","Country":"PRT","County":"Ilha do Pico","City":"Madalena","District":"Cabo Branco","PostalCode":"9950","AdditionalData":[{"value":"Portugal","key":"CountryName"},{"value":"Ilha do Pico","key":"CountyName"}]},"MapReference":{"ReferenceId":"1066531148","Spot":1.0,"SideOfStreet":"right","CountryId":"20317122","CountyId":"23489550","CityId":"23489571","DistrictId":"23489857"}}},{"Relevance":1.0,"Distance":61.6,"MatchLevel":"houseNumber","MatchQuality":{"Country":1.0,"County":1.0,"City":1.0,"District":1.0,"Street":[1.0],"HouseNumber":1.0,"PostalCode":1.0},"MatchType":"interpolated","Location":{"LocationId":"NT_aFDabaTAavJKXC4L8dhHLC_l_786802929_L_yYD","LocationType":"point","DisplayPosition":{"Latitude":38.5313816,"Longitude":-28.5233108},"MapView":{"TopLeft":{"Latitude":38.5325057,"Longitude":-28.5247478},"BottomRight":{"Latitude":38.5302574,"Longitude":-28.5218737}},"Address":{"Label":"Rua Secretário Teles Bettencourt 26, 9950-305 Madalena, Portugal","Country":"PRT","County":"Ilha do Pico","City":"Madalena","District":"Cabo Branco","Street":"Rua Secretário Teles Bettencourt","HouseNumber":"26","PostalCode":"9950-305","AdditionalData":[{"value":"Portugal","key":"CountryName"},{"value":"Ilha do Pico","key":"CountyName"}]},"MapReference":{"ReferenceId":"786802929","Spot":0.29,"SideOfStreet":"left","CountryId":"20317122","CountyId":"23489550","CityId":"23489571","DistrictId":"23489857"}}},{"Relevance":1.0,"Distance":111.2,"MatchLevel":"street","MatchQuality":{"Country":1.0,"County":1.0,"City":1.0,"District":1.0,"PostalCode":1.0},"Location":{"LocationId":"NT_ZcYUlt.OKGe56HDA2g.-iA_l_1066531146_R","LocationType":"point","DisplayPosition":{"Latitude":38.52996,"Longitude":-28.5244},"MapView":{"TopLeft":{"Latitude":38.52996,"Longitude":-28.52471},"BottomRight":{"Latitude":38.52943,"Longitude":-28.5244}},"Address":{"Label":"9950 Madalena, Portugal","Country":"PRT","County":"Ilha do Pico","City":"Madalena","District":"Madalena","PostalCode":"9950","AdditionalData":[{"value":"Portugal","key":"CountryName"},{"value":"Ilha do Pico","key":"CountyName"}]},"MapReference":{"ReferenceId":"1066531146","Spot":1.0,"SideOfStreet":"right","CountryId":"20317122","CountyId":"23489550","CityId":"23489571","DistrictId":"23489588"}}},{"Relevance":1.0,"Distance":118.3,"MatchLevel":"street","MatchQuality":{"Country":1.0,"County":1.0,"City":1.0,"District":1.0,"PostalCode":1.0},"Location":{"LocationId":"NT_l.hDkOfBYa5K7Qj25Jaq6D_l_1085324248_L","LocationType":"point","DisplayPosition":{"Latitude":38.53119,"Longitude":-28.52258},"MapView":{"TopLeft":{"Latitude":38.53152,"Longitude":-28.52258},"BottomRight":{"Latitude":38.53119,"Longitude":-28.52222}},"Address":{"Label":"9950-305 Madalena, Portugal","Country":"PRT","County":"Ilha do Pico","City":"Madalena","District":"Cabo Branco","PostalCode":"9950-305","AdditionalData":[{"value":"Portugal","key":"CountryName"},{"value":"Ilha do Pico","key":"CountyName"}]},"MapReference":{"ReferenceId":"1085324248","Spot":0.0,"SideOfStreet":"left","CountryId":"20317122","CountyId":"23489550","CityId":"23489571","DistrictId":"23489857"}}},{"Relevance":1.0,"Distance":126.2,"MatchLevel":"street","MatchQuality":{"Country":1.0,"County":1.0,"City":1.0,"District":1.0,"PostalCode":1.0},"Location":{"LocationId":"NT_ZcYUlt.OKGe56HDA2g.-iA_l_1210357470_L","LocationType":"point","DisplayPosition":{"Latitude":38.5301541,"Longitude":-28.5227554},"MapView":{"TopLeft":{"Latitude":38.53035,"Longitude":-28.52436},"BottomRight":{"Latitude":38.52896,"Longitude":-28.52263}},"Address":{"Label":"9950 Madalena, Portugal","Country":"PRT","County":"Ilha do Pico","City":"Madalena","District":"Madalena","PostalCode":"9950","AdditionalData":[{"value":"Portugal","key":"CountryName"},{"value":"Ilha do Pico","key":"CountyName"}]},"MapReference":{"ReferenceId":"1210357470","Spot":0.91,"SideOfStreet":"left","CountryId":"20317122","CountyId":"23489550","CityId":"23489571","DistrictId":"23489588"}}}]}]}}