{"Response":{"MetaInfo":{"Timestamp":"2020-03-28T09:58:40.212+0000","NextPageInformation":"2"},"View":[{"_type":"SearchResultsViewType","ViewId":0,"Result":[{"Relevance":1.0,"Distance":0.0,"Direction":0.0,"MatchLevel":"district","MatchQuality":{"Country":1.0,"County":1.0,"City":1.0,"District":1.0,"PostalCode":1.0},"Location":{"LocationId":"NT_JONHqUnyJWf7t0YQRFpG.A","LocationType":"point","DisplayPosition":{"Latitude":38.6900358,"Longitude":-9.3541806},"MapView":{"TopLeft":{"Latitude":38.69912,"Longitude":-9.36934},"BottomRight":{"Latitude":38.68404,"Longitude":-9.34082}},"Address":{"Label":"Parede, Cascais, Portugal","Country":"PRT","County":"Lisboa","City":"Cascais","District":"Parede","PostalCode":"2775-239","AdditionalData":[{"value":"Portugal","key":"CountryName"},{"value":"Lisboa","key":"CountyName"}]},"MapReference":{"ReferenceId":"537306798","SideOfStreet":"neither","CountryId":"20317122","CountyId":"20319435","CityId":"20319479","DistrictId":"20319484"}}},{"Relevance":1.0,"Distance":6.4,"MatchLevel":"houseNumber","MatchQuality":{"Country":1.0,"County":1.0,"City":1.0,"District":1.0,"Street":[1.0],"HouseNumber":1.0,"PostalCode":1.0},"MatchType":"interpolated","Location":{"LocationId":"NT_ewRdtzVgP30jQ.p8Aw4ciA_xIDM4A","LocationType":"point","DisplayPosition":{"Latitude":38.68999,"Longitude":-9.3543},"MapView":{"TopLeft":{"Latitude":38.6911142,"Longitude":-9.3557402},"BottomRight":{"Latitude":38.6888658,"Longitude":-9.3528598}},"Address":{"Label":"Avenida da República 1208, 2775-271 Cascais, Portugal","Country":"PRT","County":"Lisboa","City":"Cascais","District":"Parede","Street":"Avenida da República","HouseNumber":"1208","PostalCode":"2775-271","AdditionalData":[{"value":"Portugal","key":"CountryName"},{"value":"Lisboa","key":"CountyName"}]},"MapReference":{"ReferenceId":"907169933","Spot":0.62,"SideOfStreet":"right","CountryId":"20317122","CountyId":"20319435","CityId":"20319479","DistrictId":"20319484","AddressId":"342691734","RoadLinkId":"267842215"}}},{"Relevance":1.0,"Distance":10.0,"MatchLevel":"houseNumber","MatchQuality":{"Country":1.0,"County":1.0,"City":1.0,"District":1.0,"Street":[1.0],"HouseNumber":1.0,"PostalCode":1.0},"MatchType":"interpolated","Location":{"LocationId":"NT_-x94mlJxWLW7ZeFCrtzQYC_xUzQ","LocationType":"point","DisplayPosition":{"Latitude":38.69021,"Longitude":-9.35422},"MapView":{"TopLeft":{"Latitude":38.6913342,"Longitude":-9.3556602},"BottomRight":{"Latitude":38.6890858,"Longitude":-9.3527798}},"Address":{"Label":"Rua José Relvas 15C, 2775-222 Cascais, Portugal","Country":"PRT","County":"Lisboa","City":"Cascais","District":"Parede","Street":"Rua José Relvas","HouseNumber":"15C","PostalCode":"2775-222","AdditionalData":[{"value":"Portugal","key":"CountryName"},{"value":"Lisboa","key":"CountyName"}]},"MapReference":{"ReferenceId":"907169932","Spot":0.36,"SideOfStreet":"right","CountryId":"20317122","CountyId":"20319435","CityId":"20319479","DistrictId":"20319484","AddressId":"342691732","RoadLinkId":"267842214"}}},{"Relevance":1.0,"Distance":13.4,"MatchLevel":"houseNumber","MatchQuality":{"Country":1.0,"County":1.0,"City":1.0,"District":1.0,"Street":[1.0],"HouseNumber":1.0,"PostalCode":1.0},"MatchType":"interpolated","Location":{"LocationId":"NT_JHS2w9HtHCmyVxnrjAs2xD_xIE","LocationType":"point","DisplayPosition":{"Latitude":38.69001,"Longitude":-9.35391},"MapView":{"TopLeft":{"Latitude":38.6911342,"Longitude":-9.3553502},"BottomRight":{"Latitude":38.6888858,"Longitude":-9.3524698}},"Address":{"Label":"Largo José Régio 1B, 2775-221 Cascais, Portugal","Country":"PRT","County":"Lisboa","City":"Cascais","District":"Parede","Street":"Largo José Régio","HouseNumber":"1B","PostalCode":"2775-221","AdditionalData":[{"value":"Portugal","key":"CountryName"},{"value":"Lisboa","key":"CountyName"}]},"MapReference":{"ReferenceId":"881413566","Spot":0.47,"SideOfStreet":"left","CountryId":"20317122","CountyId":"20319435","CityId":"20319479","DistrictId":"20319484","AddressId":"342691730","RoadLinkId":"250007979"}}},{"Relevance":1.0,"Distance":25.8,"MatchLevel":"street","MatchQuality":{"Country":1.0,"County":1.0,"City":1.0,"District":1.0,"Street":[1.0],"PostalCode":1.0},"Location":{"LocationId":"NT_-x94mlJxWLW7ZeFCrtzQYC_l_542427873_R","LocationType":"point","DisplayPosition":{"Latitude":38.6902,"Longitude":-9.35439},"MapView":{"TopLeft":{"Latitude":38.6902,"Longitude":-9.35449},"BottomRight":{"Latitude":38.69009,"Longitude":-9.35439}},"Address":{"Label":"Rua José Relvas, 2775-222 Cascais, Portugal","Country":"PRT","County":"Lisboa","City":"Cascais","District":"Parede","Street":"Rua José Relvas","PostalCode":"2775-222","AdditionalData":[{"value":"Portugal","key":"CountryName"},{"value":"Lisboa","key":"CountyName"}]},"MapReference":{"ReferenceId":"542427873","Spot":1.0,"SideOfStreet":"right","CountryId":"20317122","CountyId":"20319435","CityId":"20319479","DistrictId":"20319484"}}},{"Relevance":1.0,"Distance":27.1,"MatchLevel":"houseNumber","MatchQuality":{"Country":1.0,"County":1.0,"City":1.0,"District":1.0,"Street":[1.0],"HouseNumber":1.0,"PostalCode":1.0},"MatchType":"interpolated","Location":{"LocationId":"NT_4UzlKN2mMO09chWFRBWVEC_0AjM","LocationType":"point","DisplayPosition":{"Latitude":38.68986,"Longitude":-9.35451},"MapView":{"TopLeft":{"Latitude":38.6909842,"Longitude":-9.3559502},"BottomRight":{"Latitude":38.6887358,"Longitude":-9.3530698}},"Address":{"Label":"Rua Miguel Bombarda 402, 2775-003 Cascais, Portugal","Country":"PRT","County":"Lisboa","City":"Cascais","District":"Parede","Street":"Rua Miguel Bombarda","HouseNumber":"402","PostalCode":"2775-003","AdditionalData":[{"value":"Portugal","key":"CountryName"},{"value":"Lisboa","key":"CountyName"}]},"MapReference":{"ReferenceId":"537307619","Spot":0.75,"SideOfStreet":"right","CountryId":"20317122","CountyId":"20319435","CityId":"20319479","DistrictId":"20319484","AddressId":"342844926","RoadLinkId":"70476453"}}},{"Relevance":1.0,"Distance":30.7,"MatchLevel":"houseNumber","MatchQuality":{"Country":1.0,"County":1.0,"City":1.0,"District":1.0,"Street":[1.0],"HouseNumber":1.0,"PostalCode":1.0},"MatchType":"interpolated","Location":{"LocationId":"NT_ewRdtzVgP30jQ.p8Aw4ciA_xEDOxEE","LocationType":"point","DisplayPosition":{"Latitude":38.68982,"Longitude":-9.35396},"MapView":{"TopLeft":{"Latitude":38.6909442,"Longitude":-9.3554002},"BottomRight":{"Latitude":38.6886958,"Longitude":-9.3525198}},"Address":{"Label":"Avenida da República 1181A, 2775-271 Cascais, Portugal","Country":"PRT","County":"Lisboa","City":"Cascais","District":"Parede","Street":"Avenida da República","HouseNumber":"1181A","PostalCode":"2775-271","AdditionalData":[{"value":"Portugal","key":"CountryName"},{"value":"Lisboa","key":"CountyName"}]},"MapReference":{"ReferenceId":"881413564","Spot":0.94,"SideOfStreet":"left","CountryId":"20317122","CountyId":"20319435","CityId":"20319479","DistrictId":"20319484","AddressId":"342805150","RoadLinkId":"250007977"}}},{"Relevance":1.0,"Distance":36.5,"MatchLevel":"houseNumber","MatchQuality":{"Country":1.0,"County":1.0,"City":1.0,"District":1.0,"Street":[1.0],"HouseNumber":1.0,"PostalCode":1.0},"MatchType":"interpolated","Location":{"LocationId":"NT_ewRdtzVgP30jQ.p8Aw4ciA_xIjNxIE","LocationType":"point","DisplayPosition":{"Latitude":38.69014,"Longitude":-9.35458},"MapView":{"TopLeft":{"Latitude":38.6912642,"Longitude":-9.3560202},"BottomRight":{"Latitude":38.6890158,"Longitude":-9.3531398}},"Address":{"Label":"Avenida da República 1261B, 2775-271 Cascais, Portugal","Country":"PRT","County":"Lisboa","City":"Cascais","District":"Parede","Street":"Avenida da República","HouseNumber":"1261B","PostalCode":"2775-271","AdditionalData":[{"value":"Portugal","key":"CountryName"},{"value":"Lisboa","key":"CountyName"}]},"MapReference":{"ReferenceId":"542427870","Spot":0.37,"SideOfStreet":"left","CountryId":"20317122","CountyId":"20319435","CityId":"20319479","DistrictId":"20319484","AddressId":"342844910","RoadLinkId":"70138785"}}},{"Relevance":1.0,"Distance":41.0,"MatchLevel":"houseNumber","MatchQuality":{"Country":1.0,"County":1.0,"City":1.0,"District":1.0,"Street":[1.0],"HouseNumber":1.0,"PostalCode":1.0},"MatchType":"interpolated","Location":{"LocationId":"NT_2PFYBm7kwoa1UlP7rGDymC_xA","LocationType":"point","DisplayPosition":{"Latitude":38.69036,"Longitude":-9.35389},"MapView":{"TopLeft":{"Latitude":38.6914842,"Longitude":-9.3553302},"BottomRight":{"Latitude":38.6892358,"Longitude":-9.3524498}},"Address":{"Label":"Rua 31 de Janeiro 1, 2775-295 Cascais, Portugal","Country":"PRT","County":"Lisboa","City":"Cascais","District":"Parede","Street":"Rua 31 de Janeiro","HouseNumber":"1","PostalCode":"2775-295","AdditionalData":[{"value":"Portugal","key":"CountryName"},{"value":"Lisboa","key":"CountyName"}]},"MapReference":{"ReferenceId":"537307377","Spot":0.14,"SideOfStreet":"left","CountryId":"20317122","CountyId":"20319435","CityId":"20319479","DistrictId":"20319484","AddressId":"343010125","RoadLinkId":"70034905"}}},{"Relevance":1.0,"Distance":41.5,"MatchLevel":"houseNumber","MatchQuality":{"Country":1.0,"County":1.0,"City":1.0,"District":1.0,"Street":[1.0],"HouseNumber":1.0,"PostalCode":1.0},"MatchType":"interpolated","Location":{"LocationId":"NT_-x94mlJxWLW7ZeFCrtzQYC_xITN0A","LocationType":"point","DisplayPosition":{"Latitude":38.6902,"Longitude":-9.35461},"MapView":{"TopLeft":{"Latitude":38.6913242,"Longitude":-9.3560502},"BottomRight":{"Latitude":38.6890758,"Longitude":-9.3531698}},"Address":{"Label":"Rua José Relvas 1254, 2775-222 Cascais, Portugal","Country":"PRT","County":"Lisboa","City":"Cascais","District":"Parede","Street":"Rua José Relvas","HouseNumber":"1254","PostalCode":"2775-222","AdditionalData":[{"value":"Portugal","key":"CountryName"},{"value":"Lisboa","key":"CountyName"}]},"MapReference":{"ReferenceId":"542427871","Spot":0.63,"SideOfStreet":"right","CountryId":"20317122","CountyId":"20319435","CityId":"20319479","DistrictId":"20319484","AddressId":"342994748","RoadLinkId":"70515205"}}}]}]}}