{"Response":{"MetaInfo":{"Timestamp":"2020-03-28T09:46:06.459+0000","NextPageInformation":"2"},"View":[{"_type":"SearchResultsViewType","ViewId":0,"Result":[{"Relevance":1.0,"Distance":0.0,"Direction":0.0,"MatchLevel":"city","MatchQuality":{"Country":1.0,"State":1.0,"County":1.0,"City":1.0,"PostalCode":1.0},"Location":{"LocationId":"NT_tV9mOFJ4-GwQIlqP5HBJ8B","LocationType":"point","DisplayPosition":{"Latitude":38.6173381,"Longitude":-6.7989908},"MapView":{"TopLeft":{"Latitude":38.70775,"Longitude":-6.8094},"BottomRight":{"Latitude":38.59028,"Longitude":-6.72178}},"Address":{"Label":"Torre de Miguel Sesmero, Extremadura, España","Country":"ESP","State":"Extremadura","County":"Badajoz","City":"Torre de Miguel Sesmero","PostalCode":"06172","AdditionalData":[{"value":"España","key":"CountryName"},{"value":"Extremadura","key":"StateName"},{"value":"Badajoz","key":"CountyName"}]},"MapReference":{"ReferenceId":"537476801","SideOfStreet":"neither","CountryId":"20215059","StateId":"20226788","CountyId":"20226789","CityId":"20274347"}}},{"Relevance":1.0,"Distance":13.1,"MatchLevel":"houseNumber","MatchQuality":{"Country":1.0,"State":1.0,"County":1.0,"City":1.0,"Street":[1.0],"HouseNumber":1.0,"PostalCode":1.0},"MatchType":"interpolated","Location":{"LocationId":"NT_ADTh2P5uoYGHWu.6pRdhuD_xcD","LocationType":"point","DisplayPosition":{"Latitude":38.61737,"Longitude":-6.79883},"MapView":{"TopLeft":{"Latitude":38.6184942,"Longitude":-6.8002688},"BottomRight":{"Latitude":38.6162458,"Longitude":-6.7973912}},"Address":{"Label":"Avenida Portugal, 17, 06172 Torre de Miguel Sesmero (Badajoz), España","Country":"ESP","State":"Extremadura","County":"Badajoz","City":"Torre de Miguel Sesmero","Street":"Avenida Portugal","HouseNumber":"17","PostalCode":"06172","AdditionalData":[{"value":"España","key":"CountryName"},{"value":"Extremadura","key":"StateName"},{"value":"Badajoz","key":"CountyName"}]},"MapReference":{"ReferenceId":"567490652","Spot":0.47,"SideOfStreet":"left","CountryId":"20215059","StateId":"20226788","CountyId":"20226789","CityId":"20274347","AddressId":"350864611","RoadLinkId":"66655508"}}},{"Relevance":1.0,"Distance":17.1,"MatchLevel":"houseNumber","MatchQuality":{"Country":1.0,"State":1.0,"County":1.0,"City":1.0,"Street":[1.0],"HouseNumber":1.0,"PostalCode":1.0},"MatchType":"interpolated","Location":{"LocationId":"NT_8FPKV8ZmFUTtUna59FGRSC_0kD","LocationType":"point","DisplayPosition":{"Latitude":38.61752,"Longitude":-6.79896},"MapView":{"TopLeft":{"Latitude":38.6186442,"Longitude":-6.8003988},"BottomRight":{"Latitude":38.6163958,"Longitude":-6.7975212}},"Address":{"Label":"Calle Torres Naharro, 49, 06172 Torre de Miguel Sesmero (Badajoz), España","Country":"ESP","State":"Extremadura","County":"Badajoz","City":"Torre de Miguel Sesmero","Street":"Calle Torres Naharro","HouseNumber":"49","PostalCode":"06172","AdditionalData":[{"value":"España","key":"CountryName"},{"value":"Extremadura","key":"StateName"},{"value":"Badajoz","key":"CountyName"}]},"MapReference":{"ReferenceId":"567490643","Spot":0.41,"SideOfStreet":"right","CountryId":"20215059","StateId":"20226788","CountyId":"20226789","CityId":"20274347","AddressId":"350705732","RoadLinkId":"67296104"}}},{"Relevance":1.0,"Distance":42.5,"MatchLevel":"street","MatchQuality":{"Country":1.0,"State":1.0,"County":1.0,"City":1.0,"Street":[1.0],"PostalCode":1.0},"Location":{"LocationId":"NT_ADTh2P5uoYGHWu.6pRdhuD_l_1214653080_R","LocationType":"point","DisplayPosition":{"Latitude":38.61747,"Longitude":-6.79945},"MapView":{"TopLeft":{"Latitude":38.61747,"Longitude":-6.79948},"BottomRight":{"Latitude":38.61747,"Longitude":-6.79945}},"Address":{"Label":"Avenida Portugal, 06172 Torre de Miguel Sesmero (Badajoz), España","Country":"ESP","State":"Extremadura","County":"Badajoz","City":"Torre de Miguel Sesmero","Street":"Avenida Portugal","PostalCode":"06172","AdditionalData":[{"value":"España","key":"CountryName"},{"value":"Extremadura","key":"StateName"},{"value":"Badajoz","key":"CountyName"}]},"MapReference":{"ReferenceId":"1214653080","Spot":1.0,"SideOfStreet":"right","CountryId":"20215059","StateId":"20226788","CountyId":"20226789","CityId":"20274347"}}},{"Relevance":1.0,"Distance":43.3,"MatchLevel":"street","MatchQuality":{"Country":1.0,"State":1.0,"County":1.0,"City":1.0,"Street":[1.0],"PostalCode":1.0},"Location":{"LocationId":"NT_eo8VnfTGIbjEpZLT37JLCA_l_573455544_R","LocationType":"point","DisplayPosition":{"Latitude":38.6175793,"Longitude":-6.7993827},"MapView":{"TopLeft":{"Latitude":38.6176,"Longitude":-6.79945},"BottomRight":{"Latitude":38.61747,"Longitude":-6.79937}},"Address":{"Label":"Calle Extramuros, 06172 Torre de Miguel Sesmero (Badajoz), España","Country":"ESP","State":"Extremadura","County":"Badajoz","City":"Torre de Miguel Sesmero","Street":"Calle Extramuros","PostalCode":"06172","AdditionalData":[{"value":"España","key":"CountryName"},{"value":"Extremadura","key":"StateName"},{"value":"Badajoz","key":"CountyName"}]},"MapReference":{"ReferenceId":"573455544","Spot":0.84,"SideOfStreet":"right","CountryId":"20215059","StateId":"20226788","CountyId":"20226789","CityId":"20274347"}}},{"Relevance":1.0,"Distance":47.5,"MatchLevel":"houseNumber","MatchQuality":{"Country":1.0,"State":1.0,"County":1.0,"City":1.0,"Street":[1.0],"HouseNumber":1.0,"PostalCode":1.0},"MatchType":"interpolated","Location":{"LocationId":"NT_ADTh2P5uoYGHWu.6pRdhuD_xkD","LocationType":"point","DisplayPosition":{"Latitude":38.61747,"Longitude":-6.79952},"MapView":{"TopLeft":{"Latitude":38.6185942,"Longitude":-6.8009588},"BottomRight":{"Latitude":38.6163458,"Longitude":-6.7980812}},"Address":{"Label":"Avenida Portugal, 19, 06172 Torre de Miguel Sesmero (Badajoz), España","Country":"ESP","State":"Extremadura","County":"Badajoz","City":"Torre de Miguel Sesmero","Street":"Avenida Portugal","HouseNumber":"19","PostalCode":"06172","AdditionalData":[{"value":"España","key":"CountryName"},{"value":"Extremadura","key":"StateName"},{"value":"Badajoz","key":"CountyName"}]},"MapReference":{"ReferenceId":"1214653081","Spot":0.03,"SideOfStreet":"left","CountryId":"20215059","StateId":"20226788","CountyId":"20226789","CityId":"20274347","AddressId":"350662409","RoadLinkId":"530628359"}}},{"Relevance":1.0,"Distance":53.7,"MatchLevel":"houseNumber","MatchQuality":{"Country":1.0,"State":1.0,"County":1.0,"City":1.0,"Street":[1.0],"HouseNumber":1.0,"PostalCode":1.0},"MatchType":"interpolated","Location":{"LocationId":"NT_gFjC9m5Rn1FhHL0cnU4FJD_xA","LocationType":"point","DisplayPosition":{"Latitude":38.61699,"Longitude":-6.79951},"MapView":{"TopLeft":{"Latitude":38.6181142,"Longitude":-6.8009488},"BottomRight":{"Latitude":38.6158658,"Longitude":-6.7980712}},"Address":{"Label":"Camino Escuelas, 1, 06172 Torre de Miguel Sesmero (Badajoz), España","Country":"ESP","State":"Extremadura","County":"Badajoz","City":"Torre de Miguel Sesmero","Street":"Camino Escuelas","HouseNumber":"1","PostalCode":"06172","AdditionalData":[{"value":"España","key":"CountryName"},{"value":"Extremadura","key":"StateName"},{"value":"Badajoz","key":"CountyName"}]},"MapReference":{"ReferenceId":"1215231054","Spot":0.37,"SideOfStreet":"right","CountryId":"20215059","StateId":"20226788","CountyId":"20226789","CityId":"20274347","AddressId":"778480213","RoadLinkId":"531313185"}}},{"Relevance":1.0,"Distance":64.6,"MatchLevel":"houseNumber","MatchQuality":{"Country":1.0,"State":1.0,"County":1.0,"City":1.0,"Street":[1.0],"HouseNumber":1.0,"PostalCode":1.0},"MatchType":"interpolated","Location":{"LocationId":"NT_eo8VnfTGIbjEpZLT37JLCA_xA","LocationType":"point","DisplayPosition":{"Latitude":38.6179,"Longitude":-6.79918},"MapView":{"TopLeft":{"Latitude":38.6190242,"Longitude":-6.8006188},"BottomRight":{"Latitude":38.6167758,"Longitude":-6.7977412}},"Address":{"Label":"Calle Extramuros, 1, 06172 Torre de Miguel Sesmero (Badajoz), España","Country":"ESP","State":"Extremadura","County":"Badajoz","City":"Torre de Miguel Sesmero","Street":"Calle Extramuros","HouseNumber":"1","PostalCode":"06172","AdditionalData":[{"value":"España","key":"CountryName"},{"value":"Extremadura","key":"StateName"},{"value":"Badajoz","key":"CountyName"}]},"MapReference":{"ReferenceId":"573455543","Spot":0.6,"SideOfStreet":"left","CountryId":"20215059","StateId":"20226788","CountyId":"20226789","CityId":"20274347","AddressId":"367580108","RoadLinkId":"67476403"}}},{"Relevance":1.0,"Distance":65.8,"MatchLevel":"houseNumber","MatchQuality":{"Country":1.0,"State":1.0,"County":1.0,"City":1.0,"Street":[1.0],"HouseNumber":1.0,"PostalCode":1.0},"MatchType":"interpolated","Location":{"LocationId":"NT_NmWdoyaU33UEA6VAmwG.EA_yA","LocationType":"point","DisplayPosition":{"Latitude":38.61746,"Longitude":-6.79825},"MapView":{"TopLeft":{"Latitude":38.6185842,"Longitude":-6.7996888},"BottomRight":{"Latitude":38.6163358,"Longitude":-6.7968112}},"Address":{"Label":"Calle Carretera, 2, 06172 Torre de Miguel Sesmero (Badajoz), España","Country":"ESP","State":"Extremadura","County":"Badajoz","City":"Torre de Miguel Sesmero","Street":"Calle Carretera","HouseNumber":"2","PostalCode":"06172","AdditionalData":[{"value":"España","key":"CountryName"},{"value":"Extremadura","key":"StateName"},{"value":"Badajoz","key":"CountyName"}]},"MapReference":{"ReferenceId":"567490653","Spot":0.59,"SideOfStreet":"right","CountryId":"20215059","StateId":"20226788","CountyId":"20226789","CityId":"20274347","AddressId":"350756940","RoadLinkId":"67305225"}}},{"Relevance":1.0,"Distance":72.2,"MatchLevel":"houseNumber","MatchQuality":{"Country":1.0,"State":1.0,"County":1.0,"City":1.0,"Street":[1.0],"HouseNumber":1.0,"PostalCode":1.0},"MatchType":"interpolated","Location":{"LocationId":"NT_RymbzpANpQ5u8uhcArvmsC_zA","LocationType":"point","DisplayPosition":{"Latitude":38.6166,"Longitude":-6.79898},"MapView":{"TopLeft":{"Latitude":38.6177242,"Longitude":-6.8004187},"BottomRight":{"Latitude":38.6154758,"Longitude":-6.7975413}},"Address":{"Label":"Avenida de Miguel Sesmero, 3, 06172 Torre de Miguel Sesmero (Badajoz), España","Country":"ESP","State":"Extremadura","County":"Badajoz","City":"Torre de Miguel Sesmero","Street":"Avenida de Miguel Sesmero","HouseNumber":"3","PostalCode":"06172","AdditionalData":[{"value":"España","key":"CountryName"},{"value":"Extremadura","key":"StateName"},{"value":"Badajoz","key":"CountyName"}]},"MapReference":{"ReferenceId":"1214653194","Spot":0.7,"SideOfStreet":"right","CountryId":"20215059","StateId":"20226788","CountyId":"20226789","CityId":"20274347","AddressId":"778480206","RoadLinkId":"530628481"}}}]}]}}