{"Response":{"MetaInfo":{"Timestamp":"2020-03-28T09:46:18.899+0000","NextPageInformation":"2"},"View":[{"_type":"SearchResultsViewType","ViewId":0,"Result":[{"Relevance":1.0,"Distance":0.0,"Direction":0.0,"MatchLevel":"city","MatchQuality":{"Country":1.0,"State":1.0,"County":1.0,"City":1.0,"PostalCode":1.0},"Location":{"LocationId":"NT_GcujSce27ujlpSUgn-Zu0C","LocationType":"point","DisplayPosition":{"Latitude":38.6459763,"Longitude":-5.7407069},"MapView":{"TopLeft":{"Latitude":38.69226,"Longitude":-5.85808},"BottomRight":{"Latitude":38.61823,"Longitude":-5.71372}},"Address":{"Label":"Higuera de la Serena, Extremadura, España","Country":"ESP","State":"Extremadura","County":"Badajoz","City":"Higuera de la Serena","PostalCode":"06441","AdditionalData":[{"value":"España","key":"CountryName"},{"value":"Extremadura","key":"StateName"},{"value":"Badajoz","key":"CountyName"}]},"MapReference":{"ReferenceId":"564436398","SideOfStreet":"neither","CountryId":"20215059","StateId":"20226788","CountyId":"20226789","CityId":"20274072"}}},{"Relevance":1.0,"Distance":2.3,"MatchLevel":"houseNumber","MatchQuality":{"Country":1.0,"State":1.0,"County":1.0,"City":1.0,"Street":[1.0],"HouseNumber":1.0,"PostalCode":1.0},"MatchType":"interpolated","Location":{"LocationId":"NT_3u5NOlEnl4MRWEyIn1xInB_5A","LocationType":"point","DisplayPosition":{"Latitude":38.64595,"Longitude":-5.74073},"MapView":{"TopLeft":{"Latitude":38.6470742,"Longitude":-5.7421693},"BottomRight":{"Latitude":38.6448258,"Longitude":-5.7392907}},"Address":{"Label":"Calle Colón, 9, 06441 Higuera de la Serena (Badajoz), España","Country":"ESP","State":"Extremadura","County":"Badajoz","City":"Higuera de la Serena","Street":"Calle Colón","HouseNumber":"9","PostalCode":"06441","AdditionalData":[{"value":"España","key":"CountryName"},{"value":"Extremadura","key":"StateName"},{"value":"Badajoz","key":"CountyName"}]},"MapReference":{"ReferenceId":"564436430","Spot":0.7,"SideOfStreet":"right","CountryId":"20215059","StateId":"20226788","CountyId":"20226789","CityId":"20274072","AddressId":"350878272","RoadLinkId":"66887584"}}},{"Relevance":1.0,"Distance":21.1,"MatchLevel":"houseNumber","MatchQuality":{"Country":1.0,"State":1.0,"County":1.0,"City":1.0,"Street":[1.0],"HouseNumber":1.0,"PostalCode":1.0},"MatchType":"interpolated","Location":{"LocationId":"NT_O8kKQ4IIVG1Wcl23gXNiGB_xAD","LocationType":"point","DisplayPosition":{"Latitude":38.64598,"Longitude":-5.74101},"MapView":{"TopLeft":{"Latitude":38.6471042,"Longitude":-5.7424493},"BottomRight":{"Latitude":38.6448558,"Longitude":-5.7395707}},"Address":{"Label":"Calle Real, 10, 06441 Higuera de la Serena (Badajoz), España","Country":"ESP","State":"Extremadura","County":"Badajoz","City":"Higuera de la Serena","Street":"Calle Real","HouseNumber":"10","PostalCode":"06441","AdditionalData":[{"value":"España","key":"CountryName"},{"value":"Extremadura","key":"StateName"},{"value":"Badajoz","key":"CountyName"}]},"MapReference":{"ReferenceId":"564436462","Spot":0.71,"SideOfStreet":"right","CountryId":"20215059","StateId":"20226788","CountyId":"20226789","CityId":"20274072","AddressId":"350640465","RoadLinkId":"66908311"}}},{"Relevance":1.0,"Distance":25.6,"MatchLevel":"houseNumber","MatchQuality":{"Country":1.0,"State":1.0,"County":1.0,"City":1.0,"Street":[1.0],"HouseNumber":1.0,"PostalCode":1.0},"MatchType":"interpolated","Location":{"LocationId":"NT_pIjXu3VRm.iq9xHaqLuJdB_zUD","LocationType":"point","DisplayPosition":{"Latitude":38.64615,"Longitude":-5.7409},"MapView":{"TopLeft":{"Latitude":38.6472742,"Longitude":-5.7423393},"BottomRight":{"Latitude":38.6450258,"Longitude":-5.7394607}},"Address":{"Label":"Calle Paredes, 35, 06441 Higuera de la Serena (Badajoz), España","Country":"ESP","State":"Extremadura","County":"Badajoz","City":"Higuera de la Serena","Street":"Calle Paredes","HouseNumber":"35","PostalCode":"06441","AdditionalData":[{"value":"España","key":"CountryName"},{"value":"Extremadura","key":"StateName"},{"value":"Badajoz","key":"CountyName"}]},"MapReference":{"ReferenceId":"564436470","Spot":0.0,"SideOfStreet":"right","CountryId":"20215059","StateId":"20226788","CountyId":"20226789","CityId":"20274072","AddressId":"350751370","RoadLinkId":"67498350"}}},{"Relevance":1.0,"Distance":48.8,"MatchLevel":"houseNumber","MatchQuality":{"Country":1.0,"State":1.0,"County":1.0,"City":1.0,"Street":[1.0],"HouseNumber":1.0,"PostalCode":1.0},"MatchType":"interpolated","Location":{"LocationId":"NT_AUmVfQoesmx4cENhtvIoUD_yEE","LocationType":"point","DisplayPosition":{"Latitude":38.64641,"Longitude":-5.74054},"MapView":{"TopLeft":{"Latitude":38.6475342,"Longitude":-5.7419793},"BottomRight":{"Latitude":38.6452858,"Longitude":-5.7391007}},"Address":{"Label":"Calle Moratín, 2A, 06441 Higuera de la Serena (Badajoz), España","Country":"ESP","State":"Extremadura","County":"Badajoz","City":"Higuera de la Serena","Street":"Calle Moratín","HouseNumber":"2A","PostalCode":"06441","AdditionalData":[{"value":"España","key":"CountryName"},{"value":"Extremadura","key":"StateName"},{"value":"Badajoz","key":"CountyName"}]},"MapReference":{"ReferenceId":"958438936","Spot":0.95,"SideOfStreet":"left","CountryId":"20215059","StateId":"20226788","CountyId":"20226789","CityId":"20274072","AddressId":"350742494","RoadLinkId":"301419052"}}},{"Relevance":1.0,"Distance":49.2,"MatchLevel":"houseNumber","MatchQuality":{"Country":1.0,"State":1.0,"County":1.0,"City":1.0,"Street":[1.0],"HouseNumber":1.0,"PostalCode":1.0},"MatchType":"interpolated","Location":{"LocationId":"NT_pIjXu3VRm.iq9xHaqLuJdB_xgD","LocationType":"point","DisplayPosition":{"Latitude":38.6462,"Longitude":-5.74121},"MapView":{"TopLeft":{"Latitude":38.6473242,"Longitude":-5.7426493},"BottomRight":{"Latitude":38.6450758,"Longitude":-5.7397707}},"Address":{"Label":"Calle Paredes, 18, 06441 Higuera de la Serena (Badajoz), España","Country":"ESP","State":"Extremadura","County":"Badajoz","City":"Higuera de la Serena","Street":"Calle Paredes","HouseNumber":"18","PostalCode":"06441","AdditionalData":[{"value":"España","key":"CountryName"},{"value":"Extremadura","key":"StateName"},{"value":"Badajoz","key":"CountyName"}]},"MapReference":{"ReferenceId":"564436402","Spot":0.71,"SideOfStreet":"right","CountryId":"20215059","StateId":"20226788","CountyId":"20226789","CityId":"20274072","AddressId":"350539079","RoadLinkId":"66931903"}}},{"Relevance":1.0,"Distance":50.7,"MatchLevel":"houseNumber","MatchQuality":{"Country":1.0,"State":1.0,"County":1.0,"City":1.0,"Street":[1.0],"HouseNumber":1.0,"PostalCode":1.0},"MatchType":"interpolated","Location":{"LocationId":"NT_hnwPfze0kcOlMRag-8JVVD_xA","LocationType":"point","DisplayPosition":{"Latitude":38.64643,"Longitude":-5.74065},"MapView":{"TopLeft":{"Latitude":38.6475542,"Longitude":-5.7420893},"BottomRight":{"Latitude":38.6453058,"Longitude":-5.7392107}},"Address":{"Label":"Calle Quintana, 1, 06441 Higuera de la Serena (Badajoz), España","Country":"ESP","State":"Extremadura","County":"Badajoz","City":"Higuera de la Serena","Street":"Calle Quintana","HouseNumber":"1","PostalCode":"06441","AdditionalData":[{"value":"España","key":"CountryName"},{"value":"Extremadura","key":"StateName"},{"value":"Badajoz","key":"CountyName"}]},"MapReference":{"ReferenceId":"564436464","Spot":0.84,"SideOfStreet":"left","CountryId":"20215059","StateId":"20226788","CountyId":"20226789","CityId":"20274072","AddressId":"350649081","RoadLinkId":"66916358"}}},{"Relevance":1.0,"Distance":57.9,"MatchLevel":"houseNumber","MatchQuality":{"Country":1.0,"State":1.0,"County":1.0,"City":1.0,"Street":[1.0],"HouseNumber":1.0,"PostalCode":1.0},"MatchType":"interpolated","Location":{"LocationId":"NT_hnwPfze0kcOlMRag-8JVVD_yA","LocationType":"point","DisplayPosition":{"Latitude":38.64648,"Longitude":-5.74054},"MapView":{"TopLeft":{"Latitude":38.6476042,"Longitude":-5.7419793},"BottomRight":{"Latitude":38.6453558,"Longitude":-5.7391007}},"Address":{"Label":"Calle Quintana, 2, 06441 Higuera de la Serena (Badajoz), España","Country":"ESP","State":"Extremadura","County":"Badajoz","City":"Higuera de la Serena","Street":"Calle Quintana","HouseNumber":"2","PostalCode":"06441","AdditionalData":[{"value":"España","key":"CountryName"},{"value":"Extremadura","key":"StateName"},{"value":"Badajoz","key":"CountyName"}]},"MapReference":{"ReferenceId":"564436456","Spot":0.25,"SideOfStreet":"right","CountryId":"20215059","StateId":"20226788","CountyId":"20226789","CityId":"20274072","AddressId":"350844252","RoadLinkId":"67577774"}}},{"Relevance":1.0,"Distance":68.0,"MatchLevel":"street","MatchQuality":{"Country":1.0,"State":1.0,"County":1.0,"City":1.0,"Street":[1.0],"PostalCode":1.0},"Location":{"LocationId":"NT_O8kKQ4IIVG1Wcl23gXNiGB_l_564436438_R","LocationType":"point","DisplayPosition":{"Latitude":38.6453922,"Longitude":-5.7409405},"MapView":{"TopLeft":{"Latitude":38.64546,"Longitude":-5.74111},"BottomRight":{"Latitude":38.64536,"Longitude":-5.74086}},"Address":{"Label":"Calle Real, 06441 Higuera de la Serena (Badajoz), España","Country":"ESP","State":"Extremadura","County":"Badajoz","City":"Higuera de la Serena","Street":"Calle Real","PostalCode":"06441","AdditionalData":[{"value":"España","key":"CountryName"},{"value":"Extremadura","key":"StateName"},{"value":"Badajoz","key":"CountyName"}]},"MapReference":{"ReferenceId":"564436438","Spot":0.32,"SideOfStreet":"right","CountryId":"20215059","StateId":"20226788","CountyId":"20226789","CityId":"20274072"}}},{"Relevance":1.0,"Distance":72.5,"MatchLevel":"houseNumber","MatchQuality":{"Country":1.0,"State":1.0,"County":1.0,"City":1.0,"Street":[1.0],"HouseNumber":1.0,"PostalCode":1.0},"MatchType":"interpolated","Location":{"LocationId":"NT_O8kKQ4IIVG1Wcl23gXNiGB_zA","LocationType":"point","DisplayPosition":{"Latitude":38.64541,"Longitude":-5.74112},"MapView":{"TopLeft":{"Latitude":38.6465342,"Longitude":-5.7425593},"BottomRight":{"Latitude":38.6442858,"Longitude":-5.7396807}},"Address":{"Label":"Calle Real, 3, 06441 Higuera de la Serena (Badajoz), España","Country":"ESP","State":"Extremadura","County":"Badajoz","City":"Higuera de la Serena","Street":"Calle Real","HouseNumber":"3","PostalCode":"06441","AdditionalData":[{"value":"España","key":"CountryName"},{"value":"Extremadura","key":"StateName"},{"value":"Badajoz","key":"CountyName"}]},"MapReference":{"ReferenceId":"564436429","Spot":0.78,"SideOfStreet":"left","CountryId":"20215059","StateId":"20226788","CountyId":"20226789","CityId":"20274072","AddressId":"350688940","RoadLinkId":"66662004"}}}]}]}}