{"Response":{"MetaInfo":{"Timestamp":"2020-03-28T09:39:09.410+0000","NextPageInformation":"2"},"View":[{"_type":"SearchResultsViewType","ViewId":0,"Result":[{"Relevance":1.0,"Distance":-38.7,"MatchLevel":"landmark","MatchQuality":{"Country":1.0,"State":1.0,"County":1.0,"City":1.0,"Street":[1.0],"PostalCode":1.0,"Name":1.0},"Location":{"LocationId":"NT_oWbqhdBhBI46m7nCzeIU-D_p_hBkmgXaJbVtuyDzEwt7maC","LocationType":"park","Name":"Parc de les Hortes","DisplayPosition":{"Latitude":38.62608,"Longitude":-0.57725},"MapView":{"TopLeft":{"Latitude":38.6273,"Longitude":-0.57917},"BottomRight":{"Latitude":38.62524,"Longitude":-0.57675}},"Address":{"Label":"Avinguda Riu de les Caixes, 03440 Ibi (Alacant), Espanya","Country":"ESP","State":"Comunitat Valenciana","County":"Alacant","City":"Ibi","Street":"Avinguda Riu de les Caixes","PostalCode":"03440","AdditionalData":[{"value":"Espanya","key":"CountryName"},{"value":"Comunitat Valenciana","key":"StateName"},{"value":"Alacant","key":"CountyName"}]},"MapReference":{"CountryId":"20215059","StateId":"20226784","CountyId":"20226785","CityId":"20249236","PlaceId":"801898649"}}},{"Relevance":1.0,"Distance":0.0,"Direction":0.0,"MatchLevel":"city","MatchQuality":{"Country":1.0,"State":1.0,"County":1.0,"City":1.0,"PostalCode":1.0},"Location":{"LocationId":"NT_Zttgx8I.aleghO0h-cgWhD","LocationType":"point","DisplayPosition":{"Latitude":38.6261061,"Longitude":-0.5777391},"MapView":{"TopLeft":{"Latitude":38.65931,"Longitude":-0.61959},"BottomRight":{"Latitude":38.58979,"Longitude":-0.49556}},"Address":{"Label":"Ibi, Comunitat Valenciana, Espanya","Country":"ESP","State":"Comunitat Valenciana","County":"Alacant","City":"Ibi","PostalCode":"03440","AdditionalData":[{"value":"Espanya","key":"CountryName"},{"value":"Comunitat Valenciana","key":"StateName"},{"value":"Alacant","key":"CountyName"}]},"MapReference":{"ReferenceId":"983924963","SideOfStreet":"neither","CountryId":"20215059","StateId":"20226784","CountyId":"20226785","CityId":"20249236"}}},{"Relevance":1.0,"Distance":38.8,"MatchLevel":"street","MatchQuality":{"Country":1.0,"State":1.0,"County":1.0,"City":1.0,"Street":[1.0],"PostalCode":1.0},"Location":{"LocationId":"NT_Tx7XrL1DpHSFcuw7poOlxA_l_572039187_R","LocationType":"point","DisplayPosition":{"Latitude":38.62577,"Longitude":-0.57762},"MapView":{"TopLeft":{"Latitude":38.62577,"Longitude":-0.57769},"BottomRight":{"Latitude":38.62559,"Longitude":-0.57739}},"Address":{"Label":"Calle Manuel de Falla, 03440 Ibi (Alicante), Espanya","Country":"ESP","State":"Comunidad Valenciana","County":"Alicante","City":"Ibi","Street":"Calle Manuel de Falla","PostalCode":"03440","AdditionalData":[{"value":"Espanya","key":"CountryName"},{"value":"Comunidad Valenciana","key":"StateName"},{"value":"Alicante","key":"CountyName"}]},"MapReference":{"ReferenceId":"572039187","Spot":0.78,"SideOfStreet":"right","CountryId":"20215059","StateId":"20226784","CountyId":"20226785","CityId":"20249236"}}},{"Relevance":1.0,"Distance":42.6,"MatchLevel":"street","MatchQuality":{"Country":1.0,"State":1.0,"County":1.0,"City":1.0,"Street":[1.0],"PostalCode":1.0},"Location":{"LocationId":"NT_DQNSRCSleiS4jb5OO29HbA_l_572039190_L","LocationType":"point","DisplayPosition":{"Latitude":38.62608,"Longitude":-0.57725},"MapView":{"TopLeft":{"Latitude":38.62613,"Longitude":-0.57725},"BottomRight":{"Latitude":38.62577,"Longitude":-0.5768}},"Address":{"Label":"Avenida Riu de les Caixes, 03440 Ibi (Alicante), Espanya","Country":"ESP","State":"Comunidad Valenciana","County":"Alicante","City":"Ibi","Street":"Avenida Riu de les Caixes","PostalCode":"03440","AdditionalData":[{"value":"Espanya","key":"CountryName"},{"value":"Comunidad Valenciana","key":"StateName"},{"value":"Alicante","key":"CountyName"}]},"MapReference":{"ReferenceId":"572039190","Spot":0.45,"SideOfStreet":"left","CountryId":"20215059","StateId":"20226784","CountyId":"20226785","CityId":"20249236"}}},{"Relevance":1.0,"Distance":43.1,"MatchLevel":"street","MatchQuality":{"Country":1.0,"State":1.0,"County":1.0,"City":1.0,"Street":[1.0],"PostalCode":1.0},"Location":{"LocationId":"NT_Tx7XrL1DpHSFcuw7poOlxA_l_572039186_L","LocationType":"point","DisplayPosition":{"Latitude":38.62572,"Longitude":-0.57769},"MapView":{"TopLeft":{"Latitude":38.62572,"Longitude":-0.57772},"BottomRight":{"Latitude":38.62543,"Longitude":-0.57769}},"Address":{"Label":"Calle Manuel de Falla, 03440 Ibi (Alicante), Espanya","Country":"ESP","State":"Comunidad Valenciana","County":"Alicante","City":"Ibi","Street":"Calle Manuel de Falla","PostalCode":"03440","AdditionalData":[{"value":"Espanya","key":"CountryName"},{"value":"Comunidad Valenciana","key":"StateName"},{"value":"Alicante","key":"CountyName"}]},"MapReference":{"ReferenceId":"572039186","Spot":1.0,"SideOfStreet":"left","CountryId":"20215059","StateId":"20226784","CountyId":"20226785","CityId":"20249236"}}},{"Relevance":1.0,"Distance":55.6,"MatchLevel":"houseNumber","MatchQuality":{"Country":1.0,"State":1.0,"County":1.0,"City":1.0,"Street":[1.0],"HouseNumber":1.0,"PostalCode":1.0},"MatchType":"interpolated","Location":{"LocationId":"NT_DQNSRCSleiS4jb5OO29HbA_xAD","LocationType":"point","DisplayPosition":{"Latitude":38.62567,"Longitude":-0.57723},"MapView":{"TopLeft":{"Latitude":38.6267942,"Longitude":-0.5786689},"BottomRight":{"Latitude":38.6245458,"Longitude":-0.5757911}},"Address":{"Label":"Avenida Riu de les Caixes, 10, 03440 Ibi (Alicante), Espanya","Country":"ESP","State":"Comunidad Valenciana","County":"Alicante","City":"Ibi","Street":"Avenida Riu de les Caixes","HouseNumber":"10","PostalCode":"03440","AdditionalData":[{"value":"Espanya","key":"CountryName"},{"value":"Comunidad Valenciana","key":"StateName"},{"value":"Alicante","key":"CountyName"}]},"MapReference":{"ReferenceId":"572039188","Spot":0.45,"SideOfStreet":"left","CountryId":"20215059","StateId":"20226784","CountyId":"20226785","CityId":"20249236","AddressId":"350319996","RoadLinkId":"65756751"}}},{"Relevance":1.0,"Distance":67.1,"MatchLevel":"street","MatchQuality":{"Country":1.0,"State":1.0,"County":1.0,"City":1.0,"Street":[1.0],"PostalCode":1.0},"Location":{"LocationId":"NT_YUFkmCbKk5G6rk2cIoo7lB_l_979301479_L","LocationType":"point","DisplayPosition":{"Latitude":38.6257,"Longitude":-0.57831},"MapView":{"TopLeft":{"Latitude":38.6257,"Longitude":-0.57858},"BottomRight":{"Latitude":38.62566,"Longitude":-0.57831}},"Address":{"Label":"Plaza de la Sarga, 03440 Ibi (Alicante), Espanya","Country":"ESP","State":"Comunidad Valenciana","County":"Alicante","City":"Ibi","Street":"Plaza de la Sarga","PostalCode":"03440","AdditionalData":[{"value":"Espanya","key":"CountryName"},{"value":"Comunidad Valenciana","key":"StateName"},{"value":"Alicante","key":"CountyName"}]},"MapReference":{"ReferenceId":"979301479","Spot":1.0,"SideOfStreet":"left","CountryId":"20215059","StateId":"20226784","CountyId":"20226785","CityId":"20249236"}}},{"Relevance":1.0,"Distance":70.7,"MatchLevel":"houseNumber","MatchQuality":{"Country":1.0,"State":1.0,"County":1.0,"City":1.0,"Street":[1.0],"HouseNumber":1.0,"PostalCode":1.0},"MatchType":"interpolated","Location":{"LocationId":"NT_Tx7XrL1DpHSFcuw7poOlxA_xA","LocationType":"point","DisplayPosition":{"Latitude":38.62548,"Longitude":-0.5776},"MapView":{"TopLeft":{"Latitude":38.6266042,"Longitude":-0.5790389},"BottomRight":{"Latitude":38.6243558,"Longitude":-0.5761611}},"Address":{"Label":"Calle Manuel de Falla, 1, 03440 Ibi (Alicante), Espanya","Country":"ESP","State":"Comunidad Valenciana","County":"Alicante","City":"Ibi","Street":"Calle Manuel de Falla","HouseNumber":"1","PostalCode":"03440","AdditionalData":[{"value":"Espanya","key":"CountryName"},{"value":"Comunidad Valenciana","key":"StateName"},{"value":"Alicante","key":"CountyName"}]},"MapReference":{"ReferenceId":"572039185","Spot":0.32,"SideOfStreet":"right","CountryId":"20215059","StateId":"20226784","CountyId":"20226785","CityId":"20249236","AddressId":"696210816","RoadLinkId":"404020636"}}},{"Relevance":1.0,"Distance":70.9,"MatchLevel":"houseNumber","MatchQuality":{"Country":1.0,"State":1.0,"County":1.0,"City":1.0,"Street":[1.0],"HouseNumber":1.0,"PostalCode":1.0},"MatchType":"interpolated","Location":{"LocationId":"NT_khrFCEoABvfaJBF-LYEcrB_xA","LocationType":"point","DisplayPosition":{"Latitude":38.62558,"Longitude":-0.5782},"MapView":{"TopLeft":{"Latitude":38.6267042,"Longitude":-0.5796389},"BottomRight":{"Latitude":38.6244558,"Longitude":-0.5767611}},"Address":{"Label":"Calle Bañeres, 1, 03440 Ibi (Alicante), Espanya","Country":"ESP","State":"Comunidad Valenciana","County":"Alicante","City":"Ibi","Street":"Calle Bañeres","HouseNumber":"1","PostalCode":"03440","AdditionalData":[{"value":"Espanya","key":"CountryName"},{"value":"Comunidad Valenciana","key":"StateName"},{"value":"Alicante","key":"CountyName"}]},"MapReference":{"ReferenceId":"537342259","Spot":0.7,"SideOfStreet":"left","CountryId":"20215059","StateId":"20226784","CountyId":"20226785","CityId":"20249236","AddressId":"672914854","RoadLinkId":"403914628"}}},{"Relevance":1.0,"Distance":71.3,"MatchLevel":"street","MatchQuality":{"Country":1.0,"State":1.0,"County":1.0,"City":1.0,"Street":[1.0],"PostalCode":1.0},"Location":{"LocationId":"NT_DQNSRCSleiS4jb5OO29HbA_l_572039189_L","LocationType":"point","DisplayPosition":{"Latitude":38.62577,"Longitude":-0.57704},"MapView":{"TopLeft":{"Latitude":38.62594,"Longitude":-0.57704},"BottomRight":{"Latitude":38.62577,"Longitude":-0.57684}},"Address":{"Label":"Avenida Riu de les Caixes, 03440 Ibi (Alicante), Espanya","Country":"ESP","State":"Comunidad Valenciana","County":"Alicante","City":"Ibi","Street":"Avenida Riu de les Caixes","PostalCode":"03440","AdditionalData":[{"value":"Espanya","key":"CountryName"},{"value":"Comunidad Valenciana","key":"StateName"},{"value":"Alicante","key":"CountyName"}]},"MapReference":{"ReferenceId":"572039189","Spot":0.0,"SideOfStreet":"left","CountryId":"20215059","StateId":"20226784","CountyId":"20226785","CityId":"20249236"}}}]}]}}