{"Response":{"MetaInfo":{"Timestamp":"2020-03-28T12:07:05.964+0000","NextPageInformation":"2"},"View":[{"_type":"SearchResultsViewType","ViewId":0,"Result":[{"Relevance":1.0,"Distance":-137.3,"MatchLevel":"landmark","MatchQuality":{"Country":1.0,"County":1.0,"Name":1.0},"Location":{"LocationId":"NT_GfOndVQQaYvWqNr2g11EuC","LocationType":"island","Name":"Ilha Terceira","DisplayPosition":{"Latitude":38.72121,"Longitude":-27.21774},"MapView":{"TopLeft":{"Latitude":38.80343,"Longitude":-27.37945},"BottomRight":{"Latitude":38.63899,"Longitude":-27.04121}},"Address":{"Label":"Portugal","Country":"PRT","County":"Ilha Terceira","AdditionalData":[{"value":"Portugal","key":"CountryName"},{"value":"Ilha Terceira","key":"CountyName"}]},"MapReference":{"CountryId":"20317122","CountyId":"23489551","PlaceId":"1409515593"}}},{"Relevance":1.0,"Distance":0.0,"Direction":0.0,"MatchLevel":"district","MatchQuality":{"Country":1.0,"County":1.0,"City":1.0,"District":1.0,"PostalCode":1.0},"Location":{"LocationId":"NT_asyW.ZhhpqxtdhJM6IMRXA","LocationType":"point","DisplayPosition":{"Latitude":38.6568554,"Longitude":-27.2697077},"MapView":{"TopLeft":{"Latitude":38.66827,"Longitude":-27.28068},"BottomRight":{"Latitude":38.65286,"Longitude":-27.26692}},"Address":{"Label":"São Mateus, Angra do Heroísmo, Portugal","Country":"PRT","County":"Ilha Terceira","City":"Angra do Heroísmo","District":"São Mateus","PostalCode":"9700-567","AdditionalData":[{"value":"Portugal","key":"CountryName"},{"value":"Ilha Terceira","key":"CountyName"}]},"MapReference":{"ReferenceId":"786785787","SideOfStreet":"neither","CountryId":"20317122","CountyId":"23489551","CityId":"23489562","DistrictId":"23490018"}}},{"Relevance":1.0,"Distance":4.2,"MatchLevel":"houseNumber","MatchQuality":{"Country":1.0,"County":1.0,"City":1.0,"District":1.0,"Street":[1.0],"HouseNumber":1.0,"PostalCode":1.0},"MatchType":"interpolated","Location":{"LocationId":"NT_naoQk.76GJghQgCXQb8LNB_l_1063998853_R_0A","LocationType":"point","DisplayPosition":{"Latitude":38.65682,"Longitude":-27.269725},"MapView":{"TopLeft":{"Latitude":38.6579442,"Longitude":-27.2711646},"BottomRight":{"Latitude":38.6556959,"Longitude":-27.2682855}},"Address":{"Label":"Canada de Santo António 4, 9700-587 Angra do Heroísmo, Portugal","Country":"PRT","County":"Ilha Terceira","City":"Angra do Heroísmo","District":"São Mateus","Street":"Canada de Santo António","HouseNumber":"4","PostalCode":"9700-587","AdditionalData":[{"value":"Portugal","key":"CountryName"},{"value":"Ilha Terceira","key":"CountyName"}]},"MapReference":{"ReferenceId":"1063998853","Spot":0.33,"SideOfStreet":"right","CountryId":"20317122","CountyId":"23489551","CityId":"23489562","DistrictId":"23490018"}}},{"Relevance":1.0,"Distance":30.5,"MatchLevel":"houseNumber","MatchQuality":{"Country":1.0,"County":1.0,"City":1.0,"District":1.0,"Street":[1.0],"HouseNumber":1.0,"PostalCode":1.0},"MatchType":"interpolated","Location":{"LocationId":"NT_cuQr1QeUNMAh2zhJxa4b-B_l_1104450423_R_1A","LocationType":"point","DisplayPosition":{"Latitude":38.6565928,"Longitude":-27.2696051},"MapView":{"TopLeft":{"Latitude":38.657717,"Longitude":-27.2710446},"BottomRight":{"Latitude":38.6554687,"Longitude":-27.2681655}},"Address":{"Label":"Largo do Padre Manuel Maria da Costa 5, 9700-581 Angra do Heroísmo, Portugal","Country":"PRT","County":"Ilha Terceira","City":"Angra do Heroísmo","District":"São Mateus","Street":"Largo do Padre Manuel Maria da Costa","HouseNumber":"5","PostalCode":"9700-581","AdditionalData":[{"value":"Portugal","key":"CountryName"},{"value":"Ilha Terceira","key":"CountyName"}]},"MapReference":{"ReferenceId":"1104450423","Spot":0.51,"SideOfStreet":"right","CountryId":"20317122","CountyId":"23489551","CityId":"23489562","DistrictId":"23490018"}}},{"Relevance":1.0,"Distance":32.6,"MatchLevel":"houseNumber","MatchQuality":{"Country":1.0,"County":1.0,"City":1.0,"District":1.0,"Street":[1.0],"HouseNumber":1.0,"PostalCode":1.0},"MatchType":"interpolated","Location":{"LocationId":"NT_L2lg3R7jdWrPTtG6xieDVD_l_1104015328_R_xkD","LocationType":"point","DisplayPosition":{"Latitude":38.6567,"Longitude":-27.26939},"MapView":{"TopLeft":{"Latitude":38.6578242,"Longitude":-27.2708295},"BottomRight":{"Latitude":38.6555759,"Longitude":-27.2679504}},"Address":{"Label":"Caminho da Vila Maria 19, 9700-575 Angra do Heroísmo, Portugal","Country":"PRT","County":"Ilha Terceira","City":"Angra do Heroísmo","District":"São Mateus","Street":"Caminho da Vila Maria","HouseNumber":"19","PostalCode":"9700-575","AdditionalData":[{"value":"Portugal","key":"CountryName"},{"value":"Ilha Terceira","key":"CountyName"}]},"MapReference":{"ReferenceId":"1104015328","Spot":0.24,"SideOfStreet":"right","CountryId":"20317122","CountyId":"23489551","CityId":"23489562","DistrictId":"23490018"}}},{"Relevance":1.0,"Distance":38.3,"MatchLevel":"houseNumber","MatchQuality":{"Country":1.0,"County":1.0,"City":1.0,"District":1.0,"Street":[1.0],"HouseNumber":1.0,"PostalCode":1.0},"MatchType":"interpolated","Location":{"LocationId":"NT_2RHsV0JXP.6NC84b0zaBeD_l_786780449_L_zA","LocationType":"point","DisplayPosition":{"Latitude":38.6566084,"Longitude":-27.270015},"MapView":{"TopLeft":{"Latitude":38.6577325,"Longitude":-27.2714546},"BottomRight":{"Latitude":38.6554842,"Longitude":-27.2685755}},"Address":{"Label":"Rua Padre Luís Casimiro 3, 9700-580 Angra do Heroísmo, Portugal","Country":"PRT","County":"Ilha Terceira","City":"Angra do Heroísmo","District":"São Mateus","Street":"Rua Padre Luís Casimiro","HouseNumber":"3","PostalCode":"9700-580","AdditionalData":[{"value":"Portugal","key":"CountryName"},{"value":"Ilha Terceira","key":"CountyName"}]},"MapReference":{"ReferenceId":"786780449","Spot":0.25,"SideOfStreet":"left","CountryId":"20317122","CountyId":"23489551","CityId":"23489562","DistrictId":"23490018"}}},{"Relevance":1.0,"Distance":40.0,"MatchLevel":"houseNumber","MatchQuality":{"Country":1.0,"County":1.0,"City":1.0,"District":1.0,"Street":[1.0],"HouseNumber":1.0,"PostalCode":1.0},"MatchType":"interpolated","Location":{"LocationId":"NT_HhumtPFwPSVP45-1D2kQUD_l_1063998855_R_xED","LocationType":"point","DisplayPosition":{"Latitude":38.65729,"Longitude":-27.26997},"MapView":{"TopLeft":{"Latitude":38.6584142,"Longitude":-27.2714095},"BottomRight":{"Latitude":38.6561659,"Longitude":-27.2685304}},"Address":{"Label":"Canada de Entre Vinhas 11, 9700-571 Angra do Heroísmo, Portugal","Country":"PRT","County":"Ilha Terceira","City":"Angra do Heroísmo","District":"São Mateus","Street":"Canada de Entre Vinhas","HouseNumber":"11","PostalCode":"9700-571","AdditionalData":[{"value":"Portugal","key":"CountryName"},{"value":"Ilha Terceira","key":"CountyName"}]},"MapReference":{"ReferenceId":"1063998855","Spot":0.22,"SideOfStreet":"right","CountryId":"20317122","CountyId":"23489551","CityId":"23489562","DistrictId":"23490018"}}},{"Relevance":1.0,"Distance":41.5,"MatchLevel":"houseNumber","MatchQuality":{"Country":1.0,"County":1.0,"City":1.0,"District":1.0,"Street":[1.0],"HouseNumber":1.0,"PostalCode":1.0},"MatchType":"interpolated","Location":{"LocationId":"NT_cuQr1QeUNMAh2zhJxa4b-B_l_1104450422_R_zA","LocationType":"point","DisplayPosition":{"Latitude":38.6564832,"Longitude":-27.2697468},"MapView":{"TopLeft":{"Latitude":38.6576073,"Longitude":-27.2711864},"BottomRight":{"Latitude":38.655359,"Longitude":-27.2683073}},"Address":{"Label":"Largo do Padre Manuel Maria da Costa 3, 9700-581 Angra do Heroísmo, Portugal","Country":"PRT","County":"Ilha Terceira","City":"Angra do Heroísmo","District":"São Mateus","Street":"Largo do Padre Manuel Maria da Costa","HouseNumber":"3","PostalCode":"9700-581","AdditionalData":[{"value":"Portugal","key":"CountryName"},{"value":"Ilha Terceira","key":"CountyName"}]},"MapReference":{"ReferenceId":"1104450422","Spot":0.5,"SideOfStreet":"right","CountryId":"20317122","CountyId":"23489551","CityId":"23489562","DistrictId":"23490018"}}},{"Relevance":1.0,"Distance":50.5,"MatchLevel":"street","MatchQuality":{"Country":1.0,"County":1.0,"City":1.0,"District":1.0,"Street":[1.0],"PostalCode":1.0},"Location":{"LocationId":"NT_dUwc1V9uAPR1ECGTA3cz6A_l_786776915_L","LocationType":"point","DisplayPosition":{"Latitude":38.65641,"Longitude":-27.26982},"MapView":{"TopLeft":{"Latitude":38.65641,"Longitude":-27.26994},"BottomRight":{"Latitude":38.6563,"Longitude":-27.26982}},"Address":{"Label":"Caminho da Vila Maria, 9700-575 Angra do Heroísmo, Portugal","Country":"PRT","County":"Ilha Terceira","City":"Angra do Heroísmo","District":"São Mateus","Street":"Caminho da Vila Maria","PostalCode":"9700-575","AdditionalData":[{"value":"Portugal","key":"CountryName"},{"value":"Ilha Terceira","key":"CountyName"}]},"MapReference":{"ReferenceId":"786776915","Spot":1.0,"SideOfStreet":"left","CountryId":"20317122","CountyId":"23489551","CityId":"23489562","DistrictId":"23490018"}}},{"Relevance":1.0,"Distance":65.1,"MatchLevel":"houseNumber","MatchQuality":{"Country":1.0,"County":1.0,"City":1.0,"District":1.0,"Street":[1.0],"HouseNumber":1.0,"PostalCode":1.0},"MatchType":"interpolated","Location":{"LocationId":"NT_naoQk.76GJghQgCXQb8LNB_l_1090361063_R_xAD","LocationType":"point","DisplayPosition":{"Latitude":38.65729,"Longitude":-27.27021},"MapView":{"TopLeft":{"Latitude":38.6584142,"Longitude":-27.2716496},"BottomRight":{"Latitude":38.6561659,"Longitude":-27.2687705}},"Address":{"Label":"Canada de Santo António 10, 9700-587 Angra do Heroísmo, Portugal","Country":"PRT","County":"Ilha Terceira","City":"Angra do Heroísmo","District":"São Mateus","Street":"Canada de Santo António","HouseNumber":"10","PostalCode":"9700-587","AdditionalData":[{"value":"Portugal","key":"CountryName"},{"value":"Ilha Terceira","key":"CountyName"}]},"MapReference":{"ReferenceId":"1090361063","Spot":0.26,"SideOfStreet":"right","CountryId":"20317122","CountyId":"23489551","CityId":"23489562","DistrictId":"23490018"}}}]}]}}