{"Response":{"MetaInfo":{"Timestamp":"2020-03-28T10:06:17.582+0000","NextPageInformation":"2"},"View":[{"_type":"SearchResultsViewType","ViewId":0,"Result":[{"Relevance":1.0,"Distance":0.0,"Direction":0.0,"MatchLevel":"district","MatchQuality":{"Country":1.0,"State":1.0,"County":1.0,"City":1.0,"District":1.0,"PostalCode":1.0},"Location":{"LocationId":"NT_f29tassrLkQMZQosVLLdAC","LocationType":"point","DisplayPosition":{"Latitude":38.6310021,"Longitude":-0.0087291},"MapView":{"TopLeft":{"Latitude":38.63795,"Longitude":-0.01278},"BottomRight":{"Latitude":38.62846,"Longitude":0.01039}},"Address":{"Label":"Poble Mascarat, Altea, Comunidad Valenciana, Espanya","Country":"ESP","State":"Comunidad Valenciana","County":"Alicante","City":"Altea","District":"Poble Mascarat","PostalCode":"03599","AdditionalData":[{"value":"Espanya","key":"CountryName"},{"value":"Comunidad Valenciana","key":"StateName"},{"value":"Alicante","key":"CountyName"}]},"MapReference":{"ReferenceId":"738180437","SideOfStreet":"neither","CountryId":"20215059","StateId":"20226784","CountyId":"20226785","CityId":"20249060","DistrictId":"20458710"}}},{"Relevance":1.0,"Distance":24.5,"MatchLevel":"houseNumber","MatchQuality":{"Country":1.0,"State":1.0,"County":1.0,"City":1.0,"District":1.0,"Street":[1.0],"HouseNumber":1.0,"PostalCode":1.0},"MatchType":"interpolated","Location":{"LocationId":"NT_5Gmk-yw23BLAU7J2oYpQgC_4EE","LocationType":"point","DisplayPosition":{"Latitude":38.63081,"Longitude":-0.00859},"MapView":{"TopLeft":{"Latitude":38.6319342,"Longitude":-0.010029},"BottomRight":{"Latitude":38.6296858,"Longitude":-0.007151}},"Address":{"Label":"Calle Mirador, 8A, 03599 Altea (Alicante), Espanya","Country":"ESP","State":"Comunidad Valenciana","County":"Alicante","City":"Altea","District":"Poble Mascarat","Street":"Calle Mirador","HouseNumber":"8A","PostalCode":"03599","AdditionalData":[{"value":"Espanya","key":"CountryName"},{"value":"Comunidad Valenciana","key":"StateName"},{"value":"Alicante","key":"CountyName"}]},"MapReference":{"ReferenceId":"560827222","Spot":0.91,"SideOfStreet":"left","CountryId":"20215059","StateId":"20226784","CountyId":"20226785","CityId":"20249060","DistrictId":"20458710","AddressId":"367991105","RoadLinkId":"403491024"}}},{"Relevance":1.0,"Distance":50.4,"MatchLevel":"street","MatchQuality":{"Country":1.0,"State":1.0,"County":1.0,"City":1.0,"District":1.0,"Street":[1.0],"PostalCode":1.0},"Location":{"LocationId":"NT_fQUNGcf8ST5IbosFRJztfA_l_727319654_R","LocationType":"point","DisplayPosition":{"Latitude":38.6314509,"Longitude":-0.0088083},"MapView":{"TopLeft":{"Latitude":38.63147,"Longitude":-0.00928},"BottomRight":{"Latitude":38.63144,"Longitude":-0.0087}},"Address":{"Label":"N-332, 03599 Altea (Alicante), España","Country":"ESP","State":"Comunidad Valenciana","County":"Alicante","City":"Altea","District":"Poble Mascarat","Street":"N-332","PostalCode":"03599","AdditionalData":[{"value":"España","key":"CountryName"},{"value":"Comunidad Valenciana","key":"StateName"},{"value":"Alicante","key":"CountyName"}]},"MapReference":{"ReferenceId":"727319654","Spot":0.81,"SideOfStreet":"right","CountryId":"20215059","StateId":"20226784","CountyId":"20226785","CityId":"20249060","DistrictId":"20458710"}}},{"Relevance":1.0,"Distance":69.1,"MatchLevel":"street","MatchQuality":{"Country":1.0,"State":1.0,"County":1.0,"City":1.0,"District":1.0,"Street":[1.0],"PostalCode":1.0},"Location":{"LocationId":"NT_fQUNGcf8ST5IbosFRJztfA_l_1147504036_L","LocationType":"point","DisplayPosition":{"Latitude":38.63145,"Longitude":-0.00928},"MapView":{"TopLeft":{"Latitude":38.63152,"Longitude":-0.00956},"BottomRight":{"Latitude":38.63145,"Longitude":-0.00928}},"Address":{"Label":"N-332, 03599 Altea (Alicante), España","Country":"ESP","State":"Comunidad Valenciana","County":"Alicante","City":"Altea","District":"Poble Mascarat","Street":"N-332","PostalCode":"03599","AdditionalData":[{"value":"España","key":"CountryName"},{"value":"Comunidad Valenciana","key":"StateName"},{"value":"Alicante","key":"CountyName"}]},"MapReference":{"ReferenceId":"1147504036","Spot":0.0,"SideOfStreet":"left","CountryId":"20215059","StateId":"20226784","CountyId":"20226785","CityId":"20249060","DistrictId":"20458710"}}},{"Relevance":1.0,"Distance":69.8,"MatchLevel":"houseNumber","MatchQuality":{"Country":1.0,"State":1.0,"County":1.0,"City":1.0,"District":1.0,"Street":[1.0],"HouseNumber":1.0,"PostalCode":1.0},"MatchType":"interpolated","Location":{"LocationId":"NT_fQUNGcf8ST5IbosFRJztfA_0ME","LocationType":"point","DisplayPosition":{"Latitude":38.63151,"Longitude":-0.00818},"MapView":{"TopLeft":{"Latitude":38.6326342,"Longitude":-0.009619},"BottomRight":{"Latitude":38.6303858,"Longitude":-0.006741}},"Address":{"Label":"N-332, 4C, 03599 Altea (Alicante), España","Country":"ESP","State":"Comunidad Valenciana","County":"Alicante","City":"Altea","District":"Poble Mascarat","Street":"N-332","HouseNumber":"4C","PostalCode":"03599","AdditionalData":[{"value":"España","key":"CountryName"},{"value":"Comunidad Valenciana","key":"StateName"},{"value":"Alicante","key":"CountyName"}]},"MapReference":{"ReferenceId":"727433619","Spot":0.78,"SideOfStreet":"left","CountryId":"20215059","StateId":"20226784","CountyId":"20226785","CityId":"20249060","DistrictId":"20458710","AddressId":"367868927","RoadLinkId":"130282046"}}},{"Relevance":1.0,"Distance":92.3,"MatchLevel":"street","MatchQuality":{"Country":1.0,"State":1.0,"County":1.0,"City":1.0,"District":1.0,"Street":[1.0],"PostalCode":1.0},"Location":{"LocationId":"NT_fQUNGcf8ST5IbosFRJztfA_l_1147504037_L","LocationType":"point","DisplayPosition":{"Latitude":38.63152,"Longitude":-0.00956},"MapView":{"TopLeft":{"Latitude":38.63156,"Longitude":-0.0097},"BottomRight":{"Latitude":38.63152,"Longitude":-0.00956}},"Address":{"Label":"N-332, 03599 Altea (Alicante), España","Country":"ESP","State":"Comunidad Valenciana","County":"Alicante","City":"Altea","District":"Poble Mascarat","Street":"N-332","PostalCode":"03599","AdditionalData":[{"value":"España","key":"CountryName"},{"value":"Comunidad Valenciana","key":"StateName"},{"value":"Alicante","key":"CountyName"}]},"MapReference":{"ReferenceId":"1147504037","Spot":0.0,"SideOfStreet":"left","CountryId":"20215059","StateId":"20226784","CountyId":"20226785","CityId":"20249060","DistrictId":"20458710"}}},{"Relevance":1.0,"Distance":166.8,"MatchLevel":"street","MatchQuality":{"Country":1.0,"State":1.0,"County":1.0,"City":1.0,"District":1.0,"Street":[1.0],"PostalCode":1.0},"Location":{"LocationId":"NT_4LLpgDVb.XLc-0o0FbMBJD_l_718448772_L","LocationType":"point","DisplayPosition":{"Latitude":38.6296192,"Longitude":-0.0079844},"MapView":{"TopLeft":{"Latitude":38.62997,"Longitude":-0.00918},"BottomRight":{"Latitude":38.62862,"Longitude":-0.00702}},"Address":{"Label":"Calle Currica, 03599 Altea (Alicante), Espanya","Country":"ESP","State":"Comunidad Valenciana","County":"Alicante","City":"Altea","District":"Poble Mascarat","Street":"Calle Currica","PostalCode":"03599","AdditionalData":[{"value":"Espanya","key":"CountryName"},{"value":"Comunidad Valenciana","key":"StateName"},{"value":"Alicante","key":"CountyName"}]},"MapReference":{"ReferenceId":"718448772","Spot":0.6,"SideOfStreet":"left","CountryId":"20215059","StateId":"20226784","CountyId":"20226785","CityId":"20249060","DistrictId":"20458710"}}},{"Relevance":1.0,"Distance":170.5,"MatchLevel":"houseNumber","MatchQuality":{"Country":1.0,"State":1.0,"County":1.0,"City":1.0,"District":1.0,"Street":[1.0],"HouseNumber":1.0,"PostalCode":1.0},"MatchType":"interpolated","Location":{"LocationId":"NT_Em-0iCWy0YrbtcHNotgW3A_xID","LocationType":"point","DisplayPosition":{"Latitude":38.63083,"Longitude":-0.01068},"MapView":{"TopLeft":{"Latitude":38.6319542,"Longitude":-0.012119},"BottomRight":{"Latitude":38.6297058,"Longitude":-0.009241}},"Address":{"Label":"Calle Chambele, 12, 03599 Altea (Alicante), Espanya","Country":"ESP","State":"Comunidad Valenciana","County":"Alicante","City":"Altea","District":"Galera Mar","Street":"Calle Chambele","HouseNumber":"12","PostalCode":"03599","AdditionalData":[{"value":"Espanya","key":"CountryName"},{"value":"Comunidad Valenciana","key":"StateName"},{"value":"Alicante","key":"CountyName"}]},"MapReference":{"ReferenceId":"560830914","Spot":0.78,"SideOfStreet":"left","CountryId":"20215059","StateId":"20226784","CountyId":"20226785","CityId":"20249060","DistrictId":"22881854","AddressId":"350346811","RoadLinkId":"403488398"}}},{"Relevance":1.0,"Distance":176.2,"MatchLevel":"landmark","MatchQuality":{"Country":1.0,"State":1.0,"County":1.0,"Name":1.0},"Location":{"LocationId":"NT_QWKOL4xuzZDBdBPIzYbWkA","LocationType":"park","Name":"Serra Gelada","DisplayPosition":{"Latitude":38.56057,"Longitude":-0.04286},"MapView":{"TopLeft":{"Latitude":38.6328,"Longitude":-0.16565},"BottomRight":{"Latitude":38.48834,"Longitude":0.03126}},"Address":{"Label":"(Alacant), Espanya","Country":"ESP","State":"Comunitat Valenciana","County":"Alacant","AdditionalData":[{"value":"Espanya","key":"CountryName"},{"value":"Comunitat Valenciana","key":"StateName"},{"value":"Alacant","key":"CountyName"}]},"MapReference":{"CountryId":"20215059","StateId":"20226784","CountyId":"20226785","PlaceId":"1519031422"}}},{"Relevance":1.0,"Distance":189.3,"MatchLevel":"houseNumber","MatchQuality":{"Country":1.0,"State":1.0,"County":1.0,"City":1.0,"District":1.0,"Street":[1.0],"HouseNumber":1.0,"PostalCode":1.0},"MatchType":"interpolated","Location":{"LocationId":"NT_fQUNGcf8ST5IbosFRJztfA_zoF","LocationType":"point","DisplayPosition":{"Latitude":38.6319,"Longitude":-0.01058},"MapView":{"TopLeft":{"Latitude":38.6330242,"Longitude":-0.0120191},"BottomRight":{"Latitude":38.6307758,"Longitude":-0.0091409}},"Address":{"Label":"N-332, 3Z, 03599 Altea (Alicante), España","Country":"ESP","State":"Comunidad Valenciana","County":"Alicante","City":"Altea","District":"Poble Mascarat","Street":"N-332","HouseNumber":"3Z","PostalCode":"03599","AdditionalData":[{"value":"España","key":"CountryName"},{"value":"Comunidad Valenciana","key":"StateName"},{"value":"Alicante","key":"CountyName"}]},"MapReference":{"ReferenceId":"727319665","Spot":0.71,"SideOfStreet":"left","CountryId":"20215059","StateId":"20226784","CountyId":"20226785","CityId":"20249060","DistrictId":"20458710","AddressId":"350413692","RoadLinkId":"130242520"}}}]}]}}