{"Response":{"MetaInfo":{"Timestamp":"2020-03-28T09:58:36.860+0000","NextPageInformation":"2"},"View":[{"_type":"SearchResultsViewType","ViewId":0,"Result":[{"Relevance":1.0,"Distance":0.0,"Direction":0.0,"MatchLevel":"district","MatchQuality":{"Country":1.0,"County":1.0,"City":1.0,"District":1.0,"PostalCode":1.0},"Location":{"LocationId":"NT_65c15.jXpEKpHN52wR1CoB","LocationType":"point","DisplayPosition":{"Latitude":38.6665474,"Longitude":-9.1978166},"MapView":{"TopLeft":{"Latitude":38.6711,"Longitude":-9.20753},"BottomRight":{"Latitude":38.66338,"Longitude":-9.19428}},"Address":{"Label":"Torre, Almada, Portugal","Country":"PRT","County":"Setúbal","City":"Almada","District":"Torre","PostalCode":"2825","AdditionalData":[{"value":"Portugal","key":"CountryName"},{"value":"Setúbal","key":"CountyName"}]},"MapReference":{"ReferenceId":"1224102762","SideOfStreet":"neither","CountryId":"20317122","CountyId":"20320375","CityId":"20320387","DistrictId":"20653496"}}},{"Relevance":1.0,"Distance":20.8,"MatchLevel":"landmark","MatchQuality":{"Country":1.0,"County":1.0,"City":1.0,"District":1.0,"PostalCode":1.0,"Name":1.0},"Location":{"LocationId":"NT_b8zySuDj0sbEDchxh4LxNC","LocationType":"industrialComplex","Name":"Zona Industrial do Vale do Rosal","DisplayPosition":{"Latitude":38.66785,"Longitude":-9.19595},"MapView":{"TopLeft":{"Latitude":38.66951,"Longitude":-9.1978},"BottomRight":{"Latitude":38.66619,"Longitude":-9.19466}},"Address":{"Label":"2825-052 Almada, Portugal","Country":"PRT","County":"Setúbal","City":"Almada","District":"Monte da Caparica","PostalCode":"2825-052","AdditionalData":[{"value":"Portugal","key":"CountryName"},{"value":"Setúbal","key":"CountyName"}]},"MapReference":{"CountryId":"20317122","CountyId":"20320375","CityId":"20320387","DistrictId":"20480159","PlaceId":"1414466265"}}},{"Relevance":1.0,"Distance":21.5,"MatchLevel":"street","MatchQuality":{"Country":1.0,"County":1.0,"City":1.0,"District":1.0,"Street":[1.0],"PostalCode":1.0},"Location":{"LocationId":"NT_8bFob9CMlGZ4lpNK9Pqz1A_l_805968397_L","LocationType":"point","DisplayPosition":{"Latitude":38.66674,"Longitude":-9.1978},"MapView":{"TopLeft":{"Latitude":38.66681,"Longitude":-9.19815},"BottomRight":{"Latitude":38.66674,"Longitude":-9.1978}},"Address":{"Label":"Rua do Facho, 2825 Almada, Portugal","Country":"PRT","County":"Setúbal","City":"Almada","District":"Torre","Street":"Rua do Facho","PostalCode":"2825","AdditionalData":[{"value":"Portugal","key":"CountryName"},{"value":"Setúbal","key":"CountyName"}]},"MapReference":{"ReferenceId":"805968397","Spot":0.0,"SideOfStreet":"left","CountryId":"20317122","CountyId":"20320375","CityId":"20320387","DistrictId":"20653496"}}},{"Relevance":1.0,"Distance":26.1,"MatchLevel":"houseNumber","MatchQuality":{"Country":1.0,"County":1.0,"City":1.0,"District":1.0,"Street":[1.0],"HouseNumber":1.0,"PostalCode":1.0},"MatchType":"interpolated","Location":{"LocationId":"NT_9e8Vneesj68yekvcXktUxA_ykD","LocationType":"point","DisplayPosition":{"Latitude":38.66667,"Longitude":-9.19756},"MapView":{"TopLeft":{"Latitude":38.6677942,"Longitude":-9.1989998},"BottomRight":{"Latitude":38.6655458,"Longitude":-9.1961202}},"Address":{"Label":"Rua do Facho 29, 2825-075 Almada, Portugal","Country":"PRT","County":"Setúbal","City":"Almada","District":"Monte da Caparica","Street":"Rua do Facho","HouseNumber":"29","PostalCode":"2825-075","AdditionalData":[{"value":"Portugal","key":"CountryName"},{"value":"Setúbal","key":"CountyName"}]},"MapReference":{"ReferenceId":"805968396","Spot":0.68,"SideOfStreet":"right","CountryId":"20317122","CountyId":"20320375","CityId":"20320387","DistrictId":"20480159","AddressId":"342493566","RoadLinkId":"193679538"}}},{"Relevance":1.0,"Distance":39.2,"MatchLevel":"street","MatchQuality":{"Country":1.0,"County":1.0,"City":1.0,"District":1.0,"Street":[1.0],"PostalCode":1.0},"Location":{"LocationId":"NT_devTEmdaeoGFgykU95hCHB_l_588926690_R","LocationType":"point","DisplayPosition":{"Latitude":38.6667557,"Longitude":-9.1981811},"MapView":{"TopLeft":{"Latitude":38.66681,"Longitude":-9.19828},"BottomRight":{"Latitude":38.66563,"Longitude":-9.19815}},"Address":{"Label":"Rua António Jesus André, 2825-146 Almada, Portugal","Country":"PRT","County":"Setúbal","City":"Almada","District":"Torre","Street":"Rua António Jesus André","PostalCode":"2825-146","AdditionalData":[{"value":"Portugal","key":"CountryName"},{"value":"Setúbal","key":"CountyName"}]},"MapReference":{"ReferenceId":"588926690","Spot":0.95,"SideOfStreet":"right","CountryId":"20317122","CountyId":"20320375","CityId":"20320387","DistrictId":"20653496"}}},{"Relevance":1.0,"Distance":43.4,"MatchLevel":"street","MatchQuality":{"Country":1.0,"County":1.0,"City":1.0,"District":1.0,"PostalCode":1.0},"Location":{"LocationId":"NT_pZWTKuyKb6Wh-53bl7vamD_l_575152089_L","LocationType":"point","DisplayPosition":{"Latitude":38.66675,"Longitude":-9.19739},"MapView":{"TopLeft":{"Latitude":38.66675,"Longitude":-9.19739},"BottomRight":{"Latitude":38.66667,"Longitude":-9.19682}},"Address":{"Label":"2825 Almada, Portugal","Country":"PRT","County":"Setúbal","City":"Almada","District":"Monte da Caparica","PostalCode":"2825","AdditionalData":[{"value":"Portugal","key":"CountryName"},{"value":"Setúbal","key":"CountyName"}]},"MapReference":{"ReferenceId":"575152089","Spot":1.0,"SideOfStreet":"left","CountryId":"20317122","CountyId":"20320375","CityId":"20320387","DistrictId":"20480159"}}},{"Relevance":1.0,"Distance":56.3,"MatchLevel":"houseNumber","MatchQuality":{"Country":1.0,"County":1.0,"City":1.0,"District":1.0,"Street":[1.0],"HouseNumber":1.0,"PostalCode":1.0},"MatchType":"interpolated","Location":{"LocationId":"NT_0YIGL2rcsZjpla7kDxDaeC_l_1199270366_L_yA","LocationType":"point","DisplayPosition":{"Latitude":38.6662003,"Longitude":-9.19721},"MapView":{"TopLeft":{"Latitude":38.6673244,"Longitude":-9.1986497},"BottomRight":{"Latitude":38.6650761,"Longitude":-9.1957703}},"Address":{"Label":"Rua Manuel Tito de Morais 2, 2825-146 Almada, Portugal","Country":"PRT","County":"Setúbal","City":"Almada","District":"Torre","Street":"Rua Manuel Tito de Morais","HouseNumber":"2","PostalCode":"2825-146","AdditionalData":[{"value":"Portugal","key":"CountryName"},{"value":"Setúbal","key":"CountyName"}]},"MapReference":{"ReferenceId":"1199270366","Spot":0.49,"SideOfStreet":"left","CountryId":"20317122","CountyId":"20320375","CityId":"20320387","DistrictId":"20653496"}}},{"Relevance":1.0,"Distance":61.5,"MatchLevel":"houseNumber","MatchQuality":{"Country":1.0,"County":1.0,"City":1.0,"District":1.0,"Street":[1.0],"HouseNumber":1.0,"PostalCode":1.0},"MatchType":"interpolated","Location":{"LocationId":"NT_8bFob9CMlGZ4lpNK9Pqz1A_yYD","LocationType":"point","DisplayPosition":{"Latitude":38.66686,"Longitude":-9.19841},"MapView":{"TopLeft":{"Latitude":38.6679842,"Longitude":-9.1998498},"BottomRight":{"Latitude":38.6657358,"Longitude":-9.1969702}},"Address":{"Label":"Rua do Facho 26, 2825 Almada, Portugal","Country":"PRT","County":"Setúbal","City":"Almada","District":"Torre","Street":"Rua do Facho","HouseNumber":"26","PostalCode":"2825","AdditionalData":[{"value":"Portugal","key":"CountryName"},{"value":"Setúbal","key":"CountyName"}]},"MapReference":{"ReferenceId":"575152084","Spot":0.37,"SideOfStreet":"left","CountryId":"20317122","CountyId":"20320375","CityId":"20320387","DistrictId":"20653496","AddressId":"342856675","RoadLinkId":"70421974"}}},{"Relevance":1.0,"Distance":65.1,"MatchLevel":"street","MatchQuality":{"Country":1.0,"County":1.0,"City":1.0,"District":1.0,"Street":[1.0],"PostalCode":1.0},"Location":{"LocationId":"NT_8bFob9CMlGZ4lpNK9Pqz1A_l_575152090_L","LocationType":"point","DisplayPosition":{"Latitude":38.66649,"Longitude":-9.19707},"MapView":{"TopLeft":{"Latitude":38.66649,"Longitude":-9.19707},"BottomRight":{"Latitude":38.66644,"Longitude":-9.19692}},"Address":{"Label":"Rua do Facho, 2825 Almada, Portugal","Country":"PRT","County":"Setúbal","City":"Almada","District":"Torre","Street":"Rua do Facho","PostalCode":"2825","AdditionalData":[{"value":"Portugal","key":"CountryName"},{"value":"Setúbal","key":"CountyName"}]},"MapReference":{"ReferenceId":"575152090","Spot":1.0,"SideOfStreet":"left","CountryId":"20317122","CountyId":"20320375","CityId":"20320387","DistrictId":"20653496"}}},{"Relevance":1.0,"Distance":78.8,"MatchLevel":"street","MatchQuality":{"Country":1.0,"County":1.0,"City":1.0,"District":1.0,"PostalCode":1.0},"Location":{"LocationId":"NT_pZWTKuyKb6Wh-53bl7vamD_l_575152088_L","LocationType":"point","DisplayPosition":{"Latitude":38.66644,"Longitude":-9.19692},"MapView":{"TopLeft":{"Latitude":38.66669,"Longitude":-9.19692},"BottomRight":{"Latitude":38.66644,"Longitude":-9.19682}},"Address":{"Label":"2825 Almada, Portugal","Country":"PRT","County":"Setúbal","City":"Almada","District":"Monte da Caparica","PostalCode":"2825","AdditionalData":[{"value":"Portugal","key":"CountryName"},{"value":"Setúbal","key":"CountyName"}]},"MapReference":{"ReferenceId":"575152088","Spot":0.0,"SideOfStreet":"left","CountryId":"20317122","CountyId":"20320375","CityId":"20320387","DistrictId":"20480159"}}}]}]}}