{"Response":{"MetaInfo":{"Timestamp":"2020-03-28T09:39:39.700+0000","NextPageInformation":"2"},"View":[{"_type":"SearchResultsViewType","ViewId":0,"Result":[{"Relevance":1.0,"Distance":0.0,"Direction":0.0,"MatchLevel":"city","MatchQuality":{"Country":1.0,"State":1.0,"County":1.0,"City":1.0,"PostalCode":1.0},"Location":{"LocationId":"NT_0hvdZKTmuWYoT.DPllTOED","LocationType":"point","DisplayPosition":{"Latitude":38.6526588,"Longitude":-5.6552873},"MapView":{"TopLeft":{"Latitude":38.73089,"Longitude":-5.80418},"BottomRight":{"Latitude":38.5163,"Longitude":-5.52598}},"Address":{"Label":"Zalamea de la Serena, Extremadura, España","Country":"ESP","State":"Extremadura","County":"Badajoz","City":"Zalamea de la Serena","PostalCode":"06430","AdditionalData":[{"value":"España","key":"CountryName"},{"value":"Extremadura","key":"StateName"},{"value":"Badajoz","key":"CountyName"}]},"MapReference":{"ReferenceId":"946281574","SideOfStreet":"neither","CountryId":"20215059","StateId":"20226788","CountyId":"20226789","CityId":"20274458"}}},{"Relevance":1.0,"Distance":13.4,"MatchLevel":"street","MatchQuality":{"Country":1.0,"State":1.0,"County":1.0,"City":1.0,"Street":[1.0],"PostalCode":1.0},"Location":{"LocationId":"NT_yYgh44x4ERsy-Y-j72CPZB_l_564436903_L","LocationType":"point","DisplayPosition":{"Latitude":38.6527649,"Longitude":-5.6552137},"MapView":{"TopLeft":{"Latitude":38.65303,"Longitude":-5.65543},"BottomRight":{"Latitude":38.65236,"Longitude":-5.65463}},"Address":{"Label":"Avenida Circunvalación, 06430 Zalamea de la Serena (Badajoz), España","Country":"ESP","State":"Extremadura","County":"Badajoz","City":"Zalamea de la Serena","Street":"Avenida Circunvalación","PostalCode":"06430","AdditionalData":[{"value":"España","key":"CountryName"},{"value":"Extremadura","key":"StateName"},{"value":"Badajoz","key":"CountyName"}]},"MapReference":{"ReferenceId":"564436903","Spot":0.67,"SideOfStreet":"left","CountryId":"20215059","StateId":"20226788","CountyId":"20226789","CityId":"20274458"}}},{"Relevance":1.0,"Distance":28.6,"MatchLevel":"houseNumber","MatchQuality":{"Country":1.0,"State":1.0,"County":1.0,"City":1.0,"Street":[1.0],"HouseNumber":1.0,"PostalCode":1.0},"MatchType":"interpolated","Location":{"LocationId":"NT_bJQ.l0Qq8wIsJLukzHg38A_l_1203241322_R_xYD","LocationType":"point","DisplayPosition":{"Latitude":38.6528934,"Longitude":-5.6556595},"MapView":{"TopLeft":{"Latitude":38.6540176,"Longitude":-5.657099},"BottomRight":{"Latitude":38.6517693,"Longitude":-5.6542201}},"Address":{"Label":"Calle Pablo Iglesias, 16, 06430 Zalamea de la Serena (Badajoz), España","Country":"ESP","State":"Extremadura","County":"Badajoz","City":"Zalamea de la Serena","Street":"Calle Pablo Iglesias","HouseNumber":"16","PostalCode":"06430","AdditionalData":[{"value":"España","key":"CountryName"},{"value":"Extremadura","key":"StateName"},{"value":"Badajoz","key":"CountyName"}]},"MapReference":{"ReferenceId":"1203241322","Spot":0.52,"SideOfStreet":"right","CountryId":"20215059","StateId":"20226788","CountyId":"20226789","CityId":"20274458"}}},{"Relevance":1.0,"Distance":51.4,"MatchLevel":"houseNumber","MatchQuality":{"Country":1.0,"State":1.0,"County":1.0,"City":1.0,"Street":[1.0],"HouseNumber":1.0,"PostalCode":1.0},"MatchType":"interpolated","Location":{"LocationId":"NT_NKgJAXFG6jEdqNkyOBZJgA_xA","LocationType":"point","DisplayPosition":{"Latitude":38.65215,"Longitude":-5.65551},"MapView":{"TopLeft":{"Latitude":38.6532742,"Longitude":-5.6569495},"BottomRight":{"Latitude":38.6510258,"Longitude":-5.6540705}},"Address":{"Label":"Avenida Europa, 1, 06430 Zalamea de la Serena (Badajoz), España","Country":"ESP","State":"Extremadura","County":"Badajoz","City":"Zalamea de la Serena","Street":"Avenida Europa","HouseNumber":"1","PostalCode":"06430","AdditionalData":[{"value":"España","key":"CountryName"},{"value":"Extremadura","key":"StateName"},{"value":"Badajoz","key":"CountyName"}]},"MapReference":{"ReferenceId":"564436869","Spot":0.49,"SideOfStreet":"right","CountryId":"20215059","StateId":"20226788","CountyId":"20226789","CityId":"20274458","AddressId":"350598123","RoadLinkId":"67362930"}}},{"Relevance":1.0,"Distance":52.4,"MatchLevel":"houseNumber","MatchQuality":{"Country":1.0,"State":1.0,"County":1.0,"City":1.0,"Street":[1.0],"HouseNumber":1.0,"PostalCode":1.0},"MatchType":"interpolated","Location":{"LocationId":"NT_bJQ.l0Qq8wIsJLukzHg38A_l_1203241323_L_ykD","LocationType":"point","DisplayPosition":{"Latitude":38.6531297,"Longitude":-5.6552883},"MapView":{"TopLeft":{"Latitude":38.6542538,"Longitude":-5.6567278},"BottomRight":{"Latitude":38.6520055,"Longitude":-5.6538488}},"Address":{"Label":"Calle Pablo Iglesias, 29, 06430 Zalamea de la Serena (Badajoz), España","Country":"ESP","State":"Extremadura","County":"Badajoz","City":"Zalamea de la Serena","Street":"Calle Pablo Iglesias","HouseNumber":"29","PostalCode":"06430","AdditionalData":[{"value":"España","key":"CountryName"},{"value":"Extremadura","key":"StateName"},{"value":"Badajoz","key":"CountyName"}]},"MapReference":{"ReferenceId":"1203241323","Spot":0.52,"SideOfStreet":"left","CountryId":"20215059","StateId":"20226788","CountyId":"20226789","CityId":"20274458"}}},{"Relevance":1.0,"Distance":55.2,"MatchLevel":"street","MatchQuality":{"Country":1.0,"State":1.0,"County":1.0,"City":1.0,"Street":[1.0],"PostalCode":1.0},"Location":{"LocationId":"NT_GF4rpdOtSDE8jZpkfp2U8B_l_1203241324_R","LocationType":"point","DisplayPosition":{"Latitude":38.65276,"Longitude":-5.65591},"MapView":{"TopLeft":{"Latitude":38.6534,"Longitude":-5.65658},"BottomRight":{"Latitude":38.65276,"Longitude":-5.65591}},"Address":{"Label":"Calle Trajano, 06430 Zalamea de la Serena (Badajoz), España","Country":"ESP","State":"Extremadura","County":"Badajoz","City":"Zalamea de la Serena","Street":"Calle Trajano","PostalCode":"06430","AdditionalData":[{"value":"España","key":"CountryName"},{"value":"Extremadura","key":"StateName"},{"value":"Badajoz","key":"CountyName"}]},"MapReference":{"ReferenceId":"1203241324","Spot":0.0,"SideOfStreet":"right","CountryId":"20215059","StateId":"20226788","CountyId":"20226789","CityId":"20274458"}}},{"Relevance":1.0,"Distance":56.9,"MatchLevel":"houseNumber","MatchQuality":{"Country":1.0,"State":1.0,"County":1.0,"City":1.0,"Street":[1.0],"HouseNumber":1.0,"PostalCode":1.0},"MatchType":"interpolated","Location":{"LocationId":"NT_NKgJAXFG6jEdqNkyOBZJgA_yA","LocationType":"point","DisplayPosition":{"Latitude":38.65256,"Longitude":-5.65593},"MapView":{"TopLeft":{"Latitude":38.6536842,"Longitude":-5.6573695},"BottomRight":{"Latitude":38.6514358,"Longitude":-5.6544905}},"Address":{"Label":"Avenida Europa, 2, 06430 Zalamea de la Serena (Badajoz), España","Country":"ESP","State":"Extremadura","County":"Badajoz","City":"Zalamea de la Serena","Street":"Avenida Europa","HouseNumber":"2","PostalCode":"06430","AdditionalData":[{"value":"España","key":"CountryName"},{"value":"Extremadura","key":"StateName"},{"value":"Badajoz","key":"CountyName"}]},"MapReference":{"ReferenceId":"564436815","Spot":0.59,"SideOfStreet":"left","CountryId":"20215059","StateId":"20226788","CountyId":"20226789","CityId":"20274458","AddressId":"350645315","RoadLinkId":"66709010"}}},{"Relevance":1.0,"Distance":60.3,"MatchLevel":"houseNumber","MatchQuality":{"Country":1.0,"State":1.0,"County":1.0,"City":1.0,"Street":[1.0],"HouseNumber":1.0,"PostalCode":1.0},"MatchType":"interpolated","Location":{"LocationId":"NT_bJQ.l0Qq8wIsJLukzHg38A_l_1203241321_L_yED","LocationType":"point","DisplayPosition":{"Latitude":38.6527245,"Longitude":-5.6559766},"MapView":{"TopLeft":{"Latitude":38.6538486,"Longitude":-5.657416},"BottomRight":{"Latitude":38.6516003,"Longitude":-5.6545371}},"Address":{"Label":"Calle Pablo Iglesias, 21, 06430 Zalamea de la Serena (Badajoz), España","Country":"ESP","State":"Extremadura","County":"Badajoz","City":"Zalamea de la Serena","Street":"Calle Pablo Iglesias","HouseNumber":"21","PostalCode":"06430","AdditionalData":[{"value":"España","key":"CountryName"},{"value":"Extremadura","key":"StateName"},{"value":"Badajoz","key":"CountyName"}]},"MapReference":{"ReferenceId":"1203241321","Spot":0.56,"SideOfStreet":"left","CountryId":"20215059","StateId":"20226788","CountyId":"20226789","CityId":"20274458"}}},{"Relevance":1.0,"Distance":63.4,"MatchLevel":"street","MatchQuality":{"Country":1.0,"State":1.0,"County":1.0,"City":1.0,"Street":[1.0],"PostalCode":1.0},"Location":{"LocationId":"NT_yYgh44x4ERsy-Y-j72CPZB_l_1232558349_L","LocationType":"point","DisplayPosition":{"Latitude":38.65322,"Longitude":-5.65516},"MapView":{"TopLeft":{"Latitude":38.65382,"Longitude":-5.65566},"BottomRight":{"Latitude":38.65322,"Longitude":-5.65516}},"Address":{"Label":"Avenida Circunvalación, 06430 Zalamea de la Serena (Badajoz), España","Country":"ESP","State":"Extremadura","County":"Badajoz","City":"Zalamea de la Serena","Street":"Avenida Circunvalación","PostalCode":"06430","AdditionalData":[{"value":"España","key":"CountryName"},{"value":"Extremadura","key":"StateName"},{"value":"Badajoz","key":"CountyName"}]},"MapReference":{"ReferenceId":"1232558349","Spot":0.0,"SideOfStreet":"left","CountryId":"20215059","StateId":"20226788","CountyId":"20226789","CityId":"20274458"}}},{"Relevance":1.0,"Distance":64.6,"MatchLevel":"houseNumber","MatchQuality":{"Country":1.0,"State":1.0,"County":1.0,"City":1.0,"Street":[1.0],"HouseNumber":1.0,"PostalCode":1.0},"MatchType":"interpolated","Location":{"LocationId":"NT_rhkXRkjvuDwA3PWyG8QPKC_zAD","LocationType":"point","DisplayPosition":{"Latitude":38.65213,"Longitude":-5.65498},"MapView":{"TopLeft":{"Latitude":38.6532542,"Longitude":-5.6564195},"BottomRight":{"Latitude":38.6510058,"Longitude":-5.6535405}},"Address":{"Label":"Calle Julián Grimau, 30, 06430 Zalamea de la Serena (Badajoz), España","Country":"ESP","State":"Extremadura","County":"Badajoz","City":"Zalamea de la Serena","Street":"Calle Julián Grimau","HouseNumber":"30","PostalCode":"06430","AdditionalData":[{"value":"España","key":"CountryName"},{"value":"Extremadura","key":"StateName"},{"value":"Badajoz","key":"CountyName"}]},"MapReference":{"ReferenceId":"564436855","Spot":0.46,"SideOfStreet":"right","CountryId":"20215059","StateId":"20226788","CountyId":"20226789","CityId":"20274458","AddressId":"350904071","RoadLinkId":"67417294"}}}]}]}}