{"Response":{"MetaInfo":{"Timestamp":"2020-03-28T09:47:26.509+0000","NextPageInformation":"2"},"View":[{"_type":"SearchResultsViewType","ViewId":0,"Result":[{"Relevance":1.0,"Distance":0.0,"Direction":0.0,"MatchLevel":"city","MatchQuality":{"Country":1.0,"State":1.0,"County":1.0,"City":1.0,"PostalCode":1.0},"Location":{"LocationId":"NT_XT.UYKPih2Df-RTyVo2Q4D","LocationType":"point","DisplayPosition":{"Latitude":38.7300866,"Longitude":-5.5488667},"MapView":{"TopLeft":{"Latitude":38.93541,"Longitude":-5.64102},"BottomRight":{"Latitude":38.64367,"Longitude":-5.32698}},"Address":{"Label":"Castuera, Extremadura, España","Country":"ESP","State":"Extremadura","County":"Badajoz","City":"Castuera","PostalCode":"06420","AdditionalData":[{"value":"España","key":"CountryName"},{"value":"Extremadura","key":"StateName"},{"value":"Badajoz","key":"CountyName"}]},"MapReference":{"ReferenceId":"564443340","SideOfStreet":"neither","CountryId":"20215059","StateId":"20226788","CountyId":"20226789","CityId":"20273944"}}},{"Relevance":1.0,"Distance":4.0,"MatchLevel":"street","MatchQuality":{"Country":1.0,"State":1.0,"County":1.0,"City":1.0,"PostalCode":1.0},"Location":{"LocationId":"NT_8ud5WafY6IGpJqO.1m3tUB_l_591921623_L","LocationType":"point","DisplayPosition":{"Latitude":38.73012,"Longitude":-5.54885},"MapView":{"TopLeft":{"Latitude":38.73016,"Longitude":-5.5489},"BottomRight":{"Latitude":38.73011,"Longitude":-5.54872}},"Address":{"Label":"06420 Castuera (Badajoz), España","Country":"ESP","State":"Extremadura","County":"Badajoz","City":"Castuera","PostalCode":"06420","AdditionalData":[{"value":"España","key":"CountryName"},{"value":"Extremadura","key":"StateName"},{"value":"Badajoz","key":"CountyName"}]},"MapReference":{"ReferenceId":"591921623","Spot":0.67,"SideOfStreet":"left","CountryId":"20215059","StateId":"20226788","CountyId":"20226789","CityId":"20273944"}}},{"Relevance":1.0,"Distance":7.1,"MatchLevel":"houseNumber","MatchQuality":{"Country":1.0,"State":1.0,"County":1.0,"City":1.0,"Street":[1.0],"HouseNumber":1.0,"PostalCode":1.0},"MatchType":"interpolated","Location":{"LocationId":"NT_HT-NktBXbsPRExKXrhJgDC_3kD","LocationType":"point","DisplayPosition":{"Latitude":38.73008,"Longitude":-5.54871},"MapView":{"TopLeft":{"Latitude":38.7312042,"Longitude":-5.550151},"BottomRight":{"Latitude":38.7289558,"Longitude":-5.547269}},"Address":{"Label":"Calle Federico García Lorca, 79, 06420 Castuera (Badajoz), España","Country":"ESP","State":"Extremadura","County":"Badajoz","City":"Castuera","Street":"Calle Federico García Lorca","HouseNumber":"79","PostalCode":"06420","AdditionalData":[{"value":"España","key":"CountryName"},{"value":"Extremadura","key":"StateName"},{"value":"Badajoz","key":"CountyName"}]},"MapReference":{"ReferenceId":"564443152","Spot":0.91,"SideOfStreet":"left","CountryId":"20215059","StateId":"20226788","CountyId":"20226789","CityId":"20273944","AddressId":"350713133","RoadLinkId":"67301831"}}},{"Relevance":1.0,"Distance":8.0,"MatchLevel":"street","MatchQuality":{"Country":1.0,"State":1.0,"County":1.0,"City":1.0,"Street":[1.0],"PostalCode":1.0},"Location":{"LocationId":"NT_974kROkaDzeFulCtQDnUBA_l_1223959091_R","LocationType":"point","DisplayPosition":{"Latitude":38.7301469,"Longitude":-5.548916},"MapView":{"TopLeft":{"Latitude":38.73016,"Longitude":-5.54901},"BottomRight":{"Latitude":38.73007,"Longitude":-5.5489}},"Address":{"Label":"Calle Castuera, 06420 Castuera (Badajoz), España","Country":"ESP","State":"Extremadura","County":"Badajoz","City":"Castuera","Street":"Calle Castuera","PostalCode":"06420","AdditionalData":[{"value":"España","key":"CountryName"},{"value":"Extremadura","key":"StateName"},{"value":"Badajoz","key":"CountyName"}]},"MapReference":{"ReferenceId":"1223959091","Spot":0.85,"SideOfStreet":"right","CountryId":"20215059","StateId":"20226788","CountyId":"20226789","CityId":"20273944"}}},{"Relevance":1.0,"Distance":8.7,"MatchLevel":"street","MatchQuality":{"Country":1.0,"State":1.0,"County":1.0,"City":1.0,"PostalCode":1.0},"Location":{"LocationId":"NT_8ud5WafY6IGpJqO.1m3tUB_l_967708930_L","LocationType":"point","DisplayPosition":{"Latitude":38.73016,"Longitude":-5.5489},"MapView":{"TopLeft":{"Latitude":38.73034,"Longitude":-5.54893},"BottomRight":{"Latitude":38.73016,"Longitude":-5.54888}},"Address":{"Label":"06420 Castuera (Badajoz), España","Country":"ESP","State":"Extremadura","County":"Badajoz","City":"Castuera","PostalCode":"06420","AdditionalData":[{"value":"España","key":"CountryName"},{"value":"Extremadura","key":"StateName"},{"value":"Badajoz","key":"CountyName"}]},"MapReference":{"ReferenceId":"967708930","Spot":0.0,"SideOfStreet":"left","CountryId":"20215059","StateId":"20226788","CountyId":"20226789","CityId":"20273944"}}},{"Relevance":1.0,"Distance":12.4,"MatchLevel":"houseNumber","MatchQuality":{"Country":1.0,"State":1.0,"County":1.0,"City":1.0,"Street":[1.0],"HouseNumber":1.0,"PostalCode":1.0},"MatchType":"interpolated","Location":{"LocationId":"NT_974kROkaDzeFulCtQDnUBA_xA","LocationType":"point","DisplayPosition":{"Latitude":38.73006,"Longitude":-5.54902},"MapView":{"TopLeft":{"Latitude":38.7311842,"Longitude":-5.550461},"BottomRight":{"Latitude":38.7289358,"Longitude":-5.547579}},"Address":{"Label":"Calle Castuera, 1, 06420 Castuera (Badajoz), España","Country":"ESP","State":"Extremadura","County":"Badajoz","City":"Castuera","Street":"Calle Castuera","HouseNumber":"1","PostalCode":"06420","AdditionalData":[{"value":"España","key":"CountryName"},{"value":"Extremadura","key":"StateName"},{"value":"Badajoz","key":"CountyName"}]},"MapReference":{"ReferenceId":"1223965711","Spot":0.9,"SideOfStreet":"right","CountryId":"20215059","StateId":"20226788","CountyId":"20226789","CityId":"20273944","AddressId":"350827165","RoadLinkId":"542051818"}}},{"Relevance":1.0,"Distance":13.0,"MatchLevel":"street","MatchQuality":{"Country":1.0,"State":1.0,"County":1.0,"City":1.0,"PostalCode":1.0},"Location":{"LocationId":"NT_8ud5WafY6IGpJqO.1m3tUB_l_591921625_L","LocationType":"point","DisplayPosition":{"Latitude":38.73011,"Longitude":-5.54872},"MapView":{"TopLeft":{"Latitude":38.73014,"Longitude":-5.54872},"BottomRight":{"Latitude":38.73011,"Longitude":-5.54864}},"Address":{"Label":"06420 Castuera (Badajoz), España","Country":"ESP","State":"Extremadura","County":"Badajoz","City":"Castuera","PostalCode":"06420","AdditionalData":[{"value":"España","key":"CountryName"},{"value":"Extremadura","key":"StateName"},{"value":"Badajoz","key":"CountyName"}]},"MapReference":{"ReferenceId":"591921625","Spot":0.0,"SideOfStreet":"left","CountryId":"20215059","StateId":"20226788","CountyId":"20226789","CityId":"20273944"}}},{"Relevance":1.0,"Distance":20.5,"MatchLevel":"street","MatchQuality":{"Country":1.0,"State":1.0,"County":1.0,"City":1.0,"PostalCode":1.0},"Location":{"LocationId":"NT_8ud5WafY6IGpJqO.1m3tUB_l_591923929_L","LocationType":"point","DisplayPosition":{"Latitude":38.73014,"Longitude":-5.54864},"MapView":{"TopLeft":{"Latitude":38.73032,"Longitude":-5.54864},"BottomRight":{"Latitude":38.73014,"Longitude":-5.54859}},"Address":{"Label":"06420 Castuera (Badajoz), España","Country":"ESP","State":"Extremadura","County":"Badajoz","City":"Castuera","PostalCode":"06420","AdditionalData":[{"value":"España","key":"CountryName"},{"value":"Extremadura","key":"StateName"},{"value":"Badajoz","key":"CountyName"}]},"MapReference":{"ReferenceId":"591923929","Spot":0.0,"SideOfStreet":"left","CountryId":"20215059","StateId":"20226788","CountyId":"20226789","CityId":"20273944"}}},{"Relevance":1.0,"Distance":25.7,"MatchLevel":"houseNumber","MatchQuality":{"Country":1.0,"State":1.0,"County":1.0,"City":1.0,"Street":[1.0],"HouseNumber":1.0,"PostalCode":1.0},"MatchType":"interpolated","Location":{"LocationId":"NT_dyxSCbwUhM--nSTgYl9pID_zAD","LocationType":"point","DisplayPosition":{"Latitude":38.73008,"Longitude":-5.54857},"MapView":{"TopLeft":{"Latitude":38.7312042,"Longitude":-5.550011},"BottomRight":{"Latitude":38.7289558,"Longitude":-5.547129}},"Address":{"Label":"Avenida de Extremadura, 30, 06420 Castuera (Badajoz), España","Country":"ESP","State":"Extremadura","County":"Badajoz","City":"Castuera","Street":"Avenida de Extremadura","HouseNumber":"30","PostalCode":"06420","AdditionalData":[{"value":"España","key":"CountryName"},{"value":"Extremadura","key":"StateName"},{"value":"Badajoz","key":"CountyName"}]},"MapReference":{"ReferenceId":"564442846","Spot":0.67,"SideOfStreet":"right","CountryId":"20215059","StateId":"20226788","CountyId":"20226789","CityId":"20273944","AddressId":"350562639","RoadLinkId":"66687868"}}},{"Relevance":1.0,"Distance":28.2,"MatchLevel":"street","MatchQuality":{"Country":1.0,"State":1.0,"County":1.0,"City":1.0,"Street":[1.0],"PostalCode":1.0},"Location":{"LocationId":"NT_X.r3Ohy1zO09wAmfcGmsYB_l_591921696_L","LocationType":"point","DisplayPosition":{"Latitude":38.73034,"Longitude":-5.54888},"MapView":{"TopLeft":{"Latitude":38.7304,"Longitude":-5.54893},"BottomRight":{"Latitude":38.73034,"Longitude":-5.54888}},"Address":{"Label":"EX-104, 06420 Castuera (Badajoz), España","Country":"ESP","State":"Extremadura","County":"Badajoz","City":"Castuera","Street":"EX-104","PostalCode":"06420","AdditionalData":[{"value":"España","key":"CountryName"},{"value":"Extremadura","key":"StateName"},{"value":"Badajoz","key":"CountyName"}]},"MapReference":{"ReferenceId":"591921696","Spot":0.0,"SideOfStreet":"left","CountryId":"20215059","StateId":"20226788","CountyId":"20226789","CityId":"20273944"}}}]}]}}