{"Response":{"MetaInfo":{"Timestamp":"2020-03-28T09:58:45.502+0000","NextPageInformation":"2"},"View":[{"_type":"SearchResultsViewType","ViewId":0,"Result":[{"Relevance":1.0,"Distance":0.0,"Direction":0.0,"MatchLevel":"district","MatchQuality":{"Country":1.0,"County":1.0,"City":1.0,"District":1.0,"PostalCode":1.0},"Location":{"LocationId":"NT_zL7ywS5pfCPwZ0pRqK1MLB","LocationType":"point","DisplayPosition":{"Latitude":38.7974229,"Longitude":-9.1639676},"MapView":{"TopLeft":{"Latitude":38.80728,"Longitude":-9.16622},"BottomRight":{"Latitude":38.79445,"Longitude":-9.15763}},"Address":{"Label":"Póvoa de Santo Adrião, Odivelas, Portugal","Country":"PRT","County":"Lisboa","City":"Odivelas","District":"Póvoa de Santo Adrião","PostalCode":"2620-144","AdditionalData":[{"value":"Portugal","key":"CountryName"},{"value":"Lisboa","key":"CountyName"}]},"MapReference":{"ReferenceId":"902117751","SideOfStreet":"neither","CountryId":"20317122","CountyId":"20319435","CityId":"20426094","DistrictId":"20429039"}}},{"Relevance":1.0,"Distance":10.6,"MatchLevel":"houseNumber","MatchQuality":{"Country":1.0,"County":1.0,"City":1.0,"District":1.0,"Street":[1.0],"HouseNumber":1.0,"PostalCode":1.0},"MatchType":"interpolated","Location":{"LocationId":"NT_s54ba0e1cCnIvn5ZbDpy1A_xcD","LocationType":"point","DisplayPosition":{"Latitude":38.7974,"Longitude":-9.16374},"MapView":{"TopLeft":{"Latitude":38.7985242,"Longitude":-9.1651824},"BottomRight":{"Latitude":38.7962758,"Longitude":-9.1622976}},"Address":{"Label":"Rua Alves Redol 17, 2620-127 Odivelas, Portugal","Country":"PRT","County":"Lisboa","City":"Odivelas","District":"Póvoa de Santo Adrião","Street":"Rua Alves Redol","HouseNumber":"17","PostalCode":"2620-127","AdditionalData":[{"value":"Portugal","key":"CountryName"},{"value":"Lisboa","key":"CountyName"}]},"MapReference":{"ReferenceId":"877570205","Spot":0.69,"SideOfStreet":"left","CountryId":"20317122","CountyId":"20319435","CityId":"20426094","DistrictId":"20429039","AddressId":"342700186","RoadLinkId":"247568529"}}},{"Relevance":1.0,"Distance":26.3,"MatchLevel":"houseNumber","MatchQuality":{"Country":1.0,"County":1.0,"City":1.0,"District":1.0,"Street":[1.0],"HouseNumber":1.0,"PostalCode":1.0},"MatchType":"interpolated","Location":{"LocationId":"NT_s54ba0e1cCnIvn5ZbDpy1A_xED","LocationType":"point","DisplayPosition":{"Latitude":38.7972,"Longitude":-9.16407},"MapView":{"TopLeft":{"Latitude":38.7983242,"Longitude":-9.1655124},"BottomRight":{"Latitude":38.7960758,"Longitude":-9.1626276}},"Address":{"Label":"Rua Alves Redol 11, 2620-127 Odivelas, Portugal","Country":"PRT","County":"Lisboa","City":"Odivelas","District":"Póvoa de Santo Adrião","Street":"Rua Alves Redol","HouseNumber":"11","PostalCode":"2620-127","AdditionalData":[{"value":"Portugal","key":"CountryName"},{"value":"Lisboa","key":"CountyName"}]},"MapReference":{"ReferenceId":"542385622","Spot":0.26,"SideOfStreet":"left","CountryId":"20317122","CountyId":"20319435","CityId":"20426094","DistrictId":"20429039","AddressId":"343214684","RoadLinkId":"69811181"}}},{"Relevance":1.0,"Distance":30.2,"MatchLevel":"street","MatchQuality":{"Country":1.0,"County":1.0,"City":1.0,"District":1.0,"PostalCode":1.0},"Location":{"LocationId":"NT_pwil2oxnM3eH6kLWd18CHA_l_542385621_R","LocationType":"point","DisplayPosition":{"Latitude":38.79734,"Longitude":-9.1643},"MapView":{"TopLeft":{"Latitude":38.79749,"Longitude":-9.16466},"BottomRight":{"Latitude":38.79734,"Longitude":-9.1643}},"Address":{"Label":"2620-131 Odivelas, Portugal","Country":"PRT","County":"Lisboa","City":"Odivelas","District":"Póvoa de Santo Adrião","PostalCode":"2620-131","AdditionalData":[{"value":"Portugal","key":"CountryName"},{"value":"Lisboa","key":"CountyName"}]},"MapReference":{"ReferenceId":"542385621","Spot":0.0,"SideOfStreet":"right","CountryId":"20317122","CountyId":"20319435","CityId":"20426094","DistrictId":"20429039"}}},{"Relevance":1.0,"Distance":30.4,"MatchLevel":"street","MatchQuality":{"Country":1.0,"County":1.0,"City":1.0,"District":1.0,"PostalCode":1.0},"Location":{"LocationId":"NT_xQXA6P7oquVF8Csy.xiAaD_l_537316056_L","LocationType":"point","DisplayPosition":{"Latitude":38.79715,"Longitude":-9.16399},"MapView":{"TopLeft":{"Latitude":38.79715,"Longitude":-9.16407},"BottomRight":{"Latitude":38.79683,"Longitude":-9.16392}},"Address":{"Label":"2620 Odivelas, Portugal","Country":"PRT","County":"Lisboa","City":"Odivelas","District":"Póvoa de Santo Adrião","PostalCode":"2620","AdditionalData":[{"value":"Portugal","key":"CountryName"},{"value":"Lisboa","key":"CountyName"}]},"MapReference":{"ReferenceId":"537316056","Spot":1.0,"SideOfStreet":"left","CountryId":"20317122","CountyId":"20319435","CityId":"20426094","DistrictId":"20429039"}}},{"Relevance":1.0,"Distance":30.4,"MatchLevel":"street","MatchQuality":{"Country":1.0,"County":1.0,"City":1.0,"District":1.0,"PostalCode":1.0},"Location":{"LocationId":"NT_xQXA6P7oquVF8Csy.xiAaD_l_537315987_L","LocationType":"point","DisplayPosition":{"Latitude":38.79715,"Longitude":-9.16399},"MapView":{"TopLeft":{"Latitude":38.79715,"Longitude":-9.16457},"BottomRight":{"Latitude":38.79699,"Longitude":-9.16399}},"Address":{"Label":"2620 Odivelas, Portugal","Country":"PRT","County":"Lisboa","City":"Odivelas","District":"Póvoa de Santo Adrião","PostalCode":"2620","AdditionalData":[{"value":"Portugal","key":"CountryName"},{"value":"Lisboa","key":"CountyName"}]},"MapReference":{"ReferenceId":"537315987","Spot":1.0,"SideOfStreet":"left","CountryId":"20317122","CountyId":"20319435","CityId":"20426094","DistrictId":"20429039"}}},{"Relevance":1.0,"Distance":30.8,"MatchLevel":"street","MatchQuality":{"Country":1.0,"County":1.0,"City":1.0,"District":1.0,"PostalCode":1.0},"Location":{"LocationId":"NT_OB9AyduEU9fIoSjjr2fdHA_l_877570207_L","LocationType":"point","DisplayPosition":{"Latitude":38.79751,"Longitude":-9.16363},"MapView":{"TopLeft":{"Latitude":38.79774,"Longitude":-9.16368},"BottomRight":{"Latitude":38.79751,"Longitude":-9.16363}},"Address":{"Label":"2620-127 Odivelas, Portugal","Country":"PRT","County":"Lisboa","City":"Odivelas","District":"Póvoa de Santo Adrião","PostalCode":"2620-127","AdditionalData":[{"value":"Portugal","key":"CountryName"},{"value":"Lisboa","key":"CountyName"}]},"MapReference":{"ReferenceId":"877570207","Spot":0.0,"SideOfStreet":"left","CountryId":"20317122","CountyId":"20319435","CityId":"20426094","DistrictId":"20429039"}}},{"Relevance":1.0,"Distance":36.3,"MatchLevel":"houseNumber","MatchQuality":{"Country":1.0,"County":1.0,"City":1.0,"District":1.0,"Street":[1.0],"HouseNumber":1.0,"PostalCode":1.0},"MatchType":"interpolated","Location":{"LocationId":"NT_s54ba0e1cCnIvn5ZbDpy1A_l_877570206_R_2A","LocationType":"point","DisplayPosition":{"Latitude":38.7975482,"Longitude":-9.1635808},"MapView":{"TopLeft":{"Latitude":38.7986724,"Longitude":-9.1650232},"BottomRight":{"Latitude":38.7964241,"Longitude":-9.1621384}},"Address":{"Label":"Rua Alves Redol 6, 2620-127 Odivelas, Portugal","Country":"PRT","County":"Lisboa","City":"Odivelas","District":"Póvoa de Santo Adrião","Street":"Rua Alves Redol","HouseNumber":"6","PostalCode":"2620-127","AdditionalData":[{"value":"Portugal","key":"CountryName"},{"value":"Lisboa","key":"CountyName"}]},"MapReference":{"ReferenceId":"877570206","Spot":0.55,"SideOfStreet":"right","CountryId":"20317122","CountyId":"20319435","CityId":"20426094","DistrictId":"20429039"}}},{"Relevance":1.0,"Distance":39.1,"MatchLevel":"houseNumber","MatchQuality":{"Country":1.0,"County":1.0,"City":1.0,"District":1.0,"Street":[1.0],"HouseNumber":1.0,"PostalCode":1.0},"MatchType":"interpolated","Location":{"LocationId":"NT_4.MRuUkigxDhWueX.TzaWD_yED","LocationType":"point","DisplayPosition":{"Latitude":38.79719,"Longitude":-9.16353},"MapView":{"TopLeft":{"Latitude":38.7983142,"Longitude":-9.1649724},"BottomRight":{"Latitude":38.7960658,"Longitude":-9.1620876}},"Address":{"Label":"Rua Doutor Jaime Cortesão 21, 2620-148 Odivelas, Portugal","Country":"PRT","County":"Lisboa","City":"Odivelas","District":"Póvoa de Santo Adrião","Street":"Rua Doutor Jaime Cortesão","HouseNumber":"21","PostalCode":"2620-148","AdditionalData":[{"value":"Portugal","key":"CountryName"},{"value":"Lisboa","key":"CountyName"}]},"MapReference":{"ReferenceId":"542385590","Spot":0.65,"SideOfStreet":"left","CountryId":"20317122","CountyId":"20319435","CityId":"20426094","DistrictId":"20429039","AddressId":"342795706","RoadLinkId":"70763672"}}},{"Relevance":1.0,"Distance":41.0,"MatchLevel":"street","MatchQuality":{"Country":1.0,"County":1.0,"City":1.0,"District":1.0,"PostalCode":1.0},"Location":{"LocationId":"NT_lBfDyvi4-bxcvmsqGY-qeA_l_537316117_L","LocationType":"point","DisplayPosition":{"Latitude":38.79758,"Longitude":-9.16354},"MapView":{"TopLeft":{"Latitude":38.79758,"Longitude":-9.16354},"BottomRight":{"Latitude":38.79742,"Longitude":-9.16326}},"Address":{"Label":"2620-148 Odivelas, Portugal","Country":"PRT","County":"Lisboa","City":"Odivelas","District":"Póvoa de Santo Adrião","PostalCode":"2620-148","AdditionalData":[{"value":"Portugal","key":"CountryName"},{"value":"Lisboa","key":"CountyName"}]},"MapReference":{"ReferenceId":"537316117","Spot":1.0,"SideOfStreet":"left","CountryId":"20317122","CountyId":"20319435","CityId":"20426094","DistrictId":"20429039"}}}]}]}}