{"Response":{"MetaInfo":{"Timestamp":"2020-03-28T11:33:52.351+0000","NextPageInformation":"2"},"View":[{"_type":"SearchResultsViewType","ViewId":0,"Result":[{"Relevance":1.0,"Distance":0.0,"Direction":0.0,"MatchLevel":"district","MatchQuality":{"Country":1.0,"County":1.0,"City":1.0,"District":1.0,"PostalCode":1.0},"Location":{"LocationId":"NT_K0LVkyMDKr8mpnpzH5zZLB","LocationType":"point","DisplayPosition":{"Latitude":38.7456459,"Longitude":-9.1756551},"MapView":{"TopLeft":{"Latitude":38.79677,"Longitude":-9.23047},"BottomRight":{"Latitude":38.69134,"Longitude":-9.08966}},"Address":{"Label":"Lisboa, Portugal","Country":"PRT","County":"Lisboa","City":"Lisboa","District":"Lisboa","PostalCode":"1050-115","AdditionalData":[{"value":"Portugal","key":"CountryName"},{"value":"Lisboa","key":"CountyName"}]},"MapReference":{"ReferenceId":"996218283","SideOfStreet":"neither","CountryId":"20317122","CountyId":"20319435","CityId":"20319486","DistrictId":"20360053"}}},{"Relevance":1.0,"Distance":16.6,"MatchLevel":"street","MatchQuality":{"Country":1.0,"County":1.0,"City":1.0,"District":1.0,"Street":[1.0],"PostalCode":1.0},"Location":{"LocationId":"NT_gi03WtiatO4Eee-VpPgHGB_l_537286995_L","LocationType":"point","DisplayPosition":{"Latitude":38.7455039,"Longitude":-9.1755942},"MapView":{"TopLeft":{"Latitude":38.74554,"Longitude":-9.17569},"BottomRight":{"Latitude":38.74529,"Longitude":-9.17406}},"Address":{"Label":"Rua Duarte Galvão, 1500-252 Lisboa, Portugal","Country":"PRT","County":"Lisboa","City":"Lisboa","District":"Lisboa","Street":"Rua Duarte Galvão","PostalCode":"1500-252","AdditionalData":[{"value":"Portugal","key":"CountryName"},{"value":"Lisboa","key":"CountyName"}]},"MapReference":{"ReferenceId":"537286995","Spot":0.06,"SideOfStreet":"left","CountryId":"20317122","CountyId":"20319435","CityId":"20319486","DistrictId":"20360053"}}},{"Relevance":1.0,"Distance":17.5,"MatchLevel":"street","MatchQuality":{"Country":1.0,"County":1.0,"City":1.0,"District":1.0,"Street":[1.0],"PostalCode":1.0},"Location":{"LocationId":"NT_gi03WtiatO4Eee-VpPgHGB_l_537271970_L","LocationType":"point","DisplayPosition":{"Latitude":38.74577,"Longitude":-9.17578},"MapView":{"TopLeft":{"Latitude":38.74623,"Longitude":-9.17606},"BottomRight":{"Latitude":38.74577,"Longitude":-9.17459}},"Address":{"Label":"Rua Duarte Galvão, 1500-252 Lisboa, Portugal","Country":"PRT","County":"Lisboa","City":"Lisboa","District":"Lisboa","Street":"Rua Duarte Galvão","PostalCode":"1500-252","AdditionalData":[{"value":"Portugal","key":"CountryName"},{"value":"Lisboa","key":"CountyName"}]},"MapReference":{"ReferenceId":"537271970","Spot":0.0,"SideOfStreet":"left","CountryId":"20317122","CountyId":"20319435","CityId":"20319486","DistrictId":"20360053"}}},{"Relevance":1.0,"Distance":17.5,"MatchLevel":"street","MatchQuality":{"Country":1.0,"County":1.0,"City":1.0,"District":1.0,"PostalCode":1.0},"Location":{"LocationId":"NT_ByzVu5dw6kRg3lp2yfJ3dD_l_537271969_R","LocationType":"point","DisplayPosition":{"Latitude":38.74577,"Longitude":-9.17578},"MapView":{"TopLeft":{"Latitude":38.74587,"Longitude":-9.17578},"BottomRight":{"Latitude":38.74577,"Longitude":-9.17505}},"Address":{"Label":"1500 Lisboa, Portugal","Country":"PRT","County":"Lisboa","City":"Lisboa","District":"Lisboa","PostalCode":"1500","AdditionalData":[{"value":"Portugal","key":"CountryName"},{"value":"Lisboa","key":"CountyName"}]},"MapReference":{"ReferenceId":"537271969","Spot":0.0,"SideOfStreet":"right","CountryId":"20317122","CountyId":"20319435","CityId":"20319486","DistrictId":"20360053"}}},{"Relevance":1.0,"Distance":22.0,"MatchLevel":"houseNumber","MatchQuality":{"Country":1.0,"County":1.0,"City":1.0,"District":1.0,"Street":[1.0],"HouseNumber":1.0,"PostalCode":1.0},"MatchType":"interpolated","Location":{"LocationId":"NT_mDhvDuKuStXUPO-gOR1WaC_5EDS","LocationType":"point","DisplayPosition":{"Latitude":38.74539,"Longitude":-9.17588},"MapView":{"TopLeft":{"Latitude":38.7465142,"Longitude":-9.1773213},"BottomRight":{"Latitude":38.7442658,"Longitude":-9.1744387}},"Address":{"Label":"Rua Cândido de Figueiredo 91H, 1500-133 Lisboa, Portugal","Country":"PRT","County":"Lisboa","City":"Lisboa","District":"Lisboa","Street":"Rua Cândido de Figueiredo","HouseNumber":"91H","PostalCode":"1500-133","AdditionalData":[{"value":"Portugal","key":"CountryName"},{"value":"Lisboa","key":"CountyName"}]},"MapReference":{"ReferenceId":"1220157044","Spot":0.05,"SideOfStreet":"right","CountryId":"20317122","CountyId":"20319435","CityId":"20319486","DistrictId":"20360053","AddressId":"377353488","RoadLinkId":"537237459"}}},{"Relevance":1.0,"Distance":27.5,"MatchLevel":"houseNumber","MatchQuality":{"Country":1.0,"County":1.0,"City":1.0,"District":1.0,"Street":[1.0],"HouseNumber":1.0,"PostalCode":1.0},"MatchType":"interpolated","Location":{"LocationId":"NT_zhDlHQAKSDtBcvK7V5kf3B_1ITQ","LocationType":"point","DisplayPosition":{"Latitude":38.7454,"Longitude":-9.17569},"MapView":{"TopLeft":{"Latitude":38.7465242,"Longitude":-9.1771313},"BottomRight":{"Latitude":38.7442758,"Longitude":-9.1742487}},"Address":{"Label":"Rua Duarte Galvão 52A, 1500-254 Lisboa, Portugal","Country":"PRT","County":"Lisboa","City":"Lisboa","District":"Lisboa","Street":"Rua Duarte Galvão","HouseNumber":"52A","PostalCode":"1500-254","AdditionalData":[{"value":"Portugal","key":"CountryName"},{"value":"Lisboa","key":"CountyName"}]},"MapReference":{"ReferenceId":"537286996","Spot":0.44,"SideOfStreet":"right","CountryId":"20317122","CountyId":"20319435","CityId":"20319486","DistrictId":"20360053","AddressId":"377380951","RoadLinkId":"70827974"}}},{"Relevance":1.0,"Distance":30.9,"MatchLevel":"street","MatchQuality":{"Country":1.0,"County":1.0,"City":1.0,"District":1.0,"Street":[1.0],"PostalCode":1.0},"Location":{"LocationId":"NT_mDhvDuKuStXUPO-gOR1WaC_l_1120211005_L","LocationType":"point","DisplayPosition":{"Latitude":38.74537,"Longitude":-9.1757},"MapView":{"TopLeft":{"Latitude":38.74537,"Longitude":-9.17632},"BottomRight":{"Latitude":38.74531,"Longitude":-9.1757}},"Address":{"Label":"Rua Cândido de Figueiredo, 1500-133 Lisboa, Portugal","Country":"PRT","County":"Lisboa","City":"Lisboa","District":"Lisboa","Street":"Rua Cândido de Figueiredo","PostalCode":"1500-133","AdditionalData":[{"value":"Portugal","key":"CountryName"},{"value":"Lisboa","key":"CountyName"}]},"MapReference":{"ReferenceId":"1120211005","Spot":1.0,"SideOfStreet":"left","CountryId":"20317122","CountyId":"20319435","CityId":"20319486","DistrictId":"20360053"}}},{"Relevance":1.0,"Distance":30.9,"MatchLevel":"street","MatchQuality":{"Country":1.0,"County":1.0,"City":1.0,"District":1.0,"Street":[1.0],"PostalCode":1.0},"Location":{"LocationId":"NT_mDhvDuKuStXUPO-gOR1WaC_l_1170839947_R","LocationType":"point","DisplayPosition":{"Latitude":38.74537,"Longitude":-9.1757},"MapView":{"TopLeft":{"Latitude":38.74538,"Longitude":-9.1758},"BottomRight":{"Latitude":38.74537,"Longitude":-9.1757}},"Address":{"Label":"Rua Cândido de Figueiredo, 1500-133 Lisboa, Portugal","Country":"PRT","County":"Lisboa","City":"Lisboa","District":"Lisboa","Street":"Rua Cândido de Figueiredo","PostalCode":"1500-133","AdditionalData":[{"value":"Portugal","key":"CountryName"},{"value":"Lisboa","key":"CountyName"}]},"MapReference":{"ReferenceId":"1170839947","Spot":0.0,"SideOfStreet":"right","CountryId":"20317122","CountyId":"20319435","CityId":"20319486","DistrictId":"20360053"}}},{"Relevance":1.0,"Distance":32.1,"MatchLevel":"street","MatchQuality":{"Country":1.0,"County":1.0,"City":1.0,"District":1.0,"Street":[1.0],"PostalCode":1.0},"Location":{"LocationId":"NT_mDhvDuKuStXUPO-gOR1WaC_l_1170839948_R","LocationType":"point","DisplayPosition":{"Latitude":38.74538,"Longitude":-9.1758},"MapView":{"TopLeft":{"Latitude":38.74539,"Longitude":-9.17586},"BottomRight":{"Latitude":38.74538,"Longitude":-9.1758}},"Address":{"Label":"Rua Cândido de Figueiredo, 1500-133 Lisboa, Portugal","Country":"PRT","County":"Lisboa","City":"Lisboa","District":"Lisboa","Street":"Rua Cândido de Figueiredo","PostalCode":"1500-133","AdditionalData":[{"value":"Portugal","key":"CountryName"},{"value":"Lisboa","key":"CountyName"}]},"MapReference":{"ReferenceId":"1170839948","Spot":0.0,"SideOfStreet":"right","CountryId":"20317122","CountyId":"20319435","CityId":"20319486","DistrictId":"20360053"}}},{"Relevance":1.0,"Distance":35.3,"MatchLevel":"houseNumber","MatchQuality":{"Country":1.0,"County":1.0,"City":1.0,"District":1.0,"Street":[1.0],"HouseNumber":1.0,"PostalCode":1.0},"MatchType":"interpolated","Location":{"LocationId":"NT_zhDlHQAKSDtBcvK7V5kf3B_1ID","LocationType":"point","DisplayPosition":{"Latitude":38.74533,"Longitude":-9.1757},"MapView":{"TopLeft":{"Latitude":38.7464542,"Longitude":-9.1771413},"BottomRight":{"Latitude":38.7442058,"Longitude":-9.1742587}},"Address":{"Label":"Rua Duarte Galvão 52, 1500-254 Lisboa, Portugal","Country":"PRT","County":"Lisboa","City":"Lisboa","District":"Lisboa","Street":"Rua Duarte Galvão","HouseNumber":"52","PostalCode":"1500-254","AdditionalData":[{"value":"Portugal","key":"CountryName"},{"value":"Lisboa","key":"CountyName"}]},"MapReference":{"ReferenceId":"1220429925","Spot":0.6,"SideOfStreet":"right","CountryId":"20317122","CountyId":"20319435","CityId":"20319486","DistrictId":"20360053","AddressId":"377324122","RoadLinkId":"537574819"}}}]}]}}