{"Response":{"MetaInfo":{"Timestamp":"2020-03-28T11:33:34.078+0000","NextPageInformation":"2"},"View":[{"_type":"SearchResultsViewType","ViewId":0,"Result":[{"Relevance":1.0,"Distance":0.0,"Direction":0.0,"MatchLevel":"city","MatchQuality":{"Country":1.0,"County":1.0,"City":1.0,"PostalCode":1.0},"Location":{"LocationId":"NT_heoy6m9Y.b0p7Q8HlOxopB","LocationType":"point","DisplayPosition":{"Latitude":38.7282727,"Longitude":-9.4175607},"MapView":{"TopLeft":{"Latitude":38.76905,"Longitude":-9.48651},"BottomRight":{"Latitude":38.67587,"Longitude":-9.30798}},"Address":{"Label":"Cascais, Portugal","Country":"PRT","County":"Lisboa","City":"Cascais","PostalCode":"2750-411","AdditionalData":[{"value":"Portugal","key":"CountryName"},{"value":"Lisboa","key":"CountyName"}]},"MapReference":{"ReferenceId":"906957260","SideOfStreet":"neither","CountryId":"20317122","CountyId":"20319435","CityId":"20319479"}}},{"Relevance":1.0,"Distance":6.7,"MatchLevel":"street","MatchQuality":{"Country":1.0,"County":1.0,"City":1.0,"Street":[1.0],"PostalCode":1.0},"Location":{"LocationId":"NT_OgdZ7tCmlRchL6LrlHkb3B_l_821365204_L","LocationType":"point","DisplayPosition":{"Latitude":38.7283252,"Longitude":-9.4175232},"MapView":{"TopLeft":{"Latitude":38.72838,"Longitude":-9.41757},"BottomRight":{"Latitude":38.72824,"Longitude":-9.41706}},"Address":{"Label":"Estrada Militar, 2645 Cascais, Portugal","Country":"PRT","County":"Lisboa","City":"Cascais","Street":"Estrada Militar","PostalCode":"2645","AdditionalData":[{"value":"Portugal","key":"CountryName"},{"value":"Lisboa","key":"CountyName"}]},"MapReference":{"ReferenceId":"821365204","Spot":0.87,"SideOfStreet":"left","CountryId":"20317122","CountyId":"20319435","CityId":"20319479"}}},{"Relevance":1.0,"Distance":12.0,"MatchLevel":"street","MatchQuality":{"Country":1.0,"County":1.0,"City":1.0,"Street":[1.0],"PostalCode":1.0},"Location":{"LocationId":"NT_OgdZ7tCmlRchL6LrlHkb3B_l_821365205_R","LocationType":"point","DisplayPosition":{"Latitude":38.72838,"Longitude":-9.41757},"MapView":{"TopLeft":{"Latitude":38.72861,"Longitude":-9.41757},"BottomRight":{"Latitude":38.72838,"Longitude":-9.41651}},"Address":{"Label":"Estrada Militar, 2645 Cascais, Portugal","Country":"PRT","County":"Lisboa","City":"Cascais","Street":"Estrada Militar","PostalCode":"2645","AdditionalData":[{"value":"Portugal","key":"CountryName"},{"value":"Lisboa","key":"CountyName"}]},"MapReference":{"ReferenceId":"821365205","Spot":0.0,"SideOfStreet":"right","CountryId":"20317122","CountyId":"20319435","CityId":"20319479"}}},{"Relevance":1.0,"Distance":12.0,"MatchLevel":"street","MatchQuality":{"Country":1.0,"County":1.0,"City":1.0,"PostalCode":1.0},"Location":{"LocationId":"NT_2xPoHJLvXND3eiSCaZ4YsB_l_821365206_L","LocationType":"point","DisplayPosition":{"Latitude":38.72838,"Longitude":-9.41757},"MapView":{"TopLeft":{"Latitude":38.72934,"Longitude":-9.41778},"BottomRight":{"Latitude":38.72838,"Longitude":-9.41673}},"Address":{"Label":"2645 Cascais, Portugal","Country":"PRT","County":"Lisboa","City":"Cascais","PostalCode":"2645","AdditionalData":[{"value":"Portugal","key":"CountryName"},{"value":"Lisboa","key":"CountyName"}]},"MapReference":{"ReferenceId":"821365206","Spot":0.0,"SideOfStreet":"left","CountryId":"20317122","CountyId":"20319435","CityId":"20319479"}}},{"Relevance":1.0,"Distance":21.5,"MatchLevel":"street","MatchQuality":{"Country":1.0,"County":1.0,"City":1.0,"PostalCode":1.0},"Location":{"LocationId":"NT_2xPoHJLvXND3eiSCaZ4YsB_l_811630974_L","LocationType":"point","DisplayPosition":{"Latitude":38.7280819,"Longitude":-9.4175221},"MapView":{"TopLeft":{"Latitude":38.72837,"Longitude":-9.41768},"BottomRight":{"Latitude":38.72805,"Longitude":-9.41628}},"Address":{"Label":"2645 Cascais, Portugal","Country":"PRT","County":"Lisboa","City":"Cascais","PostalCode":"2645","AdditionalData":[{"value":"Portugal","key":"CountryName"},{"value":"Lisboa","key":"CountyName"}]},"MapReference":{"ReferenceId":"811630974","Spot":0.11,"SideOfStreet":"left","CountryId":"20317122","CountyId":"20319435","CityId":"20319479"}}},{"Relevance":1.0,"Distance":26.8,"MatchLevel":"street","MatchQuality":{"Country":1.0,"County":1.0,"City":1.0,"PostalCode":1.0},"Location":{"LocationId":"NT_2xPoHJLvXND3eiSCaZ4YsB_l_811636049_R","LocationType":"point","DisplayPosition":{"Latitude":38.72805,"Longitude":-9.41768},"MapView":{"TopLeft":{"Latitude":38.72805,"Longitude":-9.41768},"BottomRight":{"Latitude":38.72786,"Longitude":-9.41755}},"Address":{"Label":"2645 Cascais, Portugal","Country":"PRT","County":"Lisboa","City":"Cascais","PostalCode":"2645","AdditionalData":[{"value":"Portugal","key":"CountryName"},{"value":"Lisboa","key":"CountyName"}]},"MapReference":{"ReferenceId":"811636049","Spot":1.0,"SideOfStreet":"right","CountryId":"20317122","CountyId":"20319435","CityId":"20319479"}}},{"Relevance":1.0,"Distance":26.8,"MatchLevel":"street","MatchQuality":{"Country":1.0,"County":1.0,"City":1.0,"PostalCode":1.0},"Location":{"LocationId":"NT_2xPoHJLvXND3eiSCaZ4YsB_l_811630976_R","LocationType":"point","DisplayPosition":{"Latitude":38.72805,"Longitude":-9.41768},"MapView":{"TopLeft":{"Latitude":38.72807,"Longitude":-9.41791},"BottomRight":{"Latitude":38.72805,"Longitude":-9.41768}},"Address":{"Label":"2645 Cascais, Portugal","Country":"PRT","County":"Lisboa","City":"Cascais","PostalCode":"2645","AdditionalData":[{"value":"Portugal","key":"CountryName"},{"value":"Lisboa","key":"CountyName"}]},"MapReference":{"ReferenceId":"811630976","Spot":0.0,"SideOfStreet":"right","CountryId":"20317122","CountyId":"20319435","CityId":"20319479"}}},{"Relevance":1.0,"Distance":34.9,"MatchLevel":"street","MatchQuality":{"Country":1.0,"County":1.0,"City":1.0,"Street":[1.0],"PostalCode":1.0},"Location":{"LocationId":"NT_EOL-us.pObJYWZmiukVWyA_l_811633411_R","LocationType":"point","DisplayPosition":{"Latitude":38.7281684,"Longitude":-9.4179398},"MapView":{"TopLeft":{"Latitude":38.72846,"Longitude":-9.41802},"BottomRight":{"Latitude":38.72806,"Longitude":-9.41791}},"Address":{"Label":"Rua Dr. Francisco Avilez, 2645 Cascais, Portugal","Country":"PRT","County":"Lisboa","City":"Cascais","Street":"Rua Dr. Francisco Avilez","PostalCode":"2645","AdditionalData":[{"value":"Portugal","key":"CountryName"},{"value":"Lisboa","key":"CountyName"}]},"MapReference":{"ReferenceId":"811633411","Spot":0.27,"SideOfStreet":"right","CountryId":"20317122","CountyId":"20319435","CityId":"20319479"}}},{"Relevance":1.0,"Distance":38.4,"MatchLevel":"street","MatchQuality":{"Country":1.0,"County":1.0,"City":1.0,"PostalCode":1.0},"Location":{"LocationId":"NT_2xPoHJLvXND3eiSCaZ4YsB_l_811630977_L","LocationType":"point","DisplayPosition":{"Latitude":38.72806,"Longitude":-9.41791},"MapView":{"TopLeft":{"Latitude":38.72806,"Longitude":-9.41799},"BottomRight":{"Latitude":38.72802,"Longitude":-9.41791}},"Address":{"Label":"2645 Cascais, Portugal","Country":"PRT","County":"Lisboa","City":"Cascais","PostalCode":"2645","AdditionalData":[{"value":"Portugal","key":"CountryName"},{"value":"Lisboa","key":"CountyName"}]},"MapReference":{"ReferenceId":"811630977","Spot":1.0,"SideOfStreet":"left","CountryId":"20317122","CountyId":"20319435","CityId":"20319479"}}},{"Relevance":1.0,"Distance":42.0,"MatchLevel":"street","MatchQuality":{"Country":1.0,"County":1.0,"City":1.0,"PostalCode":1.0},"Location":{"LocationId":"NT_2xPoHJLvXND3eiSCaZ4YsB_l_828290166_R","LocationType":"point","DisplayPosition":{"Latitude":38.7281429,"Longitude":-9.4180151},"MapView":{"TopLeft":{"Latitude":38.72822,"Longitude":-9.41837},"BottomRight":{"Latitude":38.72802,"Longitude":-9.41799}},"Address":{"Label":"2645 Cascais, Portugal","Country":"PRT","County":"Lisboa","City":"Cascais","PostalCode":"2645","AdditionalData":[{"value":"Portugal","key":"CountryName"},{"value":"Lisboa","key":"CountyName"}]},"MapReference":{"ReferenceId":"828290166","Spot":0.23,"SideOfStreet":"right","CountryId":"20317122","CountyId":"20319435","CityId":"20319479"}}}]}]}}