{"Response":{"MetaInfo":{"Timestamp":"2020-03-28T11:05:23.804+0000","NextPageInformation":"2"},"View":[{"_type":"SearchResultsViewType","ViewId":0,"Result":[{"Relevance":1.0,"Distance":0.0,"Direction":0.0,"MatchLevel":"city","MatchQuality":{"Country":1.0,"State":1.0,"County":1.0,"City":1.0,"PostalCode":1.0},"Location":{"LocationId":"NT_rg0xOzz0x6RTMZRkDUCldC","LocationType":"point","DisplayPosition":{"Latitude":38.7049931,"Longitude":-0.466683},"MapView":{"TopLeft":{"Latitude":38.74348,"Longitude":-0.63461},"BottomRight":{"Latitude":38.62028,"Longitude":-0.42754}},"Address":{"Label":"Alcoy, Comunidad Valenciana, España","Country":"ESP","State":"Comunidad Valenciana","County":"Alicante","City":"Alcoy","PostalCode":"03801","AdditionalData":[{"value":"España","key":"CountryName"},{"value":"Comunidad Valenciana","key":"StateName"},{"value":"Alicante","key":"CountyName"}]},"MapReference":{"ReferenceId":"576454755","SideOfStreet":"neither","CountryId":"20215059","StateId":"20226784","CountyId":"20226785","CityId":"20249030"}}},{"Relevance":1.0,"Distance":3.1,"MatchLevel":"street","MatchQuality":{"Country":1.0,"State":1.0,"County":1.0,"City":1.0,"Street":[1.0],"PostalCode":1.0},"Location":{"LocationId":"NT_1kmSbCzsFJYw1Ziwq6X0tB_l_1161404528_L","LocationType":"point","DisplayPosition":{"Latitude":38.70502,"Longitude":-0.46669},"MapView":{"TopLeft":{"Latitude":38.70563,"Longitude":-0.46669},"BottomRight":{"Latitude":38.70502,"Longitude":-0.46596}},"Address":{"Label":"Calle del Alcalde Francesc Boronat, 03804 Alcoy (Alicante), España","Country":"ESP","State":"Comunidad Valenciana","County":"Alicante","City":"Alcoy","Street":"Calle del Alcalde Francesc Boronat","PostalCode":"03804","AdditionalData":[{"value":"España","key":"CountryName"},{"value":"Comunidad Valenciana","key":"StateName"},{"value":"Alicante","key":"CountyName"}]},"MapReference":{"ReferenceId":"1161404528","Spot":0.0,"SideOfStreet":"neither","CountryId":"20215059","StateId":"20226784","CountyId":"20226785","CityId":"20249030"}}},{"Relevance":1.0,"Distance":27.9,"MatchLevel":"street","MatchQuality":{"Country":1.0,"State":1.0,"County":1.0,"City":1.0,"PostalCode":1.0},"Location":{"LocationId":"NT_emLrpKgMvftLyLU.LrRYHA_l_594707129_L","LocationType":"point","DisplayPosition":{"Latitude":38.70489,"Longitude":-0.46639},"MapView":{"TopLeft":{"Latitude":38.70511,"Longitude":-0.46639},"BottomRight":{"Latitude":38.70489,"Longitude":-0.46611}},"Address":{"Label":"03804 Alcoy (Alicante), España","Country":"ESP","State":"Comunidad Valenciana","County":"Alicante","City":"Alcoy","PostalCode":"03804","AdditionalData":[{"value":"España","key":"CountryName"},{"value":"Comunidad Valenciana","key":"StateName"},{"value":"Alicante","key":"CountyName"}]},"MapReference":{"ReferenceId":"594707129","Spot":0.0,"SideOfStreet":"left","CountryId":"20215059","StateId":"20226784","CountyId":"20226785","CityId":"20249030"}}},{"Relevance":1.0,"Distance":29.3,"MatchLevel":"houseNumber","MatchQuality":{"Country":1.0,"State":1.0,"County":1.0,"City":1.0,"Street":[1.0],"HouseNumber":1.0,"PostalCode":1.0},"MatchType":"interpolated","Location":{"LocationId":"NT_6L52cigiSO7q096yO7uaiA_l_576455595_R_2A","LocationType":"point","DisplayPosition":{"Latitude":38.7051434,"Longitude":-0.4669604},"MapView":{"TopLeft":{"Latitude":38.7062676,"Longitude":-0.4684009},"BottomRight":{"Latitude":38.7040193,"Longitude":-0.4655199}},"Address":{"Label":"Plaza del Ros, 6, 03804 Alcoy (Alicante), España","Country":"ESP","State":"Comunidad Valenciana","County":"Alicante","City":"Alcoy","Street":"Plaza del Ros","HouseNumber":"6","PostalCode":"03804","AdditionalData":[{"value":"España","key":"CountryName"},{"value":"Comunidad Valenciana","key":"StateName"},{"value":"Alicante","key":"CountyName"}]},"MapReference":{"ReferenceId":"576455595","Spot":0.53,"SideOfStreet":"right","CountryId":"20215059","StateId":"20226784","CountyId":"20226785","CityId":"20249030"}}},{"Relevance":1.0,"Distance":34.2,"MatchLevel":"houseNumber","MatchQuality":{"Country":1.0,"State":1.0,"County":1.0,"City":1.0,"Street":[1.0],"HouseNumber":1.0,"PostalCode":1.0},"MatchType":"interpolated","Location":{"LocationId":"NT_mnaYbmCZS7yeDQeGz0VwkD_2A","LocationType":"point","DisplayPosition":{"Latitude":38.70533,"Longitude":-0.46698},"MapView":{"TopLeft":{"Latitude":38.7064542,"Longitude":-0.4684205},"BottomRight":{"Latitude":38.7042058,"Longitude":-0.4655395}},"Address":{"Label":"Calle del Ciclista Blai Domingo Llidó, 6, 03804 Alcoy (Alicante), España","Country":"ESP","State":"Comunidad Valenciana","County":"Alicante","City":"Alcoy","Street":"Calle del Ciclista Blai Domingo Llidó","HouseNumber":"6","PostalCode":"03804","AdditionalData":[{"value":"España","key":"CountryName"},{"value":"Comunidad Valenciana","key":"StateName"},{"value":"Alicante","key":"CountyName"}]},"MapReference":{"ReferenceId":"576455152","Spot":0.08,"SideOfStreet":"right","CountryId":"20215059","StateId":"20226784","CountyId":"20226785","CityId":"20249030","AddressId":"269150856","RoadLinkId":"391087234"}}},{"Relevance":1.0,"Distance":39.3,"MatchLevel":"street","MatchQuality":{"Country":1.0,"State":1.0,"County":1.0,"City":1.0,"Street":[1.0],"PostalCode":1.0},"Location":{"LocationId":"NT_6L52cigiSO7q096yO7uaiA_l_576455240_R","LocationType":"point","DisplayPosition":{"Latitude":38.7052,"Longitude":-0.46705},"MapView":{"TopLeft":{"Latitude":38.70528,"Longitude":-0.46705},"BottomRight":{"Latitude":38.7052,"Longitude":-0.46703}},"Address":{"Label":"Plaza del Ros, 03804 Alcoy (Alicante), España","Country":"ESP","State":"Comunidad Valenciana","County":"Alicante","City":"Alcoy","Street":"Plaza del Ros","PostalCode":"03804","AdditionalData":[{"value":"España","key":"CountryName"},{"value":"Comunidad Valenciana","key":"StateName"},{"value":"Alicante","key":"CountyName"}]},"MapReference":{"ReferenceId":"576455240","Spot":0.0,"SideOfStreet":"right","CountryId":"20215059","StateId":"20226784","CountyId":"20226785","CityId":"20249030"}}},{"Relevance":1.0,"Distance":40.7,"MatchLevel":"houseNumber","MatchQuality":{"Country":1.0,"State":1.0,"County":1.0,"City":1.0,"Street":[1.0],"HouseNumber":1.0,"PostalCode":1.0},"MatchType":"interpolated","Location":{"LocationId":"NT_6L52cigiSO7q096yO7uaiA_3A","LocationType":"point","DisplayPosition":{"Latitude":38.70516,"Longitude":-0.4671},"MapView":{"TopLeft":{"Latitude":38.7062842,"Longitude":-0.4685405},"BottomRight":{"Latitude":38.7040358,"Longitude":-0.4656595}},"Address":{"Label":"Plaza del Ros, 7, 03804 Alcoy (Alicante), España","Country":"ESP","State":"Comunidad Valenciana","County":"Alicante","City":"Alcoy","Street":"Plaza del Ros","HouseNumber":"7","PostalCode":"03804","AdditionalData":[{"value":"España","key":"CountryName"},{"value":"Comunidad Valenciana","key":"StateName"},{"value":"Alicante","key":"CountyName"}]},"MapReference":{"ReferenceId":"1164368839","Spot":0.69,"SideOfStreet":"left","CountryId":"20215059","StateId":"20226784","CountyId":"20226785","CityId":"20249030","AddressId":"368030393","RoadLinkId":"470638350"}}},{"Relevance":1.0,"Distance":41.9,"MatchLevel":"houseNumber","MatchQuality":{"Country":1.0,"State":1.0,"County":1.0,"City":1.0,"Street":[1.0],"HouseNumber":1.0,"PostalCode":1.0},"MatchType":"interpolated","Location":{"LocationId":"NT_1kmSbCzsFJYw1Ziwq6X0tB_xgD","LocationType":"point","DisplayPosition":{"Latitude":38.70474,"Longitude":-0.46704},"MapView":{"TopLeft":{"Latitude":38.7058642,"Longitude":-0.4684805},"BottomRight":{"Latitude":38.7036158,"Longitude":-0.4655995}},"Address":{"Label":"Calle del Alcalde Francesc Boronat, 18, 03804 Alcoy (Alicante), España","Country":"ESP","State":"Comunidad Valenciana","County":"Alicante","City":"Alcoy","Street":"Calle del Alcalde Francesc Boronat","HouseNumber":"18","PostalCode":"03804","AdditionalData":[{"value":"España","key":"CountryName"},{"value":"Comunidad Valenciana","key":"StateName"},{"value":"Alicante","key":"CountyName"}]},"MapReference":{"ReferenceId":"576455594","Spot":0.6,"SideOfStreet":"left","CountryId":"20215059","StateId":"20226784","CountyId":"20226785","CityId":"20249030","AddressId":"269183896","RoadLinkId":"391077194"}}},{"Relevance":1.0,"Distance":43.9,"MatchLevel":"street","MatchQuality":{"Country":1.0,"State":1.0,"County":1.0,"City":1.0,"Street":[1.0],"PostalCode":1.0},"Location":{"LocationId":"NT_tqmeX2SZ5RODUirlVGHP6B_l_576455193_L","LocationType":"point","DisplayPosition":{"Latitude":38.70528,"Longitude":-0.46703},"MapView":{"TopLeft":{"Latitude":38.70564,"Longitude":-0.46751},"BottomRight":{"Latitude":38.70528,"Longitude":-0.46703}},"Address":{"Label":"Calle del General Prieto, 03804 Alcoy (Alicante), España","Country":"ESP","State":"Comunidad Valenciana","County":"Alicante","City":"Alcoy","Street":"Calle del General Prieto","PostalCode":"03804","AdditionalData":[{"value":"España","key":"CountryName"},{"value":"Comunidad Valenciana","key":"StateName"},{"value":"Alicante","key":"CountyName"}]},"MapReference":{"ReferenceId":"576455193","Spot":0.0,"SideOfStreet":"left","CountryId":"20215059","StateId":"20226784","CountyId":"20226785","CityId":"20249030"}}},{"Relevance":1.0,"Distance":43.9,"MatchLevel":"street","MatchQuality":{"Country":1.0,"State":1.0,"County":1.0,"City":1.0,"PostalCode":1.0},"Location":{"LocationId":"NT_emLrpKgMvftLyLU.LrRYHA_l_1161404540_R","LocationType":"point","DisplayPosition":{"Latitude":38.70528,"Longitude":-0.46703},"MapView":{"TopLeft":{"Latitude":38.70562,"Longitude":-0.46704},"BottomRight":{"Latitude":38.70528,"Longitude":-0.46703}},"Address":{"Label":"03804 Alcoy (Alicante), España","Country":"ESP","State":"Comunidad Valenciana","County":"Alicante","City":"Alcoy","PostalCode":"03804","AdditionalData":[{"value":"España","key":"CountryName"},{"value":"Comunidad Valenciana","key":"StateName"},{"value":"Alicante","key":"CountyName"}]},"MapReference":{"ReferenceId":"1161404540","Spot":0.0,"SideOfStreet":"right","CountryId":"20215059","StateId":"20226784","CountyId":"20226785","CityId":"20249030"}}}]}]}}