{"Response":{"MetaInfo":{"Timestamp":"2020-03-28T11:33:48.831+0000","NextPageInformation":"2"},"View":[{"_type":"SearchResultsViewType","ViewId":0,"Result":[{"Relevance":1.0,"Distance":0.0,"Direction":0.0,"MatchLevel":"district","MatchQuality":{"Country":1.0,"County":1.0,"City":1.0,"District":1.0,"PostalCode":1.0},"Location":{"LocationId":"NT_K0LVkyMDKr8mpnpzH5zZLB","LocationType":"point","DisplayPosition":{"Latitude":38.7134731,"Longitude":-9.1457764},"MapView":{"TopLeft":{"Latitude":38.79677,"Longitude":-9.23047},"BottomRight":{"Latitude":38.69134,"Longitude":-9.08966}},"Address":{"Label":"Lisboa, Portugal","Country":"PRT","County":"Lisboa","City":"Lisboa","District":"Lisboa","PostalCode":"1050-115","AdditionalData":[{"value":"Portugal","key":"CountryName"},{"value":"Lisboa","key":"CountyName"}]},"MapReference":{"ReferenceId":"996218283","SideOfStreet":"neither","CountryId":"20317122","CountyId":"20319435","CityId":"20319486","DistrictId":"20360053"}}},{"Relevance":1.0,"Distance":5.9,"MatchLevel":"houseNumber","MatchQuality":{"Country":1.0,"County":1.0,"City":1.0,"District":1.0,"Street":[1.0],"HouseNumber":1.0,"PostalCode":1.0},"MatchType":"interpolated","Location":{"LocationId":"NT_EWJYXtGqZNkeymPApC2IAD_l_842436501_R_xcDO","LocationType":"point","DisplayPosition":{"Latitude":38.7134242,"Longitude":-9.1458605},"MapView":{"TopLeft":{"Latitude":38.7145484,"Longitude":-9.1473012},"BottomRight":{"Latitude":38.7123,"Longitude":-9.1444198}},"Address":{"Label":"Rua Luz Soriano 178, 1200-249 Lisboa, Portugal","Country":"PRT","County":"Lisboa","City":"Lisboa","District":"Lisboa","Street":"Rua Luz Soriano","HouseNumber":"178","PostalCode":"1200-249","AdditionalData":[{"value":"Portugal","key":"CountryName"},{"value":"Lisboa","key":"CountyName"}]},"MapReference":{"ReferenceId":"842436501","Spot":0.49,"SideOfStreet":"right","CountryId":"20317122","CountyId":"20319435","CityId":"20319486","DistrictId":"20360053"}}},{"Relevance":1.0,"Distance":8.1,"MatchLevel":"houseNumber","MatchQuality":{"Country":1.0,"County":1.0,"City":1.0,"District":1.0,"Street":[1.0],"HouseNumber":1.0,"PostalCode":1.0},"MatchType":"interpolated","Location":{"LocationId":"NT_s0gCpI.fsxQXjY69UqkeyD_l_537277948_L_xgTM","LocationType":"point","DisplayPosition":{"Latitude":38.713546,"Longitude":-9.1455268},"MapView":{"TopLeft":{"Latitude":38.7146702,"Longitude":-9.1469674},"BottomRight":{"Latitude":38.7124219,"Longitude":-9.1440861}},"Address":{"Label":"Rua da Rosa 181, 1200-383 Lisboa, Portugal","Country":"PRT","County":"Lisboa","City":"Lisboa","District":"Lisboa","Street":"Rua da Rosa","HouseNumber":"181","PostalCode":"1200-383","AdditionalData":[{"value":"Portugal","key":"CountryName"},{"value":"Lisboa","key":"CountyName"}]},"MapReference":{"ReferenceId":"537277948","Spot":0.53,"SideOfStreet":"left","CountryId":"20317122","CountyId":"20319435","CityId":"20319486","DistrictId":"20360053"}}},{"Relevance":1.0,"Distance":10.2,"MatchLevel":"street","MatchQuality":{"Country":1.0,"County":1.0,"City":1.0,"District":1.0,"PostalCode":1.0},"Location":{"LocationId":"NT_u0OMM9FfrWvQkkLbLG04fA_l_842436503_R","LocationType":"point","DisplayPosition":{"Latitude":38.71345,"Longitude":-9.14589},"MapView":{"TopLeft":{"Latitude":38.7137,"Longitude":-9.14599},"BottomRight":{"Latitude":38.71345,"Longitude":-9.14589}},"Address":{"Label":"1200-249 Lisboa, Portugal","Country":"PRT","County":"Lisboa","City":"Lisboa","District":"Lisboa","PostalCode":"1200-249","AdditionalData":[{"value":"Portugal","key":"CountryName"},{"value":"Lisboa","key":"CountyName"}]},"MapReference":{"ReferenceId":"842436503","Spot":0.0,"SideOfStreet":"right","CountryId":"20317122","CountyId":"20319435","CityId":"20319486","DistrictId":"20360053"}}},{"Relevance":1.0,"Distance":10.2,"MatchLevel":"houseNumber","MatchQuality":{"Country":1.0,"County":1.0,"City":1.0,"District":1.0,"Street":[1.0],"HouseNumber":1.0,"PostalCode":1.0},"MatchType":"interpolated","Location":{"LocationId":"NT_EWJYXtGqZNkeymPApC2IAD_l_842436502_R_xgDM","LocationType":"point","DisplayPosition":{"Latitude":38.71345,"Longitude":-9.14589},"MapView":{"TopLeft":{"Latitude":38.7145742,"Longitude":-9.1473307},"BottomRight":{"Latitude":38.7123259,"Longitude":-9.1444493}},"Address":{"Label":"Rua Luz Soriano 180, 1200-249 Lisboa, Portugal","Country":"PRT","County":"Lisboa","City":"Lisboa","District":"Lisboa","Street":"Rua Luz Soriano","HouseNumber":"180","PostalCode":"1200-249","AdditionalData":[{"value":"Portugal","key":"CountryName"},{"value":"Lisboa","key":"CountyName"}]},"MapReference":{"ReferenceId":"842436502","Spot":0.0,"SideOfStreet":"right","CountryId":"20317122","CountyId":"20319435","CityId":"20319486","DistrictId":"20360053"}}},{"Relevance":1.0,"Distance":10.5,"MatchLevel":"houseNumber","MatchQuality":{"Country":1.0,"County":1.0,"City":1.0,"District":1.0,"Street":[1.0],"HouseNumber":1.0,"PostalCode":1.0},"MatchType":"interpolated","Location":{"LocationId":"NT_rINeu8VUZ8UL7khwGGBFVD_5A","LocationType":"point","DisplayPosition":{"Latitude":38.7134,"Longitude":-9.1457},"MapView":{"TopLeft":{"Latitude":38.7145242,"Longitude":-9.1471407},"BottomRight":{"Latitude":38.7122758,"Longitude":-9.1442593}},"Address":{"Label":"Cunhal das Bolas 9, 1200-140 Lisboa, Portugal","Country":"PRT","County":"Lisboa","City":"Lisboa","District":"Lisboa","Street":"Cunhal das Bolas","HouseNumber":"9","PostalCode":"1200-140","AdditionalData":[{"value":"Portugal","key":"CountryName"},{"value":"Lisboa","key":"CountyName"}]},"MapReference":{"ReferenceId":"537277956","Spot":0.4,"SideOfStreet":"right","CountryId":"20317122","CountyId":"20319435","CityId":"20319486","DistrictId":"20360053","AddressId":"342628549","RoadLinkId":"70736528"}}},{"Relevance":1.0,"Distance":10.8,"MatchLevel":"houseNumber","MatchQuality":{"Country":1.0,"County":1.0,"City":1.0,"District":1.0,"Street":[1.0],"HouseNumber":1.0,"PostalCode":1.0},"MatchType":"interpolated","Location":{"LocationId":"NT_I3SAM9ls-Axzv1awwLQqaA_xcjN","LocationType":"point","DisplayPosition":{"Latitude":38.71337,"Longitude":-9.14584},"MapView":{"TopLeft":{"Latitude":38.7144942,"Longitude":-9.1472807},"BottomRight":{"Latitude":38.7122458,"Longitude":-9.1443993}},"Address":{"Label":"Rua Luz Soriano 176, 1200-249 Lisboa, Portugal","Country":"PRT","County":"Lisboa","City":"Lisboa","District":"Lisboa","Street":"Rua Luz Soriano","HouseNumber":"176","PostalCode":"1200-249","AdditionalData":[{"value":"Portugal","key":"CountryName"},{"value":"Lisboa","key":"CountyName"}]},"MapReference":{"ReferenceId":"537278129","Spot":0.97,"SideOfStreet":"right","CountryId":"20317122","CountyId":"20319435","CityId":"20319486","DistrictId":"20360053","AddressId":"377247233","RoadLinkId":"69381349"}}},{"Relevance":1.0,"Distance":21.8,"MatchLevel":"houseNumber","MatchQuality":{"Country":1.0,"County":1.0,"City":1.0,"District":1.0,"Street":[1.0],"HouseNumber":1.0,"PostalCode":1.0},"MatchType":"interpolated","Location":{"LocationId":"NT_G6RdijLKqUWAsxCR1AuLnA_l_537277915_R_4A","LocationType":"point","DisplayPosition":{"Latitude":38.71352,"Longitude":-9.14602},"MapView":{"TopLeft":{"Latitude":38.7146442,"Longitude":-9.1474607},"BottomRight":{"Latitude":38.7123959,"Longitude":-9.1445793}},"Address":{"Label":"Calçada do Cabra 8, 1200-072 Lisboa, Portugal","Country":"PRT","County":"Lisboa","City":"Lisboa","District":"Lisboa","Street":"Calçada do Cabra","HouseNumber":"8","PostalCode":"1200-072","AdditionalData":[{"value":"Portugal","key":"CountryName"},{"value":"Lisboa","key":"CountyName"}]},"MapReference":{"ReferenceId":"537277915","Spot":0.0,"SideOfStreet":"right","CountryId":"20317122","CountyId":"20319435","CityId":"20319486","DistrictId":"20360053"}}},{"Relevance":1.0,"Distance":23.4,"MatchLevel":"houseNumber","MatchQuality":{"Country":1.0,"County":1.0,"City":1.0,"District":1.0,"Street":[1.0],"HouseNumber":1.0,"PostalCode":1.0},"MatchType":"interpolated","Location":{"LocationId":"NT_ze5txNeirEyFl5bK2c2YUA_xgTN","LocationType":"point","DisplayPosition":{"Latitude":38.71367,"Longitude":-9.14556},"MapView":{"TopLeft":{"Latitude":38.7147942,"Longitude":-9.1470007},"BottomRight":{"Latitude":38.7125458,"Longitude":-9.1441193}},"Address":{"Label":"Rua da Rosa 185, 1200-384 Lisboa, Portugal","Country":"PRT","County":"Lisboa","City":"Lisboa","District":"Lisboa","Street":"Rua da Rosa","HouseNumber":"185","PostalCode":"1200-384","AdditionalData":[{"value":"Portugal","key":"CountryName"},{"value":"Lisboa","key":"CountyName"}]},"MapReference":{"ReferenceId":"537277891","Spot":0.01,"SideOfStreet":"left","CountryId":"20317122","CountyId":"20319435","CityId":"20319486","DistrictId":"20360053","AddressId":"342559541","RoadLinkId":"70290437"}}},{"Relevance":1.0,"Distance":25.4,"MatchLevel":"houseNumber","MatchQuality":{"Country":1.0,"County":1.0,"City":1.0,"District":1.0,"Street":[1.0],"HouseNumber":1.0,"PostalCode":1.0},"MatchType":"interpolated","Location":{"LocationId":"NT_s0gCpI.fsxQXjY69UqkeyD_xcTO","LocationType":"point","DisplayPosition":{"Latitude":38.71335,"Longitude":-9.14548},"MapView":{"TopLeft":{"Latitude":38.7144742,"Longitude":-9.1469207},"BottomRight":{"Latitude":38.7122258,"Longitude":-9.1440393}},"Address":{"Label":"Rua da Rosa 179, 1200-383 Lisboa, Portugal","Country":"PRT","County":"Lisboa","City":"Lisboa","District":"Lisboa","Street":"Rua da Rosa","HouseNumber":"179","PostalCode":"1200-383","AdditionalData":[{"value":"Portugal","key":"CountryName"},{"value":"Lisboa","key":"CountyName"}]},"MapReference":{"ReferenceId":"537278114","Spot":0.88,"SideOfStreet":"left","CountryId":"20317122","CountyId":"20319435","CityId":"20319486","DistrictId":"20360053","AddressId":"342718152","RoadLinkId":"69745347"}}}]}]}}