{"Response":{"MetaInfo":{"Timestamp":"2020-03-28T09:59:12.490+0000","NextPageInformation":"2"},"View":[{"_type":"SearchResultsViewType","ViewId":0,"Result":[{"Relevance":1.0,"Distance":0.0,"Direction":0.0,"MatchLevel":"district","MatchQuality":{"Country":1.0,"County":1.0,"City":1.0,"District":1.0,"PostalCode":1.0},"Location":{"LocationId":"NT_K0LVkyMDKr8mpnpzH5zZLB","LocationType":"point","DisplayPosition":{"Latitude":38.7493601,"Longitude":-9.1475291},"MapView":{"TopLeft":{"Latitude":38.79677,"Longitude":-9.23047},"BottomRight":{"Latitude":38.69134,"Longitude":-9.08966}},"Address":{"Label":"Lisboa, Portugal","Country":"PRT","County":"Lisboa","City":"Lisboa","District":"Lisboa","PostalCode":"1050-115","AdditionalData":[{"value":"Portugal","key":"CountryName"},{"value":"Lisboa","key":"CountyName"}]},"MapReference":{"ReferenceId":"996218283","SideOfStreet":"neither","CountryId":"20317122","CountyId":"20319435","CityId":"20319486","DistrictId":"20360053"}}},{"Relevance":1.0,"Distance":15.0,"MatchLevel":"houseNumber","MatchQuality":{"Country":1.0,"County":1.0,"City":1.0,"District":1.0,"Street":[1.0],"HouseNumber":1.0,"PostalCode":1.0},"MatchType":"interpolated","Location":{"LocationId":"NT_yIVxVY1e.kg-HVlAdYXNmA_zA","LocationType":"point","DisplayPosition":{"Latitude":38.74956,"Longitude":-9.14767},"MapView":{"TopLeft":{"Latitude":38.7506842,"Longitude":-9.1491114},"BottomRight":{"Latitude":38.7484358,"Longitude":-9.1462286}},"Address":{"Label":"Rua Aboim Ascensão 3, 1700-001 Lisboa, Portugal","Country":"PRT","County":"Lisboa","City":"Lisboa","District":"Lisboa","Street":"Rua Aboim Ascensão","HouseNumber":"3","PostalCode":"1700-001","AdditionalData":[{"value":"Portugal","key":"CountryName"},{"value":"Lisboa","key":"CountyName"}]},"MapReference":{"ReferenceId":"537286733","Spot":0.73,"SideOfStreet":"right","CountryId":"20317122","CountyId":"20319435","CityId":"20319486","DistrictId":"20360053","AddressId":"342606712","RoadLinkId":"69722394"}}},{"Relevance":1.0,"Distance":22.9,"MatchLevel":"houseNumber","MatchQuality":{"Country":1.0,"County":1.0,"City":1.0,"District":1.0,"Street":[1.0],"HouseNumber":1.0,"PostalCode":1.0},"MatchType":"interpolated","Location":{"LocationId":"NT_yIVxVY1e.kg-HVlAdYXNmA_xA","LocationType":"point","DisplayPosition":{"Latitude":38.74962,"Longitude":-9.14751},"MapView":{"TopLeft":{"Latitude":38.7507442,"Longitude":-9.1489514},"BottomRight":{"Latitude":38.7484958,"Longitude":-9.1460686}},"Address":{"Label":"Rua Aboim Ascensão 1, 1700-001 Lisboa, Portugal","Country":"PRT","County":"Lisboa","City":"Lisboa","District":"Lisboa","Street":"Rua Aboim Ascensão","HouseNumber":"1","PostalCode":"1700-001","AdditionalData":[{"value":"Portugal","key":"CountryName"},{"value":"Lisboa","key":"CountyName"}]},"MapReference":{"ReferenceId":"893889899","Spot":1.0,"SideOfStreet":"right","CountryId":"20317122","CountyId":"20319435","CityId":"20319486","DistrictId":"20360053","AddressId":"342684651","RoadLinkId":"256502301"}}},{"Relevance":1.0,"Distance":28.9,"MatchLevel":"street","MatchQuality":{"Country":1.0,"County":1.0,"City":1.0,"District":1.0,"Street":[1.0],"PostalCode":1.0},"Location":{"LocationId":"NT_yIVxVY1e.kg-HVlAdYXNmA_l_893889900_R","LocationType":"point","DisplayPosition":{"Latitude":38.74962,"Longitude":-9.14751},"MapView":{"TopLeft":{"Latitude":38.74972,"Longitude":-9.14751},"BottomRight":{"Latitude":38.74962,"Longitude":-9.1471}},"Address":{"Label":"Rua Aboim Ascensão, 1700-001 Lisboa, Portugal","Country":"PRT","County":"Lisboa","City":"Lisboa","District":"Lisboa","Street":"Rua Aboim Ascensão","PostalCode":"1700-001","AdditionalData":[{"value":"Portugal","key":"CountryName"},{"value":"Lisboa","key":"CountyName"}]},"MapReference":{"ReferenceId":"893889900","Spot":0.0,"SideOfStreet":"right","CountryId":"20317122","CountyId":"20319435","CityId":"20319486","DistrictId":"20360053"}}},{"Relevance":1.0,"Distance":34.8,"MatchLevel":"houseNumber","MatchQuality":{"Country":1.0,"County":1.0,"City":1.0,"District":1.0,"Street":[1.0],"HouseNumber":1.0,"PostalCode":1.0},"MatchType":"interpolated","Location":{"LocationId":"NT_b0d0ACA6TIVdVMrwVB.UBA_xQzQ","LocationType":"point","DisplayPosition":{"Latitude":38.7492,"Longitude":-9.148},"MapView":{"TopLeft":{"Latitude":38.7503242,"Longitude":-9.1494414},"BottomRight":{"Latitude":38.7480758,"Longitude":-9.1465586}},"Address":{"Label":"Campo Grande 14C, 1700-092 Lisboa, Portugal","Country":"PRT","County":"Lisboa","City":"Lisboa","District":"Lisboa","Street":"Campo Grande","HouseNumber":"14C","PostalCode":"1700-092","AdditionalData":[{"value":"Portugal","key":"CountryName"},{"value":"Lisboa","key":"CountyName"}]},"MapReference":{"ReferenceId":"537286731","Spot":0.91,"SideOfStreet":"right","CountryId":"20317122","CountyId":"20319435","CityId":"20319486","DistrictId":"20360053","AddressId":"342672477","RoadLinkId":"69465839"}}},{"Relevance":1.0,"Distance":38.5,"MatchLevel":"houseNumber","MatchQuality":{"Country":1.0,"County":1.0,"City":1.0,"District":1.0,"Street":[1.0],"HouseNumber":1.0,"PostalCode":1.0},"MatchType":"interpolated","Location":{"LocationId":"NT_FvnMZs1I0QRBGhw2SzAooD_xA","LocationType":"point","DisplayPosition":{"Latitude":38.74948,"Longitude":-9.14698},"MapView":{"TopLeft":{"Latitude":38.7506042,"Longitude":-9.1484214},"BottomRight":{"Latitude":38.7483558,"Longitude":-9.1455386}},"Address":{"Label":"Rua Afonso Lopes Vieira 1, 1700-009 Lisboa, Portugal","Country":"PRT","County":"Lisboa","City":"Lisboa","District":"Lisboa","Street":"Rua Afonso Lopes Vieira","HouseNumber":"1","PostalCode":"1700-009","AdditionalData":[{"value":"Portugal","key":"CountryName"},{"value":"Lisboa","key":"CountyName"}]},"MapReference":{"ReferenceId":"537281857","Spot":0.35,"SideOfStreet":"left","CountryId":"20317122","CountyId":"20319435","CityId":"20319486","DistrictId":"20360053","AddressId":"343122497","RoadLinkId":"70040602"}}},{"Relevance":1.0,"Distance":41.0,"MatchLevel":"street","MatchQuality":{"Country":1.0,"County":1.0,"City":1.0,"District":1.0,"Street":[1.0],"PostalCode":1.0},"Location":{"LocationId":"NT_b0d0ACA6TIVdVMrwVB.UBA_l_537286730_R","LocationType":"point","DisplayPosition":{"Latitude":38.7494236,"Longitude":-9.147995},"MapView":{"TopLeft":{"Latitude":38.74946,"Longitude":-9.14802},"BottomRight":{"Latitude":38.74924,"Longitude":-9.14799}},"Address":{"Label":"Campo Grande, 1700-092 Lisboa, Portugal","Country":"PRT","County":"Lisboa","City":"Lisboa","District":"Lisboa","Street":"Campo Grande","PostalCode":"1700-092","AdditionalData":[{"value":"Portugal","key":"CountryName"},{"value":"Lisboa","key":"CountyName"}]},"MapReference":{"ReferenceId":"537286730","Spot":0.83,"SideOfStreet":"right","CountryId":"20317122","CountyId":"20319435","CityId":"20319486","DistrictId":"20360053"}}},{"Relevance":1.0,"Distance":41.5,"MatchLevel":"street","MatchQuality":{"Country":1.0,"County":1.0,"City":1.0,"District":1.0,"Street":[1.0],"PostalCode":1.0},"Location":{"LocationId":"NT_yIVxVY1e.kg-HVlAdYXNmA_l_537271025_R","LocationType":"point","DisplayPosition":{"Latitude":38.74946,"Longitude":-9.14799},"MapView":{"TopLeft":{"Latitude":38.74946,"Longitude":-9.14824},"BottomRight":{"Latitude":38.74942,"Longitude":-9.14799}},"Address":{"Label":"Rua Aboim Ascensão, 1700-001 Lisboa, Portugal","Country":"PRT","County":"Lisboa","City":"Lisboa","District":"Lisboa","Street":"Rua Aboim Ascensão","PostalCode":"1700-001","AdditionalData":[{"value":"Portugal","key":"CountryName"},{"value":"Lisboa","key":"CountyName"}]},"MapReference":{"ReferenceId":"537271025","Spot":1.0,"SideOfStreet":"right","CountryId":"20317122","CountyId":"20319435","CityId":"20319486","DistrictId":"20360053"}}},{"Relevance":1.0,"Distance":41.6,"MatchLevel":"houseNumber","MatchQuality":{"Country":1.0,"County":1.0,"City":1.0,"District":1.0,"Street":[1.0],"HouseNumber":1.0,"PostalCode":1.0},"MatchType":"interpolated","Location":{"LocationId":"NT_-U6wQYJ5FqGohWcvK6XfEC_yUjQ","LocationType":"point","DisplayPosition":{"Latitude":38.74935,"Longitude":-9.14691},"MapView":{"TopLeft":{"Latitude":38.7504742,"Longitude":-9.1483514},"BottomRight":{"Latitude":38.7482258,"Longitude":-9.1454686}},"Address":{"Label":"Rua António Patrício 25B, 1700-048 Lisboa, Portugal","Country":"PRT","County":"Lisboa","City":"Lisboa","District":"Lisboa","Street":"Rua António Patrício","HouseNumber":"25B","PostalCode":"1700-048","AdditionalData":[{"value":"Portugal","key":"CountryName"},{"value":"Lisboa","key":"CountyName"}]},"MapReference":{"ReferenceId":"537281856","Spot":0.0,"SideOfStreet":"left","CountryId":"20317122","CountyId":"20319435","CityId":"20319486","DistrictId":"20360053","AddressId":"342996667","RoadLinkId":"69600889"}}},{"Relevance":1.0,"Distance":44.6,"MatchLevel":"street","MatchQuality":{"Country":1.0,"County":1.0,"City":1.0,"District":1.0,"PostalCode":1.0},"Location":{"LocationId":"NT_eN25kEN9xnmS3Yl5UA6M5A_l_537286732_R","LocationType":"point","DisplayPosition":{"Latitude":38.74924,"Longitude":-9.14802},"MapView":{"TopLeft":{"Latitude":38.74924,"Longitude":-9.14818},"BottomRight":{"Latitude":38.74919,"Longitude":-9.14802}},"Address":{"Label":"1700-092 Lisboa, Portugal","Country":"PRT","County":"Lisboa","City":"Lisboa","District":"Lisboa","PostalCode":"1700-092","AdditionalData":[{"value":"Portugal","key":"CountryName"},{"value":"Lisboa","key":"CountyName"}]},"MapReference":{"ReferenceId":"537286732","Spot":1.0,"SideOfStreet":"right","CountryId":"20317122","CountyId":"20319435","CityId":"20319486","DistrictId":"20360053"}}}]}]}}