{"Response":{"MetaInfo":{"Timestamp":"2020-03-28T09:45:25.456+0000","NextPageInformation":"2"},"View":[{"_type":"SearchResultsViewType","ViewId":0,"Result":[{"Relevance":1.0,"Distance":0.0,"Direction":0.0,"MatchLevel":"city","MatchQuality":{"Country":1.0,"State":1.0,"County":1.0,"City":1.0,"PostalCode":1.0},"Location":{"LocationId":"NT_SdssQYJEWXrFTVc7thw5kA","LocationType":"point","DisplayPosition":{"Latitude":38.7577782,"Longitude":-2.4518049},"MapView":{"TopLeft":{"Latitude":38.84185,"Longitude":-2.52973},"BottomRight":{"Latitude":38.72386,"Longitude":-2.32991}},"Address":{"Label":"Robledo, Castilla-La Mancha, España","Country":"ESP","State":"Castilla-La Mancha","County":"Albacete","City":"Robledo","PostalCode":"02340","AdditionalData":[{"value":"España","key":"CountryName"},{"value":"Castilla-La Mancha","key":"StateName"},{"value":"Albacete","key":"CountyName"}]},"MapReference":{"ReferenceId":"1196364766","SideOfStreet":"neither","CountryId":"20215059","StateId":"20221903","CountyId":"20221904","CityId":"20294131"}}},{"Relevance":1.0,"Distance":3.9,"MatchLevel":"houseNumber","MatchQuality":{"Country":1.0,"State":1.0,"County":1.0,"City":1.0,"Street":[1.0],"HouseNumber":1.0,"PostalCode":1.0},"MatchType":"interpolated","Location":{"LocationId":"NT_pBx05mNFXPMHHhYbECykBA_zUD","LocationType":"point","DisplayPosition":{"Latitude":38.75793,"Longitude":-2.45183},"MapView":{"TopLeft":{"Latitude":38.7590542,"Longitude":-2.4532716},"BottomRight":{"Latitude":38.7568058,"Longitude":-2.4503884}},"Address":{"Label":"Calle Huertas, 35, 02340 Robledo (Albacete), España","Country":"ESP","State":"Castilla-La Mancha","County":"Albacete","City":"Robledo","Street":"Calle Huertas","HouseNumber":"35","PostalCode":"02340","AdditionalData":[{"value":"España","key":"CountryName"},{"value":"Castilla-La Mancha","key":"StateName"},{"value":"Albacete","key":"CountyName"}]},"MapReference":{"ReferenceId":"572022107","Spot":0.14,"SideOfStreet":"right","CountryId":"20215059","StateId":"20221903","CountyId":"20221904","CityId":"20294131","AddressId":"405264179","RoadLinkId":"65620335"}}},{"Relevance":1.0,"Distance":21.1,"MatchLevel":"houseNumber","MatchQuality":{"Country":1.0,"State":1.0,"County":1.0,"City":1.0,"Street":[1.0],"HouseNumber":1.0,"PostalCode":1.0},"MatchType":"interpolated","Location":{"LocationId":"NT_3jsiRO2WTMHw4ehVcNMcWA_xQF","LocationType":"point","DisplayPosition":{"Latitude":38.75759,"Longitude":-2.45184},"MapView":{"TopLeft":{"Latitude":38.7587142,"Longitude":-2.4532816},"BottomRight":{"Latitude":38.7564658,"Longitude":-2.4503984}},"Address":{"Label":"Calle Nueva, 1T, 02340 Robledo (Albacete), España","Country":"ESP","State":"Castilla-La Mancha","County":"Albacete","City":"Robledo","Street":"Calle Nueva","HouseNumber":"1T","PostalCode":"02340","AdditionalData":[{"value":"España","key":"CountryName"},{"value":"Castilla-La Mancha","key":"StateName"},{"value":"Albacete","key":"CountyName"}]},"MapReference":{"ReferenceId":"572183811","Spot":0.62,"SideOfStreet":"right","CountryId":"20215059","StateId":"20221903","CountyId":"20221904","CityId":"20294131","AddressId":"405249340","RoadLinkId":"66143999"}}},{"Relevance":1.0,"Distance":24.2,"MatchLevel":"houseNumber","MatchQuality":{"Country":1.0,"State":1.0,"County":1.0,"City":1.0,"Street":[1.0],"HouseNumber":1.0,"PostalCode":1.0},"MatchType":"interpolated","Location":{"LocationId":"NT_3jsiRO2WTMHw4ehVcNMcWA_0AD","LocationType":"point","DisplayPosition":{"Latitude":38.75798,"Longitude":-2.45191},"MapView":{"TopLeft":{"Latitude":38.7591042,"Longitude":-2.4533516},"BottomRight":{"Latitude":38.7568558,"Longitude":-2.4504684}},"Address":{"Label":"Calle Nueva, 40, 02340 Robledo (Albacete), España","Country":"ESP","State":"Castilla-La Mancha","County":"Albacete","City":"Robledo","Street":"Calle Nueva","HouseNumber":"40","PostalCode":"02340","AdditionalData":[{"value":"España","key":"CountryName"},{"value":"Castilla-La Mancha","key":"StateName"},{"value":"Albacete","key":"CountyName"}]},"MapReference":{"ReferenceId":"572183812","Spot":0.46,"SideOfStreet":"right","CountryId":"20215059","StateId":"20221903","CountyId":"20221904","CityId":"20294131","AddressId":"782284720","RoadLinkId":"65300212"}}},{"Relevance":1.0,"Distance":29.5,"MatchLevel":"houseNumber","MatchQuality":{"Country":1.0,"State":1.0,"County":1.0,"City":1.0,"Street":[1.0],"HouseNumber":1.0,"PostalCode":1.0},"MatchType":"interpolated","Location":{"LocationId":"NT_eG8WpxIqjMXR6lhTPLXWLB_l_1118512033_R_0A","LocationType":"point","DisplayPosition":{"Latitude":38.7578564,"Longitude":-2.4522195},"MapView":{"TopLeft":{"Latitude":38.7589805,"Longitude":-2.453661},"BottomRight":{"Latitude":38.7567322,"Longitude":-2.4507779}},"Address":{"Label":"N-322, 4, 02340 Robledo (Albacete), España","Country":"ESP","State":"Castilla-La Mancha","County":"Albacete","City":"Robledo","Street":"N-322","HouseNumber":"4","PostalCode":"02340","AdditionalData":[{"value":"España","key":"CountryName"},{"value":"Castilla-La Mancha","key":"StateName"},{"value":"Albacete","key":"CountyName"}]},"MapReference":{"ReferenceId":"1118512033","Spot":0.5,"SideOfStreet":"right","CountryId":"20215059","StateId":"20221903","CountyId":"20221904","CityId":"20294131"}}},{"Relevance":1.0,"Distance":31.3,"MatchLevel":"houseNumber","MatchQuality":{"Country":1.0,"State":1.0,"County":1.0,"City":1.0,"Street":[1.0],"HouseNumber":1.0,"PostalCode":1.0},"MatchType":"interpolated","Location":{"LocationId":"NT_eG8WpxIqjMXR6lhTPLXWLB_l_1197937294_R_2A","LocationType":"point","DisplayPosition":{"Latitude":38.7581608,"Longitude":-2.4517972},"MapView":{"TopLeft":{"Latitude":38.759285,"Longitude":-2.4532388},"BottomRight":{"Latitude":38.7570367,"Longitude":-2.4503556}},"Address":{"Label":"N-322, 6, 02340 Robledo (Albacete), España","Country":"ESP","State":"Castilla-La Mancha","County":"Albacete","City":"Robledo","Street":"N-322","HouseNumber":"6","PostalCode":"02340","AdditionalData":[{"value":"España","key":"CountryName"},{"value":"Castilla-La Mancha","key":"StateName"},{"value":"Albacete","key":"CountyName"}]},"MapReference":{"ReferenceId":"1197937294","Spot":0.53,"SideOfStreet":"right","CountryId":"20215059","StateId":"20221903","CountyId":"20221904","CityId":"20294131"}}},{"Relevance":1.0,"Distance":32.1,"MatchLevel":"street","MatchQuality":{"Country":1.0,"State":1.0,"County":1.0,"City":1.0,"Street":[1.0],"PostalCode":1.0},"Location":{"LocationId":"NT_G38GHlp5iHVBnOiTJ5PrJD_l_1249046368_L","LocationType":"point","DisplayPosition":{"Latitude":38.75805,"Longitude":-2.45193},"MapView":{"TopLeft":{"Latitude":38.75812,"Longitude":-2.45203},"BottomRight":{"Latitude":38.75805,"Longitude":-2.45193}},"Address":{"Label":"Camino de Robledo, 02340 Robledo (Albacete), España","Country":"ESP","State":"Castilla-La Mancha","County":"Albacete","City":"Robledo","Street":"Camino de Robledo","PostalCode":"02340","AdditionalData":[{"value":"España","key":"CountryName"},{"value":"Castilla-La Mancha","key":"StateName"},{"value":"Albacete","key":"CountyName"}]},"MapReference":{"ReferenceId":"1249046368","Spot":0.0,"SideOfStreet":"left","CountryId":"20215059","StateId":"20221903","CountyId":"20221904","CityId":"20294131"}}},{"Relevance":1.0,"Distance":42.7,"MatchLevel":"street","MatchQuality":{"Country":1.0,"State":1.0,"County":1.0,"City":1.0,"Street":[1.0],"PostalCode":1.0},"Location":{"LocationId":"NT_G38GHlp5iHVBnOiTJ5PrJD_l_1249046370_L","LocationType":"point","DisplayPosition":{"Latitude":38.75812,"Longitude":-2.45203},"MapView":{"TopLeft":{"Latitude":38.75823,"Longitude":-2.45221},"BottomRight":{"Latitude":38.75812,"Longitude":-2.45203}},"Address":{"Label":"Camino de Robledo, 02340 Robledo (Albacete), España","Country":"ESP","State":"Castilla-La Mancha","County":"Albacete","City":"Robledo","Street":"Camino de Robledo","PostalCode":"02340","AdditionalData":[{"value":"España","key":"CountryName"},{"value":"Castilla-La Mancha","key":"StateName"},{"value":"Albacete","key":"CountyName"}]},"MapReference":{"ReferenceId":"1249046370","Spot":0.0,"SideOfStreet":"left","CountryId":"20215059","StateId":"20221903","CountyId":"20221904","CityId":"20294131"}}},{"Relevance":1.0,"Distance":51.3,"MatchLevel":"houseNumber","MatchQuality":{"Country":1.0,"State":1.0,"County":1.0,"City":1.0,"Street":[1.0],"HouseNumber":1.0,"PostalCode":1.0},"MatchType":"interpolated","Location":{"LocationId":"NT_pBx05mNFXPMHHhYbECykBA_zMDR","LocationType":"point","DisplayPosition":{"Latitude":38.75799,"Longitude":-2.45116},"MapView":{"TopLeft":{"Latitude":38.7591142,"Longitude":-2.4526016},"BottomRight":{"Latitude":38.7568658,"Longitude":-2.4497184}},"Address":{"Label":"Calle Huertas, 33D, 02340 Robledo (Albacete), España","Country":"ESP","State":"Castilla-La Mancha","County":"Albacete","City":"Robledo","Street":"Calle Huertas","HouseNumber":"33D","PostalCode":"02340","AdditionalData":[{"value":"España","key":"CountryName"},{"value":"Castilla-La Mancha","key":"StateName"},{"value":"Albacete","key":"CountyName"}]},"MapReference":{"ReferenceId":"572022108","Spot":0.2,"SideOfStreet":"left","CountryId":"20215059","StateId":"20221903","CountyId":"20221904","CityId":"20294131","AddressId":"405251366","RoadLinkId":"65384212"}}},{"Relevance":1.0,"Distance":58.4,"MatchLevel":"houseNumber","MatchQuality":{"Country":1.0,"State":1.0,"County":1.0,"City":1.0,"Street":[1.0],"HouseNumber":1.0,"PostalCode":1.0},"MatchType":"interpolated","Location":{"LocationId":"NT_pBx05mNFXPMHHhYbECykBA_zED","LocationType":"point","DisplayPosition":{"Latitude":38.75815,"Longitude":-2.45133},"MapView":{"TopLeft":{"Latitude":38.7592742,"Longitude":-2.4527716},"BottomRight":{"Latitude":38.7570258,"Longitude":-2.4498884}},"Address":{"Label":"Calle Huertas, 31, 02340 Robledo (Albacete), España","Country":"ESP","State":"Castilla-La Mancha","County":"Albacete","City":"Robledo","Street":"Calle Huertas","HouseNumber":"31","PostalCode":"02340","AdditionalData":[{"value":"España","key":"CountryName"},{"value":"Castilla-La Mancha","key":"StateName"},{"value":"Albacete","key":"CountyName"}]},"MapReference":{"ReferenceId":"572022114","Spot":0.19,"SideOfStreet":"right","CountryId":"20215059","StateId":"20221903","CountyId":"20221904","CityId":"20294131","AddressId":"405251365","RoadLinkId":"65787258"}}}]}]}}