{"Response":{"MetaInfo":{"Timestamp":"2020-03-28T09:58:56.588+0000","NextPageInformation":"2"},"View":[{"_type":"SearchResultsViewType","ViewId":0,"Result":[{"Relevance":1.0,"Distance":0.0,"Direction":0.0,"MatchLevel":"district","MatchQuality":{"Country":1.0,"County":1.0,"City":1.0,"District":1.0,"PostalCode":1.0},"Location":{"LocationId":"NT_ZstM2qK-P70R47oYjAkuSA","LocationType":"point","DisplayPosition":{"Latitude":38.8251487,"Longitude":-9.1635505},"MapView":{"TopLeft":{"Latitude":38.8253,"Longitude":-9.16972},"BottomRight":{"Latitude":38.82093,"Longitude":-9.16055}},"Address":{"Label":"Mealhada, Loures, Portugal","Country":"PRT","County":"Lisboa","City":"Loures","District":"Mealhada","PostalCode":"2670-488","AdditionalData":[{"value":"Portugal","key":"CountryName"},{"value":"Lisboa","key":"CountyName"}]},"MapReference":{"ReferenceId":"815881843","SideOfStreet":"neither","CountryId":"20317122","CountyId":"20319435","CityId":"20319540","DistrictId":"23745388"}}},{"Relevance":1.0,"Distance":23.9,"MatchLevel":"houseNumber","MatchQuality":{"Country":1.0,"County":1.0,"City":1.0,"District":1.0,"Street":[1.0],"HouseNumber":1.0,"PostalCode":1.0},"MatchType":"interpolated","Location":{"LocationId":"NT_LGopEeFyvjgd7Ldg6kfutB_l_815881851_R_4A","LocationType":"point","DisplayPosition":{"Latitude":38.82481,"Longitude":-9.16366},"MapView":{"TopLeft":{"Latitude":38.8259342,"Longitude":-9.165103},"BottomRight":{"Latitude":38.8236859,"Longitude":-9.1622171}},"Address":{"Label":"Rua Ilha das Flores 8, 2670-500 Loures, Portugal","Country":"PRT","County":"Lisboa","City":"Loures","District":"Mealhada","Street":"Rua Ilha das Flores","HouseNumber":"8","PostalCode":"2670-500","AdditionalData":[{"value":"Portugal","key":"CountryName"},{"value":"Lisboa","key":"CountyName"}]},"MapReference":{"ReferenceId":"815881851","Spot":0.49,"SideOfStreet":"right","CountryId":"20317122","CountyId":"20319435","CityId":"20319540","DistrictId":"23745388"}}},{"Relevance":1.0,"Distance":40.4,"MatchLevel":"houseNumber","MatchQuality":{"Country":1.0,"County":1.0,"City":1.0,"District":1.0,"Street":[1.0],"HouseNumber":1.0,"PostalCode":1.0},"MatchType":"interpolated","Location":{"LocationId":"NT_rFIspNePC4bNSepfhfLkhA_l_815881855_R_xAD","LocationType":"point","DisplayPosition":{"Latitude":38.824835,"Longitude":-9.163315},"MapView":{"TopLeft":{"Latitude":38.8259592,"Longitude":-9.1647579},"BottomRight":{"Latitude":38.8237109,"Longitude":-9.161872}},"Address":{"Label":"Rua Vitorino Nemésio 10, 2670-500 Loures, Portugal","Country":"PRT","County":"Lisboa","City":"Loures","District":"Mealhada","Street":"Rua Vitorino Nemésio","HouseNumber":"10","PostalCode":"2670-500","AdditionalData":[{"value":"Portugal","key":"CountryName"},{"value":"Lisboa","key":"CountyName"}]},"MapReference":{"ReferenceId":"815881855","Spot":0.5,"SideOfStreet":"right","CountryId":"20317122","CountyId":"20319435","CityId":"20319540","DistrictId":"23745388"}}},{"Relevance":1.0,"Distance":41.3,"MatchLevel":"houseNumber","MatchQuality":{"Country":1.0,"County":1.0,"City":1.0,"District":1.0,"Street":[1.0],"HouseNumber":1.0,"PostalCode":1.0},"MatchType":"interpolated","Location":{"LocationId":"NT_LGopEeFyvjgd7Ldg6kfutB_zgD","LocationType":"point","DisplayPosition":{"Latitude":38.82495,"Longitude":-9.16406},"MapView":{"TopLeft":{"Latitude":38.8260742,"Longitude":-9.165503},"BottomRight":{"Latitude":38.8238258,"Longitude":-9.162617}},"Address":{"Label":"Rua Ilha das Flores 38, 2670-500 Loures, Portugal","Country":"PRT","County":"Lisboa","City":"Loures","District":"Mealhada","Street":"Rua Ilha das Flores","HouseNumber":"38","PostalCode":"2670-500","AdditionalData":[{"value":"Portugal","key":"CountryName"},{"value":"Lisboa","key":"CountyName"}]},"MapReference":{"ReferenceId":"815881821","Spot":0.39,"SideOfStreet":"right","CountryId":"20317122","CountyId":"20319435","CityId":"20319540","DistrictId":"23745388","AddressId":"377236753","RoadLinkId":"203254674"}}},{"Relevance":1.0,"Distance":52.3,"MatchLevel":"houseNumber","MatchQuality":{"Country":1.0,"County":1.0,"City":1.0,"District":1.0,"Street":[1.0],"HouseNumber":1.0,"PostalCode":1.0},"MatchType":"interpolated","Location":{"LocationId":"NT_rFIspNePC4bNSepfhfLkhA_5A","LocationType":"point","DisplayPosition":{"Latitude":38.82462,"Longitude":-9.16344},"MapView":{"TopLeft":{"Latitude":38.8257442,"Longitude":-9.1648829},"BottomRight":{"Latitude":38.8234958,"Longitude":-9.1619971}},"Address":{"Label":"Rua Vitorino Nemésio 9, 2670-500 Loures, Portugal","Country":"PRT","County":"Lisboa","City":"Loures","District":"Mealhada","Street":"Rua Vitorino Nemésio","HouseNumber":"9","PostalCode":"2670-500","AdditionalData":[{"value":"Portugal","key":"CountryName"},{"value":"Lisboa","key":"CountyName"}]},"MapReference":{"ReferenceId":"815881800","Spot":0.88,"SideOfStreet":"left","CountryId":"20317122","CountyId":"20319435","CityId":"20319540","DistrictId":"23745388","AddressId":"342665539","RoadLinkId":"203254654"}}},{"Relevance":1.0,"Distance":52.6,"MatchLevel":"houseNumber","MatchQuality":{"Country":1.0,"County":1.0,"City":1.0,"District":1.0,"Street":[1.0],"HouseNumber":1.0,"PostalCode":1.0},"MatchType":"interpolated","Location":{"LocationId":"NT_jpfXSDr8w-YVI6Edx0suSA_xID","LocationType":"point","DisplayPosition":{"Latitude":38.82477,"Longitude":-9.16296},"MapView":{"TopLeft":{"Latitude":38.8258942,"Longitude":-9.1644029},"BottomRight":{"Latitude":38.8236458,"Longitude":-9.1615171}},"Address":{"Label":"Rua Victorino Nemésio 12, 2670 Loures, Portugal","Country":"PRT","County":"Lisboa","City":"Loures","District":"Mealhada","Street":"Rua Victorino Nemésio","HouseNumber":"12","PostalCode":"2670","AdditionalData":[{"value":"Portugal","key":"CountryName"},{"value":"Lisboa","key":"CountyName"}]},"MapReference":{"ReferenceId":"815881828","Spot":0.17,"SideOfStreet":"left","CountryId":"20317122","CountyId":"20319435","CityId":"20319540","DistrictId":"23745388","AddressId":"342930618","RoadLinkId":"203254681"}}},{"Relevance":1.0,"Distance":59.7,"MatchLevel":"street","MatchQuality":{"Country":1.0,"County":1.0,"City":1.0,"District":1.0,"Street":[1.0],"PostalCode":1.0},"Location":{"LocationId":"NT_uzucnnWOv9H91dPSRiVRiC_l_542424601_L","LocationType":"point","DisplayPosition":{"Latitude":38.8255911,"Longitude":-9.1631591},"MapView":{"TopLeft":{"Latitude":38.82619,"Longitude":-9.16379},"BottomRight":{"Latitude":38.8253,"Longitude":-9.16283}},"Address":{"Label":"Rua Prof. Dr. Egas Moniz, 2670-583 Loures, Portugal","Country":"PRT","County":"Lisboa","City":"Loures","District":"Loures","Street":"Rua Prof. Dr. Egas Moniz","PostalCode":"2670-583","AdditionalData":[{"value":"Portugal","key":"CountryName"},{"value":"Lisboa","key":"CountyName"}]},"MapReference":{"ReferenceId":"542424601","Spot":0.34,"SideOfStreet":"left","CountryId":"20317122","CountyId":"20319435","CityId":"20319540","DistrictId":"20319547"}}},{"Relevance":1.0,"Distance":60.5,"MatchLevel":"houseNumber","MatchQuality":{"Country":1.0,"County":1.0,"City":1.0,"District":1.0,"Street":[1.0],"HouseNumber":1.0,"PostalCode":1.0},"MatchType":"interpolated","Location":{"LocationId":"NT_LGopEeFyvjgd7Ldg6kfutB_l_815881856_R_yMD","LocationType":"point","DisplayPosition":{"Latitude":38.82477,"Longitude":-9.1640525},"MapView":{"TopLeft":{"Latitude":38.8258942,"Longitude":-9.1654954},"BottomRight":{"Latitude":38.8236459,"Longitude":-9.1626095}},"Address":{"Label":"Rua Ilha das Flores 23, 2670-500 Loures, Portugal","Country":"PRT","County":"Lisboa","City":"Loures","District":"Mealhada","Street":"Rua Ilha das Flores","HouseNumber":"23","PostalCode":"2670-500","AdditionalData":[{"value":"Portugal","key":"CountryName"},{"value":"Lisboa","key":"CountyName"}]},"MapReference":{"ReferenceId":"815881856","Spot":0.58,"SideOfStreet":"right","CountryId":"20317122","CountyId":"20319435","CityId":"20319540","DistrictId":"23745388"}}},{"Relevance":1.0,"Distance":64.6,"MatchLevel":"street","MatchQuality":{"Country":1.0,"County":1.0,"City":1.0,"District":1.0,"Street":[1.0],"PostalCode":1.0},"Location":{"LocationId":"NT_j5jbT.DeghCa.ksxOlvEtA_l_542424553_L","LocationType":"point","DisplayPosition":{"Latitude":38.8253,"Longitude":-9.16283},"MapView":{"TopLeft":{"Latitude":38.8253,"Longitude":-9.16283},"BottomRight":{"Latitude":38.82505,"Longitude":-9.16256}},"Address":{"Label":"Rua dos Açores, 2670-484 Loures, Portugal","Country":"PRT","County":"Lisboa","City":"Loures","District":"Mealhada","Street":"Rua dos Açores","PostalCode":"2670-484","AdditionalData":[{"value":"Portugal","key":"CountryName"},{"value":"Lisboa","key":"CountyName"}]},"MapReference":{"ReferenceId":"542424553","Spot":1.0,"SideOfStreet":"left","CountryId":"20317122","CountyId":"20319435","CityId":"20319540","DistrictId":"23745388"}}},{"Relevance":1.0,"Distance":64.6,"MatchLevel":"street","MatchQuality":{"Country":1.0,"County":1.0,"City":1.0,"District":1.0,"PostalCode":1.0},"Location":{"LocationId":"NT_QRNM4L9NWj0zIwH9EL-eSB_l_815881820_L","LocationType":"point","DisplayPosition":{"Latitude":38.8253,"Longitude":-9.16283},"MapView":{"TopLeft":{"Latitude":38.8253,"Longitude":-9.16283},"BottomRight":{"Latitude":38.82502,"Longitude":-9.16274}},"Address":{"Label":"2670 Loures, Portugal","Country":"PRT","County":"Lisboa","City":"Loures","District":"Mealhada","PostalCode":"2670","AdditionalData":[{"value":"Portugal","key":"CountryName"},{"value":"Lisboa","key":"CountyName"}]},"MapReference":{"ReferenceId":"815881820","Spot":1.0,"SideOfStreet":"left","CountryId":"20317122","CountyId":"20319435","CityId":"20319540","DistrictId":"23745388"}}}]}]}}