{"Response":{"MetaInfo":{"Timestamp":"2020-03-28T11:04:45.777+0000","NextPageInformation":"2"},"View":[{"_type":"SearchResultsViewType","ViewId":0,"Result":[{"Relevance":1.0,"Distance":-40.6,"MatchLevel":"landmark","MatchQuality":{"Country":1.0,"State":1.0,"County":1.0,"City":1.0,"Street":[1.0],"PostalCode":1.0,"Name":1.0},"Location":{"LocationId":"NT_I64UjvmCPs64X5jqPAT6BA_p_f1mbzn.QXef77V83BO8o1C","LocationType":"hospital","Name":"Hospital Perpetuo Socorro","DisplayPosition":{"Latitude":38.86713,"Longitude":-6.97164},"MapView":{"TopLeft":{"Latitude":38.8675,"Longitude":-6.97295},"BottomRight":{"Latitude":38.86558,"Longitude":-6.96835}},"Address":{"Label":"Calle Trasera Arturo Gazul, 06010 Badajoz (Badajoz), España","Country":"ESP","State":"Extremadura","County":"Badajoz","City":"Badajoz","Street":"Calle Trasera Arturo Gazul","PostalCode":"06010","AdditionalData":[{"value":"España","key":"CountryName"},{"value":"Extremadura","key":"StateName"},{"value":"Badajoz","key":"CountyName"}]},"MapReference":{"CountryId":"20215059","StateId":"20226788","CountyId":"20226789","CityId":"20273835","PlaceId":"1141755428"}}},{"Relevance":1.0,"Distance":0.0,"Direction":0.0,"MatchLevel":"city","MatchQuality":{"Country":1.0,"State":1.0,"County":1.0,"City":1.0,"PostalCode":1.0},"Location":{"LocationId":"NT_mDc-zMP-imqhiUCxSsZjoB","LocationType":"point","DisplayPosition":{"Latitude":38.8660543,"Longitude":-6.9719154},"MapView":{"TopLeft":{"Latitude":39.19403,"Longitude":-7.16197},"BottomRight":{"Latitude":38.5544,"Longitude":-6.55942}},"Address":{"Label":"Badajoz, Extremadura, España","Country":"ESP","State":"Extremadura","County":"Badajoz","City":"Badajoz","PostalCode":"06004","AdditionalData":[{"value":"España","key":"CountryName"},{"value":"Extremadura","key":"StateName"},{"value":"Badajoz","key":"CountyName"}]},"MapReference":{"ReferenceId":"76636294","SideOfStreet":"neither","CountryId":"20215059","StateId":"20226788","CountyId":"20226789","CityId":"20273835"}}},{"Relevance":1.0,"Distance":11.7,"MatchLevel":"street","MatchQuality":{"Country":1.0,"State":1.0,"County":1.0,"City":1.0,"PostalCode":1.0},"Location":{"LocationId":"NT_JYqXmbiOpc8yA-esGjrVXD_l_539339347_R","LocationType":"point","DisplayPosition":{"Latitude":38.86605,"Longitude":-6.97205},"MapView":{"TopLeft":{"Latitude":38.86699,"Longitude":-6.97284},"BottomRight":{"Latitude":38.86605,"Longitude":-6.97205}},"Address":{"Label":"06010 Badajoz (Badajoz), España","Country":"ESP","State":"Extremadura","County":"Badajoz","City":"Badajoz","PostalCode":"06010","AdditionalData":[{"value":"España","key":"CountryName"},{"value":"Extremadura","key":"StateName"},{"value":"Badajoz","key":"CountyName"}]},"MapReference":{"ReferenceId":"539339347","Spot":0.0,"SideOfStreet":"right","CountryId":"20215059","StateId":"20226788","CountyId":"20226789","CityId":"20273835"}}},{"Relevance":1.0,"Distance":28.0,"MatchLevel":"street","MatchQuality":{"Country":1.0,"State":1.0,"County":1.0,"City":1.0,"PostalCode":1.0},"Location":{"LocationId":"NT_JYqXmbiOpc8yA-esGjrVXD_l_1112673742_R","LocationType":"point","DisplayPosition":{"Latitude":38.8658622,"Longitude":-6.9721243},"MapView":{"TopLeft":{"Latitude":38.86651,"Longitude":-6.97272},"BottomRight":{"Latitude":38.86564,"Longitude":-6.97192}},"Address":{"Label":"06010 Badajoz (Badajoz), España","Country":"ESP","State":"Extremadura","County":"Badajoz","City":"Badajoz","PostalCode":"06010","AdditionalData":[{"value":"España","key":"CountryName"},{"value":"Extremadura","key":"StateName"},{"value":"Badajoz","key":"CountyName"}]},"MapReference":{"ReferenceId":"1112673742","Spot":0.26,"SideOfStreet":"right","CountryId":"20215059","StateId":"20226788","CountyId":"20226789","CityId":"20273835"}}},{"Relevance":1.0,"Distance":46.1,"MatchLevel":"street","MatchQuality":{"Country":1.0,"State":1.0,"County":1.0,"City":1.0,"Street":[1.0],"PostalCode":1.0},"Location":{"LocationId":"NT_-byjpklz55OFBOJsRr1FfB_l_591961790_L","LocationType":"point","DisplayPosition":{"Latitude":38.86564,"Longitude":-6.97192},"MapView":{"TopLeft":{"Latitude":38.86565,"Longitude":-6.97192},"BottomRight":{"Latitude":38.86561,"Longitude":-6.97135}},"Address":{"Label":"Calle Violeta, 06010 Badajoz (Badajoz), España","Country":"ESP","State":"Extremadura","County":"Badajoz","City":"Badajoz","Street":"Calle Violeta","PostalCode":"06010","AdditionalData":[{"value":"España","key":"CountryName"},{"value":"Extremadura","key":"StateName"},{"value":"Badajoz","key":"CountyName"}]},"MapReference":{"ReferenceId":"591961790","Spot":0.0,"SideOfStreet":"left","CountryId":"20215059","StateId":"20226788","CountyId":"20226789","CityId":"20273835"}}},{"Relevance":1.0,"Distance":52.7,"MatchLevel":"houseNumber","MatchQuality":{"Country":1.0,"State":1.0,"County":1.0,"City":1.0,"Street":[1.0],"HouseNumber":1.0,"PostalCode":1.0},"MatchType":"interpolated","Location":{"LocationId":"NT_-byjpklz55OFBOJsRr1FfB_0A","LocationType":"point","DisplayPosition":{"Latitude":38.86562,"Longitude":-6.97216},"MapView":{"TopLeft":{"Latitude":38.8667442,"Longitude":-6.9736038},"BottomRight":{"Latitude":38.8644958,"Longitude":-6.9707162}},"Address":{"Label":"Calle Violeta, 4, 06010 Badajoz (Badajoz), España","Country":"ESP","State":"Extremadura","County":"Badajoz","City":"Badajoz","Street":"Calle Violeta","HouseNumber":"4","PostalCode":"06010","AdditionalData":[{"value":"España","key":"CountryName"},{"value":"Extremadura","key":"StateName"},{"value":"Badajoz","key":"CountyName"}]},"MapReference":{"ReferenceId":"591961791","Spot":0.71,"SideOfStreet":"right","CountryId":"20215059","StateId":"20226788","CountyId":"20226789","CityId":"20273835","AddressId":"782160738","RoadLinkId":"67562930"}}},{"Relevance":1.0,"Distance":69.2,"MatchLevel":"houseNumber","MatchQuality":{"Country":1.0,"State":1.0,"County":1.0,"City":1.0,"Street":[1.0],"HouseNumber":1.0,"PostalCode":1.0},"MatchType":"interpolated","Location":{"LocationId":"NT_sr.wO-KwoVJCjbbtKhW4xD_xMD","LocationType":"point","DisplayPosition":{"Latitude":38.86578,"Longitude":-6.97278},"MapView":{"TopLeft":{"Latitude":38.8669042,"Longitude":-6.9742238},"BottomRight":{"Latitude":38.8646558,"Longitude":-6.9713362}},"Address":{"Label":"Avenida Damián Téllez Lafuente, 13, 06010 Badajoz (Badajoz), España","Country":"ESP","State":"Extremadura","County":"Badajoz","City":"Badajoz","Street":"Avenida Damián Téllez Lafuente","HouseNumber":"13","PostalCode":"06010","AdditionalData":[{"value":"España","key":"CountryName"},{"value":"Extremadura","key":"StateName"},{"value":"Badajoz","key":"CountyName"}]},"MapReference":{"ReferenceId":"946114890","Spot":0.7,"SideOfStreet":"right","CountryId":"20215059","StateId":"20226788","CountyId":"20226789","CityId":"20273835","AddressId":"350634023","RoadLinkId":"294333208"}}},{"Relevance":1.0,"Distance":75.9,"MatchLevel":"houseNumber","MatchQuality":{"Country":1.0,"State":1.0,"County":1.0,"City":1.0,"Street":[1.0],"HouseNumber":1.0,"PostalCode":1.0},"MatchType":"interpolated","Location":{"LocationId":"NT_-byjpklz55OFBOJsRr1FfB_l_591961792_L_xA","LocationType":"point","DisplayPosition":{"Latitude":38.8657611,"Longitude":-6.971049},"MapView":{"TopLeft":{"Latitude":38.8668852,"Longitude":-6.9724928},"BottomRight":{"Latitude":38.8646369,"Longitude":-6.9696052}},"Address":{"Label":"Calle Violeta, 1, 06010 Badajoz (Badajoz), España","Country":"ESP","State":"Extremadura","County":"Badajoz","City":"Badajoz","Street":"Calle Violeta","HouseNumber":"1","PostalCode":"06010","AdditionalData":[{"value":"España","key":"CountryName"},{"value":"Extremadura","key":"StateName"},{"value":"Badajoz","key":"CountyName"}]},"MapReference":{"ReferenceId":"591961792","Spot":0.51,"SideOfStreet":"left","CountryId":"20215059","StateId":"20226788","CountyId":"20226789","CityId":"20273835"}}},{"Relevance":1.0,"Distance":76.0,"MatchLevel":"houseNumber","MatchQuality":{"Country":1.0,"State":1.0,"County":1.0,"City":1.0,"Street":[1.0],"HouseNumber":1.0,"PostalCode":1.0},"MatchType":"interpolated","Location":{"LocationId":"NT_sr.wO-KwoVJCjbbtKhW4xD_xED","LocationType":"point","DisplayPosition":{"Latitude":38.86631,"Longitude":-6.97286},"MapView":{"TopLeft":{"Latitude":38.8674342,"Longitude":-6.9743038},"BottomRight":{"Latitude":38.8651858,"Longitude":-6.9714162}},"Address":{"Label":"Avenida Damián Téllez Lafuente, 11, 06010 Badajoz (Badajoz), España","Country":"ESP","State":"Extremadura","County":"Badajoz","City":"Badajoz","Street":"Avenida Damián Téllez Lafuente","HouseNumber":"11","PostalCode":"06010","AdditionalData":[{"value":"España","key":"CountryName"},{"value":"Extremadura","key":"StateName"},{"value":"Badajoz","key":"CountyName"}]},"MapReference":{"ReferenceId":"945923998","Spot":0.0,"SideOfStreet":"right","CountryId":"20215059","StateId":"20226788","CountyId":"20226789","CityId":"20273835","AddressId":"350635848","RoadLinkId":"294205945"}}},{"Relevance":1.0,"Distance":77.4,"MatchLevel":"houseNumber","MatchQuality":{"Country":1.0,"State":1.0,"County":1.0,"City":1.0,"Street":[1.0],"HouseNumber":1.0,"PostalCode":1.0},"MatchType":"interpolated","Location":{"LocationId":"NT_-byjpklz55OFBOJsRr1FfB_l_76636996_L_zA","LocationType":"point","DisplayPosition":{"Latitude":38.8656611,"Longitude":-6.97107},"MapView":{"TopLeft":{"Latitude":38.8667853,"Longitude":-6.9725138},"BottomRight":{"Latitude":38.864537,"Longitude":-6.9696263}},"Address":{"Label":"Calle Violeta, 3, 06010 Badajoz (Badajoz), España","Country":"ESP","State":"Extremadura","County":"Badajoz","City":"Badajoz","Street":"Calle Violeta","HouseNumber":"3","PostalCode":"06010","AdditionalData":[{"value":"España","key":"CountryName"},{"value":"Extremadura","key":"StateName"},{"value":"Badajoz","key":"CountyName"}]},"MapReference":{"ReferenceId":"76636996","Spot":0.53,"SideOfStreet":"left","CountryId":"20215059","StateId":"20226788","CountyId":"20226789","CityId":"20273835"}}}]}]}}