{"Response":{"MetaInfo":{"Timestamp":"2020-03-28T09:40:57.600+0000","NextPageInformation":"2"},"View":[{"_type":"SearchResultsViewType","ViewId":0,"Result":[{"Relevance":1.0,"Distance":0.0,"Direction":0.0,"MatchLevel":"district","MatchQuality":{"Country":1.0,"State":1.0,"County":1.0,"City":1.0,"District":1.0,"PostalCode":1.0},"Location":{"LocationId":"NT_X4ptkXmE.z7aNoy0UJ-nxA","LocationType":"point","DisplayPosition":{"Latitude":38.984608,"Longitude":-1.8639392},"MapView":{"TopLeft":{"Latitude":38.98752,"Longitude":-1.86983},"BottomRight":{"Latitude":38.98207,"Longitude":-1.86335}},"Address":{"Label":"Pedro Lamata, Albacete, Castilla-La Mancha, España","Country":"ESP","State":"Castilla-La Mancha","County":"Albacete","City":"Albacete","District":"Pedro Lamata","PostalCode":"02006","AdditionalData":[{"value":"España","key":"CountryName"},{"value":"Castilla-La Mancha","key":"StateName"},{"value":"Albacete","key":"CountyName"}]},"MapReference":{"ReferenceId":"564790496","SideOfStreet":"neither","CountryId":"20215059","StateId":"20221903","CountyId":"20221904","CityId":"20293622"}}},{"Relevance":1.0,"Distance":14.3,"MatchLevel":"street","MatchQuality":{"Country":1.0,"State":1.0,"County":1.0,"City":1.0,"District":1.0,"Street":[1.0],"PostalCode":1.0},"Location":{"LocationId":"NT_CiYXkekHySeWKzk0rbTMxB_l_76770330_L","LocationType":"point","DisplayPosition":{"Latitude":38.98448,"Longitude":-1.86393},"MapView":{"TopLeft":{"Latitude":38.98448,"Longitude":-1.86414},"BottomRight":{"Latitude":38.98421,"Longitude":-1.86393}},"Address":{"Label":"Carretera de las Peñas de San Pedro, 02006 Albacete (Albacete), España","Country":"ESP","State":"Castilla-La Mancha","County":"Albacete","City":"Albacete","District":"Pedro Lamata","Street":"Carretera de las Peñas de San Pedro","PostalCode":"02006","AdditionalData":[{"value":"España","key":"CountryName"},{"value":"Castilla-La Mancha","key":"StateName"},{"value":"Albacete","key":"CountyName"}]},"MapReference":{"ReferenceId":"76770330","Spot":1.0,"SideOfStreet":"left","CountryId":"20215059","StateId":"20221903","CountyId":"20221904","CityId":"20293622"}}},{"Relevance":1.0,"Distance":14.3,"MatchLevel":"street","MatchQuality":{"Country":1.0,"State":1.0,"County":1.0,"City":1.0,"District":1.0,"Street":[1.0],"PostalCode":1.0},"Location":{"LocationId":"NT_wCCBSldkEylCm9eYPRu3-C_l_1223985620_R","LocationType":"point","DisplayPosition":{"Latitude":38.98448,"Longitude":-1.86393},"MapView":{"TopLeft":{"Latitude":38.98448,"Longitude":-1.86393},"BottomRight":{"Latitude":38.98444,"Longitude":-1.86384}},"Address":{"Label":"Calle Profesor Macedonio Jiménez, 02006 Albacete (Albacete), España","Country":"ESP","State":"Castilla-La Mancha","County":"Albacete","City":"Albacete","District":"Pedro Lamata","Street":"Calle Profesor Macedonio Jiménez","PostalCode":"02006","AdditionalData":[{"value":"España","key":"CountryName"},{"value":"Castilla-La Mancha","key":"StateName"},{"value":"Albacete","key":"CountyName"}]},"MapReference":{"ReferenceId":"1223985620","Spot":1.0,"SideOfStreet":"right","CountryId":"20215059","StateId":"20221903","CountyId":"20221904","CityId":"20293622"}}},{"Relevance":1.0,"Distance":15.2,"MatchLevel":"street","MatchQuality":{"Country":1.0,"State":1.0,"County":1.0,"City":1.0,"District":1.0,"PostalCode":1.0},"Location":{"LocationId":"NT_PSVg1eqkGMRM3ddLtvKRzB_l_1105173753_L","LocationType":"point","DisplayPosition":{"Latitude":38.98468,"Longitude":-1.86379},"MapView":{"TopLeft":{"Latitude":38.98493,"Longitude":-1.86416},"BottomRight":{"Latitude":38.98464,"Longitude":-1.86365}},"Address":{"Label":"02006 Albacete (Albacete), España","Country":"ESP","State":"Castilla-La Mancha","County":"Albacete","City":"Albacete","District":"Pedro Lamata","PostalCode":"02006","AdditionalData":[{"value":"España","key":"CountryName"},{"value":"Castilla-La Mancha","key":"StateName"},{"value":"Albacete","key":"CountyName"}]},"MapReference":{"ReferenceId":"1105173753","Spot":0.23,"SideOfStreet":"left","CountryId":"20215059","StateId":"20221903","CountyId":"20221904","CityId":"20293622"}}},{"Relevance":1.0,"Distance":18.2,"MatchLevel":"houseNumber","MatchQuality":{"Country":1.0,"State":1.0,"County":1.0,"City":1.0,"District":1.0,"Street":[1.0],"HouseNumber":1.0,"PostalCode":1.0},"MatchType":"interpolated","Location":{"LocationId":"NT_wCCBSldkEylCm9eYPRu3-C_xA","LocationType":"point","DisplayPosition":{"Latitude":38.98456,"Longitude":-1.86414},"MapView":{"TopLeft":{"Latitude":38.9856842,"Longitude":-1.8655862},"BottomRight":{"Latitude":38.9834358,"Longitude":-1.8626938}},"Address":{"Label":"Calle Profesor Macedonio Jiménez, 1, 02006 Albacete (Albacete), España","Country":"ESP","State":"Castilla-La Mancha","County":"Albacete","City":"Albacete","District":"Pedro Lamata","Street":"Calle Profesor Macedonio Jiménez","HouseNumber":"1","PostalCode":"02006","AdditionalData":[{"value":"España","key":"CountryName"},{"value":"Castilla-La Mancha","key":"StateName"},{"value":"Albacete","key":"CountyName"}]},"MapReference":{"ReferenceId":"1121590162","Spot":0.34,"SideOfStreet":"left","CountryId":"20215059","StateId":"20221903","CountyId":"20221904","CityId":"20293622","AddressId":"266352519","RoadLinkId":"431770953"}}},{"Relevance":1.0,"Distance":20.6,"MatchLevel":"street","MatchQuality":{"Country":1.0,"State":1.0,"County":1.0,"City":1.0,"District":1.0,"Street":[1.0],"PostalCode":1.0},"Location":{"LocationId":"NT_wCCBSldkEylCm9eYPRu3-C_l_1223985619_R","LocationType":"point","DisplayPosition":{"Latitude":38.98444,"Longitude":-1.86384},"MapView":{"TopLeft":{"Latitude":38.98444,"Longitude":-1.86384},"BottomRight":{"Latitude":38.9844,"Longitude":-1.86375}},"Address":{"Label":"Calle Profesor Macedonio Jiménez, 02006 Albacete (Albacete), España","Country":"ESP","State":"Castilla-La Mancha","County":"Albacete","City":"Albacete","District":"Pedro Lamata","Street":"Calle Profesor Macedonio Jiménez","PostalCode":"02006","AdditionalData":[{"value":"España","key":"CountryName"},{"value":"Castilla-La Mancha","key":"StateName"},{"value":"Albacete","key":"CountyName"}]},"MapReference":{"ReferenceId":"1223985619","Spot":1.0,"SideOfStreet":"right","CountryId":"20215059","StateId":"20221903","CountyId":"20221904","CityId":"20293622"}}},{"Relevance":1.0,"Distance":22.6,"MatchLevel":"street","MatchQuality":{"Country":1.0,"State":1.0,"County":1.0,"City":1.0,"District":1.0,"Street":[1.0],"PostalCode":1.0},"Location":{"LocationId":"NT_8qXc8arqtX.i6lIjtIqtiA_l_1270849590_L","LocationType":"point","DisplayPosition":{"Latitude":38.98451,"Longitude":-1.86371},"MapView":{"TopLeft":{"Latitude":38.98464,"Longitude":-1.86371},"BottomRight":{"Latitude":38.98451,"Longitude":-1.86365}},"Address":{"Label":"CM-3203, 02006 Albacete (Albacete), España","Country":"ESP","State":"Castilla-La Mancha","County":"Albacete","City":"Albacete","District":"Pedro Lamata","Street":"CM-3203","PostalCode":"02006","AdditionalData":[{"value":"España","key":"CountryName"},{"value":"Castilla-La Mancha","key":"StateName"},{"value":"Albacete","key":"CountyName"}]},"MapReference":{"ReferenceId":"1270849590","Spot":0.0,"SideOfStreet":"left","CountryId":"20215059","StateId":"20221903","CountyId":"20221904","CityId":"20293622"}}},{"Relevance":1.0,"Distance":22.6,"MatchLevel":"street","MatchQuality":{"Country":1.0,"State":1.0,"County":1.0,"City":1.0,"District":1.0,"Street":[1.0],"PostalCode":1.0},"Location":{"LocationId":"NT_8qXc8arqtX.i6lIjtIqtiA_l_1270849589_L","LocationType":"point","DisplayPosition":{"Latitude":38.98451,"Longitude":-1.86371},"MapView":{"TopLeft":{"Latitude":38.98451,"Longitude":-1.86375},"BottomRight":{"Latitude":38.9844,"Longitude":-1.86371}},"Address":{"Label":"CM-3203, 02006 Albacete (Albacete), España","Country":"ESP","State":"Castilla-La Mancha","County":"Albacete","City":"Albacete","District":"Pedro Lamata","Street":"CM-3203","PostalCode":"02006","AdditionalData":[{"value":"España","key":"CountryName"},{"value":"Castilla-La Mancha","key":"StateName"},{"value":"Albacete","key":"CountyName"}]},"MapReference":{"ReferenceId":"1270849589","Spot":1.0,"SideOfStreet":"left","CountryId":"20215059","StateId":"20221903","CountyId":"20221904","CityId":"20293622"}}},{"Relevance":1.0,"Distance":25.2,"MatchLevel":"street","MatchQuality":{"Country":1.0,"State":1.0,"County":1.0,"City":1.0,"District":1.0,"Street":[1.0],"PostalCode":1.0},"Location":{"LocationId":"NT_8qXc8arqtX.i6lIjtIqtiA_l_76770341_L","LocationType":"point","DisplayPosition":{"Latitude":38.98464,"Longitude":-1.86365},"MapView":{"TopLeft":{"Latitude":38.9849,"Longitude":-1.86365},"BottomRight":{"Latitude":38.98464,"Longitude":-1.86343}},"Address":{"Label":"CM-3203, 02006 Albacete (Albacete), España","Country":"ESP","State":"Castilla-La Mancha","County":"Albacete","City":"Albacete","District":"Pedro Lamata","Street":"CM-3203","PostalCode":"02006","AdditionalData":[{"value":"España","key":"CountryName"},{"value":"Castilla-La Mancha","key":"StateName"},{"value":"Albacete","key":"CountyName"}]},"MapReference":{"ReferenceId":"76770341","Spot":0.0,"SideOfStreet":"left","CountryId":"20215059","StateId":"20221903","CountyId":"20221904","CityId":"20293622"}}},{"Relevance":1.0,"Distance":25.2,"MatchLevel":"street","MatchQuality":{"Country":1.0,"State":1.0,"County":1.0,"City":1.0,"District":1.0,"PostalCode":1.0},"Location":{"LocationId":"NT_4XoJt38B2zAy8lzBjlYeRC_l_1105173736_R","LocationType":"point","DisplayPosition":{"Latitude":38.98464,"Longitude":-1.86365},"MapView":{"TopLeft":{"Latitude":38.98474,"Longitude":-1.86365},"BottomRight":{"Latitude":38.98459,"Longitude":-1.86326}},"Address":{"Label":"02006 Albacete (Albacete), España","Country":"ESP","State":"Castilla-La Mancha","County":"Albacete","City":"Albacete","District":"Sepulcro - Bolera","PostalCode":"02006","AdditionalData":[{"value":"España","key":"CountryName"},{"value":"Castilla-La Mancha","key":"StateName"},{"value":"Albacete","key":"CountyName"}]},"MapReference":{"ReferenceId":"1105173736","Spot":0.0,"SideOfStreet":"right","CountryId":"20215059","StateId":"20221903","CountyId":"20221904","CityId":"20293622"}}}]}]}}