{"Response":{"MetaInfo":{"Timestamp":"2020-03-28T11:03:47.172+0000","NextPageInformation":"2"},"View":[{"_type":"SearchResultsViewType","ViewId":0,"Result":[{"Relevance":1.0,"Distance":0.0,"Direction":0.0,"MatchLevel":"city","MatchQuality":{"Country":1.0,"State":1.0,"County":1.0,"City":1.0,"PostalCode":1.0},"Location":{"LocationId":"NT_XnVcYQnVBRwaCMVOxtQICD","LocationType":"point","DisplayPosition":{"Latitude":38.9893901,"Longitude":-4.9457866},"MapView":{"TopLeft":{"Latitude":39.05874,"Longitude":-4.98602},"BottomRight":{"Latitude":38.93896,"Longitude":-4.91811}},"Address":{"Label":"Tamurejo, Extremadura, España","Country":"ESP","State":"Extremadura","County":"Badajoz","City":"Tamurejo","PostalCode":"06658","AdditionalData":[{"value":"España","key":"CountryName"},{"value":"Extremadura","key":"StateName"},{"value":"Badajoz","key":"CountyName"}]},"MapReference":{"ReferenceId":"946857621","SideOfStreet":"neither","CountryId":"20215059","StateId":"20226788","CountyId":"20226789","CityId":"20274344"}}},{"Relevance":1.0,"Distance":15.9,"MatchLevel":"houseNumber","MatchQuality":{"Country":1.0,"State":1.0,"County":1.0,"City":1.0,"Street":[1.0],"HouseNumber":1.0,"PostalCode":1.0},"MatchType":"interpolated","Location":{"LocationId":"NT_sXVNroZPEY2YDYddW6fbQC_1A","LocationType":"point","DisplayPosition":{"Latitude":38.98948,"Longitude":-4.94593},"MapView":{"TopLeft":{"Latitude":38.9906042,"Longitude":-4.9473763},"BottomRight":{"Latitude":38.9883558,"Longitude":-4.9444837}},"Address":{"Label":"Calle Chillón, 5, 06658 Tamurejo (Badajoz), España","Country":"ESP","State":"Extremadura","County":"Badajoz","City":"Tamurejo","Street":"Calle Chillón","HouseNumber":"5","PostalCode":"06658","AdditionalData":[{"value":"España","key":"CountryName"},{"value":"Extremadura","key":"StateName"},{"value":"Badajoz","key":"CountyName"}]},"MapReference":{"ReferenceId":"564440371","Spot":0.47,"SideOfStreet":"right","CountryId":"20215059","StateId":"20226788","CountyId":"20226789","CityId":"20274344","AddressId":"350735989","RoadLinkId":"67392773"}}},{"Relevance":1.0,"Distance":28.1,"MatchLevel":"houseNumber","MatchQuality":{"Country":1.0,"State":1.0,"County":1.0,"City":1.0,"Street":[1.0],"HouseNumber":1.0,"PostalCode":1.0},"MatchType":"interpolated","Location":{"LocationId":"NT_lkG.BwNBu5glWGL-SuNblB_4A","LocationType":"point","DisplayPosition":{"Latitude":38.98916,"Longitude":-4.94539},"MapView":{"TopLeft":{"Latitude":38.9902842,"Longitude":-4.9468363},"BottomRight":{"Latitude":38.9880358,"Longitude":-4.9439437}},"Address":{"Label":"Tamurejo, 8, 06658 Tamurejo (Badajoz), España","Country":"ESP","State":"Extremadura","County":"Badajoz","City":"Tamurejo","Street":"Tamurejo","HouseNumber":"8","PostalCode":"06658","AdditionalData":[{"value":"España","key":"CountryName"},{"value":"Extremadura","key":"StateName"},{"value":"Badajoz","key":"CountyName"}]},"MapReference":{"ReferenceId":"564440370","Spot":0.99,"SideOfStreet":"left","CountryId":"20215059","StateId":"20226788","CountyId":"20226789","CityId":"20274344","AddressId":"367577808","RoadLinkId":"67056223"}}},{"Relevance":1.0,"Distance":28.5,"MatchLevel":"houseNumber","MatchQuality":{"Country":1.0,"State":1.0,"County":1.0,"City":1.0,"Street":[1.0],"HouseNumber":1.0,"PostalCode":1.0},"MatchType":"interpolated","Location":{"LocationId":"NT_CXwt28kcVecfeoDrrJ63KA_3A","LocationType":"point","DisplayPosition":{"Latitude":38.98956,"Longitude":-4.94554},"MapView":{"TopLeft":{"Latitude":38.9906842,"Longitude":-4.9469863},"BottomRight":{"Latitude":38.9884358,"Longitude":-4.9440937}},"Address":{"Label":"Calle Ronda, 7, 06658 Tamurejo (Badajoz), España","Country":"ESP","State":"Extremadura","County":"Badajoz","City":"Tamurejo","Street":"Calle Ronda","HouseNumber":"7","PostalCode":"06658","AdditionalData":[{"value":"España","key":"CountryName"},{"value":"Extremadura","key":"StateName"},{"value":"Badajoz","key":"CountyName"}]},"MapReference":{"ReferenceId":"947218531","Spot":0.35,"SideOfStreet":"right","CountryId":"20215059","StateId":"20226788","CountyId":"20226789","CityId":"20274344","AddressId":"367582630","RoadLinkId":"295013851"}}},{"Relevance":1.0,"Distance":46.0,"MatchLevel":"houseNumber","MatchQuality":{"Country":1.0,"State":1.0,"County":1.0,"City":1.0,"Street":[1.0],"HouseNumber":1.0,"PostalCode":1.0},"MatchType":"interpolated","Location":{"LocationId":"NT_CXwt28kcVecfeoDrrJ63KA_l_966656778_L_2A","LocationType":"point","DisplayPosition":{"Latitude":38.9899,"Longitude":-4.9458},"MapView":{"TopLeft":{"Latitude":38.9910242,"Longitude":-4.9472463},"BottomRight":{"Latitude":38.9887759,"Longitude":-4.9443537}},"Address":{"Label":"Calle Ronda, 6, 06658 Tamurejo (Badajoz), España","Country":"ESP","State":"Extremadura","County":"Badajoz","City":"Tamurejo","Street":"Calle Ronda","HouseNumber":"6","PostalCode":"06658","AdditionalData":[{"value":"España","key":"CountryName"},{"value":"Extremadura","key":"StateName"},{"value":"Badajoz","key":"CountyName"}]},"MapReference":{"ReferenceId":"966656778","Spot":0.0,"SideOfStreet":"left","CountryId":"20215059","StateId":"20226788","CountyId":"20226789","CityId":"20274344"}}},{"Relevance":1.0,"Distance":46.9,"MatchLevel":"street","MatchQuality":{"Country":1.0,"State":1.0,"County":1.0,"City":1.0,"PostalCode":1.0},"Location":{"LocationId":"NT_ozkvbAB8tHLkPUK.FeHbfA_l_946857664_L","LocationType":"point","DisplayPosition":{"Latitude":38.98924,"Longitude":-4.94528},"MapView":{"TopLeft":{"Latitude":38.98924,"Longitude":-4.94528},"BottomRight":{"Latitude":38.98913,"Longitude":-4.94517}},"Address":{"Label":"06658 Tamurejo (Badajoz), España","Country":"ESP","State":"Extremadura","County":"Badajoz","City":"Tamurejo","PostalCode":"06658","AdditionalData":[{"value":"España","key":"CountryName"},{"value":"Extremadura","key":"StateName"},{"value":"Badajoz","key":"CountyName"}]},"MapReference":{"ReferenceId":"946857664","Spot":1.0,"SideOfStreet":"left","CountryId":"20215059","StateId":"20226788","CountyId":"20226789","CityId":"20274344"}}},{"Relevance":1.0,"Distance":47.6,"MatchLevel":"houseNumber","MatchQuality":{"Country":1.0,"State":1.0,"County":1.0,"City":1.0,"Street":[1.0],"HouseNumber":1.0,"PostalCode":1.0},"MatchType":"interpolated","Location":{"LocationId":"NT_CXwt28kcVecfeoDrrJ63KA_xAD","LocationType":"point","DisplayPosition":{"Latitude":38.98924,"Longitude":-4.94528},"MapView":{"TopLeft":{"Latitude":38.9903642,"Longitude":-4.9467263},"BottomRight":{"Latitude":38.9881158,"Longitude":-4.9438337}},"Address":{"Label":"Calle Ronda, 10, 06658 Tamurejo (Badajoz), España","Country":"ESP","State":"Extremadura","County":"Badajoz","City":"Tamurejo","Street":"Calle Ronda","HouseNumber":"10","PostalCode":"06658","AdditionalData":[{"value":"España","key":"CountryName"},{"value":"Extremadura","key":"StateName"},{"value":"Badajoz","key":"CountyName"}]},"MapReference":{"ReferenceId":"947218530","Spot":0.0,"SideOfStreet":"left","CountryId":"20215059","StateId":"20226788","CountyId":"20226789","CityId":"20274344","AddressId":"782326868","RoadLinkId":"295013850"}}},{"Relevance":1.0,"Distance":59.4,"MatchLevel":"houseNumber","MatchQuality":{"Country":1.0,"State":1.0,"County":1.0,"City":1.0,"Street":[1.0],"HouseNumber":1.0,"PostalCode":1.0},"MatchType":"interpolated","Location":{"LocationId":"NT_lkG.BwNBu5glWGL-SuNblB_l_564440353_L_yETM","LocationType":"point","DisplayPosition":{"Latitude":38.98999,"Longitude":-4.94588},"MapView":{"TopLeft":{"Latitude":38.9911142,"Longitude":-4.9473263},"BottomRight":{"Latitude":38.9888659,"Longitude":-4.9444337}},"Address":{"Label":"Tamurejo, 211, 06658 Tamurejo (Badajoz), España","Country":"ESP","State":"Extremadura","County":"Badajoz","City":"Tamurejo","Street":"Tamurejo","HouseNumber":"211","PostalCode":"06658","AdditionalData":[{"value":"España","key":"CountryName"},{"value":"Extremadura","key":"StateName"},{"value":"Badajoz","key":"CountyName"}]},"MapReference":{"ReferenceId":"564440353","Spot":0.0,"SideOfStreet":"left","CountryId":"20215059","StateId":"20226788","CountyId":"20226789","CityId":"20274344"}}},{"Relevance":1.0,"Distance":61.3,"MatchLevel":"houseNumber","MatchQuality":{"Country":1.0,"State":1.0,"County":1.0,"City":1.0,"Street":[1.0],"HouseNumber":1.0,"PostalCode":1.0},"MatchType":"interpolated","Location":{"LocationId":"NT_CXwt28kcVecfeoDrrJ63KA_yA","LocationType":"point","DisplayPosition":{"Latitude":38.98996,"Longitude":-4.94585},"MapView":{"TopLeft":{"Latitude":38.9910842,"Longitude":-4.9472963},"BottomRight":{"Latitude":38.9888358,"Longitude":-4.9444037}},"Address":{"Label":"Calle Ronda, 2, 06658 Tamurejo (Badajoz), España","Country":"ESP","State":"Extremadura","County":"Badajoz","City":"Tamurejo","Street":"Calle Ronda","HouseNumber":"2","PostalCode":"06658","AdditionalData":[{"value":"España","key":"CountryName"},{"value":"Extremadura","key":"StateName"},{"value":"Badajoz","key":"CountyName"}]},"MapReference":{"ReferenceId":"947216425","Spot":0.46,"SideOfStreet":"left","CountryId":"20215059","StateId":"20226788","CountyId":"20226789","CityId":"20274344","AddressId":"703077192","RoadLinkId":"295012802"}}},{"Relevance":1.0,"Distance":67.2,"MatchLevel":"street","MatchQuality":{"Country":1.0,"State":1.0,"County":1.0,"City":1.0,"Street":[1.0],"PostalCode":1.0},"Location":{"LocationId":"NT_Aa37quhoE7uBFtIUcgW6EC_l_564440355_R","LocationType":"point","DisplayPosition":{"Latitude":38.98999,"Longitude":-4.94588},"MapView":{"TopLeft":{"Latitude":38.98999,"Longitude":-4.94607},"BottomRight":{"Latitude":38.98997,"Longitude":-4.94588}},"Address":{"Label":"Carretera Ronda de la Siberia, 06658 Tamurejo (Badajoz), España","Country":"ESP","State":"Extremadura","County":"Badajoz","City":"Tamurejo","Street":"Carretera Ronda de la Siberia","PostalCode":"06658","AdditionalData":[{"value":"España","key":"CountryName"},{"value":"Extremadura","key":"StateName"},{"value":"Badajoz","key":"CountyName"}]},"MapReference":{"ReferenceId":"564440355","Spot":1.0,"SideOfStreet":"right","CountryId":"20215059","StateId":"20226788","CountyId":"20226789","CityId":"20274344"}}}]}]}}