{"Response":{"MetaInfo":{"Timestamp":"2020-03-28T09:39:49.711+0000","NextPageInformation":"2"},"View":[{"_type":"SearchResultsViewType","ViewId":0,"Result":[{"Relevance":1.0,"Distance":0.0,"Direction":0.0,"MatchLevel":"city","MatchQuality":{"Country":1.0,"State":1.0,"County":1.0,"City":1.0,"PostalCode":1.0},"Location":{"LocationId":"NT_OctU1zozO5rT5h5sla8VYC","LocationType":"point","DisplayPosition":{"Latitude":38.9479448,"Longitude":-2.3514592},"MapView":{"TopLeft":{"Latitude":39.0712,"Longitude":-2.45331},"BottomRight":{"Latitude":38.84131,"Longitude":-2.14994}},"Address":{"Label":"Lezuza, Castilla-La Mancha, España","Country":"ESP","State":"Castilla-La Mancha","County":"Albacete","City":"Lezuza","PostalCode":"02160","AdditionalData":[{"value":"España","key":"CountryName"},{"value":"Castilla-La Mancha","key":"StateName"},{"value":"Albacete","key":"CountyName"}]},"MapReference":{"ReferenceId":"1219233322","SideOfStreet":"neither","CountryId":"20215059","StateId":"20221903","CountyId":"20221904","CityId":"20293940"}}},{"Relevance":1.0,"Distance":5.5,"MatchLevel":"houseNumber","MatchQuality":{"Country":1.0,"State":1.0,"County":1.0,"City":1.0,"Street":[1.0],"HouseNumber":1.0,"PostalCode":1.0},"MatchType":"interpolated","Location":{"LocationId":"NT_qOGQoP8hu3iNK1PO19SS2A_zA","LocationType":"point","DisplayPosition":{"Latitude":38.9479,"Longitude":-2.35152},"MapView":{"TopLeft":{"Latitude":38.9490242,"Longitude":-2.3529654},"BottomRight":{"Latitude":38.9467758,"Longitude":-2.3500746}},"Address":{"Label":"Avenida del Rey, 3, 02160 Lezuza (Albacete), España","Country":"ESP","State":"Castilla-La Mancha","County":"Albacete","City":"Lezuza","Street":"Avenida del Rey","HouseNumber":"3","PostalCode":"02160","AdditionalData":[{"value":"España","key":"CountryName"},{"value":"Castilla-La Mancha","key":"StateName"},{"value":"Albacete","key":"CountyName"}]},"MapReference":{"ReferenceId":"1219641492","Spot":0.06,"SideOfStreet":"right","CountryId":"20215059","StateId":"20221903","CountyId":"20221904","CityId":"20293940","AddressId":"348283269","RoadLinkId":"536598530"}}},{"Relevance":1.0,"Distance":27.4,"MatchLevel":"houseNumber","MatchQuality":{"Country":1.0,"State":1.0,"County":1.0,"City":1.0,"Street":[1.0],"HouseNumber":1.0,"PostalCode":1.0},"MatchType":"interpolated","Location":{"LocationId":"NT_u5iW3EIC8-lKlA.TsAm-rB_zAD","LocationType":"point","DisplayPosition":{"Latitude":38.9482,"Longitude":-2.35131},"MapView":{"TopLeft":{"Latitude":38.9493242,"Longitude":-2.3527555},"BottomRight":{"Latitude":38.9470758,"Longitude":-2.3498645}},"Address":{"Label":"Calle Nueva, 30, 02160 Lezuza (Albacete), España","Country":"ESP","State":"Castilla-La Mancha","County":"Albacete","City":"Lezuza","Street":"Calle Nueva","HouseNumber":"30","PostalCode":"02160","AdditionalData":[{"value":"España","key":"CountryName"},{"value":"Castilla-La Mancha","key":"StateName"},{"value":"Albacete","key":"CountyName"}]},"MapReference":{"ReferenceId":"570695141","Spot":0.79,"SideOfStreet":"left","CountryId":"20215059","StateId":"20221903","CountyId":"20221904","CityId":"20293940","AddressId":"348226458","RoadLinkId":"66279873"}}},{"Relevance":1.0,"Distance":38.2,"MatchLevel":"houseNumber","MatchQuality":{"Country":1.0,"State":1.0,"County":1.0,"City":1.0,"Street":[1.0],"HouseNumber":1.0,"PostalCode":1.0},"MatchType":"interpolated","Location":{"LocationId":"NT_u5iW3EIC8-lKlA.TsAm-rB_ygD","LocationType":"point","DisplayPosition":{"Latitude":38.9483,"Longitude":-2.35158},"MapView":{"TopLeft":{"Latitude":38.9494242,"Longitude":-2.3530255},"BottomRight":{"Latitude":38.9471758,"Longitude":-2.3501345}},"Address":{"Label":"Calle Nueva, 28, 02160 Lezuza (Albacete), España","Country":"ESP","State":"Castilla-La Mancha","County":"Albacete","City":"Lezuza","Street":"Calle Nueva","HouseNumber":"28","PostalCode":"02160","AdditionalData":[{"value":"España","key":"CountryName"},{"value":"Castilla-La Mancha","key":"StateName"},{"value":"Albacete","key":"CountyName"}]},"MapReference":{"ReferenceId":"1164804717","Spot":0.3,"SideOfStreet":"left","CountryId":"20215059","StateId":"20221903","CountyId":"20221904","CityId":"20293940","AddressId":"348267781","RoadLinkId":"471153556"}}},{"Relevance":1.0,"Distance":46.6,"MatchLevel":"houseNumber","MatchQuality":{"Country":1.0,"State":1.0,"County":1.0,"City":1.0,"Street":[1.0],"HouseNumber":1.0,"PostalCode":1.0},"MatchType":"interpolated","Location":{"LocationId":"NT_qOGQoP8hu3iNK1PO19SS2A_xYDR","LocationType":"point","DisplayPosition":{"Latitude":38.94795,"Longitude":-2.35092},"MapView":{"TopLeft":{"Latitude":38.9490742,"Longitude":-2.3523655},"BottomRight":{"Latitude":38.9468258,"Longitude":-2.3494745}},"Address":{"Label":"Avenida del Rey, 16D, 02160 Lezuza (Albacete), España","Country":"ESP","State":"Castilla-La Mancha","County":"Albacete","City":"Lezuza","Street":"Avenida del Rey","HouseNumber":"16D","PostalCode":"02160","AdditionalData":[{"value":"España","key":"CountryName"},{"value":"Castilla-La Mancha","key":"StateName"},{"value":"Albacete","key":"CountyName"}]},"MapReference":{"ReferenceId":"1219641491","Spot":0.66,"SideOfStreet":"right","CountryId":"20215059","StateId":"20221903","CountyId":"20221904","CityId":"20293940","AddressId":"348283271","RoadLinkId":"536598529"}}},{"Relevance":1.0,"Distance":48.5,"MatchLevel":"houseNumber","MatchQuality":{"Country":1.0,"State":1.0,"County":1.0,"City":1.0,"Street":[1.0],"HouseNumber":1.0,"PostalCode":1.0},"MatchType":"interpolated","Location":{"LocationId":"NT_DzjaUFZQIInzCClETOK7ID_yMD","LocationType":"point","DisplayPosition":{"Latitude":38.94838,"Longitude":-2.35149},"MapView":{"TopLeft":{"Latitude":38.9495042,"Longitude":-2.3529355},"BottomRight":{"Latitude":38.9472558,"Longitude":-2.3500445}},"Address":{"Label":"Calle Murillo, 23, 02160 Lezuza (Albacete), España","Country":"ESP","State":"Castilla-La Mancha","County":"Albacete","City":"Lezuza","Street":"Calle Murillo","HouseNumber":"23","PostalCode":"02160","AdditionalData":[{"value":"España","key":"CountryName"},{"value":"Castilla-La Mancha","key":"StateName"},{"value":"Albacete","key":"CountyName"}]},"MapReference":{"ReferenceId":"1164804715","Spot":0.46,"SideOfStreet":"right","CountryId":"20215059","StateId":"20221903","CountyId":"20221904","CityId":"20293940","AddressId":"348267771","RoadLinkId":"471153554"}}},{"Relevance":1.0,"Distance":51.5,"MatchLevel":"houseNumber","MatchQuality":{"Country":1.0,"State":1.0,"County":1.0,"City":1.0,"Street":[1.0],"HouseNumber":1.0,"PostalCode":1.0},"MatchType":"interpolated","Location":{"LocationId":"NT_kGTlGvYa18l9W2pIBLRnbB_xA","LocationType":"point","DisplayPosition":{"Latitude":38.94825,"Longitude":-2.35093},"MapView":{"TopLeft":{"Latitude":38.9493742,"Longitude":-2.3523755},"BottomRight":{"Latitude":38.9471258,"Longitude":-2.3494845}},"Address":{"Label":"Calle Los Pinos, 1, 02160 Lezuza (Albacete), España","Country":"ESP","State":"Castilla-La Mancha","County":"Albacete","City":"Lezuza","Street":"Calle Los Pinos","HouseNumber":"1","PostalCode":"02160","AdditionalData":[{"value":"España","key":"CountryName"},{"value":"Castilla-La Mancha","key":"StateName"},{"value":"Albacete","key":"CountyName"}]},"MapReference":{"ReferenceId":"570727516","Spot":0.14,"SideOfStreet":"left","CountryId":"20215059","StateId":"20221903","CountyId":"20221904","CityId":"20293940","AddressId":"348168307","RoadLinkId":"66457650"}}},{"Relevance":1.0,"Distance":52.9,"MatchLevel":"street","MatchQuality":{"Country":1.0,"State":1.0,"County":1.0,"City":1.0,"Street":[1.0],"PostalCode":1.0},"Location":{"LocationId":"NT_u5iW3EIC8-lKlA.TsAm-rB_l_570695161_L","LocationType":"point","DisplayPosition":{"Latitude":38.94804,"Longitude":-2.35086},"MapView":{"TopLeft":{"Latitude":38.94804,"Longitude":-2.35086},"BottomRight":{"Latitude":38.948,"Longitude":-2.35061}},"Address":{"Label":"Calle Nueva, 02160 Lezuza (Albacete), España","Country":"ESP","State":"Castilla-La Mancha","County":"Albacete","City":"Lezuza","Street":"Calle Nueva","PostalCode":"02160","AdditionalData":[{"value":"España","key":"CountryName"},{"value":"Castilla-La Mancha","key":"StateName"},{"value":"Albacete","key":"CountyName"}]},"MapReference":{"ReferenceId":"570695161","Spot":1.0,"SideOfStreet":"left","CountryId":"20215059","StateId":"20221903","CountyId":"20221904","CityId":"20293940"}}},{"Relevance":1.0,"Distance":63.5,"MatchLevel":"houseNumber","MatchQuality":{"Country":1.0,"State":1.0,"County":1.0,"City":1.0,"Street":[1.0],"HouseNumber":1.0,"PostalCode":1.0},"MatchType":"interpolated","Location":{"LocationId":"NT_u5iW3EIC8-lKlA.TsAm-rB_xcD","LocationType":"point","DisplayPosition":{"Latitude":38.9485,"Longitude":-2.35163},"MapView":{"TopLeft":{"Latitude":38.9496242,"Longitude":-2.3530755},"BottomRight":{"Latitude":38.9473758,"Longitude":-2.3501845}},"Address":{"Label":"Calle Nueva, 17, 02160 Lezuza (Albacete), España","Country":"ESP","State":"Castilla-La Mancha","County":"Albacete","City":"Lezuza","Street":"Calle Nueva","HouseNumber":"17","PostalCode":"02160","AdditionalData":[{"value":"España","key":"CountryName"},{"value":"Castilla-La Mancha","key":"StateName"},{"value":"Albacete","key":"CountyName"}]},"MapReference":{"ReferenceId":"1164804719","Spot":0.82,"SideOfStreet":"left","CountryId":"20215059","StateId":"20221903","CountyId":"20221904","CityId":"20293940","AddressId":"348267779","RoadLinkId":"471153558"}}},{"Relevance":1.0,"Distance":67.8,"MatchLevel":"houseNumber","MatchQuality":{"Country":1.0,"State":1.0,"County":1.0,"City":1.0,"Street":[1.0],"HouseNumber":1.0,"PostalCode":1.0},"MatchType":"interpolated","Location":{"LocationId":"NT_u5iW3EIC8-lKlA.TsAm-rB_yQD","LocationType":"point","DisplayPosition":{"Latitude":38.94843,"Longitude":-2.35196},"MapView":{"TopLeft":{"Latitude":38.9495542,"Longitude":-2.3534055},"BottomRight":{"Latitude":38.9473058,"Longitude":-2.3505145}},"Address":{"Label":"Calle Nueva, 24, 02160 Lezuza (Albacete), España","Country":"ESP","State":"Castilla-La Mancha","County":"Albacete","City":"Lezuza","Street":"Calle Nueva","HouseNumber":"24","PostalCode":"02160","AdditionalData":[{"value":"España","key":"CountryName"},{"value":"Castilla-La Mancha","key":"StateName"},{"value":"Albacete","key":"CountyName"}]},"MapReference":{"ReferenceId":"1164804718","Spot":0.06,"SideOfStreet":"left","CountryId":"20215059","StateId":"20221903","CountyId":"20221904","CityId":"20293940","AddressId":"348267772","RoadLinkId":"471153557"}}}]}]}}