{"Response":{"MetaInfo":{"Timestamp":"2020-03-28T11:04:16.013+0000","NextPageInformation":"2"},"View":[{"_type":"SearchResultsViewType","ViewId":0,"Result":[{"Relevance":1.0,"Distance":0.0,"Direction":0.0,"MatchLevel":"city","MatchQuality":{"Country":1.0,"State":1.0,"County":1.0,"City":1.0,"PostalCode":1.0},"Location":{"LocationId":"NT_me5aetfd5AvlKqMSIDcv.C","LocationType":"point","DisplayPosition":{"Latitude":38.9730681,"Longitude":-5.795467},"MapView":{"TopLeft":{"Latitude":39.07009,"Longitude":-5.81661},"BottomRight":{"Latitude":38.92329,"Longitude":-5.63097}},"Address":{"Label":"Villanueva de la Serena, Extremadura, España","Country":"ESP","State":"Extremadura","County":"Badajoz","City":"Villanueva de la Serena","PostalCode":"06700","AdditionalData":[{"value":"España","key":"CountryName"},{"value":"Extremadura","key":"StateName"},{"value":"Badajoz","key":"CountyName"}]},"MapReference":{"ReferenceId":"537498660","SideOfStreet":"neither","CountryId":"20215059","StateId":"20226788","CountyId":"20226789","CityId":"20274419"}}},{"Relevance":1.0,"Distance":20.1,"MatchLevel":"houseNumber","MatchQuality":{"Country":1.0,"State":1.0,"County":1.0,"City":1.0,"Street":[1.0],"HouseNumber":1.0,"PostalCode":1.0},"MatchType":"interpolated","Location":{"LocationId":"NT_hOk5C9ytKzDH8.EL-Ps6-C_yID","LocationType":"point","DisplayPosition":{"Latitude":38.97303,"Longitude":-5.7957},"MapView":{"TopLeft":{"Latitude":38.9741542,"Longitude":-5.797146},"BottomRight":{"Latitude":38.9719058,"Longitude":-5.794254}},"Address":{"Label":"Calle Concepción, 22, 06700 Villanueva de la Serena (Badajoz), España","Country":"ESP","State":"Extremadura","County":"Badajoz","City":"Villanueva de la Serena","Street":"Calle Concepción","HouseNumber":"22","PostalCode":"06700","AdditionalData":[{"value":"España","key":"CountryName"},{"value":"Extremadura","key":"StateName"},{"value":"Badajoz","key":"CountyName"}]},"MapReference":{"ReferenceId":"539586718","Spot":0.36,"SideOfStreet":"right","CountryId":"20215059","StateId":"20226788","CountyId":"20226789","CityId":"20274419","AddressId":"350853646","RoadLinkId":"67430764"}}},{"Relevance":1.0,"Distance":44.1,"MatchLevel":"houseNumber","MatchQuality":{"Country":1.0,"State":1.0,"County":1.0,"City":1.0,"Street":[1.0],"HouseNumber":1.0,"PostalCode":1.0},"MatchType":"interpolated","Location":{"LocationId":"NT_vx5jixBjHMGKCNrFKy1O.C_zMD","LocationType":"point","DisplayPosition":{"Latitude":38.97346,"Longitude":-5.79539},"MapView":{"TopLeft":{"Latitude":38.9745842,"Longitude":-5.796836},"BottomRight":{"Latitude":38.9723358,"Longitude":-5.793944}},"Address":{"Label":"Calle San Francisco, 33, 06700 Villanueva de la Serena (Badajoz), España","Country":"ESP","State":"Extremadura","County":"Badajoz","City":"Villanueva de la Serena","Street":"Calle San Francisco","HouseNumber":"33","PostalCode":"06700","AdditionalData":[{"value":"España","key":"CountryName"},{"value":"Extremadura","key":"StateName"},{"value":"Badajoz","key":"CountyName"}]},"MapReference":{"ReferenceId":"539586583","Spot":0.0,"SideOfStreet":"right","CountryId":"20215059","StateId":"20226788","CountyId":"20226789","CityId":"20274419","AddressId":"350855479","RoadLinkId":"67675132"}}},{"Relevance":1.0,"Distance":47.7,"MatchLevel":"houseNumber","MatchQuality":{"Country":1.0,"State":1.0,"County":1.0,"City":1.0,"Street":[1.0],"HouseNumber":1.0,"PostalCode":1.0},"MatchType":"interpolated","Location":{"LocationId":"NT_vx5jixBjHMGKCNrFKy1O.C_xgD","LocationType":"point","DisplayPosition":{"Latitude":38.97335,"Longitude":-5.79495},"MapView":{"TopLeft":{"Latitude":38.9744742,"Longitude":-5.796396},"BottomRight":{"Latitude":38.9722258,"Longitude":-5.793504}},"Address":{"Label":"Calle San Francisco, 18, 06700 Villanueva de la Serena (Badajoz), España","Country":"ESP","State":"Extremadura","County":"Badajoz","City":"Villanueva de la Serena","Street":"Calle San Francisco","HouseNumber":"18","PostalCode":"06700","AdditionalData":[{"value":"España","key":"CountryName"},{"value":"Extremadura","key":"StateName"},{"value":"Badajoz","key":"CountyName"}]},"MapReference":{"ReferenceId":"539586657","Spot":0.34,"SideOfStreet":"left","CountryId":"20215059","StateId":"20226788","CountyId":"20226789","CityId":"20274419","AddressId":"350569732","RoadLinkId":"66652590"}}},{"Relevance":1.0,"Distance":50.0,"MatchLevel":"houseNumber","MatchQuality":{"Country":1.0,"State":1.0,"County":1.0,"City":1.0,"Street":[1.0],"HouseNumber":1.0,"PostalCode":1.0},"MatchType":"interpolated","Location":{"LocationId":"NT_vx5jixBjHMGKCNrFKy1O.C_xYD","LocationType":"point","DisplayPosition":{"Latitude":38.97355,"Longitude":-5.79572},"MapView":{"TopLeft":{"Latitude":38.9746742,"Longitude":-5.797166},"BottomRight":{"Latitude":38.9724258,"Longitude":-5.794274}},"Address":{"Label":"Calle San Francisco, 16, 06700 Villanueva de la Serena (Badajoz), España","Country":"ESP","State":"Extremadura","County":"Badajoz","City":"Villanueva de la Serena","Street":"Calle San Francisco","HouseNumber":"16","PostalCode":"06700","AdditionalData":[{"value":"España","key":"CountryName"},{"value":"Extremadura","key":"StateName"},{"value":"Badajoz","key":"CountyName"}]},"MapReference":{"ReferenceId":"539586501","Spot":0.04,"SideOfStreet":"left","CountryId":"20215059","StateId":"20226788","CountyId":"20226789","CityId":"20274419","AddressId":"350675626","RoadLinkId":"66880322"}}},{"Relevance":1.0,"Distance":59.5,"MatchLevel":"houseNumber","MatchQuality":{"Country":1.0,"State":1.0,"County":1.0,"City":1.0,"Street":[1.0],"HouseNumber":1.0,"PostalCode":1.0},"MatchType":"interpolated","Location":{"LocationId":"NT_hOk5C9ytKzDH8.EL-Ps6-C_xQD","LocationType":"point","DisplayPosition":{"Latitude":38.97281,"Longitude":-5.79606},"MapView":{"TopLeft":{"Latitude":38.9739342,"Longitude":-5.797506},"BottomRight":{"Latitude":38.9716858,"Longitude":-5.794614}},"Address":{"Label":"Calle Concepción, 14, 06700 Villanueva de la Serena (Badajoz), España","Country":"ESP","State":"Extremadura","County":"Badajoz","City":"Villanueva de la Serena","Street":"Calle Concepción","HouseNumber":"14","PostalCode":"06700","AdditionalData":[{"value":"España","key":"CountryName"},{"value":"Extremadura","key":"StateName"},{"value":"Badajoz","key":"CountyName"}]},"MapReference":{"ReferenceId":"539586700","Spot":0.84,"SideOfStreet":"right","CountryId":"20215059","StateId":"20226788","CountyId":"20226789","CityId":"20274419","AddressId":"350828701","RoadLinkId":"66637874"}}},{"Relevance":1.0,"Distance":62.9,"MatchLevel":"houseNumber","MatchQuality":{"Country":1.0,"State":1.0,"County":1.0,"City":1.0,"Street":[1.0],"HouseNumber":1.0,"PostalCode":1.0},"MatchType":"interpolated","Location":{"LocationId":"NT_axjBVQUB9bMiFm7DfqZMyD_zA","LocationType":"point","DisplayPosition":{"Latitude":38.97251,"Longitude":-5.79572},"MapView":{"TopLeft":{"Latitude":38.9736342,"Longitude":-5.797166},"BottomRight":{"Latitude":38.9713858,"Longitude":-5.794274}},"Address":{"Label":"Calle Colón, 3, 06700 Villanueva de la Serena (Badajoz), España","Country":"ESP","State":"Extremadura","County":"Badajoz","City":"Villanueva de la Serena","Street":"Calle Colón","HouseNumber":"3","PostalCode":"06700","AdditionalData":[{"value":"España","key":"CountryName"},{"value":"Extremadura","key":"StateName"},{"value":"Badajoz","key":"CountyName"}]},"MapReference":{"ReferenceId":"539586500","Spot":0.55,"SideOfStreet":"right","CountryId":"20215059","StateId":"20226788","CountyId":"20226789","CityId":"20274419","AddressId":"350555553","RoadLinkId":"67690541"}}},{"Relevance":1.0,"Distance":77.5,"MatchLevel":"houseNumber","MatchQuality":{"Country":1.0,"State":1.0,"County":1.0,"City":1.0,"Street":[1.0],"HouseNumber":1.0,"PostalCode":1.0},"MatchType":"interpolated","Location":{"LocationId":"NT_vx5jixBjHMGKCNrFKy1O.C_yID","LocationType":"point","DisplayPosition":{"Latitude":38.97325,"Longitude":-5.79454},"MapView":{"TopLeft":{"Latitude":38.9743742,"Longitude":-5.795986},"BottomRight":{"Latitude":38.9721258,"Longitude":-5.793094}},"Address":{"Label":"Calle San Francisco, 22, 06700 Villanueva de la Serena (Badajoz), España","Country":"ESP","State":"Extremadura","County":"Badajoz","City":"Villanueva de la Serena","Street":"Calle San Francisco","HouseNumber":"22","PostalCode":"06700","AdditionalData":[{"value":"España","key":"CountryName"},{"value":"Extremadura","key":"StateName"},{"value":"Badajoz","key":"CountyName"}]},"MapReference":{"ReferenceId":"539586656","Spot":0.82,"SideOfStreet":"left","CountryId":"20215059","StateId":"20226788","CountyId":"20226789","CityId":"20274419","AddressId":"350653133","RoadLinkId":"66732659"}}},{"Relevance":1.0,"Distance":80.5,"MatchLevel":"houseNumber","MatchQuality":{"Country":1.0,"State":1.0,"County":1.0,"City":1.0,"Street":[1.0],"HouseNumber":1.0,"PostalCode":1.0},"MatchType":"interpolated","Location":{"LocationId":"NT_lK-yxGmITxnJNnS9WDjtiC_0A","LocationType":"point","DisplayPosition":{"Latitude":38.97381,"Longitude":-5.79559},"MapView":{"TopLeft":{"Latitude":38.9749342,"Longitude":-5.797036},"BottomRight":{"Latitude":38.9726858,"Longitude":-5.794144}},"Address":{"Label":"Calle Olivar, 4, 06700 Villanueva de la Serena (Badajoz), España","Country":"ESP","State":"Extremadura","County":"Badajoz","City":"Villanueva de la Serena","Street":"Calle Olivar","HouseNumber":"4","PostalCode":"06700","AdditionalData":[{"value":"España","key":"CountryName"},{"value":"Extremadura","key":"StateName"},{"value":"Badajoz","key":"CountyName"}]},"MapReference":{"ReferenceId":"539586491","Spot":0.29,"SideOfStreet":"right","CountryId":"20215059","StateId":"20226788","CountyId":"20226789","CityId":"20274419","AddressId":"350834772","RoadLinkId":"66731594"}}},{"Relevance":1.0,"Distance":83.9,"MatchLevel":"houseNumber","MatchQuality":{"Country":1.0,"State":1.0,"County":1.0,"City":1.0,"Street":[1.0],"HouseNumber":1.0,"PostalCode":1.0},"MatchType":"interpolated","Location":{"LocationId":"NT_l8A8w6Wx9J.SZQrdJEKpiB_xA","LocationType":"point","DisplayPosition":{"Latitude":38.97353,"Longitude":-5.79465},"MapView":{"TopLeft":{"Latitude":38.9746542,"Longitude":-5.796096},"BottomRight":{"Latitude":38.9724058,"Longitude":-5.793204}},"Address":{"Label":"Calle Herrera, 1, 06700 Villanueva de la Serena (Badajoz), España","Country":"ESP","State":"Extremadura","County":"Badajoz","City":"Villanueva de la Serena","Street":"Calle Herrera","HouseNumber":"1","PostalCode":"06700","AdditionalData":[{"value":"España","key":"CountryName"},{"value":"Extremadura","key":"StateName"},{"value":"Badajoz","key":"CountyName"}]},"MapReference":{"ReferenceId":"539586646","Spot":0.19,"SideOfStreet":"left","CountryId":"20215059","StateId":"20226788","CountyId":"20226789","CityId":"20274419","AddressId":"350534363","RoadLinkId":"67678882"}}}]}]}}