{"Response":{"MetaInfo":{"Timestamp":"2020-03-28T09:41:53.093+0000","NextPageInformation":"2"},"View":[{"_type":"SearchResultsViewType","ViewId":0,"Result":[{"Relevance":1.0,"Distance":0.0,"Direction":0.0,"MatchLevel":"district","MatchQuality":{"Country":1.0,"State":1.0,"County":1.0,"City":1.0,"District":1.0,"PostalCode":1.0},"Location":{"LocationId":"NT_kJHcdAVHLrE0tDuBQ2XGcC","LocationType":"point","DisplayPosition":{"Latitude":38.9905441,"Longitude":-0.1628422},"MapView":{"TopLeft":{"Latitude":39.02157,"Longitude":-0.18189},"BottomRight":{"Latitude":38.98586,"Longitude":-0.1443}},"Address":{"Label":"Grau de Gandia, Gandia, Comunitat Valenciana, Espanya","Country":"ESP","State":"Comunitat Valenciana","County":"València","City":"Gandia","District":"Grau de Gandia","PostalCode":"46730","AdditionalData":[{"value":"Espanya","key":"CountryName"},{"value":"Comunitat Valenciana","key":"StateName"},{"value":"València","key":"CountyName"}]},"MapReference":{"ReferenceId":"763565630","SideOfStreet":"neither","CountryId":"20215059","StateId":"20226784","CountyId":"20226787","CityId":"20250222","DistrictId":"20498999"}}},{"Relevance":1.0,"Distance":36.5,"MatchLevel":"houseNumber","MatchQuality":{"Country":1.0,"State":1.0,"County":1.0,"City":1.0,"District":1.0,"Street":[1.0],"HouseNumber":1.0,"PostalCode":1.0},"MatchType":"interpolated","Location":{"LocationId":"NT_V7qnhDMVfL0enelzAs6T5A_l_1027770470_L_xUD","LocationType":"point","DisplayPosition":{"Latitude":38.9909776,"Longitude":-0.1626345},"MapView":{"TopLeft":{"Latitude":38.9921018,"Longitude":-0.1640808},"BottomRight":{"Latitude":38.9898535,"Longitude":-0.1611881}},"Address":{"Label":"Calle Goleta, 15, 46730 Gandia (Valencia), Espanya","Country":"ESP","State":"Comunidad Valenciana","County":"Valencia","City":"Gandia","District":"Grau de Gandia","Street":"Calle Goleta","HouseNumber":"15","PostalCode":"46730","AdditionalData":[{"value":"Espanya","key":"CountryName"},{"value":"Comunidad Valenciana","key":"StateName"},{"value":"Valencia","key":"CountyName"}]},"MapReference":{"ReferenceId":"1027770470","Spot":0.54,"SideOfStreet":"left","CountryId":"20215059","StateId":"20226784","CountyId":"20226787","CityId":"20250222","DistrictId":"20498999"}}},{"Relevance":1.0,"Distance":38.6,"MatchLevel":"houseNumber","MatchQuality":{"Country":1.0,"State":1.0,"County":1.0,"City":1.0,"District":1.0,"Street":[1.0],"HouseNumber":1.0,"PostalCode":1.0},"MatchType":"interpolated","Location":{"LocationId":"NT_6MRtk4WkhrlwuyKRqzXWxB_l_830440636_L_xMD","LocationType":"point","DisplayPosition":{"Latitude":38.9908201,"Longitude":-0.1623687},"MapView":{"TopLeft":{"Latitude":38.9919443,"Longitude":-0.163815},"BottomRight":{"Latitude":38.989696,"Longitude":-0.1609224}},"Address":{"Label":"Calle Goleta, 13, 46730 Gandia (Valencia), Espanya","Country":"ESP","State":"Comunidad Valenciana","County":"Valencia","City":"Gandia","District":"Grau de Gandia","Street":"Calle Goleta","HouseNumber":"13","PostalCode":"46730","AdditionalData":[{"value":"Espanya","key":"CountryName"},{"value":"Comunidad Valenciana","key":"StateName"},{"value":"Valencia","key":"CountyName"}]},"MapReference":{"ReferenceId":"830440636","Spot":0.54,"SideOfStreet":"left","CountryId":"20215059","StateId":"20226784","CountyId":"20226787","CityId":"20250222","DistrictId":"20498999"}}},{"Relevance":1.0,"Distance":45.0,"MatchLevel":"street","MatchQuality":{"Country":1.0,"State":1.0,"County":1.0,"City":1.0,"District":1.0,"Street":[1.0],"PostalCode":1.0},"Location":{"LocationId":"NT_Tb7aNATJ0lF5wYBmd2fUdD_l_830440637_L","LocationType":"point","DisplayPosition":{"Latitude":38.9901849,"Longitude":-0.1626027},"MapView":{"TopLeft":{"Latitude":38.99039,"Longitude":-0.16352},"BottomRight":{"Latitude":38.98943,"Longitude":-0.16226}},"Address":{"Label":"Avenida de Europa, 46730 Gandia (Valencia), Espanya","Country":"ESP","State":"Comunidad Valenciana","County":"Valencia","City":"Gandia","District":"Grau de Gandia","Street":"Avenida de Europa","PostalCode":"46730","AdditionalData":[{"value":"Espanya","key":"CountryName"},{"value":"Comunidad Valenciana","key":"StateName"},{"value":"Valencia","key":"CountyName"}]},"MapReference":{"ReferenceId":"830440637","Spot":0.75,"SideOfStreet":"left","CountryId":"20215059","StateId":"20226784","CountyId":"20226787","CityId":"20250222","DistrictId":"20498999"}}},{"Relevance":1.0,"Distance":49.6,"MatchLevel":"houseNumber","MatchQuality":{"Country":1.0,"State":1.0,"County":1.0,"City":1.0,"District":1.0,"Street":[1.0],"HouseNumber":1.0,"PostalCode":1.0},"MatchType":"interpolated","Location":{"LocationId":"NT_V7qnhDMVfL0enelzAs6T5A_l_830440649_L_xED","LocationType":"point","DisplayPosition":{"Latitude":38.9907305,"Longitude":-0.1622111},"MapView":{"TopLeft":{"Latitude":38.9918547,"Longitude":-0.1636574},"BottomRight":{"Latitude":38.9896064,"Longitude":-0.1607648}},"Address":{"Label":"Calle Goleta, 11, 46730 Gandia (Valencia), Espanya","Country":"ESP","State":"Comunidad Valenciana","County":"Valencia","City":"Gandia","District":"Grau de Gandia","Street":"Calle Goleta","HouseNumber":"11","PostalCode":"46730","AdditionalData":[{"value":"Espanya","key":"CountryName"},{"value":"Comunidad Valenciana","key":"StateName"},{"value":"Valencia","key":"CountyName"}]},"MapReference":{"ReferenceId":"830440649","Spot":0.51,"SideOfStreet":"left","CountryId":"20215059","StateId":"20226784","CountyId":"20226787","CityId":"20250222","DistrictId":"20498999"}}},{"Relevance":1.0,"Distance":49.9,"MatchLevel":"street","MatchQuality":{"Country":1.0,"State":1.0,"County":1.0,"City":1.0,"District":1.0,"Street":[1.0],"PostalCode":1.0},"Location":{"LocationId":"NT_V7qnhDMVfL0enelzAs6T5A_l_1027770469_L","LocationType":"point","DisplayPosition":{"Latitude":38.99094,"Longitude":-0.16257},"MapView":{"TopLeft":{"Latitude":38.99094,"Longitude":-0.16257},"BottomRight":{"Latitude":38.99088,"Longitude":-0.16247}},"Address":{"Label":"Calle Goleta, 46730 Gandia (Valencia), Espanya","Country":"ESP","State":"Comunidad Valenciana","County":"Valencia","City":"Gandia","District":"Grau de Gandia","Street":"Calle Goleta","PostalCode":"46730","AdditionalData":[{"value":"Espanya","key":"CountryName"},{"value":"Comunidad Valenciana","key":"StateName"},{"value":"Valencia","key":"CountyName"}]},"MapReference":{"ReferenceId":"1027770469","Spot":1.0,"SideOfStreet":"left","CountryId":"20215059","StateId":"20226784","CountyId":"20226787","CityId":"20250222","DistrictId":"20498999"}}},{"Relevance":1.0,"Distance":53.2,"MatchLevel":"street","MatchQuality":{"Country":1.0,"State":1.0,"County":1.0,"City":1.0,"District":1.0,"PostalCode":1.0},"Location":{"LocationId":"NT_XkRfzZkxZOMggJlr60Ek1A_l_830440647_L","LocationType":"point","DisplayPosition":{"Latitude":38.99039,"Longitude":-0.16226},"MapView":{"TopLeft":{"Latitude":38.99044,"Longitude":-0.16226},"BottomRight":{"Latitude":38.99039,"Longitude":-0.16212}},"Address":{"Label":"46730 Gandia (Valencia), Espanya","Country":"ESP","State":"Comunidad Valenciana","County":"Valencia","City":"Gandia","District":"Grau de Gandia","PostalCode":"46730","AdditionalData":[{"value":"Espanya","key":"CountryName"},{"value":"Comunidad Valenciana","key":"StateName"},{"value":"Valencia","key":"CountyName"}]},"MapReference":{"ReferenceId":"830440647","Spot":0.0,"SideOfStreet":"left","CountryId":"20215059","StateId":"20226784","CountyId":"20226787","CityId":"20250222","DistrictId":"20498999"}}},{"Relevance":1.0,"Distance":53.2,"MatchLevel":"street","MatchQuality":{"Country":1.0,"State":1.0,"County":1.0,"City":1.0,"District":1.0,"PostalCode":1.0},"Location":{"LocationId":"NT_XkRfzZkxZOMggJlr60Ek1A_l_830440638_L","LocationType":"point","DisplayPosition":{"Latitude":38.99039,"Longitude":-0.16226},"MapView":{"TopLeft":{"Latitude":38.99075,"Longitude":-0.16226},"BottomRight":{"Latitude":38.99039,"Longitude":-0.1622}},"Address":{"Label":"46730 Gandia (Valencia), Espanya","Country":"ESP","State":"Comunidad Valenciana","County":"Valencia","City":"Gandia","District":"Grau de Gandia","PostalCode":"46730","AdditionalData":[{"value":"Espanya","key":"CountryName"},{"value":"Comunidad Valenciana","key":"StateName"},{"value":"Valencia","key":"CountyName"}]},"MapReference":{"ReferenceId":"830440638","Spot":0.0,"SideOfStreet":"left","CountryId":"20215059","StateId":"20226784","CountyId":"20226787","CityId":"20250222","DistrictId":"20498999"}}},{"Relevance":1.0,"Distance":54.9,"MatchLevel":"houseNumber","MatchQuality":{"Country":1.0,"State":1.0,"County":1.0,"City":1.0,"District":1.0,"Street":[1.0],"HouseNumber":1.0,"PostalCode":1.0},"MatchType":"interpolated","Location":{"LocationId":"NT_V7qnhDMVfL0enelzAs6T5A_l_830440648_L_5A","LocationType":"point","DisplayPosition":{"Latitude":38.9906501,"Longitude":-0.1621001},"MapView":{"TopLeft":{"Latitude":38.9917742,"Longitude":-0.1635464},"BottomRight":{"Latitude":38.9895259,"Longitude":-0.1606538}},"Address":{"Label":"Calle Goleta, 9, 46730 Gandia (Valencia), Espanya","Country":"ESP","State":"Comunidad Valenciana","County":"Valencia","City":"Gandia","District":"Grau de Gandia","Street":"Calle Goleta","HouseNumber":"9","PostalCode":"46730","AdditionalData":[{"value":"Espanya","key":"CountryName"},{"value":"Comunidad Valenciana","key":"StateName"},{"value":"Valencia","key":"CountyName"}]},"MapReference":{"ReferenceId":"830440648","Spot":0.54,"SideOfStreet":"left","CountryId":"20215059","StateId":"20226784","CountyId":"20226787","CityId":"20250222","DistrictId":"20498999"}}},{"Relevance":1.0,"Distance":60.5,"MatchLevel":"houseNumber","MatchQuality":{"Country":1.0,"State":1.0,"County":1.0,"City":1.0,"District":1.0,"Street":[1.0],"HouseNumber":1.0,"PostalCode":1.0},"MatchType":"interpolated","Location":{"LocationId":"NT_6MRtk4WkhrlwuyKRqzXWxB_l_763565636_L_xcD","LocationType":"point","DisplayPosition":{"Latitude":38.9911783,"Longitude":-0.1629083},"MapView":{"TopLeft":{"Latitude":38.9923025,"Longitude":-0.1643547},"BottomRight":{"Latitude":38.9900542,"Longitude":-0.161462}},"Address":{"Label":"Calle Goleta, 17, 46730 Gandia (Valencia), Espanya","Country":"ESP","State":"Comunidad Valenciana","County":"Valencia","City":"Gandia","District":"Grau de Gandia","Street":"Calle Goleta","HouseNumber":"17","PostalCode":"46730","AdditionalData":[{"value":"Espanya","key":"CountryName"},{"value":"Comunidad Valenciana","key":"StateName"},{"value":"Valencia","key":"CountyName"}]},"MapReference":{"ReferenceId":"763565636","Spot":0.52,"SideOfStreet":"left","CountryId":"20215059","StateId":"20226784","CountyId":"20226787","CityId":"20250222","DistrictId":"20498999"}}}]}]}}