{"Response":{"MetaInfo":{"Timestamp":"2020-03-28T09:41:03.580+0000","NextPageInformation":"2"},"View":[{"_type":"SearchResultsViewType","ViewId":0,"Result":[{"Relevance":1.0,"Distance":0.0,"Direction":0.0,"MatchLevel":"city","MatchQuality":{"Country":1.0,"State":1.0,"County":1.0,"City":1.0,"PostalCode":1.0},"Location":{"LocationId":"NT_S3yCMU.NR6.Ui9DFR9vFHD","LocationType":"point","DisplayPosition":{"Latitude":39.032839,"Longitude":-5.2361711},"MapView":{"TopLeft":{"Latitude":39.33271,"Longitude":-5.34013},"BottomRight":{"Latitude":39.00043,"Longitude":-5.08429}},"Address":{"Label":"Talarrubias, Extremadura, España","Country":"ESP","State":"Extremadura","County":"Badajoz","City":"Talarrubias","PostalCode":"06640","AdditionalData":[{"value":"España","key":"CountryName"},{"value":"Extremadura","key":"StateName"},{"value":"Badajoz","key":"CountyName"}]},"MapReference":{"ReferenceId":"537473306","SideOfStreet":"neither","CountryId":"20215059","StateId":"20226788","CountyId":"20226789","CityId":"20274333"}}},{"Relevance":1.0,"Distance":20.5,"MatchLevel":"houseNumber","MatchQuality":{"Country":1.0,"State":1.0,"County":1.0,"City":1.0,"Street":[1.0],"HouseNumber":1.0,"PostalCode":1.0},"MatchType":"interpolated","Location":{"LocationId":"NT_lDAOWyumGKWEzyfFOYlK9C_xEDO","LocationType":"point","DisplayPosition":{"Latitude":39.03291,"Longitude":-5.23584},"MapView":{"TopLeft":{"Latitude":39.0340342,"Longitude":-5.2372872},"BottomRight":{"Latitude":39.0317858,"Longitude":-5.2343928}},"Address":{"Label":"Avenida de la Constitución, 118, 06640 Talarrubias (Badajoz), España","Country":"ESP","State":"Extremadura","County":"Badajoz","City":"Talarrubias","Street":"Avenida de la Constitución","HouseNumber":"118","PostalCode":"06640","AdditionalData":[{"value":"España","key":"CountryName"},{"value":"Extremadura","key":"StateName"},{"value":"Badajoz","key":"CountyName"}]},"MapReference":{"ReferenceId":"564438036","Spot":1.0,"SideOfStreet":"left","CountryId":"20215059","StateId":"20226788","CountyId":"20226789","CityId":"20274333","AddressId":"350599726","RoadLinkId":"67321890"}}},{"Relevance":1.0,"Distance":30.2,"MatchLevel":"houseNumber","MatchQuality":{"Country":1.0,"State":1.0,"County":1.0,"City":1.0,"Street":[1.0],"HouseNumber":1.0,"PostalCode":1.0},"MatchType":"interpolated","Location":{"LocationId":"NT_lDAOWyumGKWEzyfFOYlK9C_xAzM","LocationType":"point","DisplayPosition":{"Latitude":39.03301,"Longitude":-5.2359},"MapView":{"TopLeft":{"Latitude":39.0341342,"Longitude":-5.2373472},"BottomRight":{"Latitude":39.0318858,"Longitude":-5.2344528}},"Address":{"Label":"Avenida de la Constitución, 103, 06640 Talarrubias (Badajoz), España","Country":"ESP","State":"Extremadura","County":"Badajoz","City":"Talarrubias","Street":"Avenida de la Constitución","HouseNumber":"103","PostalCode":"06640","AdditionalData":[{"value":"España","key":"CountryName"},{"value":"Extremadura","key":"StateName"},{"value":"Badajoz","key":"CountyName"}]},"MapReference":{"ReferenceId":"564438047","Spot":0.16,"SideOfStreet":"right","CountryId":"20215059","StateId":"20226788","CountyId":"20226789","CityId":"20274333","AddressId":"350841685","RoadLinkId":"66667320"}}},{"Relevance":1.0,"Distance":41.4,"MatchLevel":"houseNumber","MatchQuality":{"Country":1.0,"State":1.0,"County":1.0,"City":1.0,"Street":[1.0],"HouseNumber":1.0,"PostalCode":1.0},"MatchType":"interpolated","Location":{"LocationId":"NT_a1-nUlnola6mO.4HLGDpsD_2A","LocationType":"point","DisplayPosition":{"Latitude":39.03285,"Longitude":-5.23665},"MapView":{"TopLeft":{"Latitude":39.0339742,"Longitude":-5.2380972},"BottomRight":{"Latitude":39.0317258,"Longitude":-5.2352028}},"Address":{"Label":"Calle Puentecita, 6, 06640 Talarrubias (Badajoz), España","Country":"ESP","State":"Extremadura","County":"Badajoz","City":"Talarrubias","Street":"Calle Puentecita","HouseNumber":"6","PostalCode":"06640","AdditionalData":[{"value":"España","key":"CountryName"},{"value":"Extremadura","key":"StateName"},{"value":"Badajoz","key":"CountyName"}]},"MapReference":{"ReferenceId":"564438525","Spot":0.64,"SideOfStreet":"left","CountryId":"20215059","StateId":"20226788","CountyId":"20226789","CityId":"20274333","AddressId":"350599733","RoadLinkId":"66851700"}}},{"Relevance":1.0,"Distance":46.0,"MatchLevel":"houseNumber","MatchQuality":{"Country":1.0,"State":1.0,"County":1.0,"City":1.0,"Street":[1.0],"HouseNumber":1.0,"PostalCode":1.0},"MatchType":"interpolated","Location":{"LocationId":"NT_XCvfqsbCb9lEaqM9u0dLBB_xA","LocationType":"point","DisplayPosition":{"Latitude":39.03287,"Longitude":-5.23564},"MapView":{"TopLeft":{"Latitude":39.0339942,"Longitude":-5.2370872},"BottomRight":{"Latitude":39.0317458,"Longitude":-5.2341928}},"Address":{"Label":"Calle Doctor Fleming, 1, 06640 Talarrubias (Badajoz), España","Country":"ESP","State":"Extremadura","County":"Badajoz","City":"Talarrubias","Street":"Calle Doctor Fleming","HouseNumber":"1","PostalCode":"06640","AdditionalData":[{"value":"España","key":"CountryName"},{"value":"Extremadura","key":"StateName"},{"value":"Badajoz","key":"CountyName"}]},"MapReference":{"ReferenceId":"564438483","Spot":0.82,"SideOfStreet":"right","CountryId":"20215059","StateId":"20226788","CountyId":"20226789","CityId":"20274333","AddressId":"350880788","RoadLinkId":"67555447"}}},{"Relevance":1.0,"Distance":57.0,"MatchLevel":"houseNumber","MatchQuality":{"Country":1.0,"State":1.0,"County":1.0,"City":1.0,"Street":[1.0],"HouseNumber":1.0,"PostalCode":1.0},"MatchType":"interpolated","Location":{"LocationId":"NT_a1-nUlnola6mO.4HLGDpsD_0A","LocationType":"point","DisplayPosition":{"Latitude":39.0333,"Longitude":-5.23646},"MapView":{"TopLeft":{"Latitude":39.0344242,"Longitude":-5.2379072},"BottomRight":{"Latitude":39.0321758,"Longitude":-5.2350128}},"Address":{"Label":"Calle Puentecita, 4, 06640 Talarrubias (Badajoz), España","Country":"ESP","State":"Extremadura","County":"Badajoz","City":"Talarrubias","Street":"Calle Puentecita","HouseNumber":"4","PostalCode":"06640","AdditionalData":[{"value":"España","key":"CountryName"},{"value":"Extremadura","key":"StateName"},{"value":"Badajoz","key":"CountyName"}]},"MapReference":{"ReferenceId":"959674281","Spot":0.49,"SideOfStreet":"left","CountryId":"20215059","StateId":"20226788","CountyId":"20226789","CityId":"20274333","AddressId":"350578258","RoadLinkId":"301817094"}}},{"Relevance":1.0,"Distance":64.7,"MatchLevel":"street","MatchQuality":{"Country":1.0,"State":1.0,"County":1.0,"City":1.0,"Street":[1.0],"PostalCode":1.0},"Location":{"LocationId":"NT_a1-nUlnola6mO.4HLGDpsD_l_959674285_R","LocationType":"point","DisplayPosition":{"Latitude":39.0325,"Longitude":-5.23678},"MapView":{"TopLeft":{"Latitude":39.0325,"Longitude":-5.23701},"BottomRight":{"Latitude":39.03186,"Longitude":-5.23678}},"Address":{"Label":"Calle Puentecita, 06640 Talarrubias (Badajoz), España","Country":"ESP","State":"Extremadura","County":"Badajoz","City":"Talarrubias","Street":"Calle Puentecita","PostalCode":"06640","AdditionalData":[{"value":"España","key":"CountryName"},{"value":"Extremadura","key":"StateName"},{"value":"Badajoz","key":"CountyName"}]},"MapReference":{"ReferenceId":"959674285","Spot":1.0,"SideOfStreet":"right","CountryId":"20215059","StateId":"20226788","CountyId":"20226789","CityId":"20274333"}}},{"Relevance":1.0,"Distance":68.0,"MatchLevel":"houseNumber","MatchQuality":{"Country":1.0,"State":1.0,"County":1.0,"City":1.0,"Street":[1.0],"HouseNumber":1.0,"PostalCode":1.0},"MatchType":"interpolated","Location":{"LocationId":"NT_n3wjICYGCYZ2a-wTWv4XzC_yA","LocationType":"point","DisplayPosition":{"Latitude":39.03347,"Longitude":-5.23587},"MapView":{"TopLeft":{"Latitude":39.0345942,"Longitude":-5.2373172},"BottomRight":{"Latitude":39.0323458,"Longitude":-5.2344228}},"Address":{"Label":"Calle Reyes Huertas, 2, 06640 Talarrubias (Badajoz), España","Country":"ESP","State":"Extremadura","County":"Badajoz","City":"Talarrubias","Street":"Calle Reyes Huertas","HouseNumber":"2","PostalCode":"06640","AdditionalData":[{"value":"España","key":"CountryName"},{"value":"Extremadura","key":"StateName"},{"value":"Badajoz","key":"CountyName"}]},"MapReference":{"ReferenceId":"564438508","Spot":0.2,"SideOfStreet":"left","CountryId":"20215059","StateId":"20226788","CountyId":"20226789","CityId":"20274333","AddressId":"350653220","RoadLinkId":"67487338"}}},{"Relevance":1.0,"Distance":70.3,"MatchLevel":"houseNumber","MatchQuality":{"Country":1.0,"State":1.0,"County":1.0,"City":1.0,"Street":[1.0],"HouseNumber":1.0,"PostalCode":1.0},"MatchType":"interpolated","Location":{"LocationId":"NT_tChw1p2DOiPTb2NhJ1F8WA_xA","LocationType":"point","DisplayPosition":{"Latitude":39.03312,"Longitude":-5.2369},"MapView":{"TopLeft":{"Latitude":39.0342442,"Longitude":-5.2383472},"BottomRight":{"Latitude":39.0319958,"Longitude":-5.2354528}},"Address":{"Label":"Calle Calderón de la Barca, 1, 06640 Talarrubias (Badajoz), España","Country":"ESP","State":"Extremadura","County":"Badajoz","City":"Talarrubias","Street":"Calle Calderón de la Barca","HouseNumber":"1","PostalCode":"06640","AdditionalData":[{"value":"España","key":"CountryName"},{"value":"Extremadura","key":"StateName"},{"value":"Badajoz","key":"CountyName"}]},"MapReference":{"ReferenceId":"564438532","Spot":0.25,"SideOfStreet":"left","CountryId":"20215059","StateId":"20226788","CountyId":"20226789","CityId":"20274333","AddressId":"350734175","RoadLinkId":"66812921"}}},{"Relevance":1.0,"Distance":72.7,"MatchLevel":"houseNumber","MatchQuality":{"Country":1.0,"State":1.0,"County":1.0,"City":1.0,"Street":[1.0],"HouseNumber":1.0,"PostalCode":1.0},"MatchType":"interpolated","Location":{"LocationId":"NT_n3wjICYGCYZ2a-wTWv4XzC_2A","LocationType":"point","DisplayPosition":{"Latitude":39.03343,"Longitude":-5.23565},"MapView":{"TopLeft":{"Latitude":39.0345542,"Longitude":-5.2370972},"BottomRight":{"Latitude":39.0323058,"Longitude":-5.2342028}},"Address":{"Label":"Calle Reyes Huertas, 6, 06640 Talarrubias (Badajoz), España","Country":"ESP","State":"Extremadura","County":"Badajoz","City":"Talarrubias","Street":"Calle Reyes Huertas","HouseNumber":"6","PostalCode":"06640","AdditionalData":[{"value":"España","key":"CountryName"},{"value":"Extremadura","key":"StateName"},{"value":"Badajoz","key":"CountyName"}]},"MapReference":{"ReferenceId":"564438498","Spot":0.88,"SideOfStreet":"left","CountryId":"20215059","StateId":"20226788","CountyId":"20226789","CityId":"20274333","AddressId":"350578166","RoadLinkId":"67004873"}}}]}]}}