{"Response":{"MetaInfo":{"Timestamp":"2020-03-28T09:42:23.531+0000","NextPageInformation":"2"},"View":[{"_type":"SearchResultsViewType","ViewId":0,"Result":[{"Relevance":1.0,"Distance":0.0,"Direction":0.0,"MatchLevel":"district","MatchQuality":{"Country":1.0,"State":1.0,"County":1.0,"City":1.0,"District":1.0,"PostalCode":1.0},"Location":{"LocationId":"NT_Z1vOM0LU6ZyBD8rutKibCD","LocationType":"point","DisplayPosition":{"Latitude":39.0022109,"Longitude":-1.8695039},"MapView":{"TopLeft":{"Latitude":39.00368,"Longitude":-1.87354},"BottomRight":{"Latitude":38.9977,"Longitude":-1.86139}},"Address":{"Label":"El Pilar, Albacete, Castilla-La Mancha, España","Country":"ESP","State":"Castilla-La Mancha","County":"Albacete","City":"Albacete","District":"El Pilar","PostalCode":"02005","AdditionalData":[{"value":"España","key":"CountryName"},{"value":"Castilla-La Mancha","key":"StateName"},{"value":"Albacete","key":"CountyName"}]},"MapReference":{"ReferenceId":"564791786","SideOfStreet":"neither","CountryId":"20215059","StateId":"20221903","CountyId":"20221904","CityId":"20293622"}}},{"Relevance":1.0,"Distance":19.4,"MatchLevel":"street","MatchQuality":{"Country":1.0,"State":1.0,"County":1.0,"City":1.0,"District":1.0,"Street":[1.0],"PostalCode":1.0},"Location":{"LocationId":"NT_s1KDKQ.ZQPEBdo4bBJKJSC_l_1113382658_R","LocationType":"point","DisplayPosition":{"Latitude":39.0023832,"Longitude":-1.8695371},"MapView":{"TopLeft":{"Latitude":39.0024,"Longitude":-1.87002},"BottomRight":{"Latitude":39.00229,"Longitude":-1.86945}},"Address":{"Label":"Calle Virgen del Pilar, 02006 Albacete (Albacete), España","Country":"ESP","State":"Castilla-La Mancha","County":"Albacete","City":"Albacete","District":"El Pilar","Street":"Calle Virgen del Pilar","PostalCode":"02006","AdditionalData":[{"value":"España","key":"CountryName"},{"value":"Castilla-La Mancha","key":"StateName"},{"value":"Albacete","key":"CountyName"}]},"MapReference":{"ReferenceId":"1113382658","Spot":0.85,"SideOfStreet":"right","CountryId":"20215059","StateId":"20221903","CountyId":"20221904","CityId":"20293622"}}},{"Relevance":1.0,"Distance":21.5,"MatchLevel":"street","MatchQuality":{"Country":1.0,"State":1.0,"County":1.0,"City":1.0,"District":1.0,"Street":[1.0],"PostalCode":1.0},"Location":{"LocationId":"NT_s1KDKQ.ZQPEBdo4bBJKJSC_l_1113382659_R","LocationType":"point","DisplayPosition":{"Latitude":39.0024,"Longitude":-1.86945},"MapView":{"TopLeft":{"Latitude":39.00254,"Longitude":-1.86945},"BottomRight":{"Latitude":39.0024,"Longitude":-1.86898}},"Address":{"Label":"Calle Virgen del Pilar, 02006 Albacete (Albacete), España","Country":"ESP","State":"Castilla-La Mancha","County":"Albacete","City":"Albacete","District":"El Pilar","Street":"Calle Virgen del Pilar","PostalCode":"02006","AdditionalData":[{"value":"España","key":"CountryName"},{"value":"Castilla-La Mancha","key":"StateName"},{"value":"Albacete","key":"CountyName"}]},"MapReference":{"ReferenceId":"1113382659","Spot":0.0,"SideOfStreet":"right","CountryId":"20215059","StateId":"20221903","CountyId":"20221904","CityId":"20293622"}}},{"Relevance":1.0,"Distance":21.5,"MatchLevel":"street","MatchQuality":{"Country":1.0,"State":1.0,"County":1.0,"City":1.0,"District":1.0,"PostalCode":1.0},"Location":{"LocationId":"NT_oh46B4wGVlHNeCfgUibVsB_l_1113382662_L","LocationType":"point","DisplayPosition":{"Latitude":39.0024,"Longitude":-1.86945},"MapView":{"TopLeft":{"Latitude":39.00255,"Longitude":-1.86954},"BottomRight":{"Latitude":39.0024,"Longitude":-1.86945}},"Address":{"Label":"02006 Albacete (Albacete), España","Country":"ESP","State":"Castilla-La Mancha","County":"Albacete","City":"Albacete","District":"El Pilar","PostalCode":"02006","AdditionalData":[{"value":"España","key":"CountryName"},{"value":"Castilla-La Mancha","key":"StateName"},{"value":"Albacete","key":"CountyName"}]},"MapReference":{"ReferenceId":"1113382662","Spot":0.0,"SideOfStreet":"left","CountryId":"20215059","StateId":"20221903","CountyId":"20221904","CityId":"20293622"}}},{"Relevance":1.0,"Distance":30.7,"MatchLevel":"houseNumber","MatchQuality":{"Country":1.0,"State":1.0,"County":1.0,"City":1.0,"District":1.0,"Street":[1.0],"HouseNumber":1.0,"PostalCode":1.0},"MatchType":"interpolated","Location":{"LocationId":"NT_A7Pzk0CCwRE2C9CVw5j2LA_l_1113382661_R_3A","LocationType":"point","DisplayPosition":{"Latitude":39.0025928,"Longitude":-1.8693903},"MapView":{"TopLeft":{"Latitude":39.0037169,"Longitude":-1.8708369},"BottomRight":{"Latitude":39.0014686,"Longitude":-1.8679438}},"Address":{"Label":"Calle Virgen del Pilar, 7, 02006 Albacete (Albacete), España","Country":"ESP","State":"Castilla-La Mancha","County":"Albacete","City":"Albacete","District":"El Pilar","Street":"Calle Virgen del Pilar","HouseNumber":"7","PostalCode":"02006","AdditionalData":[{"value":"España","key":"CountryName"},{"value":"Castilla-La Mancha","key":"StateName"},{"value":"Albacete","key":"CountyName"}]},"MapReference":{"ReferenceId":"1113382661","Spot":0.53,"SideOfStreet":"right","CountryId":"20215059","StateId":"20221903","CountyId":"20221904","CityId":"20293622"}}},{"Relevance":1.0,"Distance":37.1,"MatchLevel":"street","MatchQuality":{"Country":1.0,"State":1.0,"County":1.0,"City":1.0,"District":1.0,"Street":[1.0],"PostalCode":1.0},"Location":{"LocationId":"NT_A7Pzk0CCwRE2C9CVw5j2LA_l_1113382660_R","LocationType":"point","DisplayPosition":{"Latitude":39.0025378,"Longitude":-1.8695875},"MapView":{"TopLeft":{"Latitude":39.00255,"Longitude":-1.86997},"BottomRight":{"Latitude":39.00244,"Longitude":-1.86954}},"Address":{"Label":"Calle Virgen del Pilar, 02006 Albacete (Albacete), España","Country":"ESP","State":"Castilla-La Mancha","County":"Albacete","City":"Albacete","District":"El Pilar","Street":"Calle Virgen del Pilar","PostalCode":"02006","AdditionalData":[{"value":"España","key":"CountryName"},{"value":"Castilla-La Mancha","key":"StateName"},{"value":"Albacete","key":"CountyName"}]},"MapReference":{"ReferenceId":"1113382660","Spot":0.89,"SideOfStreet":"right","CountryId":"20215059","StateId":"20221903","CountyId":"20221904","CityId":"20293622"}}},{"Relevance":1.0,"Distance":41.2,"MatchLevel":"houseNumber","MatchQuality":{"Country":1.0,"State":1.0,"County":1.0,"City":1.0,"District":1.0,"Street":[1.0],"HouseNumber":1.0,"PostalCode":1.0},"MatchType":"interpolated","Location":{"LocationId":"NT_jagarzQTKpdFupyVCyB.1C_xID","LocationType":"point","DisplayPosition":{"Latitude":39.00182,"Longitude":-1.86936},"MapView":{"TopLeft":{"Latitude":39.0029442,"Longitude":-1.8708066},"BottomRight":{"Latitude":39.0006958,"Longitude":-1.8679134}},"Address":{"Label":"Calle Churruca, 12, 02006 Albacete (Albacete), España","Country":"ESP","State":"Castilla-La Mancha","County":"Albacete","City":"Albacete","District":"El Pilar","Street":"Calle Churruca","HouseNumber":"12","PostalCode":"02006","AdditionalData":[{"value":"España","key":"CountryName"},{"value":"Castilla-La Mancha","key":"StateName"},{"value":"Albacete","key":"CountyName"}]},"MapReference":{"ReferenceId":"1113382639","Spot":0.18,"SideOfStreet":"right","CountryId":"20215059","StateId":"20221903","CountyId":"20221904","CityId":"20293622","AddressId":"266364573","RoadLinkId":"423433749"}}},{"Relevance":1.0,"Distance":45.5,"MatchLevel":"street","MatchQuality":{"Country":1.0,"State":1.0,"County":1.0,"City":1.0,"District":1.0,"Street":[1.0],"PostalCode":1.0},"Location":{"LocationId":"NT_s1KDKQ.ZQPEBdo4bBJKJSC_l_1113382641_R","LocationType":"point","DisplayPosition":{"Latitude":39.00229,"Longitude":-1.87002},"MapView":{"TopLeft":{"Latitude":39.00229,"Longitude":-1.87018},"BottomRight":{"Latitude":39.00227,"Longitude":-1.87002}},"Address":{"Label":"Calle Virgen del Pilar, 02006 Albacete (Albacete), España","Country":"ESP","State":"Castilla-La Mancha","County":"Albacete","City":"Albacete","District":"El Pilar","Street":"Calle Virgen del Pilar","PostalCode":"02006","AdditionalData":[{"value":"España","key":"CountryName"},{"value":"Castilla-La Mancha","key":"StateName"},{"value":"Albacete","key":"CountyName"}]},"MapReference":{"ReferenceId":"1113382641","Spot":1.0,"SideOfStreet":"right","CountryId":"20215059","StateId":"20221903","CountyId":"20221904","CityId":"20293622"}}},{"Relevance":1.0,"Distance":45.5,"MatchLevel":"street","MatchQuality":{"Country":1.0,"State":1.0,"County":1.0,"City":1.0,"District":1.0,"Street":[1.0],"PostalCode":1.0},"Location":{"LocationId":"NT_jagarzQTKpdFupyVCyB.1C_l_1113382640_R","LocationType":"point","DisplayPosition":{"Latitude":39.00229,"Longitude":-1.87002},"MapView":{"TopLeft":{"Latitude":39.00238,"Longitude":-1.87019},"BottomRight":{"Latitude":39.00229,"Longitude":-1.87002}},"Address":{"Label":"Calle Churruca, 02006 Albacete (Albacete), España","Country":"ESP","State":"Castilla-La Mancha","County":"Albacete","City":"Albacete","District":"El Pilar","Street":"Calle Churruca","PostalCode":"02006","AdditionalData":[{"value":"España","key":"CountryName"},{"value":"Castilla-La Mancha","key":"StateName"},{"value":"Albacete","key":"CountyName"}]},"MapReference":{"ReferenceId":"1113382640","Spot":0.0,"SideOfStreet":"right","CountryId":"20215059","StateId":"20221903","CountyId":"20221904","CityId":"20293622"}}},{"Relevance":1.0,"Distance":46.2,"MatchLevel":"houseNumber","MatchQuality":{"Country":1.0,"State":1.0,"County":1.0,"City":1.0,"District":1.0,"Street":[1.0],"HouseNumber":1.0,"PostalCode":1.0},"MatchType":"interpolated","Location":{"LocationId":"NT_A7Pzk0CCwRE2C9CVw5j2LA_l_704748600_R_1A","LocationType":"point","DisplayPosition":{"Latitude":39.0026507,"Longitude":-1.8691771},"MapView":{"TopLeft":{"Latitude":39.0037749,"Longitude":-1.8706237},"BottomRight":{"Latitude":39.0015266,"Longitude":-1.8677305}},"Address":{"Label":"Calle Virgen del Pilar, 5, 02006 Albacete (Albacete), España","Country":"ESP","State":"Castilla-La Mancha","County":"Albacete","City":"Albacete","District":"El Pilar","Street":"Calle Virgen del Pilar","HouseNumber":"5","PostalCode":"02006","AdditionalData":[{"value":"España","key":"CountryName"},{"value":"Castilla-La Mancha","key":"StateName"},{"value":"Albacete","key":"CountyName"}]},"MapReference":{"ReferenceId":"704748600","Spot":0.52,"SideOfStreet":"right","CountryId":"20215059","StateId":"20221903","CountyId":"20221904","CityId":"20293622"}}}]}]}}