{"Response":{"MetaInfo":{"Timestamp":"2020-03-28T09:43:08.207+0000","NextPageInformation":"2"},"View":[{"_type":"SearchResultsViewType","ViewId":0,"Result":[{"Relevance":1.0,"Distance":0.0,"Direction":0.0,"MatchLevel":"city","MatchQuality":{"Country":1.0,"State":1.0,"County":1.0,"City":1.0,"PostalCode":1.0},"Location":{"LocationId":"NT_nHzVEuuoMNVutOzwvTMR6B","LocationType":"point","DisplayPosition":{"Latitude":39.1621533,"Longitude":-0.2545441},"MapView":{"TopLeft":{"Latitude":39.22549,"Longitude":-0.30878},"BottomRight":{"Latitude":39.10323,"Longitude":-0.21637}},"Address":{"Label":"Cullera, Comunitat Valenciana, Espanya","Country":"ESP","State":"Comunitat Valenciana","County":"València","City":"Cullera","PostalCode":"46400","AdditionalData":[{"value":"Espanya","key":"CountryName"},{"value":"Comunitat Valenciana","key":"StateName"},{"value":"València","key":"CountyName"}]},"MapReference":{"ReferenceId":"583477961","SideOfStreet":"neither","CountryId":"20215059","StateId":"20226784","CountyId":"20226787","CityId":"20250151"}}},{"Relevance":1.0,"Distance":12.9,"MatchLevel":"houseNumber","MatchQuality":{"Country":1.0,"State":1.0,"County":1.0,"City":1.0,"Street":[1.0],"HouseNumber":1.0,"PostalCode":1.0},"MatchType":"interpolated","Location":{"LocationId":"NT_xdn23lqemLX8DTMMS.A-GD_4A","LocationType":"point","DisplayPosition":{"Latitude":39.16208,"Longitude":-0.25466},"MapView":{"TopLeft":{"Latitude":39.1632042,"Longitude":-0.2561098},"BottomRight":{"Latitude":39.1609558,"Longitude":-0.2532102}},"Address":{"Label":"Calle de la Bega, 8, 46400 Cullera (Valencia), Espanya","Country":"ESP","State":"Comunidad Valenciana","County":"Valencia","City":"Cullera","Street":"Calle de la Bega","HouseNumber":"8","PostalCode":"46400","AdditionalData":[{"value":"Espanya","key":"CountryName"},{"value":"Comunidad Valenciana","key":"StateName"},{"value":"Valencia","key":"CountyName"}]},"MapReference":{"ReferenceId":"583478111","Spot":0.61,"SideOfStreet":"left","CountryId":"20215059","StateId":"20226784","CountyId":"20226787","CityId":"20250151","AddressId":"672988741","RoadLinkId":"65817116"}}},{"Relevance":1.0,"Distance":20.6,"MatchLevel":"street","MatchQuality":{"Country":1.0,"State":1.0,"County":1.0,"City":1.0,"Street":[1.0],"PostalCode":1.0},"Location":{"LocationId":"NT_y3VbgXjAQcAzL92N0Jd3IC_l_1033520173_L","LocationType":"point","DisplayPosition":{"Latitude":39.16226,"Longitude":-0.25474},"MapView":{"TopLeft":{"Latitude":39.16227,"Longitude":-0.25497},"BottomRight":{"Latitude":39.16226,"Longitude":-0.25474}},"Address":{"Label":"Calle del País Valenciano, 46400 Cullera (Valencia), Espanya","Country":"ESP","State":"Comunidad Valenciana","County":"Valencia","City":"Cullera","Street":"Calle del País Valenciano","PostalCode":"46400","AdditionalData":[{"value":"Espanya","key":"CountryName"},{"value":"Comunidad Valenciana","key":"StateName"},{"value":"Valencia","key":"CountyName"}]},"MapReference":{"ReferenceId":"1033520173","Spot":0.0,"SideOfStreet":"left","CountryId":"20215059","StateId":"20226784","CountyId":"20226787","CityId":"20250151"}}},{"Relevance":1.0,"Distance":24.8,"MatchLevel":"houseNumber","MatchQuality":{"Country":1.0,"State":1.0,"County":1.0,"City":1.0,"Street":[1.0],"HouseNumber":1.0,"PostalCode":1.0},"MatchType":"interpolated","Location":{"LocationId":"NT_y3VbgXjAQcAzL92N0Jd3IC_0EE","LocationType":"point","DisplayPosition":{"Latitude":39.16223,"Longitude":-0.25424},"MapView":{"TopLeft":{"Latitude":39.1633542,"Longitude":-0.2556898},"BottomRight":{"Latitude":39.1611058,"Longitude":-0.2527902}},"Address":{"Label":"Calle del País Valenciano, 4A, 46400 Cullera (Valencia), Espanya","Country":"ESP","State":"Comunidad Valenciana","County":"Valencia","City":"Cullera","Street":"Calle del País Valenciano","HouseNumber":"4A","PostalCode":"46400","AdditionalData":[{"value":"Espanya","key":"CountryName"},{"value":"Comunidad Valenciana","key":"StateName"},{"value":"Valencia","key":"CountyName"}]},"MapReference":{"ReferenceId":"1205472607","Spot":0.31,"SideOfStreet":"left","CountryId":"20215059","StateId":"20226784","CountyId":"20226787","CityId":"20250151","AddressId":"269385181","RoadLinkId":"519122261"}}},{"Relevance":1.0,"Distance":36.6,"MatchLevel":"houseNumber","MatchQuality":{"Country":1.0,"State":1.0,"County":1.0,"City":1.0,"Street":[1.0],"HouseNumber":1.0,"PostalCode":1.0},"MatchType":"interpolated","Location":{"LocationId":"NT_IOKQtZCyYyMzpYx0OZs9xC_1cD","LocationType":"point","DisplayPosition":{"Latitude":39.16239,"Longitude":-0.25487},"MapView":{"TopLeft":{"Latitude":39.1635142,"Longitude":-0.2563198},"BottomRight":{"Latitude":39.1612658,"Longitude":-0.2534202}},"Address":{"Label":"Calle del Rey Don Jaime, 57, 46400 Cullera (Valencia), Espanya","Country":"ESP","State":"Comunidad Valenciana","County":"Valencia","City":"Cullera","Street":"Calle del Rey Don Jaime","HouseNumber":"57","PostalCode":"46400","AdditionalData":[{"value":"Espanya","key":"CountryName"},{"value":"Comunidad Valenciana","key":"StateName"},{"value":"Valencia","key":"CountyName"}]},"MapReference":{"ReferenceId":"583478006","Spot":0.22,"SideOfStreet":"right","CountryId":"20215059","StateId":"20226784","CountyId":"20226787","CityId":"20250151","AddressId":"269131959","RoadLinkId":"65624636"}}},{"Relevance":1.0,"Distance":38.9,"MatchLevel":"street","MatchQuality":{"Country":1.0,"State":1.0,"County":1.0,"City":1.0,"Street":[1.0],"PostalCode":1.0},"Location":{"LocationId":"NT_y3VbgXjAQcAzL92N0Jd3IC_l_756510284_L","LocationType":"point","DisplayPosition":{"Latitude":39.16227,"Longitude":-0.25497},"MapView":{"TopLeft":{"Latitude":39.16229,"Longitude":-0.25534},"BottomRight":{"Latitude":39.16227,"Longitude":-0.25497}},"Address":{"Label":"Calle del País Valenciano, 46400 Cullera (Valencia), Espanya","Country":"ESP","State":"Comunidad Valenciana","County":"Valencia","City":"Cullera","Street":"Calle del País Valenciano","PostalCode":"46400","AdditionalData":[{"value":"Espanya","key":"CountryName"},{"value":"Comunidad Valenciana","key":"StateName"},{"value":"Valencia","key":"CountyName"}]},"MapReference":{"ReferenceId":"756510284","Spot":0.0,"SideOfStreet":"left","CountryId":"20215059","StateId":"20226784","CountyId":"20226787","CityId":"20250151"}}},{"Relevance":1.0,"Distance":40.8,"MatchLevel":"houseNumber","MatchQuality":{"Country":1.0,"State":1.0,"County":1.0,"City":1.0,"Street":[1.0],"HouseNumber":1.0,"PostalCode":1.0},"MatchType":"interpolated","Location":{"LocationId":"NT_LeRhhP0GxnyWCmgS-pPyVC_1gD","LocationType":"point","DisplayPosition":{"Latitude":39.16192,"Longitude":-0.25408},"MapView":{"TopLeft":{"Latitude":39.1630442,"Longitude":-0.2555298},"BottomRight":{"Latitude":39.1607958,"Longitude":-0.2526302}},"Address":{"Label":"Calle Pescadores, 58, 46400 Cullera (Valencia), Espanya","Country":"ESP","State":"Comunidad Valenciana","County":"Valencia","City":"Cullera","Street":"Calle Pescadores","HouseNumber":"58","PostalCode":"46400","AdditionalData":[{"value":"Espanya","key":"CountryName"},{"value":"Comunidad Valenciana","key":"StateName"},{"value":"Valencia","key":"CountyName"}]},"MapReference":{"ReferenceId":"583478104","Spot":0.25,"SideOfStreet":"left","CountryId":"20215059","StateId":"20226784","CountyId":"20226787","CityId":"20250151","AddressId":"269536830","RoadLinkId":"65359008"}}},{"Relevance":1.0,"Distance":45.8,"MatchLevel":"street","MatchQuality":{"Country":1.0,"State":1.0,"County":1.0,"City":1.0,"Street":[1.0],"PostalCode":1.0},"Location":{"LocationId":"NT_y3VbgXjAQcAzL92N0Jd3IC_l_1205472606_L","LocationType":"point","DisplayPosition":{"Latitude":39.16222,"Longitude":-0.25402},"MapView":{"TopLeft":{"Latitude":39.16222,"Longitude":-0.25402},"BottomRight":{"Latitude":39.16221,"Longitude":-0.25382}},"Address":{"Label":"Calle del País Valenciano, 46400 Cullera (Valencia), Espanya","Country":"ESP","State":"Comunidad Valenciana","County":"Valencia","City":"Cullera","Street":"Calle del País Valenciano","PostalCode":"46400","AdditionalData":[{"value":"Espanya","key":"CountryName"},{"value":"Comunidad Valenciana","key":"StateName"},{"value":"Valencia","key":"CountyName"}]},"MapReference":{"ReferenceId":"1205472606","Spot":1.0,"SideOfStreet":"left","CountryId":"20215059","StateId":"20226784","CountyId":"20226787","CityId":"20250151"}}},{"Relevance":1.0,"Distance":49.5,"MatchLevel":"houseNumber","MatchQuality":{"Country":1.0,"State":1.0,"County":1.0,"City":1.0,"Street":[1.0],"HouseNumber":1.0,"PostalCode":1.0},"MatchType":"interpolated","Location":{"LocationId":"NT_LeRhhP0GxnyWCmgS-pPyVC_2AD","LocationType":"point","DisplayPosition":{"Latitude":39.16171,"Longitude":-0.25426},"MapView":{"TopLeft":{"Latitude":39.1628342,"Longitude":-0.2557098},"BottomRight":{"Latitude":39.1605858,"Longitude":-0.2528102}},"Address":{"Label":"Calle Pescadores, 60, 46400 Cullera (Valencia), Espanya","Country":"ESP","State":"Comunidad Valenciana","County":"Valencia","City":"Cullera","Street":"Calle Pescadores","HouseNumber":"60","PostalCode":"46400","AdditionalData":[{"value":"Espanya","key":"CountryName"},{"value":"Comunidad Valenciana","key":"StateName"},{"value":"Valencia","key":"CountyName"}]},"MapReference":{"ReferenceId":"583478116","Spot":0.87,"SideOfStreet":"left","CountryId":"20215059","StateId":"20226784","CountyId":"20226787","CityId":"20250151","AddressId":"269491438","RoadLinkId":"66005183"}}},{"Relevance":1.0,"Distance":52.9,"MatchLevel":"houseNumber","MatchQuality":{"Country":1.0,"State":1.0,"County":1.0,"City":1.0,"Street":[1.0],"HouseNumber":1.0,"PostalCode":1.0},"MatchType":"interpolated","Location":{"LocationId":"NT_Kp-QgcdHBjzJrxBAhlX0lA_ygD","LocationType":"point","DisplayPosition":{"Latitude":39.16264,"Longitude":-0.25421},"MapView":{"TopLeft":{"Latitude":39.1637642,"Longitude":-0.2556599},"BottomRight":{"Latitude":39.1615158,"Longitude":-0.2527601}},"Address":{"Label":"Calle La Marina, 28, 46400 Cullera (Valencia), Espanya","Country":"ESP","State":"Comunidad Valenciana","County":"Valencia","City":"Cullera","Street":"Calle La Marina","HouseNumber":"28","PostalCode":"46400","AdditionalData":[{"value":"Espanya","key":"CountryName"},{"value":"Comunidad Valenciana","key":"StateName"},{"value":"Valencia","key":"CountyName"}]},"MapReference":{"ReferenceId":"583477990","Spot":0.63,"SideOfStreet":"left","CountryId":"20215059","StateId":"20226784","CountyId":"20226787","CityId":"20250151","AddressId":"672981684","RoadLinkId":"404946685"}}}]}]}}