{"Response":{"MetaInfo":{"Timestamp":"2020-03-28T11:21:07.314+0000","NextPageInformation":"2"},"View":[{"_type":"SearchResultsViewType","ViewId":0,"Result":[{"Relevance":1.0,"Distance":-2350.3,"MatchLevel":"landmark","MatchQuality":{"Country":1.0,"State":1.0,"County":1.0,"City":1.0,"PostalCode":1.0,"Name":1.0},"Location":{"LocationId":"NT_4G3PS.8bE.bAlbup0NtLZA_p_SS1hKQfQd2.bJsBRihh3.D","LocationType":"park","Name":"Εθνικό Πάρκο Αμβρακικού","DisplayPosition":{"Latitude":38.96342,"Longitude":20.81965},"MapView":{"TopLeft":{"Latitude":39.2875,"Longitude":20.63495},"BottomRight":{"Latitude":38.95479,"Longitude":21.1332}},"Address":{"Label":"481 00 Πρέβεζα, Ελληνικη Δημοκρατια","Country":"GRC","State":"Ήπειρος","County":"Πρέβεζα","City":"Πρέβεζα","PostalCode":"481 00","AdditionalData":[{"value":"Ελληνικη Δημοκρατια","key":"CountryName"},{"value":"Ήπειρος","key":"StateName"},{"value":"Πρέβεζα","key":"CountyName"}]},"MapReference":{"CountryId":"20448870","StateId":"20653319","CountyId":"20653389","CityId":"20653416","PlaceId":"1200677873"}}},{"Relevance":1.0,"Distance":0.0,"Direction":0.0,"MatchLevel":"district","MatchQuality":{"Country":1.0,"State":1.0,"County":1.0,"City":1.0,"District":1.0,"PostalCode":1.0},"Location":{"LocationId":"NT_mfEE-HgZye2ZNuHehXpuUA","LocationType":"point","DisplayPosition":{"Latitude":39.1570773,"Longitude":20.9802374},"MapView":{"TopLeft":{"Latitude":39.16758,"Longitude":20.97563},"BottomRight":{"Latitude":39.14634,"Longitude":21.00356}},"Address":{"Label":"Άρτα, Ήπειρος, Ελληνικη Δημοκρατια","Country":"GRC","State":"Ήπειρος","County":"Άρτα","City":"Άρτα","District":"Άρτα","PostalCode":"471 32","AdditionalData":[{"value":"Ελληνικη Δημοκρατια","key":"CountryName"},{"value":"Ήπειρος","key":"StateName"},{"value":"Άρτα","key":"CountyName"}]},"MapReference":{"ReferenceId":"734863825","SideOfStreet":"neither","CountryId":"20448870","StateId":"20653319","CountyId":"20653386","CityId":"20653410","DistrictId":"23009049"}}},{"Relevance":1.0,"Distance":20.3,"MatchLevel":"houseNumber","MatchQuality":{"Country":1.0,"State":1.0,"County":1.0,"City":1.0,"District":1.0,"Street":[1.0],"HouseNumber":1.0,"PostalCode":1.0},"MatchType":"interpolated","Location":{"LocationId":"NT_4ek2X8QWC3NdJO871Xv5tD_l_734861478_R_xA","LocationType":"point","DisplayPosition":{"Latitude":39.1569581,"Longitude":20.9800211},"MapView":{"TopLeft":{"Latitude":39.1580822,"Longitude":20.9785714},"BottomRight":{"Latitude":39.1558339,"Longitude":20.9814708}},"Address":{"Label":"1 Αρτινών Πεσόντων, 471 32 Άρτα, Ελληνικη Δημοκρατια","Country":"GRC","State":"Ήπειρος","County":"Άρτα","City":"Άρτα","District":"Άρτα","Street":"Αρτινών Πεσόντων","HouseNumber":"1","PostalCode":"471 32","AdditionalData":[{"value":"Ελληνικη Δημοκρατια","key":"CountryName"},{"value":"Ήπειρος","key":"StateName"},{"value":"Άρτα","key":"CountyName"}]},"MapReference":{"ReferenceId":"734861478","Spot":0.49,"SideOfStreet":"right","CountryId":"20448870","StateId":"20653319","CountyId":"20653386","CityId":"20653410","DistrictId":"23009049"}}},{"Relevance":1.0,"Distance":30.9,"MatchLevel":"houseNumber","MatchQuality":{"Country":1.0,"State":1.0,"County":1.0,"City":1.0,"District":1.0,"Street":[1.0],"HouseNumber":1.0,"PostalCode":1.0},"MatchType":"interpolated","Location":{"LocationId":"NT_vE286RD9irAbOlePVHGaaB_l_734861470_R_xA","LocationType":"point","DisplayPosition":{"Latitude":39.1572533,"Longitude":20.9805155},"MapView":{"TopLeft":{"Latitude":39.1583774,"Longitude":20.9790657},"BottomRight":{"Latitude":39.1561291,"Longitude":20.9819652}},"Address":{"Label":"1 Καμιλών, 471 32 Άρτα, Ελληνικη Δημοκρατια","Country":"GRC","State":"Ήπειρος","County":"Άρτα","City":"Άρτα","District":"Άρτα","Street":"Καμιλών","HouseNumber":"1","PostalCode":"471 32","AdditionalData":[{"value":"Ελληνικη Δημοκρατια","key":"CountryName"},{"value":"Ήπειρος","key":"StateName"},{"value":"Άρτα","key":"CountyName"}]},"MapReference":{"ReferenceId":"734861470","Spot":0.52,"SideOfStreet":"right","CountryId":"20448870","StateId":"20653319","CountyId":"20653386","CityId":"20653410","DistrictId":"23009049"}}},{"Relevance":1.0,"Distance":40.2,"MatchLevel":"houseNumber","MatchQuality":{"Country":1.0,"State":1.0,"County":1.0,"City":1.0,"District":1.0,"Street":[1.0],"HouseNumber":1.0,"PostalCode":1.0},"MatchType":"interpolated","Location":{"LocationId":"NT_vE286RD9irAbOlePVHGaaB_l_807481778_R_zA","LocationType":"point","DisplayPosition":{"Latitude":39.1571057,"Longitude":20.979772},"MapView":{"TopLeft":{"Latitude":39.1582299,"Longitude":20.9783223},"BottomRight":{"Latitude":39.1559816,"Longitude":20.9812218}},"Address":{"Label":"3 Καμιλών, 471 32 Άρτα, Ελληνικη Δημοκρατια","Country":"GRC","State":"Ήπειρος","County":"Άρτα","City":"Άρτα","District":"Άρτα","Street":"Καμιλών","HouseNumber":"3","PostalCode":"471 32","AdditionalData":[{"value":"Ελληνικη Δημοκρατια","key":"CountryName"},{"value":"Ήπειρος","key":"StateName"},{"value":"Άρτα","key":"CountyName"}]},"MapReference":{"ReferenceId":"807481778","Spot":0.5,"SideOfStreet":"right","CountryId":"20448870","StateId":"20653319","CountyId":"20653386","CityId":"20653410","DistrictId":"23009049"}}},{"Relevance":1.0,"Distance":59.0,"MatchLevel":"houseNumber","MatchQuality":{"Country":1.0,"State":1.0,"County":1.0,"City":1.0,"District":1.0,"Street":[1.0],"HouseNumber":1.0,"PostalCode":1.0},"MatchType":"interpolated","Location":{"LocationId":"NT_J8.4n0.U6NZE40w97FvoVB_l_734861464_R_xA","LocationType":"point","DisplayPosition":{"Latitude":39.1564603,"Longitude":20.9803708},"MapView":{"TopLeft":{"Latitude":39.1575845,"Longitude":20.9789211},"BottomRight":{"Latitude":39.1553362,"Longitude":20.9818206}},"Address":{"Label":"1 Μίλωνος, 471 32 Άρτα, Ελληνικη Δημοκρατια","Country":"GRC","State":"Ήπειρος","County":"Άρτα","City":"Άρτα","District":"Άρτα","Street":"Μίλωνος","HouseNumber":"1","PostalCode":"471 32","AdditionalData":[{"value":"Ελληνικη Δημοκρατια","key":"CountryName"},{"value":"Ήπειρος","key":"StateName"},{"value":"Άρτα","key":"CountyName"}]},"MapReference":{"ReferenceId":"734861464","Spot":0.51,"SideOfStreet":"right","CountryId":"20448870","StateId":"20653319","CountyId":"20653386","CityId":"20653410","DistrictId":"23009049"}}},{"Relevance":1.0,"Distance":63.3,"MatchLevel":"houseNumber","MatchQuality":{"Country":1.0,"State":1.0,"County":1.0,"City":1.0,"District":1.0,"Street":[1.0],"HouseNumber":1.0,"PostalCode":1.0},"MatchType":"interpolated","Location":{"LocationId":"NT_4ek2X8QWC3NdJO871Xv5tD_l_734861477_R_xA","LocationType":"point","DisplayPosition":{"Latitude":39.1576834,"Longitude":20.9802882},"MapView":{"TopLeft":{"Latitude":39.1588076,"Longitude":20.9788385},"BottomRight":{"Latitude":39.1565593,"Longitude":20.981738}},"Address":{"Label":"1 Αρτινών Πεσόντων, 471 32 Άρτα, Ελληνικη Δημοκρατια","Country":"GRC","State":"Ήπειρος","County":"Άρτα","City":"Άρτα","District":"Άρτα","Street":"Αρτινών Πεσόντων","HouseNumber":"1","PostalCode":"471 32","AdditionalData":[{"value":"Ελληνικη Δημοκρατια","key":"CountryName"},{"value":"Ήπειρος","key":"StateName"},{"value":"Άρτα","key":"CountyName"}]},"MapReference":{"ReferenceId":"734861477","Spot":0.5,"SideOfStreet":"right","CountryId":"20448870","StateId":"20653319","CountyId":"20653386","CityId":"20653410","DistrictId":"23009049"}}},{"Relevance":1.0,"Distance":65.6,"MatchLevel":"houseNumber","MatchQuality":{"Country":1.0,"State":1.0,"County":1.0,"City":1.0,"District":1.0,"Street":[1.0],"HouseNumber":1.0,"PostalCode":1.0},"MatchType":"interpolated","Location":{"LocationId":"NT_7VwFnrx2g3stgxEEIBg-RC_xID","LocationType":"point","DisplayPosition":{"Latitude":39.15733,"Longitude":20.97954},"MapView":{"TopLeft":{"Latitude":39.1584542,"Longitude":20.9780903},"BottomRight":{"Latitude":39.1562058,"Longitude":20.9809897}},"Address":{"Label":"12 Περιφερειακή Οδός, 471 32 Άρτα, Ελληνικη Δημοκρατια","Country":"GRC","State":"Ήπειρος","County":"Άρτα","City":"Άρτα","District":"Άρτα","Street":"Περιφερειακή Οδός","HouseNumber":"12","PostalCode":"471 32","AdditionalData":[{"value":"Ελληνικη Δημοκρατια","key":"CountryName"},{"value":"Ήπειρος","key":"StateName"},{"value":"Άρτα","key":"CountyName"}]},"MapReference":{"ReferenceId":"807481782","Spot":0.19,"SideOfStreet":"right","CountryId":"20448870","StateId":"20653319","CountyId":"20653386","CityId":"20653410","DistrictId":"23009049","AddressId":"762825792","RoadLinkId":"195148191"}}},{"Relevance":1.0,"Distance":67.9,"MatchLevel":"street","MatchQuality":{"Country":1.0,"State":1.0,"County":1.0,"City":1.0,"District":1.0,"Street":[1.0],"PostalCode":1.0},"Location":{"LocationId":"NT_vE286RD9irAbOlePVHGaaB_l_807481777_R","LocationType":"point","DisplayPosition":{"Latitude":39.15709,"Longitude":20.97945},"MapView":{"TopLeft":{"Latitude":39.15711,"Longitude":20.97933},"BottomRight":{"Latitude":39.15709,"Longitude":20.97945}},"Address":{"Label":"Καμιλών, 471 32 Άρτα, Ελληνικη Δημοκρατια","Country":"GRC","State":"Ήπειρος","County":"Άρτα","City":"Άρτα","District":"Άρτα","Street":"Καμιλών","PostalCode":"471 32","AdditionalData":[{"value":"Ελληνικη Δημοκρατια","key":"CountryName"},{"value":"Ήπειρος","key":"StateName"},{"value":"Άρτα","key":"CountyName"}]},"MapReference":{"ReferenceId":"807481777","Spot":0.0,"SideOfStreet":"right","CountryId":"20448870","StateId":"20653319","CountyId":"20653386","CityId":"20653410","DistrictId":"23009049"}}},{"Relevance":1.0,"Distance":77.5,"MatchLevel":"street","MatchQuality":{"Country":1.0,"State":1.0,"County":1.0,"City":1.0,"District":1.0,"Street":[1.0],"PostalCode":1.0},"Location":{"LocationId":"NT_VVCEK8vidAFyg84SoHWmLB_l_972210625_R","LocationType":"point","DisplayPosition":{"Latitude":39.1573613,"Longitude":20.979417},"MapView":{"TopLeft":{"Latitude":39.15752,"Longitude":20.97933},"BottomRight":{"Latitude":39.15711,"Longitude":20.97947}},"Address":{"Label":"Ιωαννίνων-Αντίρριου, 471 32 Άρτα, Ελληνικη Δημοκρατια","Country":"GRC","State":"Ήπειρος","County":"Άρτα","City":"Άρτα","District":"Άρτα","Street":"Ιωαννίνων-Αντίρριου","PostalCode":"471 32","AdditionalData":[{"value":"Ελληνικη Δημοκρατια","key":"CountryName"},{"value":"Ήπειρος","key":"StateName"},{"value":"Άρτα","key":"CountyName"}]},"MapReference":{"ReferenceId":"972210625","Spot":0.61,"SideOfStreet":"right","CountryId":"20448870","StateId":"20653319","CountyId":"20653386","CityId":"20653410","DistrictId":"23009049"}}}]}]}}