{"Response":{"MetaInfo":{"Timestamp":"2020-03-28T09:45:18.477+0000","NextPageInformation":"2"},"View":[{"_type":"SearchResultsViewType","ViewId":0,"Result":[{"Relevance":1.0,"Distance":0.0,"Direction":0.0,"MatchLevel":"city","MatchQuality":{"Country":1.0,"State":1.0,"County":1.0,"City":1.0,"PostalCode":1.0},"Location":{"LocationId":"NT_2cmDrijVe2NT7UD5vx7DlC","LocationType":"point","DisplayPosition":{"Latitude":39.1747175,"Longitude":-1.4913575},"MapView":{"TopLeft":{"Latitude":39.20687,"Longitude":-1.50612},"BottomRight":{"Latitude":39.07735,"Longitude":-1.39731}},"Address":{"Label":"La Recueja, Castilla-La Mancha, España","Country":"ESP","State":"Castilla-La Mancha","County":"Albacete","City":"La Recueja","PostalCode":"02249","AdditionalData":[{"value":"España","key":"CountryName"},{"value":"Castilla-La Mancha","key":"StateName"},{"value":"Albacete","key":"CountyName"}]},"MapReference":{"ReferenceId":"572028092","SideOfStreet":"neither","CountryId":"20215059","StateId":"20221903","CountyId":"20221904","CityId":"20294109"}}},{"Relevance":1.0,"Distance":4.8,"MatchLevel":"houseNumber","MatchQuality":{"Country":1.0,"State":1.0,"County":1.0,"City":1.0,"Street":[1.0],"HouseNumber":1.0,"PostalCode":1.0},"MatchType":"interpolated","Location":{"LocationId":"NT_6xDpBzxWs9Wa7rbms.8vlA_xADR","LocationType":"point","DisplayPosition":{"Latitude":39.17475,"Longitude":-1.49132},"MapView":{"TopLeft":{"Latitude":39.1758742,"Longitude":-1.4927701},"BottomRight":{"Latitude":39.1736258,"Longitude":-1.4898699}},"Address":{"Label":"Calle Molino, 10D, 02249 La Recueja (Albacete), España","Country":"ESP","State":"Castilla-La Mancha","County":"Albacete","City":"La Recueja","Street":"Calle Molino","HouseNumber":"10D","PostalCode":"02249","AdditionalData":[{"value":"España","key":"CountryName"},{"value":"Castilla-La Mancha","key":"StateName"},{"value":"Albacete","key":"CountyName"}]},"MapReference":{"ReferenceId":"1044308679","Spot":0.27,"SideOfStreet":"right","CountryId":"20215059","StateId":"20221903","CountyId":"20221904","CityId":"20294109","AddressId":"405246026","RoadLinkId":"364502823"}}},{"Relevance":1.0,"Distance":8.9,"MatchLevel":"houseNumber","MatchQuality":{"Country":1.0,"State":1.0,"County":1.0,"City":1.0,"Street":[1.0],"HouseNumber":1.0,"PostalCode":1.0},"MatchType":"interpolated","Location":{"LocationId":"NT_6xDpBzxWs9Wa7rbms.8vlA_4A","LocationType":"point","DisplayPosition":{"Latitude":39.17467,"Longitude":-1.49148},"MapView":{"TopLeft":{"Latitude":39.1757942,"Longitude":-1.4929301},"BottomRight":{"Latitude":39.1735458,"Longitude":-1.4900299}},"Address":{"Label":"Calle Molino, 8, 02249 La Recueja (Albacete), España","Country":"ESP","State":"Castilla-La Mancha","County":"Albacete","City":"La Recueja","Street":"Calle Molino","HouseNumber":"8","PostalCode":"02249","AdditionalData":[{"value":"España","key":"CountryName"},{"value":"Castilla-La Mancha","key":"StateName"},{"value":"Albacete","key":"CountyName"}]},"MapReference":{"ReferenceId":"1044308675","Spot":0.85,"SideOfStreet":"right","CountryId":"20215059","StateId":"20221903","CountyId":"20221904","CityId":"20294109","AddressId":"405246025","RoadLinkId":"364502819"}}},{"Relevance":1.0,"Distance":17.7,"MatchLevel":"houseNumber","MatchQuality":{"Country":1.0,"State":1.0,"County":1.0,"City":1.0,"Street":[1.0],"HouseNumber":1.0,"PostalCode":1.0},"MatchType":"interpolated","Location":{"LocationId":"NT_UYcKHz9ScdeT2WpbH4FT.B_l_572028117_R_xED","LocationType":"point","DisplayPosition":{"Latitude":39.1748731,"Longitude":-1.49145},"MapView":{"TopLeft":{"Latitude":39.1759972,"Longitude":-1.4929001},"BottomRight":{"Latitude":39.1737489,"Longitude":-1.4899999}},"Address":{"Label":"Calle San Mateo, 11, 02249 La Recueja (Albacete), España","Country":"ESP","State":"Castilla-La Mancha","County":"Albacete","City":"La Recueja","Street":"Calle San Mateo","HouseNumber":"11","PostalCode":"02249","AdditionalData":[{"value":"España","key":"CountryName"},{"value":"Castilla-La Mancha","key":"StateName"},{"value":"Albacete","key":"CountyName"}]},"MapReference":{"ReferenceId":"572028117","Spot":0.51,"SideOfStreet":"right","CountryId":"20215059","StateId":"20221903","CountyId":"20221904","CityId":"20294109"}}},{"Relevance":1.0,"Distance":19.8,"MatchLevel":"houseNumber","MatchQuality":{"Country":1.0,"State":1.0,"County":1.0,"City":1.0,"Street":[1.0],"HouseNumber":1.0,"PostalCode":1.0},"MatchType":"interpolated","Location":{"LocationId":"NT_xVqeWPKXu2io7zoN-4MExB_5A","LocationType":"point","DisplayPosition":{"Latitude":39.17476,"Longitude":-1.49158},"MapView":{"TopLeft":{"Latitude":39.1758842,"Longitude":-1.4930301},"BottomRight":{"Latitude":39.1736358,"Longitude":-1.4901299}},"Address":{"Label":"Calle Jorquera, 9, 02249 La Recueja (Albacete), España","Country":"ESP","State":"Castilla-La Mancha","County":"Albacete","City":"La Recueja","Street":"Calle Jorquera","HouseNumber":"9","PostalCode":"02249","AdditionalData":[{"value":"España","key":"CountryName"},{"value":"Castilla-La Mancha","key":"StateName"},{"value":"Albacete","key":"CountyName"}]},"MapReference":{"ReferenceId":"572028036","Spot":0.28,"SideOfStreet":"right","CountryId":"20215059","StateId":"20221903","CountyId":"20221904","CityId":"20294109","AddressId":"405289130","RoadLinkId":"65417677"}}},{"Relevance":1.0,"Distance":29.8,"MatchLevel":"houseNumber","MatchQuality":{"Country":1.0,"State":1.0,"County":1.0,"City":1.0,"Street":[1.0],"HouseNumber":1.0,"PostalCode":1.0},"MatchType":"interpolated","Location":{"LocationId":"NT_iISxcxH.D8Rnt5pqxes6.B_yA","LocationType":"point","DisplayPosition":{"Latitude":39.17501,"Longitude":-1.49129},"MapView":{"TopLeft":{"Latitude":39.1761342,"Longitude":-1.4927401},"BottomRight":{"Latitude":39.1738858,"Longitude":-1.4898399}},"Address":{"Label":"Travesía Higuera, 2, 02249 La Recueja (Albacete), España","Country":"ESP","State":"Castilla-La Mancha","County":"Albacete","City":"La Recueja","Street":"Travesía Higuera","HouseNumber":"2","PostalCode":"02249","AdditionalData":[{"value":"España","key":"CountryName"},{"value":"Castilla-La Mancha","key":"StateName"},{"value":"Albacete","key":"CountyName"}]},"MapReference":{"ReferenceId":"1044308677","Spot":0.22,"SideOfStreet":"right","CountryId":"20215059","StateId":"20221903","CountyId":"20221904","CityId":"20294109","AddressId":"405325154","RoadLinkId":"364502821"}}},{"Relevance":1.0,"Distance":31.3,"MatchLevel":"houseNumber","MatchQuality":{"Country":1.0,"State":1.0,"County":1.0,"City":1.0,"Street":[1.0],"HouseNumber":1.0,"PostalCode":1.0},"MatchType":"interpolated","Location":{"LocationId":"NT_UYcKHz9ScdeT2WpbH4FT.B_l_572028123_R_1cD","LocationType":"point","DisplayPosition":{"Latitude":39.17499,"Longitude":-1.49145},"MapView":{"TopLeft":{"Latitude":39.1761142,"Longitude":-1.4929001},"BottomRight":{"Latitude":39.1738659,"Longitude":-1.4899999}},"Address":{"Label":"Calle San Mateo, 57, 02249 La Recueja (Albacete), España","Country":"ESP","State":"Castilla-La Mancha","County":"Albacete","City":"La Recueja","Street":"Calle San Mateo","HouseNumber":"57","PostalCode":"02249","AdditionalData":[{"value":"España","key":"CountryName"},{"value":"Castilla-La Mancha","key":"StateName"},{"value":"Albacete","key":"CountyName"}]},"MapReference":{"ReferenceId":"572028123","Spot":0.0,"SideOfStreet":"right","CountryId":"20215059","StateId":"20221903","CountyId":"20221904","CityId":"20294109"}}},{"Relevance":1.0,"Distance":31.4,"MatchLevel":"street","MatchQuality":{"Country":1.0,"State":1.0,"County":1.0,"City":1.0,"Street":[1.0],"PostalCode":1.0},"Location":{"LocationId":"NT_iISxcxH.D8Rnt5pqxes6.B_l_1044308676_R","LocationType":"point","DisplayPosition":{"Latitude":39.1749976,"Longitude":-1.4914084},"MapView":{"TopLeft":{"Latitude":39.17501,"Longitude":-1.49145},"BottomRight":{"Latitude":39.17499,"Longitude":-1.49134}},"Address":{"Label":"Travesía Higuera, 02249 La Recueja (Albacete), España","Country":"ESP","State":"Castilla-La Mancha","County":"Albacete","City":"La Recueja","Street":"Travesía Higuera","PostalCode":"02249","AdditionalData":[{"value":"España","key":"CountryName"},{"value":"Castilla-La Mancha","key":"StateName"},{"value":"Albacete","key":"CountyName"}]},"MapReference":{"ReferenceId":"1044308676","Spot":0.38,"SideOfStreet":"right","CountryId":"20215059","StateId":"20221903","CountyId":"20221904","CityId":"20294109"}}},{"Relevance":1.0,"Distance":37.5,"MatchLevel":"street","MatchQuality":{"Country":1.0,"State":1.0,"County":1.0,"City":1.0,"Street":[1.0],"PostalCode":1.0},"Location":{"LocationId":"NT_6xDpBzxWs9Wa7rbms.8vlA_l_1044308681_L","LocationType":"point","DisplayPosition":{"Latitude":39.1749763,"Longitude":-1.4910787},"MapView":{"TopLeft":{"Latitude":39.17501,"Longitude":-1.49111},"BottomRight":{"Latitude":39.17487,"Longitude":-1.49098}},"Address":{"Label":"Calle Molino, 02249 La Recueja (Albacete), España","Country":"ESP","State":"Castilla-La Mancha","County":"Albacete","City":"La Recueja","Street":"Calle Molino","PostalCode":"02249","AdditionalData":[{"value":"España","key":"CountryName"},{"value":"Castilla-La Mancha","key":"StateName"},{"value":"Albacete","key":"CountyName"}]},"MapReference":{"ReferenceId":"1044308681","Spot":0.76,"SideOfStreet":"left","CountryId":"20215059","StateId":"20221903","CountyId":"20221904","CityId":"20294109"}}},{"Relevance":1.0,"Distance":38.0,"MatchLevel":"houseNumber","MatchQuality":{"Country":1.0,"State":1.0,"County":1.0,"City":1.0,"Street":[1.0],"HouseNumber":1.0,"PostalCode":1.0},"MatchType":"interpolated","Location":{"LocationId":"NT_wUOj.czsknlKqNrTZ.O5JD_yQE","LocationType":"point","DisplayPosition":{"Latitude":39.17507,"Longitude":-1.49125},"MapView":{"TopLeft":{"Latitude":39.1761942,"Longitude":-1.4927001},"BottomRight":{"Latitude":39.1739458,"Longitude":-1.4897999}},"Address":{"Label":"Calle Higueras, 2D, 02249 La Recueja (Albacete), España","Country":"ESP","State":"Castilla-La Mancha","County":"Albacete","City":"La Recueja","Street":"Calle Higueras","HouseNumber":"2D","PostalCode":"02249","AdditionalData":[{"value":"España","key":"CountryName"},{"value":"Castilla-La Mancha","key":"StateName"},{"value":"Albacete","key":"CountyName"}]},"MapReference":{"ReferenceId":"572028108","Spot":0.14,"SideOfStreet":"right","CountryId":"20215059","StateId":"20221903","CountyId":"20221904","CityId":"20294109","AddressId":"405325157","RoadLinkId":"65833883"}}}]}]}}