{"Response":{"MetaInfo":{"Timestamp":"2020-03-28T11:33:39.579+0000","NextPageInformation":"2"},"View":[{"_type":"SearchResultsViewType","ViewId":0,"Result":[{"Relevance":1.0,"Distance":-13.7,"MatchLevel":"landmark","MatchQuality":{"Country":1.0,"County":1.0,"City":1.0,"District":1.0,"PostalCode":1.0,"Name":1.0},"Location":{"LocationId":"NT_hwg4oEleCz1uFlxUpHCBOC","LocationType":"hospital","Name":"Hosp. Dr. José M. Grande","DisplayPosition":{"Latitude":39.30043,"Longitude":-7.42775},"MapView":{"TopLeft":{"Latitude":39.30167,"Longitude":-7.42948},"BottomRight":{"Latitude":39.29919,"Longitude":-7.4258}},"Address":{"Label":"7300-065 Portalegre, Portugal","Country":"PRT","County":"Portalegre","City":"Portalegre","District":"Portalegre","PostalCode":"7300-065","AdditionalData":[{"value":"Portugal","key":"CountryName"},{"value":"Portalegre","key":"CountyName"}]},"MapReference":{"CountryId":"20317122","CountyId":"20319661","CityId":"20319746","DistrictId":"20404735","PlaceId":"69809459"}}},{"Relevance":1.0,"Distance":0.0,"Direction":0.0,"MatchLevel":"district","MatchQuality":{"Country":1.0,"County":1.0,"City":1.0,"District":1.0,"PostalCode":1.0},"Location":{"LocationId":"NT_CMR1tO3ixSZYkL2L5z1aMA","LocationType":"point","DisplayPosition":{"Latitude":39.2996744,"Longitude":-7.4293006},"MapView":{"TopLeft":{"Latitude":39.30589,"Longitude":-7.43909},"BottomRight":{"Latitude":39.28448,"Longitude":-7.41291}},"Address":{"Label":"Portalegre, Portugal","Country":"PRT","County":"Portalegre","City":"Portalegre","District":"Portalegre","PostalCode":"7300-065","AdditionalData":[{"value":"Portugal","key":"CountryName"},{"value":"Portalegre","key":"CountyName"}]},"MapReference":{"ReferenceId":"1051811771","SideOfStreet":"neither","CountryId":"20317122","CountyId":"20319661","CityId":"20319746","DistrictId":"20404735"}}},{"Relevance":1.0,"Distance":12.3,"MatchLevel":"houseNumber","MatchQuality":{"Country":1.0,"County":1.0,"City":1.0,"District":1.0,"Street":[1.0],"HouseNumber":1.0,"PostalCode":1.0},"MatchType":"interpolated","Location":{"LocationId":"NT_PEXxtldJFOrf2LCnubjJQB_zA","LocationType":"point","DisplayPosition":{"Latitude":39.2997,"Longitude":-7.42944},"MapView":{"TopLeft":{"Latitude":39.3008242,"Longitude":-7.4308927},"BottomRight":{"Latitude":39.2985758,"Longitude":-7.4279873}},"Address":{"Label":"Avenida Pio XII 3, 7300-073 Portalegre, Portugal","Country":"PRT","County":"Portalegre","City":"Portalegre","District":"Portalegre","Street":"Avenida Pio XII","HouseNumber":"3","PostalCode":"7300-073","AdditionalData":[{"value":"Portugal","key":"CountryName"},{"value":"Portalegre","key":"CountyName"}]},"MapReference":{"ReferenceId":"588937599","Spot":0.36,"SideOfStreet":"left","CountryId":"20317122","CountyId":"20319661","CityId":"20319746","DistrictId":"20404735","AddressId":"343308968","RoadLinkId":"70082398"}}},{"Relevance":1.0,"Distance":19.5,"MatchLevel":"street","MatchQuality":{"Country":1.0,"County":1.0,"City":1.0,"District":1.0,"PostalCode":1.0},"Location":{"LocationId":"NT_T95tk4-XgHdyQS0VRR0UaD_l_588949411_L","LocationType":"point","DisplayPosition":{"Latitude":39.2997887,"Longitude":-7.4291291},"MapView":{"TopLeft":{"Latitude":39.30059,"Longitude":-7.42916},"BottomRight":{"Latitude":39.29938,"Longitude":-7.42793}},"Address":{"Label":"7300 Portalegre, Portugal","Country":"PRT","County":"Portalegre","City":"Portalegre","District":"Portalegre","PostalCode":"7300","AdditionalData":[{"value":"Portugal","key":"CountryName"},{"value":"Portalegre","key":"CountyName"}]},"MapReference":{"ReferenceId":"588949411","Spot":0.62,"SideOfStreet":"left","CountryId":"20317122","CountyId":"20319661","CityId":"20319746","DistrictId":"20404735"}}},{"Relevance":1.0,"Distance":23.5,"MatchLevel":"houseNumber","MatchQuality":{"Country":1.0,"County":1.0,"City":1.0,"District":1.0,"Street":[1.0],"HouseNumber":1.0,"PostalCode":1.0},"MatchType":"interpolated","Location":{"LocationId":"NT_PEXxtldJFOrf2LCnubjJQB_yA","LocationType":"point","DisplayPosition":{"Latitude":39.29953,"Longitude":-7.4295},"MapView":{"TopLeft":{"Latitude":39.3006542,"Longitude":-7.4309527},"BottomRight":{"Latitude":39.2984058,"Longitude":-7.4280473}},"Address":{"Label":"Avenida Pio XII 2, 7300-073 Portalegre, Portugal","Country":"PRT","County":"Portalegre","City":"Portalegre","District":"Portalegre","Street":"Avenida Pio XII","HouseNumber":"2","PostalCode":"7300-073","AdditionalData":[{"value":"Portugal","key":"CountryName"},{"value":"Portalegre","key":"CountyName"}]},"MapReference":{"ReferenceId":"588937598","Spot":0.87,"SideOfStreet":"left","CountryId":"20317122","CountyId":"20319661","CityId":"20319746","DistrictId":"20404735","AddressId":"342743742","RoadLinkId":"69937641"}}},{"Relevance":1.0,"Distance":28.8,"MatchLevel":"houseNumber","MatchQuality":{"Country":1.0,"County":1.0,"City":1.0,"District":1.0,"Street":[1.0],"HouseNumber":1.0,"PostalCode":1.0},"MatchType":"interpolated","Location":{"LocationId":"NT_it22JHe7T-wi9l4iQI.bRA_xA","LocationType":"point","DisplayPosition":{"Latitude":39.29948,"Longitude":-7.42908},"MapView":{"TopLeft":{"Latitude":39.3006042,"Longitude":-7.4305327},"BottomRight":{"Latitude":39.2983558,"Longitude":-7.4276273}},"Address":{"Label":"Rua Dr. Mário Chambel 1, 7300-179 Portalegre, Portugal","Country":"PRT","County":"Portalegre","City":"Portalegre","District":"Portalegre","Street":"Rua Dr. Mário Chambel","HouseNumber":"1","PostalCode":"7300-179","AdditionalData":[{"value":"Portugal","key":"CountryName"},{"value":"Portalegre","key":"CountyName"}]},"MapReference":{"ReferenceId":"588949419","Spot":0.72,"SideOfStreet":"left","CountryId":"20317122","CountyId":"20319661","CityId":"20319746","DistrictId":"20404735","AddressId":"342804919","RoadLinkId":"70501343"}}},{"Relevance":1.0,"Distance":41.8,"MatchLevel":"houseNumber","MatchQuality":{"Country":1.0,"County":1.0,"City":1.0,"District":1.0,"Street":[1.0],"HouseNumber":1.0,"PostalCode":1.0},"MatchType":"interpolated","Location":{"LocationId":"NT_PEXxtldJFOrf2LCnubjJQB_MRVN","LocationType":"point","DisplayPosition":{"Latitude":39.30005,"Longitude":-7.42931},"MapView":{"TopLeft":{"Latitude":39.3011742,"Longitude":-7.4307627},"BottomRight":{"Latitude":39.2989258,"Longitude":-7.4278573}},"Address":{"Label":"Avenida Pio XII LT5, 7300-073 Portalegre, Portugal","Country":"PRT","County":"Portalegre","City":"Portalegre","District":"Portalegre","Street":"Avenida Pio XII","HouseNumber":"LT5","PostalCode":"7300-073","AdditionalData":[{"value":"Portugal","key":"CountryName"},{"value":"Portalegre","key":"CountyName"}]},"MapReference":{"ReferenceId":"1199546259","Spot":0.2,"SideOfStreet":"left","CountryId":"20317122","CountyId":"20319661","CityId":"20319746","DistrictId":"20404735","AddressId":"370476972","RoadLinkId":"511556755"}}},{"Relevance":1.0,"Distance":48.8,"MatchLevel":"houseNumber","MatchQuality":{"Country":1.0,"County":1.0,"City":1.0,"District":1.0,"Street":[1.0],"HouseNumber":1.0,"PostalCode":1.0},"MatchType":"interpolated","Location":{"LocationId":"NT_.10L.kwMvEWtFbzc.Jdy7A_1MD","LocationType":"point","DisplayPosition":{"Latitude":39.3,"Longitude":-7.42968},"MapView":{"TopLeft":{"Latitude":39.3011242,"Longitude":-7.4311327},"BottomRight":{"Latitude":39.2988758,"Longitude":-7.4282273}},"Address":{"Label":"Rua Augusto César de Oliveira Tavares 53, 7300-126 Portalegre, Portugal","Country":"PRT","County":"Portalegre","City":"Portalegre","District":"Portalegre","Street":"Rua Augusto César de Oliveira Tavares","HouseNumber":"53","PostalCode":"7300-126","AdditionalData":[{"value":"Portugal","key":"CountryName"},{"value":"Portalegre","key":"CountyName"}]},"MapReference":{"ReferenceId":"588949342","Spot":0.26,"SideOfStreet":"left","CountryId":"20317122","CountyId":"20319661","CityId":"20319746","DistrictId":"20404735","AddressId":"343165675","RoadLinkId":"70369584"}}},{"Relevance":1.0,"Distance":69.0,"MatchLevel":"street","MatchQuality":{"Country":1.0,"County":1.0,"City":1.0,"District":1.0,"Street":[1.0],"PostalCode":1.0},"Location":{"LocationId":"NT_Jbvl6pJ--NYvbwQhGcIqbA_l_1051750357_R","LocationType":"point","DisplayPosition":{"Latitude":39.2990736,"Longitude":-7.4295009},"MapView":{"TopLeft":{"Latitude":39.29912,"Longitude":-7.42964},"BottomRight":{"Latitude":39.29904,"Longitude":-7.4294}},"Address":{"Label":"Avenida Movimento das Forças Armadas, 7300-072 Portalegre, Portugal","Country":"PRT","County":"Portalegre","City":"Portalegre","District":"Portalegre","Street":"Avenida Movimento das Forças Armadas","PostalCode":"7300-072","AdditionalData":[{"value":"Portugal","key":"CountryName"},{"value":"Portalegre","key":"CountyName"}]},"MapReference":{"ReferenceId":"1051750357","Spot":0.42,"SideOfStreet":"right","CountryId":"20317122","CountyId":"20319661","CityId":"20319746","DistrictId":"20404735"}}},{"Relevance":1.0,"Distance":70.0,"MatchLevel":"houseNumber","MatchQuality":{"Country":1.0,"County":1.0,"City":1.0,"District":1.0,"Street":[1.0],"HouseNumber":1.0,"PostalCode":1.0},"MatchType":"interpolated","Location":{"LocationId":"NT_Jbvl6pJ--NYvbwQhGcIqbA_xAD","LocationType":"point","DisplayPosition":{"Latitude":39.29916,"Longitude":-7.42977},"MapView":{"TopLeft":{"Latitude":39.3002842,"Longitude":-7.4312227},"BottomRight":{"Latitude":39.2980358,"Longitude":-7.4283173}},"Address":{"Label":"Avenida Movimento das Forças Armadas 10, 7300-072 Portalegre, Portugal","Country":"PRT","County":"Portalegre","City":"Portalegre","District":"Portalegre","Street":"Avenida Movimento das Forças Armadas","HouseNumber":"10","PostalCode":"7300-072","AdditionalData":[{"value":"Portugal","key":"CountryName"},{"value":"Portalegre","key":"CountyName"}]},"MapReference":{"ReferenceId":"588949339","Spot":0.49,"SideOfStreet":"left","CountryId":"20317122","CountyId":"20319661","CityId":"20319746","DistrictId":"20404735","AddressId":"342983117","RoadLinkId":"70300384"}}}]}]}}