{"Response":{"MetaInfo":{"Timestamp":"2020-03-28T11:33:51.408+0000","NextPageInformation":"2"},"View":[{"_type":"SearchResultsViewType","ViewId":0,"Result":[{"Relevance":1.0,"Distance":0.0,"Direction":0.0,"MatchLevel":"district","MatchQuality":{"Country":1.0,"County":1.0,"City":1.0,"District":1.0,"PostalCode":1.0},"Location":{"LocationId":"NT_VJdL94.pw4E80dbdOC9fUC","LocationType":"point","DisplayPosition":{"Latitude":39.2104885,"Longitude":-8.628338},"MapView":{"TopLeft":{"Latitude":39.21932,"Longitude":-8.63832},"BottomRight":{"Latitude":39.18702,"Longitude":-8.6119}},"Address":{"Label":"Almeirim, Portugal","Country":"PRT","County":"Santarém","City":"Almeirim","District":"Almeirim","PostalCode":"2080-044","AdditionalData":[{"value":"Portugal","key":"CountryName"},{"value":"Santarém","key":"CountyName"}]},"MapReference":{"ReferenceId":"589685924","SideOfStreet":"neither","CountryId":"20317122","CountyId":"20320163","CityId":"20320194","DistrictId":"20320195"}}},{"Relevance":1.0,"Distance":4.8,"MatchLevel":"houseNumber","MatchQuality":{"Country":1.0,"County":1.0,"City":1.0,"District":1.0,"Street":[1.0],"HouseNumber":1.0,"PostalCode":1.0},"MatchType":"interpolated","Location":{"LocationId":"NT_81xCtAHPyQi3PGOtqMPpnC_l_915576567_L_zUD","LocationType":"point","DisplayPosition":{"Latitude":39.21039,"Longitude":-8.6282099},"MapView":{"TopLeft":{"Latitude":39.2115142,"Longitude":-8.6296608},"BottomRight":{"Latitude":39.2092659,"Longitude":-8.6267591}},"Address":{"Label":"Rua do Paço 35, 2080-109 Almeirim, Portugal","Country":"PRT","County":"Santarém","City":"Almeirim","District":"Almeirim","Street":"Rua do Paço","HouseNumber":"35","PostalCode":"2080-109","AdditionalData":[{"value":"Portugal","key":"CountryName"},{"value":"Santarém","key":"CountyName"}]},"MapReference":{"ReferenceId":"915576567","Spot":0.1,"SideOfStreet":"left","CountryId":"20317122","CountyId":"20320163","CityId":"20320194","DistrictId":"20320195"}}},{"Relevance":1.0,"Distance":16.0,"MatchLevel":"houseNumber","MatchQuality":{"Country":1.0,"County":1.0,"City":1.0,"District":1.0,"Street":[1.0],"HouseNumber":1.0,"PostalCode":1.0},"MatchType":"interpolated","Location":{"LocationId":"NT_nOj24qAgYGEIzSV.vuWjsB_l_915576566_L_zMD","LocationType":"point","DisplayPosition":{"Latitude":39.2102843,"Longitude":-8.6284269},"MapView":{"TopLeft":{"Latitude":39.2114085,"Longitude":-8.6298778},"BottomRight":{"Latitude":39.2091602,"Longitude":-8.6269761}},"Address":{"Label":"Rua do Paço 33, 2080-109 Almeirim, Portugal","Country":"PRT","County":"Santarém","City":"Almeirim","District":"Almeirim","Street":"Rua do Paço","HouseNumber":"33","PostalCode":"2080-109","AdditionalData":[{"value":"Portugal","key":"CountryName"},{"value":"Santarém","key":"CountyName"}]},"MapReference":{"ReferenceId":"915576566","Spot":0.55,"SideOfStreet":"left","CountryId":"20317122","CountyId":"20320163","CityId":"20320194","DistrictId":"20320195"}}},{"Relevance":1.0,"Distance":30.5,"MatchLevel":"houseNumber","MatchQuality":{"Country":1.0,"County":1.0,"City":1.0,"District":1.0,"Street":[1.0],"HouseNumber":1.0,"PostalCode":1.0},"MatchType":"interpolated","Location":{"LocationId":"NT_hWsS5-z3VwJX6mTZh2BtlC_l_589688417_L_yID","LocationType":"point","DisplayPosition":{"Latitude":39.2103873,"Longitude":-8.6286673},"MapView":{"TopLeft":{"Latitude":39.2115115,"Longitude":-8.6301182},"BottomRight":{"Latitude":39.2092632,"Longitude":-8.6272165}},"Address":{"Label":"Rua Febo Moniz 22, 2080-133 Almeirim, Portugal","Country":"PRT","County":"Santarém","City":"Almeirim","District":"Almeirim","Street":"Rua Febo Moniz","HouseNumber":"22","PostalCode":"2080-133","AdditionalData":[{"value":"Portugal","key":"CountryName"},{"value":"Santarém","key":"CountyName"}]},"MapReference":{"ReferenceId":"589688417","Spot":0.49,"SideOfStreet":"left","CountryId":"20317122","CountyId":"20320163","CityId":"20320194","DistrictId":"20320195"}}},{"Relevance":1.0,"Distance":33.2,"MatchLevel":"houseNumber","MatchQuality":{"Country":1.0,"County":1.0,"City":1.0,"District":1.0,"Street":[1.0],"HouseNumber":1.0,"PostalCode":1.0},"MatchType":"interpolated","Location":{"LocationId":"NT_mxJ2eDP52F0NxkChT8PzmB_l_589688436_R_xcD","LocationType":"point","DisplayPosition":{"Latitude":39.2101066,"Longitude":-8.6282966},"MapView":{"TopLeft":{"Latitude":39.2112308,"Longitude":-8.6297475},"BottomRight":{"Latitude":39.2089825,"Longitude":-8.6268458}},"Address":{"Label":"Rua Dr. Joaquim Duarte Gon. Isabelinha 17, 2080-127 Almeirim, Portugal","Country":"PRT","County":"Santarém","City":"Almeirim","District":"Almeirim","Street":"Rua Dr. Joaquim Duarte Gon. Isabelinha","HouseNumber":"17","PostalCode":"2080-127","AdditionalData":[{"value":"Portugal","key":"CountryName"},{"value":"Santarém","key":"CountyName"}]},"MapReference":{"ReferenceId":"589688436","Spot":0.47,"SideOfStreet":"right","CountryId":"20317122","CountyId":"20320163","CityId":"20320194","DistrictId":"20320195"}}},{"Relevance":1.0,"Distance":40.8,"MatchLevel":"houseNumber","MatchQuality":{"Country":1.0,"County":1.0,"City":1.0,"District":1.0,"Street":[1.0],"HouseNumber":1.0,"PostalCode":1.0},"MatchType":"interpolated","Location":{"LocationId":"NT_x7DgOuAu773YhD3f.PiBoB_l_915576562_L_xETN","LocationType":"point","DisplayPosition":{"Latitude":39.2102663,"Longitude":-8.6277885},"MapView":{"TopLeft":{"Latitude":39.2113905,"Longitude":-8.6292393},"BottomRight":{"Latitude":39.2091422,"Longitude":-8.6263376}},"Address":{"Label":"Rua 5 de Outubro 115, 2080-052 Almeirim, Portugal","Country":"PRT","County":"Santarém","City":"Almeirim","District":"Almeirim","Street":"Rua 5 de Outubro","HouseNumber":"115","PostalCode":"2080-052","AdditionalData":[{"value":"Portugal","key":"CountryName"},{"value":"Santarém","key":"CountyName"}]},"MapReference":{"ReferenceId":"915576562","Spot":0.52,"SideOfStreet":"left","CountryId":"20317122","CountyId":"20320163","CityId":"20320194","DistrictId":"20320195"}}},{"Relevance":1.0,"Distance":45.5,"MatchLevel":"houseNumber","MatchQuality":{"Country":1.0,"County":1.0,"City":1.0,"District":1.0,"Street":[1.0],"HouseNumber":1.0,"PostalCode":1.0},"MatchType":"interpolated","Location":{"LocationId":"NT_DPP5Wpm0U5ezdff8p64CDC_l_589685904_L_zED","LocationType":"point","DisplayPosition":{"Latitude":39.21012,"Longitude":-8.6286975},"MapView":{"TopLeft":{"Latitude":39.2112442,"Longitude":-8.6301483},"BottomRight":{"Latitude":39.2089959,"Longitude":-8.6272467}},"Address":{"Label":"Rua do Paço 31, 2080-187 Almeirim, Portugal","Country":"PRT","County":"Santarém","City":"Almeirim","District":"Almeirim","Street":"Rua do Paço","HouseNumber":"31","PostalCode":"2080-187","AdditionalData":[{"value":"Portugal","key":"CountryName"},{"value":"Santarém","key":"CountyName"}]},"MapReference":{"ReferenceId":"589685904","Spot":0.62,"SideOfStreet":"left","CountryId":"20317122","CountyId":"20320163","CityId":"20320194","DistrictId":"20320195"}}},{"Relevance":1.0,"Distance":50.8,"MatchLevel":"houseNumber","MatchQuality":{"Country":1.0,"County":1.0,"City":1.0,"District":1.0,"Street":[1.0],"HouseNumber":1.0,"PostalCode":1.0},"MatchType":"interpolated","Location":{"LocationId":"NT_3YtDoXv01gkwptgfHEy7WD_l_590294439_R_yAD","LocationType":"point","DisplayPosition":{"Latitude":39.2104245,"Longitude":-8.62897},"MapView":{"TopLeft":{"Latitude":39.2115486,"Longitude":-8.6304208},"BottomRight":{"Latitude":39.2093003,"Longitude":-8.6275192}},"Address":{"Label":"Travessa Doutor Óscar Costa Neves 20, 2080-130 Almeirim, Portugal","Country":"PRT","County":"Santarém","City":"Almeirim","District":"Almeirim","Street":"Travessa Doutor Óscar Costa Neves","HouseNumber":"20","PostalCode":"2080-130","AdditionalData":[{"value":"Portugal","key":"CountryName"},{"value":"Santarém","key":"CountyName"}]},"MapReference":{"ReferenceId":"590294439","Spot":0.67,"SideOfStreet":"right","CountryId":"20317122","CountyId":"20320163","CityId":"20320194","DistrictId":"20320195"}}},{"Relevance":1.0,"Distance":51.6,"MatchLevel":"houseNumber","MatchQuality":{"Country":1.0,"County":1.0,"City":1.0,"District":1.0,"Street":[1.0],"HouseNumber":1.0,"PostalCode":1.0},"MatchType":"interpolated","Location":{"LocationId":"NT_x7DgOuAu773YhD3f.PiBoB_xATO","LocationType":"point","DisplayPosition":{"Latitude":39.21004,"Longitude":-8.62804},"MapView":{"TopLeft":{"Latitude":39.2111642,"Longitude":-8.6294908},"BottomRight":{"Latitude":39.2089158,"Longitude":-8.6265892}},"Address":{"Label":"Rua 5 de Outubro 109, 2080-052 Almeirim, Portugal","Country":"PRT","County":"Santarém","City":"Almeirim","District":"Almeirim","Street":"Rua 5 de Outubro","HouseNumber":"109","PostalCode":"2080-052","AdditionalData":[{"value":"Portugal","key":"CountryName"},{"value":"Santarém","key":"CountyName"}]},"MapReference":{"ReferenceId":"589685916","Spot":0.34,"SideOfStreet":"left","CountryId":"20317122","CountyId":"20320163","CityId":"20320194","DistrictId":"20320195","AddressId":"342542769","RoadLinkId":"70508723"}}},{"Relevance":1.0,"Distance":52.4,"MatchLevel":"street","MatchQuality":{"Country":1.0,"County":1.0,"City":1.0,"District":1.0,"PostalCode":1.0},"Location":{"LocationId":"NT_0UrGYYojNFwFoR0qfRQfnA_l_590294438_R","LocationType":"point","DisplayPosition":{"Latitude":39.21023,"Longitude":-8.62783},"MapView":{"TopLeft":{"Latitude":39.21023,"Longitude":-8.62783},"BottomRight":{"Latitude":39.21008,"Longitude":-8.62739}},"Address":{"Label":"2080 Almeirim, Portugal","Country":"PRT","County":"Santarém","City":"Almeirim","District":"Almeirim","PostalCode":"2080","AdditionalData":[{"value":"Portugal","key":"CountryName"},{"value":"Santarém","key":"CountyName"}]},"MapReference":{"ReferenceId":"590294438","Spot":1.0,"SideOfStreet":"right","CountryId":"20317122","CountyId":"20320163","CityId":"20320194","DistrictId":"20320195"}}}]}]}}