{"Response":{"MetaInfo":{"Timestamp":"2020-03-28T09:38:59.820+0000","NextPageInformation":"2"},"View":[{"_type":"SearchResultsViewType","ViewId":0,"Result":[{"Relevance":1.0,"Distance":0.0,"Direction":0.0,"MatchLevel":"city","MatchQuality":{"Country":1.0,"State":1.0,"County":1.0,"City":1.0,"PostalCode":1.0},"Location":{"LocationId":"NT_G3Uk4mGYA39XTXhRBYvEyD","LocationType":"point","DisplayPosition":{"Latitude":39.2600562,"Longitude":-1.9104551},"MapView":{"TopLeft":{"Latitude":39.3048,"Longitude":-2.05893},"BottomRight":{"Latitude":39.15771,"Longitude":-1.82367}},"Address":{"Label":"Tarazona de la Mancha, Castilla-La Mancha, España","Country":"ESP","State":"Castilla-La Mancha","County":"Albacete","City":"Tarazona de la Mancha","PostalCode":"02100","AdditionalData":[{"value":"España","key":"CountryName"},{"value":"Castilla-La Mancha","key":"StateName"},{"value":"Albacete","key":"CountyName"}]},"MapReference":{"ReferenceId":"570724502","SideOfStreet":"neither","CountryId":"20215059","StateId":"20221903","CountyId":"20221904","CityId":"20294168"}}},{"Relevance":1.0,"Distance":5.6,"MatchLevel":"houseNumber","MatchQuality":{"Country":1.0,"State":1.0,"County":1.0,"City":1.0,"Street":[1.0],"HouseNumber":1.0,"PostalCode":1.0},"MatchType":"interpolated","Location":{"LocationId":"NT_Sw.ts-rC41xlahXHVyFhEC_5YD","LocationType":"point","DisplayPosition":{"Latitude":39.26006,"Longitude":-1.91052},"MapView":{"TopLeft":{"Latitude":39.2611842,"Longitude":-1.9119719},"BottomRight":{"Latitude":39.2589358,"Longitude":-1.9090681}},"Address":{"Label":"Calle Virgen, 96, 02100 Tarazona de la Mancha (Albacete), España","Country":"ESP","State":"Castilla-La Mancha","County":"Albacete","City":"Tarazona de la Mancha","Street":"Calle Virgen","HouseNumber":"96","PostalCode":"02100","AdditionalData":[{"value":"España","key":"CountryName"},{"value":"Castilla-La Mancha","key":"StateName"},{"value":"Albacete","key":"CountyName"}]},"MapReference":{"ReferenceId":"569228163","Spot":0.15,"SideOfStreet":"left","CountryId":"20215059","StateId":"20221903","CountyId":"20221904","CityId":"20294168","AddressId":"348250470","RoadLinkId":"66006233"}}},{"Relevance":1.0,"Distance":9.8,"MatchLevel":"houseNumber","MatchQuality":{"Country":1.0,"State":1.0,"County":1.0,"City":1.0,"Street":[1.0],"HouseNumber":1.0,"PostalCode":1.0},"MatchType":"interpolated","Location":{"LocationId":"NT_1wfXbbtOQU0GgLIR4h2jzA_xA","LocationType":"point","DisplayPosition":{"Latitude":39.26005,"Longitude":-1.91034},"MapView":{"TopLeft":{"Latitude":39.2611742,"Longitude":-1.9117919},"BottomRight":{"Latitude":39.2589258,"Longitude":-1.9088881}},"Address":{"Label":"Calle Doctor Fleming, 1, 02100 Tarazona de la Mancha (Albacete), España","Country":"ESP","State":"Castilla-La Mancha","County":"Albacete","City":"Tarazona de la Mancha","Street":"Calle Doctor Fleming","HouseNumber":"1","PostalCode":"02100","AdditionalData":[{"value":"España","key":"CountryName"},{"value":"Castilla-La Mancha","key":"StateName"},{"value":"Albacete","key":"CountyName"}]},"MapReference":{"ReferenceId":"570724548","Spot":0.37,"SideOfStreet":"left","CountryId":"20215059","StateId":"20221903","CountyId":"20221904","CityId":"20294168","AddressId":"348336937","RoadLinkId":"66244490"}}},{"Relevance":1.0,"Distance":19.8,"MatchLevel":"houseNumber","MatchQuality":{"Country":1.0,"State":1.0,"County":1.0,"City":1.0,"Street":[1.0],"HouseNumber":1.0,"PostalCode":1.0},"MatchType":"interpolated","Location":{"LocationId":"NT_Sw.ts-rC41xlahXHVyFhEC_5UD","LocationType":"point","DisplayPosition":{"Latitude":39.25988,"Longitude":-1.91049},"MapView":{"TopLeft":{"Latitude":39.2610042,"Longitude":-1.9119419},"BottomRight":{"Latitude":39.2587558,"Longitude":-1.9090381}},"Address":{"Label":"Calle Virgen, 95, 02100 Tarazona de la Mancha (Albacete), España","Country":"ESP","State":"Castilla-La Mancha","County":"Albacete","City":"Tarazona de la Mancha","Street":"Calle Virgen","HouseNumber":"95","PostalCode":"02100","AdditionalData":[{"value":"España","key":"CountryName"},{"value":"Castilla-La Mancha","key":"StateName"},{"value":"Albacete","key":"CountyName"}]},"MapReference":{"ReferenceId":"569228162","Spot":0.23,"SideOfStreet":"right","CountryId":"20215059","StateId":"20221903","CountyId":"20221904","CityId":"20294168","AddressId":"348249608","RoadLinkId":"65427377"}}},{"Relevance":1.0,"Distance":24.4,"MatchLevel":"street","MatchQuality":{"Country":1.0,"State":1.0,"County":1.0,"City":1.0,"PostalCode":1.0},"Location":{"LocationId":"NT_lwgyLiKmfhfPVmocjvKISC_l_1241356867_R","LocationType":"point","DisplayPosition":{"Latitude":39.2598378,"Longitude":-1.9104278},"MapView":{"TopLeft":{"Latitude":39.25984,"Longitude":-1.91049},"BottomRight":{"Latitude":39.25971,"Longitude":-1.91021}},"Address":{"Label":"02100 Tarazona de la Mancha (Albacete), España","Country":"ESP","State":"Castilla-La Mancha","County":"Albacete","City":"Tarazona de la Mancha","PostalCode":"02100","AdditionalData":[{"value":"España","key":"CountryName"},{"value":"Castilla-La Mancha","key":"StateName"},{"value":"Albacete","key":"CountyName"}]},"MapReference":{"ReferenceId":"1241356867","Spot":0.82,"SideOfStreet":"right","CountryId":"20215059","StateId":"20221903","CountyId":"20221904","CityId":"20294168"}}},{"Relevance":1.0,"Distance":25.3,"MatchLevel":"street","MatchQuality":{"Country":1.0,"State":1.0,"County":1.0,"City":1.0,"PostalCode":1.0},"Location":{"LocationId":"NT_lwgyLiKmfhfPVmocjvKISC_l_1241356866_L","LocationType":"point","DisplayPosition":{"Latitude":39.25983,"Longitude":-1.91049},"MapView":{"TopLeft":{"Latitude":39.25983,"Longitude":-1.91057},"BottomRight":{"Latitude":39.25976,"Longitude":-1.91049}},"Address":{"Label":"02100 Tarazona de la Mancha (Albacete), España","Country":"ESP","State":"Castilla-La Mancha","County":"Albacete","City":"Tarazona de la Mancha","PostalCode":"02100","AdditionalData":[{"value":"España","key":"CountryName"},{"value":"Castilla-La Mancha","key":"StateName"},{"value":"Albacete","key":"CountyName"}]},"MapReference":{"ReferenceId":"1241356866","Spot":1.0,"SideOfStreet":"left","CountryId":"20215059","StateId":"20221903","CountyId":"20221904","CityId":"20294168"}}},{"Relevance":1.0,"Distance":32.8,"MatchLevel":"houseNumber","MatchQuality":{"Country":1.0,"State":1.0,"County":1.0,"City":1.0,"Street":[1.0],"HouseNumber":1.0,"PostalCode":1.0},"MatchType":"interpolated","Location":{"LocationId":"NT_In1cyFUB2mVwKcvfl9XU4C_xA","LocationType":"point","DisplayPosition":{"Latitude":39.26017,"Longitude":-1.91083},"MapView":{"TopLeft":{"Latitude":39.2612942,"Longitude":-1.9122819},"BottomRight":{"Latitude":39.2590458,"Longitude":-1.9093781}},"Address":{"Label":"Calle Las Cruces, 1, 02100 Tarazona de la Mancha (Albacete), España","Country":"ESP","State":"Castilla-La Mancha","County":"Albacete","City":"Tarazona de la Mancha","Street":"Calle Las Cruces","HouseNumber":"1","PostalCode":"02100","AdditionalData":[{"value":"España","key":"CountryName"},{"value":"Castilla-La Mancha","key":"StateName"},{"value":"Albacete","key":"CountyName"}]},"MapReference":{"ReferenceId":"570724353","Spot":0.28,"SideOfStreet":"right","CountryId":"20215059","StateId":"20221903","CountyId":"20221904","CityId":"20294168","AddressId":"348254904","RoadLinkId":"65669943"}}},{"Relevance":1.0,"Distance":34.4,"MatchLevel":"street","MatchQuality":{"Country":1.0,"State":1.0,"County":1.0,"City":1.0,"PostalCode":1.0},"Location":{"LocationId":"NT_lwgyLiKmfhfPVmocjvKISC_l_1241356865_R","LocationType":"point","DisplayPosition":{"Latitude":39.25976,"Longitude":-1.91057},"MapView":{"TopLeft":{"Latitude":39.25976,"Longitude":-1.91057},"BottomRight":{"Latitude":39.25965,"Longitude":-1.91042}},"Address":{"Label":"02100 Tarazona de la Mancha (Albacete), España","Country":"ESP","State":"Castilla-La Mancha","County":"Albacete","City":"Tarazona de la Mancha","PostalCode":"02100","AdditionalData":[{"value":"España","key":"CountryName"},{"value":"Castilla-La Mancha","key":"StateName"},{"value":"Albacete","key":"CountyName"}]},"MapReference":{"ReferenceId":"1241356865","Spot":1.0,"SideOfStreet":"right","CountryId":"20215059","StateId":"20221903","CountyId":"20221904","CityId":"20294168"}}},{"Relevance":1.0,"Distance":36.9,"MatchLevel":"houseNumber","MatchQuality":{"Country":1.0,"State":1.0,"County":1.0,"City":1.0,"Street":[1.0],"HouseNumber":1.0,"PostalCode":1.0},"MatchType":"interpolated","Location":{"LocationId":"NT_7HJc.OljH7lKchJAcEVaEC_4UDR","LocationType":"point","DisplayPosition":{"Latitude":39.26014,"Longitude":-1.91004},"MapView":{"TopLeft":{"Latitude":39.2612642,"Longitude":-1.9114919},"BottomRight":{"Latitude":39.2590158,"Longitude":-1.9085881}},"Address":{"Label":"Calle Padre Simón, 85D, 02100 Tarazona de la Mancha (Albacete), España","Country":"ESP","State":"Castilla-La Mancha","County":"Albacete","City":"Tarazona de la Mancha","Street":"Calle Padre Simón","HouseNumber":"85D","PostalCode":"02100","AdditionalData":[{"value":"España","key":"CountryName"},{"value":"Castilla-La Mancha","key":"StateName"},{"value":"Albacete","key":"CountyName"}]},"MapReference":{"ReferenceId":"570724527","Spot":0.13,"SideOfStreet":"right","CountryId":"20215059","StateId":"20221903","CountyId":"20221904","CityId":"20294168","AddressId":"348309858","RoadLinkId":"66160591"}}},{"Relevance":1.0,"Distance":38.9,"MatchLevel":"houseNumber","MatchQuality":{"Country":1.0,"State":1.0,"County":1.0,"City":1.0,"Street":[1.0],"HouseNumber":1.0,"PostalCode":1.0},"MatchType":"interpolated","Location":{"LocationId":"NT_xbexchd7pPIe-I0xnFc2IA_yA","LocationType":"point","DisplayPosition":{"Latitude":39.25977,"Longitude":-1.91081},"MapView":{"TopLeft":{"Latitude":39.2608942,"Longitude":-1.9122619},"BottomRight":{"Latitude":39.2586458,"Longitude":-1.9093581}},"Address":{"Label":"Avenida La Roda, 2, 02100 Tarazona de la Mancha (Albacete), España","Country":"ESP","State":"Castilla-La Mancha","County":"Albacete","City":"Tarazona de la Mancha","Street":"Avenida La Roda","HouseNumber":"2","PostalCode":"02100","AdditionalData":[{"value":"España","key":"CountryName"},{"value":"Castilla-La Mancha","key":"StateName"},{"value":"Albacete","key":"CountyName"}]},"MapReference":{"ReferenceId":"569227878","Spot":0.84,"SideOfStreet":"left","CountryId":"20215059","StateId":"20221903","CountyId":"20221904","CityId":"20294168","AddressId":"348642994","RoadLinkId":"65529750"}}}]}]}}