{"Response":{"MetaInfo":{"Timestamp":"2020-03-28T09:42:51.844+0000","NextPageInformation":"2"},"View":[{"_type":"SearchResultsViewType","ViewId":0,"Result":[{"Relevance":1.0,"Distance":0.0,"Direction":0.0,"MatchLevel":"city","MatchQuality":{"Country":1.0,"State":1.0,"County":1.0,"City":1.0,"PostalCode":1.0},"Location":{"LocationId":"NT_dqETCV0VnIFf.HKyMPH7nB","LocationType":"point","DisplayPosition":{"Latitude":39.2408703,"Longitude":-3.4255307},"MapView":{"TopLeft":{"Latitude":39.27938,"Longitude":-3.47365},"BottomRight":{"Latitude":39.14121,"Longitude":-3.38378}},"Address":{"Label":"Villarta de San Juan, Castilla-La Mancha, España","Country":"ESP","State":"Castilla-La Mancha","County":"Ciudad Real","City":"Villarta de San Juan","PostalCode":"13210","AdditionalData":[{"value":"España","key":"CountryName"},{"value":"Castilla-La Mancha","key":"StateName"},{"value":"Ciudad Real","key":"CountyName"}]},"MapReference":{"ReferenceId":"918023200","SideOfStreet":"neither","CountryId":"20215059","StateId":"20221903","CountyId":"20221905","CityId":"20296856"}}},{"Relevance":1.0,"Distance":15.0,"MatchLevel":"street","MatchQuality":{"Country":1.0,"State":1.0,"County":1.0,"City":1.0,"Street":[1.0],"PostalCode":1.0},"Location":{"LocationId":"NT_AsbSrQ8YPHrVZsrZpzXm0C_l_1224563207_L","LocationType":"point","DisplayPosition":{"Latitude":39.24098,"Longitude":-3.42543},"MapView":{"TopLeft":{"Latitude":39.24098,"Longitude":-3.42543},"BottomRight":{"Latitude":39.24091,"Longitude":-3.42532}},"Address":{"Label":"Calle Cervantes, 13210 Villarta de San Juan (Ciudad Real), España","Country":"ESP","State":"Castilla-La Mancha","County":"Ciudad Real","City":"Villarta de San Juan","Street":"Calle Cervantes","PostalCode":"13210","AdditionalData":[{"value":"España","key":"CountryName"},{"value":"Castilla-La Mancha","key":"StateName"},{"value":"Ciudad Real","key":"CountyName"}]},"MapReference":{"ReferenceId":"1224563207","Spot":1.0,"SideOfStreet":"left","CountryId":"20215059","StateId":"20221903","CountyId":"20221905","CityId":"20296856"}}},{"Relevance":1.0,"Distance":15.2,"MatchLevel":"street","MatchQuality":{"Country":1.0,"State":1.0,"County":1.0,"City":1.0,"Street":[1.0],"PostalCode":1.0},"Location":{"LocationId":"NT_zNB2TaPVtA1TP6xqbR49eB_l_1224560846_L","LocationType":"point","DisplayPosition":{"Latitude":39.2409888,"Longitude":-3.4254418},"MapView":{"TopLeft":{"Latitude":39.24123,"Longitude":-3.4258},"BottomRight":{"Latitude":39.24098,"Longitude":-3.42543}},"Address":{"Label":"Calle Cervantes, 13210 Villarta de San Juan (Ciudad Real), España","Country":"ESP","State":"Castilla-La Mancha","County":"Ciudad Real","City":"Villarta de San Juan","Street":"Calle Cervantes","PostalCode":"13210","AdditionalData":[{"value":"España","key":"CountryName"},{"value":"Castilla-La Mancha","key":"StateName"},{"value":"Ciudad Real","key":"CountyName"}]},"MapReference":{"ReferenceId":"1224560846","Spot":0.03,"SideOfStreet":"left","CountryId":"20215059","StateId":"20221903","CountyId":"20221905","CityId":"20296856"}}},{"Relevance":1.0,"Distance":17.0,"MatchLevel":"houseNumber","MatchQuality":{"Country":1.0,"State":1.0,"County":1.0,"City":1.0,"Street":[1.0],"HouseNumber":1.0,"PostalCode":1.0},"MatchType":"interpolated","Location":{"LocationId":"NT_AsbSrQ8YPHrVZsrZpzXm0C_yA","LocationType":"point","DisplayPosition":{"Latitude":39.24088,"Longitude":-3.42528},"MapView":{"TopLeft":{"Latitude":39.2420042,"Longitude":-3.4267315},"BottomRight":{"Latitude":39.2397558,"Longitude":-3.4238285}},"Address":{"Label":"Calle Cervantes, 2, 13210 Villarta de San Juan (Ciudad Real), España","Country":"ESP","State":"Castilla-La Mancha","County":"Ciudad Real","City":"Villarta de San Juan","Street":"Calle Cervantes","HouseNumber":"2","PostalCode":"13210","AdditionalData":[{"value":"España","key":"CountryName"},{"value":"Castilla-La Mancha","key":"StateName"},{"value":"Ciudad Real","key":"CountyName"}]},"MapReference":{"ReferenceId":"1224563206","Spot":0.83,"SideOfStreet":"left","CountryId":"20215059","StateId":"20221903","CountyId":"20221905","CityId":"20296856","AddressId":"348627052","RoadLinkId":"542688503"}}},{"Relevance":1.0,"Distance":46.2,"MatchLevel":"street","MatchQuality":{"Country":1.0,"State":1.0,"County":1.0,"City":1.0,"Street":[1.0],"PostalCode":1.0},"Location":{"LocationId":"NT_zNB2TaPVtA1TP6xqbR49eB_l_918023209_L","LocationType":"point","DisplayPosition":{"Latitude":39.24123,"Longitude":-3.4258},"MapView":{"TopLeft":{"Latitude":39.24139,"Longitude":-3.42605},"BottomRight":{"Latitude":39.24123,"Longitude":-3.4258}},"Address":{"Label":"N-IV, 13210 Villarta de San Juan (Ciudad Real), España","Country":"ESP","State":"Castilla-La Mancha","County":"Ciudad Real","City":"Villarta de San Juan","Street":"N-IV","PostalCode":"13210","AdditionalData":[{"value":"España","key":"CountryName"},{"value":"Castilla-La Mancha","key":"StateName"},{"value":"Ciudad Real","key":"CountyName"}]},"MapReference":{"ReferenceId":"918023209","Spot":0.0,"SideOfStreet":"left","CountryId":"20215059","StateId":"20221903","CountyId":"20221905","CityId":"20296856"}}},{"Relevance":1.0,"Distance":49.4,"MatchLevel":"houseNumber","MatchQuality":{"Country":1.0,"State":1.0,"County":1.0,"City":1.0,"Street":[1.0],"HouseNumber":1.0,"PostalCode":1.0},"MatchType":"interpolated","Location":{"LocationId":"NT_AsbSrQ8YPHrVZsrZpzXm0C_0A","LocationType":"point","DisplayPosition":{"Latitude":39.24068,"Longitude":-3.42498},"MapView":{"TopLeft":{"Latitude":39.2418042,"Longitude":-3.4264315},"BottomRight":{"Latitude":39.2395558,"Longitude":-3.4235285}},"Address":{"Label":"Calle Cervantes, 4, 13210 Villarta de San Juan (Ciudad Real), España","Country":"ESP","State":"Castilla-La Mancha","County":"Ciudad Real","City":"Villarta de San Juan","Street":"Calle Cervantes","HouseNumber":"4","PostalCode":"13210","AdditionalData":[{"value":"España","key":"CountryName"},{"value":"Castilla-La Mancha","key":"StateName"},{"value":"Ciudad Real","key":"CountyName"}]},"MapReference":{"ReferenceId":"1224581261","Spot":0.1,"SideOfStreet":"left","CountryId":"20215059","StateId":"20221903","CountyId":"20221905","CityId":"20296856","AddressId":"348743488","RoadLinkId":"542710532"}}},{"Relevance":1.0,"Distance":56.5,"MatchLevel":"houseNumber","MatchQuality":{"Country":1.0,"State":1.0,"County":1.0,"City":1.0,"Street":[1.0],"HouseNumber":1.0,"PostalCode":1.0},"MatchType":"interpolated","Location":{"LocationId":"NT_AsbSrQ8YPHrVZsrZpzXm0C_1A","LocationType":"point","DisplayPosition":{"Latitude":39.24065,"Longitude":-3.42494},"MapView":{"TopLeft":{"Latitude":39.2417742,"Longitude":-3.4263915},"BottomRight":{"Latitude":39.2395258,"Longitude":-3.4234885}},"Address":{"Label":"Calle Cervantes, 5, 13210 Villarta de San Juan (Ciudad Real), España","Country":"ESP","State":"Castilla-La Mancha","County":"Ciudad Real","City":"Villarta de San Juan","Street":"Calle Cervantes","HouseNumber":"5","PostalCode":"13210","AdditionalData":[{"value":"España","key":"CountryName"},{"value":"Castilla-La Mancha","key":"StateName"},{"value":"Ciudad Real","key":"CountyName"}]},"MapReference":{"ReferenceId":"1224581260","Spot":0.77,"SideOfStreet":"right","CountryId":"20215059","StateId":"20221903","CountyId":"20221905","CityId":"20296856","AddressId":"348743490","RoadLinkId":"542710531"}}},{"Relevance":1.0,"Distance":65.6,"MatchLevel":"houseNumber","MatchQuality":{"Country":1.0,"State":1.0,"County":1.0,"City":1.0,"Street":[1.0],"HouseNumber":1.0,"PostalCode":1.0},"MatchType":"interpolated","Location":{"LocationId":"NT_TghmPEBTK8DzVEDnOVx15B_l_567517658_R_xAD","LocationType":"point","DisplayPosition":{"Latitude":39.2405848,"Longitude":-3.4263459},"MapView":{"TopLeft":{"Latitude":39.2417089,"Longitude":-3.4277973},"BottomRight":{"Latitude":39.2394606,"Longitude":-3.4248944}},"Address":{"Label":"Calle de la Ronda, 10, 13210 Villarta de San Juan (Ciudad Real), España","Country":"ESP","State":"Castilla-La Mancha","County":"Ciudad Real","City":"Villarta de San Juan","Street":"Calle de la Ronda","HouseNumber":"10","PostalCode":"13210","AdditionalData":[{"value":"España","key":"CountryName"},{"value":"Castilla-La Mancha","key":"StateName"},{"value":"Ciudad Real","key":"CountyName"}]},"MapReference":{"ReferenceId":"567517658","Spot":0.48,"SideOfStreet":"right","CountryId":"20215059","StateId":"20221903","CountyId":"20221905","CityId":"20296856"}}},{"Relevance":1.0,"Distance":67.7,"MatchLevel":"houseNumber","MatchQuality":{"Country":1.0,"State":1.0,"County":1.0,"City":1.0,"Street":[1.0],"HouseNumber":1.0,"PostalCode":1.0},"MatchType":"interpolated","Location":{"LocationId":"NT_AsbSrQ8YPHrVZsrZpzXm0C_2A","LocationType":"point","DisplayPosition":{"Latitude":39.24057,"Longitude":-3.42483},"MapView":{"TopLeft":{"Latitude":39.2416942,"Longitude":-3.4262815},"BottomRight":{"Latitude":39.2394458,"Longitude":-3.4233785}},"Address":{"Label":"Calle Cervantes, 6, 13210 Villarta de San Juan (Ciudad Real), España","Country":"ESP","State":"Castilla-La Mancha","County":"Ciudad Real","City":"Villarta de San Juan","Street":"Calle Cervantes","HouseNumber":"6","PostalCode":"13210","AdditionalData":[{"value":"España","key":"CountryName"},{"value":"Castilla-La Mancha","key":"StateName"},{"value":"Ciudad Real","key":"CountyName"}]},"MapReference":{"ReferenceId":"1224560855","Spot":0.92,"SideOfStreet":"left","CountryId":"20215059","StateId":"20221903","CountyId":"20221905","CityId":"20296856","AddressId":"348743489","RoadLinkId":"542685389"}}},{"Relevance":1.0,"Distance":73.1,"MatchLevel":"street","MatchQuality":{"Country":1.0,"State":1.0,"County":1.0,"City":1.0,"Street":[1.0],"PostalCode":1.0},"Location":{"LocationId":"NT_zNB2TaPVtA1TP6xqbR49eB_l_1224560851_L","LocationType":"point","DisplayPosition":{"Latitude":39.24139,"Longitude":-3.42605},"MapView":{"TopLeft":{"Latitude":39.24151,"Longitude":-3.42623},"BottomRight":{"Latitude":39.24139,"Longitude":-3.42605}},"Address":{"Label":"N-IV, 13210 Villarta de San Juan (Ciudad Real), España","Country":"ESP","State":"Castilla-La Mancha","County":"Ciudad Real","City":"Villarta de San Juan","Street":"N-IV","PostalCode":"13210","AdditionalData":[{"value":"España","key":"CountryName"},{"value":"Castilla-La Mancha","key":"StateName"},{"value":"Ciudad Real","key":"CountyName"}]},"MapReference":{"ReferenceId":"1224560851","Spot":0.0,"SideOfStreet":"left","CountryId":"20215059","StateId":"20221903","CountyId":"20221905","CityId":"20296856"}}}]}]}}