{"Response":{"MetaInfo":{"Timestamp":"2020-03-28T11:26:14.007+0000","NextPageInformation":"2"},"View":[{"_type":"SearchResultsViewType","ViewId":0,"Result":[{"Relevance":1.0,"Distance":-8990.2,"MatchLevel":"landmark","MatchQuality":{"Country":1.0,"State":1.0,"Name":1.0},"Location":{"LocationId":"NT_5HPOzDeRDZVM2ZcDmsdktD","LocationType":"island","Name":"Sardegna","DisplayPosition":{"Latitude":40.06161,"Longitude":9.09799},"MapView":{"TopLeft":{"Latitude":41.25915,"Longitude":8.13115},"BottomRight":{"Latitude":38.86407,"Longitude":9.82883}},"Address":{"Label":"Italia","Country":"ITA","State":"Sardegna","AdditionalData":[{"value":"Italia","key":"CountryName"},{"value":"Sardegna","key":"StateName"}]},"MapReference":{"CountryId":"20110484","StateId":"20220774","PlaceId":"60827885"}}},{"Relevance":1.0,"Distance":0.0,"Direction":0.0,"MatchLevel":"city","MatchQuality":{"Country":1.0,"State":1.0,"County":1.0,"City":1.0,"PostalCode":1.0},"Location":{"LocationId":"NT_rJOL2TOfTVaT6W2KUAvX1D","LocationType":"point","DisplayPosition":{"Latitude":39.31614,"Longitude":8.5383659},"MapView":{"TopLeft":{"Latitude":39.38239,"Longitude":8.37319},"BottomRight":{"Latitude":39.2109,"Longitude":8.71025}},"Address":{"Label":"Iglesias, Sardegna, Italia","Country":"ITA","State":"Sardegna","County":"SU","City":"Iglesias","PostalCode":"09016","AdditionalData":[{"value":"Italia","key":"CountryName"},{"value":"Sardegna","key":"StateName"},{"value":"Sud Sardegna","key":"CountyName"}]},"MapReference":{"ReferenceId":"958206232","SideOfStreet":"neither","CountryId":"20110484","StateId":"20220774","CountyId":"28039807","CityId":"28040167"}}},{"Relevance":1.0,"Distance":104.9,"MatchLevel":"houseNumber","MatchQuality":{"Country":1.0,"State":1.0,"County":1.0,"City":1.0,"Street":[1.0],"HouseNumber":1.0,"PostalCode":1.0},"MatchType":"interpolated","Location":{"LocationId":"NT_LOH7qxRIa4MUvGtHhjxKJC_l_77540275_R_yID","LocationType":"point","DisplayPosition":{"Latitude":39.3157317,"Longitude":8.5394646},"MapView":{"TopLeft":{"Latitude":39.3168559,"Longitude":8.5380116},"BottomRight":{"Latitude":39.3146076,"Longitude":8.5409176}},"Address":{"Label":"Via San Leonardo, 22, 09016 Iglesias SU, Italia","Country":"ITA","State":"Sardegna","County":"SU","City":"Iglesias","Street":"Via San Leonardo","HouseNumber":"22","PostalCode":"09016","AdditionalData":[{"value":"Italia","key":"CountryName"},{"value":"Sardegna","key":"StateName"},{"value":"Sud Sardegna","key":"CountyName"}]},"MapReference":{"ReferenceId":"77540275","Spot":0.76,"SideOfStreet":"right","CountryId":"20110484","StateId":"20220774","CountyId":"28039807","CityId":"28040167"}}},{"Relevance":1.0,"Distance":123.4,"MatchLevel":"street","MatchQuality":{"Country":1.0,"State":1.0,"County":1.0,"City":1.0,"PostalCode":1.0},"Location":{"LocationId":"NT_YrDT--drQiG9e7Gpfmi5SA_l_1063437623_L","LocationType":"point","DisplayPosition":{"Latitude":39.3160302,"Longitude":8.5397931},"MapView":{"TopLeft":{"Latitude":39.31631,"Longitude":8.53978},"BottomRight":{"Latitude":39.31586,"Longitude":8.53984}},"Address":{"Label":"09016 Iglesias SU, Italia","Country":"ITA","State":"Sardegna","County":"SU","City":"Iglesias","PostalCode":"09016","AdditionalData":[{"value":"Italia","key":"CountryName"},{"value":"Sardegna","key":"StateName"},{"value":"Sud Sardegna","key":"CountyName"}]},"MapReference":{"ReferenceId":"1063437623","Spot":0.38,"SideOfStreet":"left","CountryId":"20110484","StateId":"20220774","CountyId":"28039807","CityId":"28040167"}}},{"Relevance":1.0,"Distance":125.4,"MatchLevel":"houseNumber","MatchQuality":{"Country":1.0,"State":1.0,"County":1.0,"City":1.0,"Street":[1.0],"HouseNumber":1.0,"PostalCode":1.0},"MatchType":"interpolated","Location":{"LocationId":"NT_Sgz.OMMa0UMEsFkiaoKleC_l_77540814_L_yA","LocationType":"point","DisplayPosition":{"Latitude":39.3158067,"Longitude":8.5398267},"MapView":{"TopLeft":{"Latitude":39.3169308,"Longitude":8.5383736},"BottomRight":{"Latitude":39.3146825,"Longitude":8.5412797}},"Address":{"Label":"Via Gallura, 2, 09016 Iglesias SU, Italia","Country":"ITA","State":"Sardegna","County":"SU","City":"Iglesias","Street":"Via Gallura","HouseNumber":"2","PostalCode":"09016","AdditionalData":[{"value":"Italia","key":"CountryName"},{"value":"Sardegna","key":"StateName"},{"value":"Sud Sardegna","key":"CountyName"}]},"MapReference":{"ReferenceId":"77540814","Spot":0.67,"SideOfStreet":"left","CountryId":"20110484","StateId":"20220774","CountyId":"28039807","CityId":"28040167"}}},{"Relevance":1.0,"Distance":134.5,"MatchLevel":"houseNumber","MatchQuality":{"Country":1.0,"State":1.0,"County":1.0,"City":1.0,"Street":[1.0],"HouseNumber":1.0,"PostalCode":1.0},"MatchType":"interpolated","Location":{"LocationId":"NT_lGy-K2UfqxFnfgGDC.p92B_l_77540277_L_xA","LocationType":"point","DisplayPosition":{"Latitude":39.31591,"Longitude":8.5399301},"MapView":{"TopLeft":{"Latitude":39.3170342,"Longitude":8.5384771},"BottomRight":{"Latitude":39.3147859,"Longitude":8.5413832}},"Address":{"Label":"Via Marghine, 1, 09016 Iglesias SU, Italia","Country":"ITA","State":"Sardegna","County":"SU","City":"Iglesias","Street":"Via Marghine","HouseNumber":"1","PostalCode":"09016","AdditionalData":[{"value":"Italia","key":"CountryName"},{"value":"Sardegna","key":"StateName"},{"value":"Sud Sardegna","key":"CountyName"}]},"MapReference":{"ReferenceId":"77540277","Spot":0.08,"SideOfStreet":"left","CountryId":"20110484","StateId":"20220774","CountyId":"28039807","CityId":"28040167"}}},{"Relevance":1.0,"Distance":144.1,"MatchLevel":"street","MatchQuality":{"Country":1.0,"State":1.0,"County":1.0,"City":1.0,"Street":[1.0],"PostalCode":1.0},"Location":{"LocationId":"NT_Cev6Gxqv5IJbJ4xoPBRLZA_l_77541417_L","LocationType":"point","DisplayPosition":{"Latitude":39.3155705,"Longitude":8.539871},"MapView":{"TopLeft":{"Latitude":39.3157,"Longitude":8.53948},"BottomRight":{"Latitude":39.31455,"Longitude":8.53992}},"Address":{"Label":"Via Limbara, 09016 Iglesias SU, Italia","Country":"ITA","State":"Sardegna","County":"SU","City":"Iglesias","Street":"Via Limbara","PostalCode":"09016","AdditionalData":[{"value":"Italia","key":"CountryName"},{"value":"Sardegna","key":"StateName"},{"value":"Sud Sardegna","key":"CountyName"}]},"MapReference":{"ReferenceId":"77541417","Spot":0.89,"SideOfStreet":"left","CountryId":"20110484","StateId":"20220774","CountyId":"28039807","CityId":"28040167"}}},{"Relevance":1.0,"Distance":157.0,"MatchLevel":"houseNumber","MatchQuality":{"Country":1.0,"State":1.0,"County":1.0,"City":1.0,"Street":[1.0],"HouseNumber":1.0,"PostalCode":1.0},"MatchType":"interpolated","Location":{"LocationId":"NT_Sgz.OMMa0UMEsFkiaoKleC_l_77540734_L_4A","LocationType":"point","DisplayPosition":{"Latitude":39.3155706,"Longitude":8.5400542},"MapView":{"TopLeft":{"Latitude":39.3166948,"Longitude":8.5386012},"BottomRight":{"Latitude":39.3144465,"Longitude":8.5415073}},"Address":{"Label":"Via Gallura, 8, 09016 Iglesias SU, Italia","Country":"ITA","State":"Sardegna","County":"SU","City":"Iglesias","Street":"Via Gallura","HouseNumber":"8","PostalCode":"09016","AdditionalData":[{"value":"Italia","key":"CountryName"},{"value":"Sardegna","key":"StateName"},{"value":"Sud Sardegna","key":"CountyName"}]},"MapReference":{"ReferenceId":"77540734","Spot":0.5,"SideOfStreet":"left","CountryId":"20110484","StateId":"20220774","CountyId":"28039807","CityId":"28040167"}}},{"Relevance":1.0,"Distance":173.4,"MatchLevel":"street","MatchQuality":{"Country":1.0,"State":1.0,"County":1.0,"City":1.0,"Street":[1.0],"PostalCode":1.0},"Location":{"LocationId":"NT_LOH7qxRIa4MUvGtHhjxKJC_l_77540276_L","LocationType":"point","DisplayPosition":{"Latitude":39.3147,"Longitude":8.53914},"MapView":{"TopLeft":{"Latitude":39.3147,"Longitude":8.53904},"BottomRight":{"Latitude":39.31434,"Longitude":8.53914}},"Address":{"Label":"Via San Leonardo, 09016 Iglesias SU, Italia","Country":"ITA","State":"Sardegna","County":"SU","City":"Iglesias","Street":"Via San Leonardo","PostalCode":"09016","AdditionalData":[{"value":"Italia","key":"CountryName"},{"value":"Sardegna","key":"StateName"},{"value":"Sud Sardegna","key":"CountyName"}]},"MapReference":{"ReferenceId":"77540276","Spot":1.0,"SideOfStreet":"left","CountryId":"20110484","StateId":"20220774","CountyId":"28039807","CityId":"28040167"}}},{"Relevance":1.0,"Distance":173.4,"MatchLevel":"street","MatchQuality":{"Country":1.0,"State":1.0,"County":1.0,"City":1.0,"Street":[1.0],"PostalCode":1.0},"Location":{"LocationId":"NT_uOE4oaigNmNmzWAA7yRNLB_l_77541345_R","LocationType":"point","DisplayPosition":{"Latitude":39.3147,"Longitude":8.53914},"MapView":{"TopLeft":{"Latitude":39.3147,"Longitude":8.53914},"BottomRight":{"Latitude":39.31455,"Longitude":8.53948}},"Address":{"Label":"Via Carbonia, 09016 Iglesias SU, Italia","Country":"ITA","State":"Sardegna","County":"SU","City":"Iglesias","Street":"Via Carbonia","PostalCode":"09016","AdditionalData":[{"value":"Italia","key":"CountryName"},{"value":"Sardegna","key":"StateName"},{"value":"Sud Sardegna","key":"CountyName"}]},"MapReference":{"ReferenceId":"77541345","Spot":1.0,"SideOfStreet":"right","CountryId":"20110484","StateId":"20220774","CountyId":"28039807","CityId":"28040167"}}}]}]}}