{"Response":{"MetaInfo":{"Timestamp":"2020-03-28T11:20:40.499+0000","NextPageInformation":"2"},"View":[{"_type":"SearchResultsViewType","ViewId":0,"Result":[{"Relevance":1.0,"Distance":0.0,"Direction":0.0,"MatchLevel":"city","MatchQuality":{"Country":1.0,"State":1.0,"County":1.0,"City":1.0,"PostalCode":1.0},"Location":{"LocationId":"NT_zNdnvWoVMn64tTC6TxGxNC","LocationType":"point","DisplayPosition":{"Latitude":39.3368955,"Longitude":23.046842},"MapView":{"TopLeft":{"Latitude":39.39089,"Longitude":23.01148},"BottomRight":{"Latitude":39.31107,"Longitude":23.10534}},"Address":{"Label":"Αρτέμιδα, Θεσσαλία, Ελληνικη Δημοκρατια","Country":"GRC","State":"Θεσσαλία","County":"Μαγνησία","City":"Αρτέμιδα","PostalCode":"373 00","AdditionalData":[{"value":"Ελληνικη Δημοκρατια","key":"CountryName"},{"value":"Θεσσαλία","key":"StateName"},{"value":"Μαγνησία","key":"CountyName"}]},"MapReference":{"ReferenceId":"930718155","SideOfStreet":"neither","CountryId":"20448870","StateId":"20653318","CountyId":"20653343","CityId":"20669341"}}},{"Relevance":1.0,"Distance":1.3,"MatchLevel":"street","MatchQuality":{"Country":1.0,"State":1.0,"County":1.0,"City":1.0,"PostalCode":1.0},"Location":{"LocationId":"NT_L0z5EI44g.Kg-JwLOkyI9D_l_930543262_L","LocationType":"point","DisplayPosition":{"Latitude":39.3369034,"Longitude":23.0468525},"MapView":{"TopLeft":{"Latitude":39.33719,"Longitude":23.04573},"BottomRight":{"Latitude":39.33635,"Longitude":23.04746}},"Address":{"Label":"373 00 Αρτέμιδα, Ελληνικη Δημοκρατια","Country":"GRC","State":"Θεσσαλία","County":"Μαγνησία","City":"Αρτέμιδα","PostalCode":"373 00","AdditionalData":[{"value":"Ελληνικη Δημοκρατια","key":"CountryName"},{"value":"Θεσσαλία","key":"StateName"},{"value":"Μαγνησία","key":"CountyName"}]},"MapReference":{"ReferenceId":"930543262","Spot":0.46,"SideOfStreet":"neither","CountryId":"20448870","StateId":"20653318","CountyId":"20653343","CityId":"20669341"}}},{"Relevance":1.0,"Distance":51.0,"MatchLevel":"street","MatchQuality":{"Country":1.0,"State":1.0,"County":1.0,"City":1.0,"Street":[1.0],"PostalCode":1.0},"Location":{"LocationId":"NT_KkQ1HEtrv5sFje1XWC7oCD_l_930543290_R","LocationType":"point","DisplayPosition":{"Latitude":39.3364384,"Longitude":23.0467963},"MapView":{"TopLeft":{"Latitude":39.33827,"Longitude":23.04415},"BottomRight":{"Latitude":39.33617,"Longitude":23.04795}},"Address":{"Label":"Επ. Οδός 8-Αγριάς-Α. Χορεύτρας, 373 00 Αρτέμιδα, Ελληνικη Δημοκρατια","Country":"GRC","State":"Θεσσαλία","County":"Μαγνησία","City":"Αρτέμιδα","Street":"Επ. Οδός 8-Αγριάς-Α. Χορεύτρας","PostalCode":"373 00","AdditionalData":[{"value":"Ελληνικη Δημοκρατια","key":"CountryName"},{"value":"Θεσσαλία","key":"StateName"},{"value":"Μαγνησία","key":"CountyName"}]},"MapReference":{"ReferenceId":"930543290","Spot":0.06,"SideOfStreet":"right","CountryId":"20448870","StateId":"20653318","CountyId":"20653343","CityId":"20669341"}}},{"Relevance":1.0,"Distance":70.8,"MatchLevel":"street","MatchQuality":{"Country":1.0,"State":1.0,"County":1.0,"City":1.0,"Street":[1.0],"PostalCode":1.0},"Location":{"LocationId":"NT_KkQ1HEtrv5sFje1XWC7oCD_l_930543257_R","LocationType":"point","DisplayPosition":{"Latitude":39.33626,"Longitude":23.04679},"MapView":{"TopLeft":{"Latitude":39.33762,"Longitude":23.04245},"BottomRight":{"Latitude":39.33565,"Longitude":23.04724}},"Address":{"Label":"Επ. Οδός 8-Αγριάς-Α. Χορεύτρας, 373 00 Αρτέμιδα, Ελληνικη Δημοκρατια","Country":"GRC","State":"Θεσσαλία","County":"Μαγνησία","City":"Αρτέμιδα","Street":"Επ. Οδός 8-Αγριάς-Α. Χορεύτρας","PostalCode":"373 00","AdditionalData":[{"value":"Ελληνικη Δημοκρατια","key":"CountryName"},{"value":"Θεσσαλία","key":"StateName"},{"value":"Μαγνησία","key":"CountyName"}]},"MapReference":{"ReferenceId":"930543257","Spot":0.07,"SideOfStreet":"right","CountryId":"20448870","StateId":"20653318","CountyId":"20653343","CityId":"20669341"}}},{"Relevance":1.0,"Distance":74.5,"MatchLevel":"street","MatchQuality":{"Country":1.0,"State":1.0,"County":1.0,"City":1.0,"PostalCode":1.0},"Location":{"LocationId":"NT_L0z5EI44g.Kg-JwLOkyI9D_l_930543260_L","LocationType":"point","DisplayPosition":{"Latitude":39.3363,"Longitude":23.04724},"MapView":{"TopLeft":{"Latitude":39.33635,"Longitude":23.04724},"BottomRight":{"Latitude":39.3363,"Longitude":23.04739}},"Address":{"Label":"373 00 Αρτέμιδα, Ελληνικη Δημοκρατια","Country":"GRC","State":"Θεσσαλία","County":"Μαγνησία","City":"Αρτέμιδα","PostalCode":"373 00","AdditionalData":[{"value":"Ελληνικη Δημοκρατια","key":"CountryName"},{"value":"Θεσσαλία","key":"StateName"},{"value":"Μαγνησία","key":"CountyName"}]},"MapReference":{"ReferenceId":"930543260","Spot":0.0,"SideOfStreet":"left","CountryId":"20448870","StateId":"20653318","CountyId":"20653343","CityId":"20669341"}}},{"Relevance":1.0,"Distance":76.8,"MatchLevel":"street","MatchQuality":{"Country":1.0,"State":1.0,"County":1.0,"City":1.0,"PostalCode":1.0},"Location":{"LocationId":"NT_L0z5EI44g.Kg-JwLOkyI9D_l_930543261_R","LocationType":"point","DisplayPosition":{"Latitude":39.33635,"Longitude":23.04739},"MapView":{"TopLeft":{"Latitude":39.33637,"Longitude":23.04739},"BottomRight":{"Latitude":39.33633,"Longitude":23.04787}},"Address":{"Label":"373 00 Αρτέμιδα, Ελληνικη Δημοκρατια","Country":"GRC","State":"Θεσσαλία","County":"Μαγνησία","City":"Αρτέμιδα","PostalCode":"373 00","AdditionalData":[{"value":"Ελληνικη Δημοκρατια","key":"CountryName"},{"value":"Θεσσαλία","key":"StateName"},{"value":"Μαγνησία","key":"CountyName"}]},"MapReference":{"ReferenceId":"930543261","Spot":1.0,"SideOfStreet":"right","CountryId":"20448870","StateId":"20653318","CountyId":"20653343","CityId":"20669341"}}},{"Relevance":1.0,"Distance":108.5,"MatchLevel":"street","MatchQuality":{"Country":1.0,"State":1.0,"County":1.0,"City":1.0,"PostalCode":1.0},"Location":{"LocationId":"NT_L0z5EI44g.Kg-JwLOkyI9D_l_930543259_L","LocationType":"point","DisplayPosition":{"Latitude":39.33633,"Longitude":23.04787},"MapView":{"TopLeft":{"Latitude":39.33669,"Longitude":23.04787},"BottomRight":{"Latitude":39.33633,"Longitude":23.0483}},"Address":{"Label":"373 00 Αρτέμιδα, Ελληνικη Δημοκρατια","Country":"GRC","State":"Θεσσαλία","County":"Μαγνησία","City":"Αρτέμιδα","PostalCode":"373 00","AdditionalData":[{"value":"Ελληνικη Δημοκρατια","key":"CountryName"},{"value":"Θεσσαλία","key":"StateName"},{"value":"Μαγνησία","key":"CountyName"}]},"MapReference":{"ReferenceId":"930543259","Spot":0.0,"SideOfStreet":"left","CountryId":"20448870","StateId":"20653318","CountyId":"20653343","CityId":"20669341"}}},{"Relevance":1.0,"Distance":108.5,"MatchLevel":"street","MatchQuality":{"Country":1.0,"State":1.0,"County":1.0,"City":1.0,"PostalCode":1.0},"Location":{"LocationId":"NT_L0z5EI44g.Kg-JwLOkyI9D_l_930543258_R","LocationType":"point","DisplayPosition":{"Latitude":39.33633,"Longitude":23.04787},"MapView":{"TopLeft":{"Latitude":39.33633,"Longitude":23.04787},"BottomRight":{"Latitude":39.33594,"Longitude":23.04834}},"Address":{"Label":"373 00 Αρτέμιδα, Ελληνικη Δημοκρατια","Country":"GRC","State":"Θεσσαλία","County":"Μαγνησία","City":"Αρτέμιδα","PostalCode":"373 00","AdditionalData":[{"value":"Ελληνικη Δημοκρατια","key":"CountryName"},{"value":"Θεσσαλία","key":"StateName"},{"value":"Μαγνησία","key":"CountyName"}]},"MapReference":{"ReferenceId":"930543258","Spot":1.0,"SideOfStreet":"right","CountryId":"20448870","StateId":"20653318","CountyId":"20653343","CityId":"20669341"}}},{"Relevance":1.0,"Distance":180.1,"MatchLevel":"street","MatchQuality":{"Country":1.0,"State":1.0,"County":1.0,"City":1.0,"Street":[1.0],"PostalCode":1.0},"Location":{"LocationId":"NT_6GgMkqj7.crtYJ3gHvN2gC_l_930543291_L","LocationType":"point","DisplayPosition":{"Latitude":39.33827,"Longitude":23.04795},"MapView":{"TopLeft":{"Latitude":39.34199,"Longitude":23.04795},"BottomRight":{"Latitude":39.33827,"Longitude":23.05163}},"Address":{"Label":"Επ. Οδός Αγ. Δρακείας-Α. Χορεύτρας, 373 00 Αρτέμιδα, Ελληνικη Δημοκρατια","Country":"GRC","State":"Θεσσαλία","County":"Μαγνησία","City":"Αρτέμιδα","Street":"Επ. Οδός Αγ. Δρακείας-Α. Χορεύτρας","PostalCode":"373 00","AdditionalData":[{"value":"Ελληνικη Δημοκρατια","key":"CountryName"},{"value":"Θεσσαλία","key":"StateName"},{"value":"Μαγνησία","key":"CountyName"}]},"MapReference":{"ReferenceId":"930543291","Spot":0.0,"SideOfStreet":"left","CountryId":"20448870","StateId":"20653318","CountyId":"20653343","CityId":"20669341"}}},{"Relevance":1.0,"Distance":180.1,"MatchLevel":"street","MatchQuality":{"Country":1.0,"State":1.0,"County":1.0,"City":1.0,"PostalCode":1.0},"Location":{"LocationId":"NT_L0z5EI44g.Kg-JwLOkyI9D_l_930543289_R","LocationType":"point","DisplayPosition":{"Latitude":39.33827,"Longitude":23.04795},"MapView":{"TopLeft":{"Latitude":39.33871,"Longitude":23.04795},"BottomRight":{"Latitude":39.33818,"Longitude":23.05265}},"Address":{"Label":"373 00 Αρτέμιδα, Ελληνικη Δημοκρατια","Country":"GRC","State":"Θεσσαλία","County":"Μαγνησία","City":"Αρτέμιδα","PostalCode":"373 00","AdditionalData":[{"value":"Ελληνικη Δημοκρατια","key":"CountryName"},{"value":"Θεσσαλία","key":"StateName"},{"value":"Μαγνησία","key":"CountyName"}]},"MapReference":{"ReferenceId":"930543289","Spot":0.0,"SideOfStreet":"right","CountryId":"20448870","StateId":"20653318","CountyId":"20653343","CityId":"20669341"}}}]}]}}