{"Response":{"MetaInfo":{"Timestamp":"2020-03-28T09:43:01.515+0000","NextPageInformation":"2"},"View":[{"_type":"SearchResultsViewType","ViewId":0,"Result":[{"Relevance":1.0,"Distance":0.0,"Direction":0.0,"MatchLevel":"city","MatchQuality":{"Country":1.0,"State":1.0,"County":1.0,"City":1.0,"PostalCode":1.0},"Location":{"LocationId":"NT_4v4OJlbB1KYjVPn0Ic.fJB","LocationType":"point","DisplayPosition":{"Latitude":39.4356009,"Longitude":-5.4619822},"MapView":{"TopLeft":{"Latitude":39.55731,"Longitude":-5.57838},"BottomRight":{"Latitude":39.37752,"Longitude":-5.41757}},"Address":{"Label":"Berzocana, Extremadura, España","Country":"ESP","State":"Extremadura","County":"Cáceres","City":"Berzocana","PostalCode":"10129","AdditionalData":[{"value":"España","key":"CountryName"},{"value":"Extremadura","key":"StateName"},{"value":"Cáceres","key":"CountyName"}]},"MapReference":{"ReferenceId":"567531295","SideOfStreet":"neither","CountryId":"20215059","StateId":"20226788","CountyId":"20226790","CityId":"20274565"}}},{"Relevance":1.0,"Distance":6.4,"MatchLevel":"street","MatchQuality":{"Country":1.0,"State":1.0,"County":1.0,"City":1.0,"Street":[1.0],"PostalCode":1.0},"Location":{"LocationId":"NT_2yGsW9J6VePx4BtETtt9WA_l_573493981_R","LocationType":"point","DisplayPosition":{"Latitude":39.4356542,"Longitude":-5.4620117},"MapView":{"TopLeft":{"Latitude":39.43586,"Longitude":-5.4622},"BottomRight":{"Latitude":39.43555,"Longitude":-5.46164}},"Address":{"Label":"Calle El Tesoro, 10129 Berzocana (Cáceres), España","Country":"ESP","State":"Extremadura","County":"Cáceres","City":"Berzocana","Street":"Calle El Tesoro","PostalCode":"10129","AdditionalData":[{"value":"España","key":"CountryName"},{"value":"Extremadura","key":"StateName"},{"value":"Cáceres","key":"CountyName"}]},"MapReference":{"ReferenceId":"573493981","Spot":0.34,"SideOfStreet":"right","CountryId":"20215059","StateId":"20226788","CountyId":"20226790","CityId":"20274565"}}},{"Relevance":1.0,"Distance":19.5,"MatchLevel":"street","MatchQuality":{"Country":1.0,"State":1.0,"County":1.0,"City":1.0,"Street":[1.0],"PostalCode":1.0},"Location":{"LocationId":"NT_IG5EP.yhBlO54JJqTvMfTB_l_933063830_R","LocationType":"point","DisplayPosition":{"Latitude":39.43555,"Longitude":-5.4622},"MapView":{"TopLeft":{"Latitude":39.43576,"Longitude":-5.46235},"BottomRight":{"Latitude":39.43555,"Longitude":-5.4622}},"Address":{"Label":"CC-21, 10129 Berzocana (Cáceres), España","Country":"ESP","State":"Extremadura","County":"Cáceres","City":"Berzocana","Street":"CC-21","PostalCode":"10129","AdditionalData":[{"value":"España","key":"CountryName"},{"value":"Extremadura","key":"StateName"},{"value":"Cáceres","key":"CountyName"}]},"MapReference":{"ReferenceId":"933063830","Spot":0.0,"SideOfStreet":"right","CountryId":"20215059","StateId":"20226788","CountyId":"20226790","CityId":"20274565"}}},{"Relevance":1.0,"Distance":19.8,"MatchLevel":"street","MatchQuality":{"Country":1.0,"State":1.0,"County":1.0,"City":1.0,"Street":[1.0],"PostalCode":1.0},"Location":{"LocationId":"NT_IG5EP.yhBlO54JJqTvMfTB_l_573493977_R","LocationType":"point","DisplayPosition":{"Latitude":39.4354847,"Longitude":-5.4621565},"MapView":{"TopLeft":{"Latitude":39.43555,"Longitude":-5.4622},"BottomRight":{"Latitude":39.43512,"Longitude":-5.46199}},"Address":{"Label":"CC-21, 10129 Berzocana (Cáceres), España","Country":"ESP","State":"Extremadura","County":"Cáceres","City":"Berzocana","Street":"CC-21","PostalCode":"10129","AdditionalData":[{"value":"España","key":"CountryName"},{"value":"Extremadura","key":"StateName"},{"value":"Cáceres","key":"CountyName"}]},"MapReference":{"ReferenceId":"573493977","Spot":0.84,"SideOfStreet":"right","CountryId":"20215059","StateId":"20226788","CountyId":"20226790","CityId":"20274565"}}},{"Relevance":1.0,"Distance":36.2,"MatchLevel":"street","MatchQuality":{"Country":1.0,"State":1.0,"County":1.0,"City":1.0,"Street":[1.0],"PostalCode":1.0},"Location":{"LocationId":"NT_IG5EP.yhBlO54JJqTvMfTB_l_933063831_R","LocationType":"point","DisplayPosition":{"Latitude":39.43576,"Longitude":-5.46235},"MapView":{"TopLeft":{"Latitude":39.43599,"Longitude":-5.46255},"BottomRight":{"Latitude":39.43576,"Longitude":-5.46235}},"Address":{"Label":"CC-21, 10129 Berzocana (Cáceres), España","Country":"ESP","State":"Extremadura","County":"Cáceres","City":"Berzocana","Street":"CC-21","PostalCode":"10129","AdditionalData":[{"value":"España","key":"CountryName"},{"value":"Extremadura","key":"StateName"},{"value":"Cáceres","key":"CountyName"}]},"MapReference":{"ReferenceId":"933063831","Spot":0.0,"SideOfStreet":"right","CountryId":"20215059","StateId":"20226788","CountyId":"20226790","CityId":"20274565"}}},{"Relevance":1.0,"Distance":41.2,"MatchLevel":"street","MatchQuality":{"Country":1.0,"State":1.0,"County":1.0,"City":1.0,"Street":[1.0],"PostalCode":1.0},"Location":{"LocationId":"NT_2yGsW9J6VePx4BtETtt9WA_l_961645654_R","LocationType":"point","DisplayPosition":{"Latitude":39.43586,"Longitude":-5.46164},"MapView":{"TopLeft":{"Latitude":39.43601,"Longitude":-5.46164},"BottomRight":{"Latitude":39.43586,"Longitude":-5.46139}},"Address":{"Label":"Calle El Tesoro, 10129 Berzocana (Cáceres), España","Country":"ESP","State":"Extremadura","County":"Cáceres","City":"Berzocana","Street":"Calle El Tesoro","PostalCode":"10129","AdditionalData":[{"value":"España","key":"CountryName"},{"value":"Extremadura","key":"StateName"},{"value":"Cáceres","key":"CountyName"}]},"MapReference":{"ReferenceId":"961645654","Spot":0.0,"SideOfStreet":"right","CountryId":"20215059","StateId":"20226788","CountyId":"20226790","CityId":"20274565"}}},{"Relevance":1.0,"Distance":41.9,"MatchLevel":"houseNumber","MatchQuality":{"Country":1.0,"State":1.0,"County":1.0,"City":1.0,"Street":[1.0],"HouseNumber":1.0,"PostalCode":1.0},"MatchType":"interpolated","Location":{"LocationId":"NT_2yGsW9J6VePx4BtETtt9WA_l_961645653_R_2A","LocationType":"point","DisplayPosition":{"Latitude":39.4357604,"Longitude":-5.4615404},"MapView":{"TopLeft":{"Latitude":39.4368845,"Longitude":-5.4629959},"BottomRight":{"Latitude":39.4346362,"Longitude":-5.4600848}},"Address":{"Label":"Calle El Tesoro, 6, 10129 Berzocana (Cáceres), España","Country":"ESP","State":"Extremadura","County":"Cáceres","City":"Berzocana","Street":"Calle El Tesoro","HouseNumber":"6","PostalCode":"10129","AdditionalData":[{"value":"España","key":"CountryName"},{"value":"Extremadura","key":"StateName"},{"value":"Cáceres","key":"CountyName"}]},"MapReference":{"ReferenceId":"961645653","Spot":0.5,"SideOfStreet":"right","CountryId":"20215059","StateId":"20226788","CountyId":"20226790","CityId":"20274565"}}},{"Relevance":1.0,"Distance":46.3,"MatchLevel":"houseNumber","MatchQuality":{"Country":1.0,"State":1.0,"County":1.0,"City":1.0,"Street":[1.0],"HouseNumber":1.0,"PostalCode":1.0},"MatchType":"interpolated","Location":{"LocationId":"NT_cV0zEUnDFrC-lPd7Uqsq0A_yQE","LocationType":"point","DisplayPosition":{"Latitude":39.43628,"Longitude":-5.46183},"MapView":{"TopLeft":{"Latitude":39.4374042,"Longitude":-5.4632855},"BottomRight":{"Latitude":39.4351558,"Longitude":-5.4603745}},"Address":{"Label":"Calle Regajillo, 2D, 10129 Berzocana (Cáceres), España","Country":"ESP","State":"Extremadura","County":"Cáceres","City":"Berzocana","Street":"Calle Regajillo","HouseNumber":"2D","PostalCode":"10129","AdditionalData":[{"value":"España","key":"CountryName"},{"value":"Extremadura","key":"StateName"},{"value":"Cáceres","key":"CountyName"}]},"MapReference":{"ReferenceId":"961645652","Spot":0.79,"SideOfStreet":"left","CountryId":"20215059","StateId":"20226788","CountyId":"20226790","CityId":"20274565","AddressId":"350911565","RoadLinkId":"303485753"}}},{"Relevance":1.0,"Distance":47.0,"MatchLevel":"street","MatchQuality":{"Country":1.0,"State":1.0,"County":1.0,"City":1.0,"Street":[1.0],"PostalCode":1.0},"Location":{"LocationId":"NT_ElqVAb8m3DDOE4HEIBn2xD_l_573493983_L","LocationType":"point","DisplayPosition":{"Latitude":39.43566,"Longitude":-5.46144},"MapView":{"TopLeft":{"Latitude":39.43566,"Longitude":-5.46144},"BottomRight":{"Latitude":39.43538,"Longitude":-5.46118}},"Address":{"Label":"Calle El Venero, 10129 Berzocana (Cáceres), España","Country":"ESP","State":"Extremadura","County":"Cáceres","City":"Berzocana","Street":"Calle El Venero","PostalCode":"10129","AdditionalData":[{"value":"España","key":"CountryName"},{"value":"Extremadura","key":"StateName"},{"value":"Cáceres","key":"CountyName"}]},"MapReference":{"ReferenceId":"573493983","Spot":1.0,"SideOfStreet":"left","CountryId":"20215059","StateId":"20226788","CountyId":"20226790","CityId":"20274565"}}},{"Relevance":1.0,"Distance":53.5,"MatchLevel":"street","MatchQuality":{"Country":1.0,"State":1.0,"County":1.0,"City":1.0,"Street":[1.0],"PostalCode":1.0},"Location":{"LocationId":"NT_qYPw8Pf7ijENkDjChKlJZA_l_938289648_L","LocationType":"point","DisplayPosition":{"Latitude":39.43512,"Longitude":-5.46199},"MapView":{"TopLeft":{"Latitude":39.43512,"Longitude":-5.46207},"BottomRight":{"Latitude":39.435,"Longitude":-5.46199}},"Address":{"Label":"CC-22.5, 10129 Berzocana (Cáceres), España","Country":"ESP","State":"Extremadura","County":"Cáceres","City":"Berzocana","Street":"CC-22.5","PostalCode":"10129","AdditionalData":[{"value":"España","key":"CountryName"},{"value":"Extremadura","key":"StateName"},{"value":"Cáceres","key":"CountyName"}]},"MapReference":{"ReferenceId":"938289648","Spot":1.0,"SideOfStreet":"left","CountryId":"20215059","StateId":"20226788","CountyId":"20226790","CityId":"20274565"}}}]}]}}