{"Response":{"MetaInfo":{"Timestamp":"2020-03-28T09:42:13.573+0000","NextPageInformation":"2"},"View":[{"_type":"SearchResultsViewType","ViewId":0,"Result":[{"Relevance":1.0,"Distance":0.0,"Direction":0.0,"MatchLevel":"city","MatchQuality":{"Country":1.0,"State":1.0,"County":1.0,"City":1.0,"PostalCode":1.0},"Location":{"LocationId":"NT_ZjDa-Gf0FmoujUOyQV7FdB","LocationType":"point","DisplayPosition":{"Latitude":39.4263609,"Longitude":-5.7551529},"MapView":{"TopLeft":{"Latitude":39.52685,"Longitude":-5.82078},"BottomRight":{"Latitude":39.39346,"Longitude":-5.64196}},"Address":{"Label":"Madroñera, Extremadura, España","Country":"ESP","State":"Extremadura","County":"Cáceres","City":"Madroñera","PostalCode":"10210","AdditionalData":[{"value":"España","key":"CountryName"},{"value":"Extremadura","key":"StateName"},{"value":"Cáceres","key":"CountyName"}]},"MapReference":{"ReferenceId":"564422172","SideOfStreet":"neither","CountryId":"20215059","StateId":"20226788","CountyId":"20226790","CityId":"20274894"}}},{"Relevance":1.0,"Distance":4.0,"MatchLevel":"houseNumber","MatchQuality":{"Country":1.0,"State":1.0,"County":1.0,"City":1.0,"Street":[1.0],"HouseNumber":1.0,"PostalCode":1.0},"MatchType":"interpolated","Location":{"LocationId":"NT_d4rJUiQOwvcL8piPfp.pPC_yA","LocationType":"point","DisplayPosition":{"Latitude":39.42633,"Longitude":-5.75523},"MapView":{"TopLeft":{"Latitude":39.4274542,"Longitude":-5.7566853},"BottomRight":{"Latitude":39.4252058,"Longitude":-5.7537747}},"Address":{"Label":"Plaza Italia, 2, 10210 Madroñera (Cáceres), España","Country":"ESP","State":"Extremadura","County":"Cáceres","City":"Madroñera","Street":"Plaza Italia","HouseNumber":"2","PostalCode":"10210","AdditionalData":[{"value":"España","key":"CountryName"},{"value":"Extremadura","key":"StateName"},{"value":"Cáceres","key":"CountyName"}]},"MapReference":{"ReferenceId":"564422103","Spot":0.72,"SideOfStreet":"right","CountryId":"20215059","StateId":"20226788","CountyId":"20226790","CityId":"20274894","AddressId":"350693235","RoadLinkId":"66857712"}}},{"Relevance":1.0,"Distance":14.3,"MatchLevel":"street","MatchQuality":{"Country":1.0,"State":1.0,"County":1.0,"City":1.0,"Street":[1.0],"PostalCode":1.0},"Location":{"LocationId":"NT_6G9rv5Uq-6XiV2lG.Ry4hC_l_961541811_R","LocationType":"point","DisplayPosition":{"Latitude":39.4263815,"Longitude":-5.7553173},"MapView":{"TopLeft":{"Latitude":39.42644,"Longitude":-5.75532},"BottomRight":{"Latitude":39.42636,"Longitude":-5.75531}},"Address":{"Label":"Calle Santa María de la Cabeza, 10210 Madroñera (Cáceres), España","Country":"ESP","State":"Extremadura","County":"Cáceres","City":"Madroñera","Street":"Calle Santa María de la Cabeza","PostalCode":"10210","AdditionalData":[{"value":"España","key":"CountryName"},{"value":"Extremadura","key":"StateName"},{"value":"Cáceres","key":"CountyName"}]},"MapReference":{"ReferenceId":"961541811","Spot":0.27,"SideOfStreet":"right","CountryId":"20215059","StateId":"20226788","CountyId":"20226790","CityId":"20274894"}}},{"Relevance":1.0,"Distance":14.4,"MatchLevel":"houseNumber","MatchQuality":{"Country":1.0,"State":1.0,"County":1.0,"City":1.0,"Street":[1.0],"HouseNumber":1.0,"PostalCode":1.0},"MatchType":"interpolated","Location":{"LocationId":"NT_d4rJUiQOwvcL8piPfp.pPC_xA","LocationType":"point","DisplayPosition":{"Latitude":39.42636,"Longitude":-5.75532},"MapView":{"TopLeft":{"Latitude":39.4274842,"Longitude":-5.7567753},"BottomRight":{"Latitude":39.4252358,"Longitude":-5.7538647}},"Address":{"Label":"Plaza Italia, 1, 10210 Madroñera (Cáceres), España","Country":"ESP","State":"Extremadura","County":"Cáceres","City":"Madroñera","Street":"Plaza Italia","HouseNumber":"1","PostalCode":"10210","AdditionalData":[{"value":"España","key":"CountryName"},{"value":"Extremadura","key":"StateName"},{"value":"Cáceres","key":"CountyName"}]},"MapReference":{"ReferenceId":"573481091","Spot":1.0,"SideOfStreet":"left","CountryId":"20215059","StateId":"20226788","CountyId":"20226790","CityId":"20274894","AddressId":"383528905","RoadLinkId":"67382513"}}},{"Relevance":1.0,"Distance":19.0,"MatchLevel":"street","MatchQuality":{"Country":1.0,"State":1.0,"County":1.0,"City":1.0,"Street":[1.0],"PostalCode":1.0},"Location":{"LocationId":"NT_d4rJUiQOwvcL8piPfp.pPC_l_564422087_L","LocationType":"point","DisplayPosition":{"Latitude":39.42623,"Longitude":-5.75501},"MapView":{"TopLeft":{"Latitude":39.42623,"Longitude":-5.75501},"BottomRight":{"Latitude":39.42608,"Longitude":-5.75491}},"Address":{"Label":"Plaza Italia, 10210 Madroñera (Cáceres), España","Country":"ESP","State":"Extremadura","County":"Cáceres","City":"Madroñera","Street":"Plaza Italia","PostalCode":"10210","AdditionalData":[{"value":"España","key":"CountryName"},{"value":"Extremadura","key":"StateName"},{"value":"Cáceres","key":"CountyName"}]},"MapReference":{"ReferenceId":"564422087","Spot":1.0,"SideOfStreet":"left","CountryId":"20215059","StateId":"20226788","CountyId":"20226790","CityId":"20274894"}}},{"Relevance":1.0,"Distance":21.0,"MatchLevel":"houseNumber","MatchQuality":{"Country":1.0,"State":1.0,"County":1.0,"City":1.0,"Street":[1.0],"HouseNumber":1.0,"PostalCode":1.0},"MatchType":"interpolated","Location":{"LocationId":"NT_7q1VG7bJAd9ypNlYMEEYtC_xA","LocationType":"point","DisplayPosition":{"Latitude":39.42626,"Longitude":-5.75541},"MapView":{"TopLeft":{"Latitude":39.4273842,"Longitude":-5.7568653},"BottomRight":{"Latitude":39.4251358,"Longitude":-5.7539547}},"Address":{"Label":"Calle Ramos, 1, 10210 Madroñera (Cáceres), España","Country":"ESP","State":"Extremadura","County":"Cáceres","City":"Madroñera","Street":"Calle Ramos","HouseNumber":"1","PostalCode":"10210","AdditionalData":[{"value":"España","key":"CountryName"},{"value":"Extremadura","key":"StateName"},{"value":"Cáceres","key":"CountyName"}]},"MapReference":{"ReferenceId":"564422111","Spot":0.57,"SideOfStreet":"right","CountryId":"20215059","StateId":"20226788","CountyId":"20226790","CityId":"20274894","AddressId":"364700464","RoadLinkId":"67462364"}}},{"Relevance":1.0,"Distance":21.7,"MatchLevel":"houseNumber","MatchQuality":{"Country":1.0,"State":1.0,"County":1.0,"City":1.0,"Street":[1.0],"HouseNumber":1.0,"PostalCode":1.0},"MatchType":"interpolated","Location":{"LocationId":"NT_8ailvrb5qypkgMDq2DplGB_yA","LocationType":"point","DisplayPosition":{"Latitude":39.42652,"Longitude":-5.75533},"MapView":{"TopLeft":{"Latitude":39.4276442,"Longitude":-5.7567853},"BottomRight":{"Latitude":39.4253958,"Longitude":-5.7538747}},"Address":{"Label":"Calle Rosario Sánchez, 2, 10210 Madroñera (Cáceres), España","Country":"ESP","State":"Extremadura","County":"Cáceres","City":"Madroñera","Street":"Calle Rosario Sánchez","HouseNumber":"2","PostalCode":"10210","AdditionalData":[{"value":"España","key":"CountryName"},{"value":"Extremadura","key":"StateName"},{"value":"Cáceres","key":"CountyName"}]},"MapReference":{"ReferenceId":"564422088","Spot":0.07,"SideOfStreet":"right","CountryId":"20215059","StateId":"20226788","CountyId":"20226790","CityId":"20274894","AddressId":"350591497","RoadLinkId":"67182967"}}},{"Relevance":1.0,"Distance":32.2,"MatchLevel":"houseNumber","MatchQuality":{"Country":1.0,"State":1.0,"County":1.0,"City":1.0,"Street":[1.0],"HouseNumber":1.0,"PostalCode":1.0},"MatchType":"interpolated","Location":{"LocationId":"NT_YDOdpN-MbBCVvCAX5pLSgD_xID","LocationType":"point","DisplayPosition":{"Latitude":39.4261,"Longitude":-5.75481},"MapView":{"TopLeft":{"Latitude":39.4272242,"Longitude":-5.7562653},"BottomRight":{"Latitude":39.4249758,"Longitude":-5.7533547}},"Address":{"Label":"Calle Real, 12, 10210 Madroñera (Cáceres), España","Country":"ESP","State":"Extremadura","County":"Cáceres","City":"Madroñera","Street":"Calle Real","HouseNumber":"12","PostalCode":"10210","AdditionalData":[{"value":"España","key":"CountryName"},{"value":"Extremadura","key":"StateName"},{"value":"Cáceres","key":"CountyName"}]},"MapReference":{"ReferenceId":"961541793","Spot":0.47,"SideOfStreet":"left","CountryId":"20215059","StateId":"20226788","CountyId":"20226790","CityId":"20274894","AddressId":"350606744","RoadLinkId":"303382109"}}},{"Relevance":1.0,"Distance":33.9,"MatchLevel":"houseNumber","MatchQuality":{"Country":1.0,"State":1.0,"County":1.0,"City":1.0,"Street":[1.0],"HouseNumber":1.0,"PostalCode":1.0},"MatchType":"interpolated","Location":{"LocationId":"NT_YDOdpN-MbBCVvCAX5pLSgD_xQD","LocationType":"point","DisplayPosition":{"Latitude":39.42606,"Longitude":-5.75497},"MapView":{"TopLeft":{"Latitude":39.4271842,"Longitude":-5.7564253},"BottomRight":{"Latitude":39.4249358,"Longitude":-5.7535147}},"Address":{"Label":"Calle Real, 14, 10210 Madroñera (Cáceres), España","Country":"ESP","State":"Extremadura","County":"Cáceres","City":"Madroñera","Street":"Calle Real","HouseNumber":"14","PostalCode":"10210","AdditionalData":[{"value":"España","key":"CountryName"},{"value":"Extremadura","key":"StateName"},{"value":"Cáceres","key":"CountyName"}]},"MapReference":{"ReferenceId":"564421931","Spot":0.62,"SideOfStreet":"left","CountryId":"20215059","StateId":"20226788","CountyId":"20226790","CityId":"20274894","AddressId":"350810655","RoadLinkId":"67302250"}}},{"Relevance":1.0,"Distance":36.3,"MatchLevel":"houseNumber","MatchQuality":{"Country":1.0,"State":1.0,"County":1.0,"City":1.0,"Street":[1.0],"HouseNumber":1.0,"PostalCode":1.0},"MatchType":"interpolated","Location":{"LocationId":"NT_6G9rv5Uq-6XiV2lG.Ry4hC_yA","LocationType":"point","DisplayPosition":{"Latitude":39.42663,"Longitude":-5.75488},"MapView":{"TopLeft":{"Latitude":39.4277542,"Longitude":-5.7563353},"BottomRight":{"Latitude":39.4255058,"Longitude":-5.7534247}},"Address":{"Label":"Calle Santa María de la Cabeza, 2, 10210 Madroñera (Cáceres), España","Country":"ESP","State":"Extremadura","County":"Cáceres","City":"Madroñera","Street":"Calle Santa María de la Cabeza","HouseNumber":"2","PostalCode":"10210","AdditionalData":[{"value":"España","key":"CountryName"},{"value":"Extremadura","key":"StateName"},{"value":"Cáceres","key":"CountyName"}]},"MapReference":{"ReferenceId":"961541812","Spot":0.6,"SideOfStreet":"right","CountryId":"20215059","StateId":"20226788","CountyId":"20226790","CityId":"20274894","AddressId":"350735596","RoadLinkId":"303382128"}}}]}]}}