{"Response":{"MetaInfo":{"Timestamp":"2020-03-28T09:38:43.865+0000","NextPageInformation":"2"},"View":[{"_type":"SearchResultsViewType","ViewId":0,"Result":[{"Relevance":1.0,"Distance":-8501.4,"MatchLevel":"landmark","MatchQuality":{"Country":1.0,"State":1.0,"County":1.0,"Name":1.0},"Location":{"LocationId":"NT_d0gsmqx3FeRc7gPkFbqRYB","LocationType":"island","Name":"Mallorca","DisplayPosition":{"Latitude":39.61354,"Longitude":2.88047},"MapView":{"TopLeft":{"Latitude":39.96254,"Longitude":2.3446},"BottomRight":{"Latitude":39.26453,"Longitude":3.47852}},"Address":{"Label":"(Illes Balears), Espanya","Country":"ESP","State":"Illes Balears","County":"Illes Balears","AdditionalData":[{"value":"Espanya","key":"CountryName"},{"value":"Illes Balears","key":"StateName"},{"value":"Illes Balears","key":"CountyName"}]},"MapReference":{"CountryId":"20215059","StateId":"20226796","CountyId":"20226797","PlaceId":"58562618"}}},{"Relevance":1.0,"Distance":0.0,"Direction":0.0,"MatchLevel":"district","MatchQuality":{"Country":1.0,"State":1.0,"County":1.0,"City":1.0,"District":1.0,"PostalCode":1.0},"Location":{"LocationId":"NT_jfnq.3A9V3EhDVM3jhc30C","LocationType":"point","DisplayPosition":{"Latitude":39.4170714,"Longitude":3.1368597},"MapView":{"TopLeft":{"Latitude":39.42038,"Longitude":3.13362},"BottomRight":{"Latitude":39.41567,"Longitude":3.14132}},"Address":{"Label":"Cas Concos, Felanitx, Illes Balears, Espanya","Country":"ESP","State":"Illes Balears","County":"Illes Balears","City":"Felanitx","District":"Cas Concos","PostalCode":"07208","AdditionalData":[{"value":"Espanya","key":"CountryName"},{"value":"Illes Balears","key":"StateName"},{"value":"Illes Balears","key":"CountyName"}]},"MapReference":{"ReferenceId":"813250797","SideOfStreet":"neither","CountryId":"20215059","StateId":"20226796","CountyId":"20226797","CityId":"20275538","DistrictId":"20487210"}}},{"Relevance":1.0,"Distance":13.5,"MatchLevel":"houseNumber","MatchQuality":{"Country":1.0,"State":1.0,"County":1.0,"City":1.0,"District":1.0,"Street":[1.0],"HouseNumber":1.0,"PostalCode":1.0},"MatchType":"interpolated","Location":{"LocationId":"NT_.q7G73ZvbXT4L1s8HH93zA_xYD","LocationType":"point","DisplayPosition":{"Latitude":39.41716,"Longitude":3.13711},"MapView":{"TopLeft":{"Latitude":39.4182842,"Longitude":3.1356549},"BottomRight":{"Latitude":39.4160358,"Longitude":3.1385651}},"Address":{"Label":"Carrer del 31 d'Agost, 16, 07208 Felanitx (Illes Balears), Espanya","Country":"ESP","State":"Illes Balears","County":"Illes Balears","City":"Felanitx","District":"Cas Concos","Street":"Carrer del 31 d'Agost","HouseNumber":"16","PostalCode":"07208","AdditionalData":[{"value":"Espanya","key":"CountryName"},{"value":"Illes Balears","key":"StateName"},{"value":"Illes Balears","key":"CountyName"}]},"MapReference":{"ReferenceId":"564747058","Spot":0.84,"SideOfStreet":"left","CountryId":"20215059","StateId":"20226796","CountyId":"20226797","CityId":"20275538","DistrictId":"20487210","AddressId":"351613006","RoadLinkId":"65415024"}}},{"Relevance":1.0,"Distance":19.9,"MatchLevel":"houseNumber","MatchQuality":{"Country":1.0,"State":1.0,"County":1.0,"City":1.0,"District":1.0,"Street":[1.0],"HouseNumber":1.0,"PostalCode":1.0},"MatchType":"interpolated","Location":{"LocationId":"NT_M.G-MfAO4ahDOiLjqK.EED_xA","LocationType":"point","DisplayPosition":{"Latitude":39.41732,"Longitude":3.13685},"MapView":{"TopLeft":{"Latitude":39.4184442,"Longitude":3.1353949},"BottomRight":{"Latitude":39.4161958,"Longitude":3.1383051}},"Address":{"Label":"Carrer de Sant Gregori el Grant, 1, 07208 Felanitx (Illes Balears), Espanya","Country":"ESP","State":"Illes Balears","County":"Illes Balears","City":"Felanitx","District":"Cas Concos","Street":"Carrer de Sant Gregori el Grant","HouseNumber":"1","PostalCode":"07208","AdditionalData":[{"value":"Espanya","key":"CountryName"},{"value":"Illes Balears","key":"StateName"},{"value":"Illes Balears","key":"CountyName"}]},"MapReference":{"ReferenceId":"564747080","Spot":0.75,"SideOfStreet":"right","CountryId":"20215059","StateId":"20226796","CountyId":"20226797","CityId":"20275538","DistrictId":"20487210","AddressId":"351598872","RoadLinkId":"65909074"}}},{"Relevance":1.0,"Distance":43.5,"MatchLevel":"houseNumber","MatchQuality":{"Country":1.0,"State":1.0,"County":1.0,"City":1.0,"District":1.0,"Street":[1.0],"HouseNumber":1.0,"PostalCode":1.0},"MatchType":"interpolated","Location":{"LocationId":"NT_.q7G73ZvbXT4L1s8HH93zA_xQD","LocationType":"point","DisplayPosition":{"Latitude":39.41748,"Longitude":3.13702},"MapView":{"TopLeft":{"Latitude":39.4186042,"Longitude":3.1355649},"BottomRight":{"Latitude":39.4163558,"Longitude":3.1384751}},"Address":{"Label":"Carrer del 31 d'Agost, 14, 07208 Felanitx (Illes Balears), Espanya","Country":"ESP","State":"Illes Balears","County":"Illes Balears","City":"Felanitx","District":"Cas Concos","Street":"Carrer del 31 d'Agost","HouseNumber":"14","PostalCode":"07208","AdditionalData":[{"value":"Espanya","key":"CountryName"},{"value":"Illes Balears","key":"StateName"},{"value":"Illes Balears","key":"CountyName"}]},"MapReference":{"ReferenceId":"564747195","Spot":0.25,"SideOfStreet":"left","CountryId":"20215059","StateId":"20226796","CountyId":"20226797","CityId":"20275538","DistrictId":"20487210","AddressId":"351619401","RoadLinkId":"65630632"}}},{"Relevance":1.0,"Distance":45.2,"MatchLevel":"houseNumber","MatchQuality":{"Country":1.0,"State":1.0,"County":1.0,"City":1.0,"District":1.0,"Street":[1.0],"HouseNumber":1.0,"PostalCode":1.0},"MatchType":"interpolated","Location":{"LocationId":"NT_lu697xu43RUbjBsiwSypzB_xkD","LocationType":"point","DisplayPosition":{"Latitude":39.41696,"Longitude":3.13629},"MapView":{"TopLeft":{"Latitude":39.4180842,"Longitude":3.1348349},"BottomRight":{"Latitude":39.4158358,"Longitude":3.1377451}},"Address":{"Label":"Carrer del Glosador Sebastià Vidal, 19, 07208 Felanitx (Illes Balears), Espanya","Country":"ESP","State":"Illes Balears","County":"Illes Balears","City":"Felanitx","District":"Cas Concos","Street":"Carrer del Glosador Sebastià Vidal","HouseNumber":"19","PostalCode":"07208","AdditionalData":[{"value":"Espanya","key":"CountryName"},{"value":"Illes Balears","key":"StateName"},{"value":"Illes Balears","key":"CountyName"}]},"MapReference":{"ReferenceId":"813251401","Spot":0.7,"SideOfStreet":"right","CountryId":"20215059","StateId":"20226796","CountyId":"20226797","CityId":"20275538","DistrictId":"20487210","AddressId":"365639342","RoadLinkId":"200594790"}}},{"Relevance":1.0,"Distance":53.0,"MatchLevel":"houseNumber","MatchQuality":{"Country":1.0,"State":1.0,"County":1.0,"City":1.0,"District":1.0,"Street":[1.0],"HouseNumber":1.0,"PostalCode":1.0},"MatchType":"interpolated","Location":{"LocationId":"NT_dvmPsrpIhM6K8DBlWiGAdA_yA","LocationType":"point","DisplayPosition":{"Latitude":39.4174,"Longitude":3.13735},"MapView":{"TopLeft":{"Latitude":39.4185242,"Longitude":3.1358949},"BottomRight":{"Latitude":39.4162758,"Longitude":3.1388051}},"Address":{"Label":"Carrer d'Es Castell, 2, 07208 Felanitx (Illes Balears), Espanya","Country":"ESP","State":"Illes Balears","County":"Illes Balears","City":"Felanitx","District":"Cas Concos","Street":"Carrer d'Es Castell","HouseNumber":"2","PostalCode":"07208","AdditionalData":[{"value":"Espanya","key":"CountryName"},{"value":"Illes Balears","key":"StateName"},{"value":"Illes Balears","key":"CountyName"}]},"MapReference":{"ReferenceId":"564747186","Spot":0.31,"SideOfStreet":"right","CountryId":"20215059","StateId":"20226796","CountyId":"20226797","CityId":"20275538","DistrictId":"20487210","AddressId":"351588850","RoadLinkId":"65143121"}}},{"Relevance":1.0,"Distance":60.0,"MatchLevel":"houseNumber","MatchQuality":{"Country":1.0,"State":1.0,"County":1.0,"City":1.0,"District":1.0,"Street":[1.0],"HouseNumber":1.0,"PostalCode":1.0},"MatchType":"interpolated","Location":{"LocationId":"NT_lu697xu43RUbjBsiwSypzB_xcD","LocationType":"point","DisplayPosition":{"Latitude":39.41731,"Longitude":3.13619},"MapView":{"TopLeft":{"Latitude":39.4184342,"Longitude":3.1347349},"BottomRight":{"Latitude":39.4161858,"Longitude":3.1376451}},"Address":{"Label":"Carrer del Glosador Sebastià Vidal, 17, 07208 Felanitx (Illes Balears), Espanya","Country":"ESP","State":"Illes Balears","County":"Illes Balears","City":"Felanitx","District":"Cas Concos","Street":"Carrer del Glosador Sebastià Vidal","HouseNumber":"17","PostalCode":"07208","AdditionalData":[{"value":"Espanya","key":"CountryName"},{"value":"Illes Balears","key":"StateName"},{"value":"Illes Balears","key":"CountyName"}]},"MapReference":{"ReferenceId":"989247610","Spot":0.3,"SideOfStreet":"right","CountryId":"20215059","StateId":"20226796","CountyId":"20226797","CityId":"20275538","DistrictId":"20487210","AddressId":"773870903","RoadLinkId":"318326267"}}},{"Relevance":1.0,"Distance":71.3,"MatchLevel":"houseNumber","MatchQuality":{"Country":1.0,"State":1.0,"County":1.0,"City":1.0,"District":1.0,"Street":[1.0],"HouseNumber":1.0,"PostalCode":1.0},"MatchType":"interpolated","Location":{"LocationId":"NT_M.G-MfAO4ahDOiLjqK.EED_5A","LocationType":"point","DisplayPosition":{"Latitude":39.41718,"Longitude":3.136},"MapView":{"TopLeft":{"Latitude":39.4183042,"Longitude":3.1345449},"BottomRight":{"Latitude":39.4160558,"Longitude":3.1374551}},"Address":{"Label":"Carrer de Sant Gregori el Grant, 9, 07208 Felanitx (Illes Balears), Espanya","Country":"ESP","State":"Illes Balears","County":"Illes Balears","City":"Felanitx","District":"Cas Concos","Street":"Carrer de Sant Gregori el Grant","HouseNumber":"9","PostalCode":"07208","AdditionalData":[{"value":"Espanya","key":"CountryName"},{"value":"Illes Balears","key":"StateName"},{"value":"Illes Balears","key":"CountyName"}]},"MapReference":{"ReferenceId":"564747146","Spot":0.74,"SideOfStreet":"right","CountryId":"20215059","StateId":"20226796","CountyId":"20226797","CityId":"20275538","DistrictId":"20487210","AddressId":"351514985","RoadLinkId":"65477751"}}},{"Relevance":1.0,"Distance":82.5,"MatchLevel":"houseNumber","MatchQuality":{"Country":1.0,"State":1.0,"County":1.0,"City":1.0,"District":1.0,"Street":[1.0],"HouseNumber":1.0,"PostalCode":1.0},"MatchType":"interpolated","Location":{"LocationId":"NT_.TZc8psQkytFr3eAlJuQID_5kTOBB","LocationType":"point","DisplayPosition":{"Latitude":39.41782,"Longitude":3.13661},"MapView":{"TopLeft":{"Latitude":39.4189442,"Longitude":3.1351549},"BottomRight":{"Latitude":39.4166958,"Longitude":3.1380651}},"Address":{"Label":"Carrer Berenguer Galiana, 999A, 07208 Felanitx (Illes Balears), Espanya","Country":"ESP","State":"Illes Balears","County":"Illes Balears","City":"Felanitx","District":"Cas Concos","Street":"Carrer Berenguer Galiana","HouseNumber":"999A","PostalCode":"07208","AdditionalData":[{"value":"Espanya","key":"CountryName"},{"value":"Illes Balears","key":"StateName"},{"value":"Illes Balears","key":"CountyName"}]},"MapReference":{"ReferenceId":"564747068","Spot":0.66,"SideOfStreet":"right","CountryId":"20215059","StateId":"20226796","CountyId":"20226797","CityId":"20275538","DistrictId":"20487210","AddressId":"766137845","RoadLinkId":"65471867"}}}]}]}}