{"Response":{"MetaInfo":{"Timestamp":"2020-03-28T09:42:53.940+0000","NextPageInformation":"2"},"View":[{"_type":"SearchResultsViewType","ViewId":0,"Result":[{"Relevance":1.0,"Distance":0.0,"Direction":0.0,"MatchLevel":"city","MatchQuality":{"Country":1.0,"State":1.0,"County":1.0,"City":1.0,"PostalCode":1.0},"Location":{"LocationId":"NT_mymcH6x6-5Uy02BqtT55JB","LocationType":"point","DisplayPosition":{"Latitude":39.4651377,"Longitude":-0.4303176},"MapView":{"TopLeft":{"Latitude":39.47123,"Longitude":-0.44897},"BottomRight":{"Latitude":39.44769,"Longitude":-0.41142}},"Address":{"Label":"Xirivella, Comunitat Valenciana, Espanya","Country":"ESP","State":"Comunitat Valenciana","County":"València","City":"Xirivella","PostalCode":"46950","AdditionalData":[{"value":"Espanya","key":"CountryName"},{"value":"Comunitat Valenciana","key":"StateName"},{"value":"València","key":"CountyName"}]},"MapReference":{"ReferenceId":"1020387141","SideOfStreet":"neither","CountryId":"20215059","StateId":"20226784","CountyId":"20226787","CityId":"20250171"}}},{"Relevance":1.0,"Distance":15.3,"MatchLevel":"houseNumber","MatchQuality":{"Country":1.0,"State":1.0,"County":1.0,"City":1.0,"Street":[1.0],"HouseNumber":1.0,"PostalCode":1.0},"MatchType":"interpolated","Location":{"LocationId":"NT_m2lHMb8jb6dSGxVncS-DGD_xYD","LocationType":"point","DisplayPosition":{"Latitude":39.46519,"Longitude":-0.43054},"MapView":{"TopLeft":{"Latitude":39.4663142,"Longitude":-0.4319961},"BottomRight":{"Latitude":39.4640658,"Longitude":-0.4290839}},"Address":{"Label":"Avenida Virgen de los Desamparados, 16, 46950 Xirivella (Valencia), Espanya","Country":"ESP","State":"Comunidad Valenciana","County":"Valencia","City":"Xirivella","Street":"Avenida Virgen de los Desamparados","HouseNumber":"16","PostalCode":"46950","AdditionalData":[{"value":"Espanya","key":"CountryName"},{"value":"Comunidad Valenciana","key":"StateName"},{"value":"Valencia","key":"CountyName"}]},"MapReference":{"ReferenceId":"537359728","Spot":0.13,"SideOfStreet":"right","CountryId":"20215059","StateId":"20226784","CountyId":"20226787","CityId":"20250171","AddressId":"269485335","RoadLinkId":"65266999"}}},{"Relevance":1.0,"Distance":21.4,"MatchLevel":"houseNumber","MatchQuality":{"Country":1.0,"State":1.0,"County":1.0,"City":1.0,"Street":[1.0],"HouseNumber":1.0,"PostalCode":1.0},"MatchType":"interpolated","Location":{"LocationId":"NT_TNyJYEOlcnuUPMZVsYRZ5D_yUD","LocationType":"point","DisplayPosition":{"Latitude":39.4654,"Longitude":-0.43036},"MapView":{"TopLeft":{"Latitude":39.4665242,"Longitude":-0.4318161},"BottomRight":{"Latitude":39.4642758,"Longitude":-0.4289039}},"Address":{"Label":"Calle Parreta, 25, 46950 Xirivella (Valencia), Espanya","Country":"ESP","State":"Comunidad Valenciana","County":"Valencia","City":"Xirivella","Street":"Calle Parreta","HouseNumber":"25","PostalCode":"46950","AdditionalData":[{"value":"Espanya","key":"CountryName"},{"value":"Comunidad Valenciana","key":"StateName"},{"value":"Valencia","key":"CountyName"}]},"MapReference":{"ReferenceId":"537366928","Spot":0.27,"SideOfStreet":"right","CountryId":"20215059","StateId":"20226784","CountyId":"20226787","CityId":"20250171","AddressId":"269169509","RoadLinkId":"65321141"}}},{"Relevance":1.0,"Distance":33.1,"MatchLevel":"houseNumber","MatchQuality":{"Country":1.0,"State":1.0,"County":1.0,"City":1.0,"Street":[1.0],"HouseNumber":1.0,"PostalCode":1.0},"MatchType":"interpolated","Location":{"LocationId":"NT_liqMbVFgh2nkkAkmVPTJAA_yA","LocationType":"point","DisplayPosition":{"Latitude":39.4651,"Longitude":-0.4307},"MapView":{"TopLeft":{"Latitude":39.4662242,"Longitude":-0.4321561},"BottomRight":{"Latitude":39.4639758,"Longitude":-0.4292439}},"Address":{"Label":"Calle Monte de Piedad, 2, 46950 Xirivella (Valencia), Espanya","Country":"ESP","State":"Comunidad Valenciana","County":"Valencia","City":"Xirivella","Street":"Calle Monte de Piedad","HouseNumber":"2","PostalCode":"46950","AdditionalData":[{"value":"Espanya","key":"CountryName"},{"value":"Comunidad Valenciana","key":"StateName"},{"value":"Valencia","key":"CountyName"}]},"MapReference":{"ReferenceId":"1037916746","Spot":0.55,"SideOfStreet":"left","CountryId":"20215059","StateId":"20226784","CountyId":"20226787","CityId":"20250171","AddressId":"269131113","RoadLinkId":"359917921"}}},{"Relevance":1.0,"Distance":37.8,"MatchLevel":"houseNumber","MatchQuality":{"Country":1.0,"State":1.0,"County":1.0,"City":1.0,"Street":[1.0],"HouseNumber":1.0,"PostalCode":1.0},"MatchType":"interpolated","Location":{"LocationId":"NT_m2lHMb8jb6dSGxVncS-DGD_xQD","LocationType":"point","DisplayPosition":{"Latitude":39.46478,"Longitude":-0.43025},"MapView":{"TopLeft":{"Latitude":39.4659042,"Longitude":-0.4317061},"BottomRight":{"Latitude":39.4636558,"Longitude":-0.4287939}},"Address":{"Label":"Avenida Virgen de los Desamparados, 14, 46950 Xirivella (Valencia), Espanya","Country":"ESP","State":"Comunidad Valenciana","County":"Valencia","City":"Xirivella","Street":"Avenida Virgen de los Desamparados","HouseNumber":"14","PostalCode":"46950","AdditionalData":[{"value":"Espanya","key":"CountryName"},{"value":"Comunidad Valenciana","key":"StateName"},{"value":"Valencia","key":"CountyName"}]},"MapReference":{"ReferenceId":"1037916742","Spot":0.13,"SideOfStreet":"right","CountryId":"20215059","StateId":"20226784","CountyId":"20226787","CityId":"20250171","AddressId":"269380919","RoadLinkId":"359917914"}}},{"Relevance":1.0,"Distance":39.4,"MatchLevel":"street","MatchQuality":{"Country":1.0,"State":1.0,"County":1.0,"City":1.0,"PostalCode":1.0},"Location":{"LocationId":"NT_9L42OkiQVK9kOvsqeaRT1A_l_1037916754_L","LocationType":"point","DisplayPosition":{"Latitude":39.46482,"Longitude":-0.43052},"MapView":{"TopLeft":{"Latitude":39.46482,"Longitude":-0.43095},"BottomRight":{"Latitude":39.46461,"Longitude":-0.4304}},"Address":{"Label":"46950 Xirivella (Valencia), Espanya","Country":"ESP","State":"Comunidad Valenciana","County":"Valencia","City":"Xirivella","PostalCode":"46950","AdditionalData":[{"value":"Espanya","key":"CountryName"},{"value":"Comunidad Valenciana","key":"StateName"},{"value":"Valencia","key":"CountyName"}]},"MapReference":{"ReferenceId":"1037916754","Spot":0.7,"SideOfStreet":"left","CountryId":"20215059","StateId":"20226784","CountyId":"20226787","CityId":"20250171"}}},{"Relevance":1.0,"Distance":43.0,"MatchLevel":"houseNumber","MatchQuality":{"Country":1.0,"State":1.0,"County":1.0,"City":1.0,"Street":[1.0],"HouseNumber":1.0,"PostalCode":1.0},"MatchType":"interpolated","Location":{"LocationId":"NT_m2lHMb8jb6dSGxVncS-DGD_xgD","LocationType":"point","DisplayPosition":{"Latitude":39.46543,"Longitude":-0.43068},"MapView":{"TopLeft":{"Latitude":39.4665542,"Longitude":-0.4321361},"BottomRight":{"Latitude":39.4643058,"Longitude":-0.4292239}},"Address":{"Label":"Avenida Virgen de los Desamparados, 18, 46950 Xirivella (Valencia), Espanya","Country":"ESP","State":"Comunidad Valenciana","County":"Valencia","City":"Xirivella","Street":"Avenida Virgen de los Desamparados","HouseNumber":"18","PostalCode":"46950","AdditionalData":[{"value":"Espanya","key":"CountryName"},{"value":"Comunidad Valenciana","key":"StateName"},{"value":"Valencia","key":"CountyName"}]},"MapReference":{"ReferenceId":"80668731","Spot":0.42,"SideOfStreet":"right","CountryId":"20215059","StateId":"20226784","CountyId":"20226787","CityId":"20250171","AddressId":"269495725","RoadLinkId":"65825140"}}},{"Relevance":1.0,"Distance":47.4,"MatchLevel":"street","MatchQuality":{"Country":1.0,"State":1.0,"County":1.0,"City":1.0,"Street":[1.0],"PostalCode":1.0},"Location":{"LocationId":"NT_m2lHMb8jb6dSGxVncS-DGD_l_1037916741_R","LocationType":"point","DisplayPosition":{"Latitude":39.46472,"Longitude":-0.43021},"MapView":{"TopLeft":{"Latitude":39.46472,"Longitude":-0.43021},"BottomRight":{"Latitude":39.4644,"Longitude":-0.42998}},"Address":{"Label":"Avenida Virgen de los Desamparados, 46950 Xirivella (Valencia), Espanya","Country":"ESP","State":"Comunidad Valenciana","County":"Valencia","City":"Xirivella","Street":"Avenida Virgen de los Desamparados","PostalCode":"46950","AdditionalData":[{"value":"Espanya","key":"CountryName"},{"value":"Comunidad Valenciana","key":"StateName"},{"value":"Valencia","key":"CountyName"}]},"MapReference":{"ReferenceId":"1037916741","Spot":1.0,"SideOfStreet":"right","CountryId":"20215059","StateId":"20226784","CountyId":"20226787","CityId":"20250171"}}},{"Relevance":1.0,"Distance":47.4,"MatchLevel":"street","MatchQuality":{"Country":1.0,"State":1.0,"County":1.0,"City":1.0,"PostalCode":1.0},"Location":{"LocationId":"NT_9L42OkiQVK9kOvsqeaRT1A_l_1037916753_L","LocationType":"point","DisplayPosition":{"Latitude":39.46472,"Longitude":-0.43021},"MapView":{"TopLeft":{"Latitude":39.46472,"Longitude":-0.4304},"BottomRight":{"Latitude":39.46465,"Longitude":-0.43021}},"Address":{"Label":"46950 Xirivella (Valencia), Espanya","Country":"ESP","State":"Comunidad Valenciana","County":"Valencia","City":"Xirivella","PostalCode":"46950","AdditionalData":[{"value":"Espanya","key":"CountryName"},{"value":"Comunidad Valenciana","key":"StateName"},{"value":"Valencia","key":"CountyName"}]},"MapReference":{"ReferenceId":"1037916753","Spot":1.0,"SideOfStreet":"left","CountryId":"20215059","StateId":"20226784","CountyId":"20226787","CityId":"20250171"}}},{"Relevance":1.0,"Distance":52.9,"MatchLevel":"street","MatchQuality":{"Country":1.0,"State":1.0,"County":1.0,"City":1.0,"PostalCode":1.0},"Location":{"LocationId":"NT_9L42OkiQVK9kOvsqeaRT1A_l_1037916752_R","LocationType":"point","DisplayPosition":{"Latitude":39.4648367,"Longitude":-0.4307942},"MapView":{"TopLeft":{"Latitude":39.46502,"Longitude":-0.43102},"BottomRight":{"Latitude":39.46472,"Longitude":-0.43079}},"Address":{"Label":"46950 Xirivella (Valencia), Espanya","Country":"ESP","State":"Comunidad Valenciana","County":"Valencia","City":"Xirivella","PostalCode":"46950","AdditionalData":[{"value":"Espanya","key":"CountryName"},{"value":"Comunidad Valenciana","key":"StateName"},{"value":"Valencia","key":"CountyName"}]},"MapReference":{"ReferenceId":"1037916752","Spot":0.55,"SideOfStreet":"right","CountryId":"20215059","StateId":"20226784","CountyId":"20226787","CityId":"20250171"}}}]}]}}