{"Response":{"MetaInfo":{"Timestamp":"2020-03-28T09:47:57.975+0000","NextPageInformation":"2"},"View":[{"_type":"SearchResultsViewType","ViewId":0,"Result":[{"Relevance":1.0,"Distance":0.0,"Direction":0.0,"MatchLevel":"city","MatchQuality":{"Country":1.0,"State":1.0,"County":1.0,"City":1.0,"PostalCode":1.0},"Location":{"LocationId":"NT_kMOhovWEKh-lw6cG9qoH.A","LocationType":"point","DisplayPosition":{"Latitude":39.5727847,"Longitude":-0.3311765},"MapView":{"TopLeft":{"Latitude":39.59667,"Longitude":-0.36176},"BottomRight":{"Latitude":39.55702,"Longitude":-0.28558}},"Address":{"Label":"Massamagrell, Comunitat Valenciana, Espanya","Country":"ESP","State":"Comunitat Valenciana","County":"València","City":"Massamagrell","PostalCode":"46130","AdditionalData":[{"value":"Espanya","key":"CountryName"},{"value":"Comunitat Valenciana","key":"StateName"},{"value":"València","key":"CountyName"}]},"MapReference":{"ReferenceId":"746244305","SideOfStreet":"neither","CountryId":"20215059","StateId":"20226784","CountyId":"20226787","CityId":"20250298"}}},{"Relevance":1.0,"Distance":4.5,"MatchLevel":"houseNumber","MatchQuality":{"Country":1.0,"State":1.0,"County":1.0,"City":1.0,"Street":[1.0],"HouseNumber":1.0,"PostalCode":1.0},"MatchType":"interpolated","Location":{"LocationId":"NT_-2xUKiwQX-1p1twIHqHmWD_zIE","LocationType":"point","DisplayPosition":{"Latitude":39.57286,"Longitude":-0.33112},"MapView":{"TopLeft":{"Latitude":39.5739842,"Longitude":-0.3325784},"BottomRight":{"Latitude":39.5717358,"Longitude":-0.3296616}},"Address":{"Label":"Calle Serreta, 3B, 46130 Massamagrell (Valencia), Espanya","Country":"ESP","State":"Comunidad Valenciana","County":"Valencia","City":"Massamagrell","Street":"Calle Serreta","HouseNumber":"3B","PostalCode":"46130","AdditionalData":[{"value":"Espanya","key":"CountryName"},{"value":"Comunidad Valenciana","key":"StateName"},{"value":"Valencia","key":"CountyName"}]},"MapReference":{"ReferenceId":"570736410","Spot":0.46,"SideOfStreet":"left","CountryId":"20215059","StateId":"20226784","CountyId":"20226787","CityId":"20250298","AddressId":"269464180","RoadLinkId":"406631286"}}},{"Relevance":1.0,"Distance":8.9,"MatchLevel":"houseNumber","MatchQuality":{"Country":1.0,"State":1.0,"County":1.0,"City":1.0,"Street":[1.0],"HouseNumber":1.0,"PostalCode":1.0},"MatchType":"interpolated","Location":{"LocationId":"NT_FMl0vN0pw7SaNeEw6wiaDC_yUD","LocationType":"point","DisplayPosition":{"Latitude":39.57272,"Longitude":-0.33107},"MapView":{"TopLeft":{"Latitude":39.5738442,"Longitude":-0.3325284},"BottomRight":{"Latitude":39.5715958,"Longitude":-0.3296116}},"Address":{"Label":"Calle Médico Miguel Servet, 25, 46130 Massamagrell (Valencia), Espanya","Country":"ESP","State":"Comunidad Valenciana","County":"Valencia","City":"Massamagrell","Street":"Calle Médico Miguel Servet","HouseNumber":"25","PostalCode":"46130","AdditionalData":[{"value":"Espanya","key":"CountryName"},{"value":"Comunidad Valenciana","key":"StateName"},{"value":"Valencia","key":"CountyName"}]},"MapReference":{"ReferenceId":"583486803","Spot":0.88,"SideOfStreet":"left","CountryId":"20215059","StateId":"20226784","CountyId":"20226787","CityId":"20250298","AddressId":"269182518","RoadLinkId":"66183270"}}},{"Relevance":1.0,"Distance":9.3,"MatchLevel":"houseNumber","MatchQuality":{"Country":1.0,"State":1.0,"County":1.0,"City":1.0,"Street":[1.0],"HouseNumber":1.0,"PostalCode":1.0},"MatchType":"interpolated","Location":{"LocationId":"NT_a3G14QpcI1iPn-xPeT1C-A_ygD","LocationType":"point","DisplayPosition":{"Latitude":39.57281,"Longitude":-0.33131},"MapView":{"TopLeft":{"Latitude":39.5739342,"Longitude":-0.3327684},"BottomRight":{"Latitude":39.5716858,"Longitude":-0.3298516}},"Address":{"Label":"Calle Ramón y Cajal, 28, 46130 Massamagrell (Valencia), Espanya","Country":"ESP","State":"Comunidad Valenciana","County":"Valencia","City":"Massamagrell","Street":"Calle Ramón y Cajal","HouseNumber":"28","PostalCode":"46130","AdditionalData":[{"value":"Espanya","key":"CountryName"},{"value":"Comunidad Valenciana","key":"StateName"},{"value":"Valencia","key":"CountyName"}]},"MapReference":{"ReferenceId":"570736525","Spot":0.92,"SideOfStreet":"right","CountryId":"20215059","StateId":"20226784","CountyId":"20226787","CityId":"20250298","AddressId":"672954139","RoadLinkId":"541072808"}}},{"Relevance":1.0,"Distance":14.3,"MatchLevel":"street","MatchQuality":{"Country":1.0,"State":1.0,"County":1.0,"City":1.0,"Street":[1.0],"PostalCode":1.0},"Location":{"LocationId":"NT_-2xUKiwQX-1p1twIHqHmWD_l_570736411_L","LocationType":"point","DisplayPosition":{"Latitude":39.5729,"Longitude":-0.33125},"MapView":{"TopLeft":{"Latitude":39.57292,"Longitude":-0.33131},"BottomRight":{"Latitude":39.5729,"Longitude":-0.33125}},"Address":{"Label":"Calle Serreta, 46130 Massamagrell (Valencia), Espanya","Country":"ESP","State":"Comunidad Valenciana","County":"Valencia","City":"Massamagrell","Street":"Calle Serreta","PostalCode":"46130","AdditionalData":[{"value":"Espanya","key":"CountryName"},{"value":"Comunidad Valenciana","key":"StateName"},{"value":"Valencia","key":"CountyName"}]},"MapReference":{"ReferenceId":"570736411","Spot":0.0,"SideOfStreet":"left","CountryId":"20215059","StateId":"20226784","CountyId":"20226787","CityId":"20250298"}}},{"Relevance":1.0,"Distance":15.1,"MatchLevel":"street","MatchQuality":{"Country":1.0,"State":1.0,"County":1.0,"City":1.0,"Street":[1.0],"PostalCode":1.0},"Location":{"LocationId":"NT_-2xUKiwQX-1p1twIHqHmWD_l_1033376038_L","LocationType":"point","DisplayPosition":{"Latitude":39.57283,"Longitude":-0.33101},"MapView":{"TopLeft":{"Latitude":39.57283,"Longitude":-0.33101},"BottomRight":{"Latitude":39.5728,"Longitude":-0.33088}},"Address":{"Label":"Calle Serreta, 46130 Massamagrell (Valencia), Espanya","Country":"ESP","State":"Comunidad Valenciana","County":"Valencia","City":"Massamagrell","Street":"Calle Serreta","PostalCode":"46130","AdditionalData":[{"value":"Espanya","key":"CountryName"},{"value":"Comunidad Valenciana","key":"StateName"},{"value":"Valencia","key":"CountyName"}]},"MapReference":{"ReferenceId":"1033376038","Spot":1.0,"SideOfStreet":"left","CountryId":"20215059","StateId":"20226784","CountyId":"20226787","CityId":"20250298"}}},{"Relevance":1.0,"Distance":18.9,"MatchLevel":"street","MatchQuality":{"Country":1.0,"State":1.0,"County":1.0,"City":1.0,"Street":[1.0],"PostalCode":1.0},"Location":{"LocationId":"NT_-2xUKiwQX-1p1twIHqHmWD_l_583486808_L","LocationType":"point","DisplayPosition":{"Latitude":39.57292,"Longitude":-0.33131},"MapView":{"TopLeft":{"Latitude":39.57294,"Longitude":-0.33139},"BottomRight":{"Latitude":39.57292,"Longitude":-0.33131}},"Address":{"Label":"Calle Serreta, 46130 Massamagrell (Valencia), Espanya","Country":"ESP","State":"Comunidad Valenciana","County":"Valencia","City":"Massamagrell","Street":"Calle Serreta","PostalCode":"46130","AdditionalData":[{"value":"Espanya","key":"CountryName"},{"value":"Comunidad Valenciana","key":"StateName"},{"value":"Valencia","key":"CountyName"}]},"MapReference":{"ReferenceId":"583486808","Spot":0.0,"SideOfStreet":"left","CountryId":"20215059","StateId":"20226784","CountyId":"20226787","CityId":"20250298"}}},{"Relevance":1.0,"Distance":19.9,"MatchLevel":"houseNumber","MatchQuality":{"Country":1.0,"State":1.0,"County":1.0,"City":1.0,"Street":[1.0],"HouseNumber":1.0,"PostalCode":1.0},"MatchType":"interpolated","Location":{"LocationId":"NT_FMl0vN0pw7SaNeEw6wiaDC_ycD","LocationType":"point","DisplayPosition":{"Latitude":39.57289,"Longitude":-0.33097},"MapView":{"TopLeft":{"Latitude":39.5740142,"Longitude":-0.3324284},"BottomRight":{"Latitude":39.5717658,"Longitude":-0.3295116}},"Address":{"Label":"Calle Médico Miguel Servet, 27, 46130 Massamagrell (Valencia), Espanya","Country":"ESP","State":"Comunidad Valenciana","County":"Valencia","City":"Massamagrell","Street":"Calle Médico Miguel Servet","HouseNumber":"27","PostalCode":"46130","AdditionalData":[{"value":"Espanya","key":"CountryName"},{"value":"Comunidad Valenciana","key":"StateName"},{"value":"Valencia","key":"CountyName"}]},"MapReference":{"ReferenceId":"583488384","Spot":0.04,"SideOfStreet":"left","CountryId":"20215059","StateId":"20226784","CountyId":"20226787","CityId":"20250298","AddressId":"269582040","RoadLinkId":"406631343"}}},{"Relevance":1.0,"Distance":20.9,"MatchLevel":"houseNumber","MatchQuality":{"Country":1.0,"State":1.0,"County":1.0,"City":1.0,"Street":[1.0],"HouseNumber":1.0,"PostalCode":1.0},"MatchType":"interpolated","Location":{"LocationId":"NT_a3G14QpcI1iPn-xPeT1C-A_zUD","LocationType":"point","DisplayPosition":{"Latitude":39.57284,"Longitude":-0.33141},"MapView":{"TopLeft":{"Latitude":39.5739642,"Longitude":-0.3328684},"BottomRight":{"Latitude":39.5717158,"Longitude":-0.3299516}},"Address":{"Label":"Calle Ramón y Cajal, 35, 46130 Massamagrell (Valencia), Espanya","Country":"ESP","State":"Comunidad Valenciana","County":"Valencia","City":"Massamagrell","Street":"Calle Ramón y Cajal","HouseNumber":"35","PostalCode":"46130","AdditionalData":[{"value":"Espanya","key":"CountryName"},{"value":"Comunidad Valenciana","key":"StateName"},{"value":"Valencia","key":"CountyName"}]},"MapReference":{"ReferenceId":"583486484","Spot":0.81,"SideOfStreet":"left","CountryId":"20215059","StateId":"20226784","CountyId":"20226787","CityId":"20250298","AddressId":"672954135","RoadLinkId":"406631501"}}},{"Relevance":1.0,"Distance":26.1,"MatchLevel":"houseNumber","MatchQuality":{"Country":1.0,"State":1.0,"County":1.0,"City":1.0,"Street":[1.0],"HouseNumber":1.0,"PostalCode":1.0},"MatchType":"interpolated","Location":{"LocationId":"NT_-2xUKiwQX-1p1twIHqHmWD_zEE","LocationType":"point","DisplayPosition":{"Latitude":39.57279,"Longitude":-0.33086},"MapView":{"TopLeft":{"Latitude":39.5739142,"Longitude":-0.3323184},"BottomRight":{"Latitude":39.5716658,"Longitude":-0.3294016}},"Address":{"Label":"Calle Serreta, 3A, 46130 Massamagrell (Valencia), Espanya","Country":"ESP","State":"Comunidad Valenciana","County":"Valencia","City":"Massamagrell","Street":"Calle Serreta","HouseNumber":"3A","PostalCode":"46130","AdditionalData":[{"value":"Espanya","key":"CountryName"},{"value":"Comunidad Valenciana","key":"StateName"},{"value":"Valencia","key":"CountyName"}]},"MapReference":{"ReferenceId":"1033376037","Spot":0.93,"SideOfStreet":"left","CountryId":"20215059","StateId":"20226784","CountyId":"20226787","CityId":"20250298","AddressId":"269450810","RoadLinkId":"406631467"}}}]}]}}