{"Response":{"MetaInfo":{"Timestamp":"2020-03-28T11:05:38.389+0000","NextPageInformation":"2"},"View":[{"_type":"SearchResultsViewType","ViewId":0,"Result":[{"Relevance":1.0,"Distance":-565.6,"MatchLevel":"landmark","MatchQuality":{"Country":1.0,"State":1.0,"County":1.0,"Name":1.0},"Location":{"LocationId":"NT_d0gsmqx3FeRc7gPkFbqRYB","LocationType":"island","Name":"Mallorca","DisplayPosition":{"Latitude":39.61354,"Longitude":2.88047},"MapView":{"TopLeft":{"Latitude":39.96254,"Longitude":2.3446},"BottomRight":{"Latitude":39.26453,"Longitude":3.47852}},"Address":{"Label":"(Illes Balears), Espanya","Country":"ESP","State":"Illes Balears","County":"Illes Balears","AdditionalData":[{"value":"Espanya","key":"CountryName"},{"value":"Illes Balears","key":"StateName"},{"value":"Illes Balears","key":"CountyName"}]},"MapReference":{"CountryId":"20215059","StateId":"20226796","CountyId":"20226797","PlaceId":"58562618"}}},{"Relevance":1.0,"Distance":0.0,"Direction":0.0,"MatchLevel":"district","MatchQuality":{"Country":1.0,"State":1.0,"County":1.0,"City":1.0,"District":1.0,"PostalCode":1.0},"Location":{"LocationId":"NT_qKnofCFQRj.IYi96oZPwlA","LocationType":"point","DisplayPosition":{"Latitude":39.5449789,"Longitude":3.3288894},"MapView":{"TopLeft":{"Latitude":39.54805,"Longitude":3.32637},"BottomRight":{"Latitude":39.53305,"Longitude":3.34628}},"Address":{"Label":"Porto Cristo, Manacor, Illes Balears, Espanya","Country":"ESP","State":"Illes Balears","County":"Illes Balears","City":"Manacor","District":"Porto Cristo","PostalCode":"07680","AdditionalData":[{"value":"Espanya","key":"CountryName"},{"value":"Illes Balears","key":"StateName"},{"value":"Illes Balears","key":"CountyName"}]},"MapReference":{"ReferenceId":"813170039","SideOfStreet":"neither","CountryId":"20215059","StateId":"20226796","CountyId":"20226797","CityId":"20275657","DistrictId":"20275674"}}},{"Relevance":1.0,"Distance":7.2,"MatchLevel":"street","MatchQuality":{"Country":1.0,"State":1.0,"County":1.0,"City":1.0,"District":1.0,"PostalCode":1.0},"Location":{"LocationId":"NT_CoGiJDAQd-HzHItqulMOiD_l_1175833940_R","LocationType":"point","DisplayPosition":{"Latitude":39.5449253,"Longitude":3.3288425},"MapView":{"TopLeft":{"Latitude":39.54498,"Longitude":3.32878},"BottomRight":{"Latitude":39.54463,"Longitude":3.32918}},"Address":{"Label":"07680 Manacor (Illes Balears), Espanya","Country":"ESP","State":"Illes Balears","County":"Illes Balears","City":"Manacor","District":"Porto Cristo","PostalCode":"07680","AdditionalData":[{"value":"Espanya","key":"CountryName"},{"value":"Illes Balears","key":"StateName"},{"value":"Illes Balears","key":"CountyName"}]},"MapReference":{"ReferenceId":"1175833940","Spot":0.84,"SideOfStreet":"right","CountryId":"20215059","StateId":"20226796","CountyId":"20226797","CityId":"20275657","DistrictId":"20275674"}}},{"Relevance":1.0,"Distance":10.2,"MatchLevel":"houseNumber","MatchQuality":{"Country":1.0,"State":1.0,"County":1.0,"City":1.0,"District":1.0,"Street":[1.0],"HouseNumber":1.0,"PostalCode":1.0},"MatchType":"interpolated","Location":{"LocationId":"NT_Ltqdz8p.s6dokjCrz1Dh-A_l_1175922552_L_4A","LocationType":"point","DisplayPosition":{"Latitude":39.54507,"Longitude":3.3289},"MapView":{"TopLeft":{"Latitude":39.5461942,"Longitude":3.3274422},"BottomRight":{"Latitude":39.5439459,"Longitude":3.3303578}},"Address":{"Label":"Carrer del Gregal, 8, 07680 Manacor (Illes Balears), Espanya","Country":"ESP","State":"Illes Balears","County":"Illes Balears","City":"Manacor","District":"Porto Cristo","Street":"Carrer del Gregal","HouseNumber":"8","PostalCode":"07680","AdditionalData":[{"value":"Espanya","key":"CountryName"},{"value":"Illes Balears","key":"StateName"},{"value":"Illes Balears","key":"CountyName"}]},"MapReference":{"ReferenceId":"1175922552","Spot":0.11,"SideOfStreet":"left","CountryId":"20215059","StateId":"20226796","CountyId":"20226797","CityId":"20275657","DistrictId":"20275674"}}},{"Relevance":1.0,"Distance":24.0,"MatchLevel":"houseNumber","MatchQuality":{"Country":1.0,"State":1.0,"County":1.0,"City":1.0,"District":1.0,"Street":[1.0],"HouseNumber":1.0,"PostalCode":1.0},"MatchType":"interpolated","Location":{"LocationId":"NT_Ltqdz8p.s6dokjCrz1Dh-A_xAD","LocationType":"point","DisplayPosition":{"Latitude":39.54488,"Longitude":3.32864},"MapView":{"TopLeft":{"Latitude":39.5460042,"Longitude":3.3271822},"BottomRight":{"Latitude":39.5437558,"Longitude":3.3300978}},"Address":{"Label":"Carrer del Gregal, 10, 07680 Manacor (Illes Balears), Espanya","Country":"ESP","State":"Illes Balears","County":"Illes Balears","City":"Manacor","District":"Porto Cristo","Street":"Carrer del Gregal","HouseNumber":"10","PostalCode":"07680","AdditionalData":[{"value":"Espanya","key":"CountryName"},{"value":"Illes Balears","key":"StateName"},{"value":"Illes Balears","key":"CountyName"}]},"MapReference":{"ReferenceId":"1175922551","Spot":0.66,"SideOfStreet":"left","CountryId":"20215059","StateId":"20226796","CountyId":"20226797","CityId":"20275657","DistrictId":"20275674","AddressId":"766139232","RoadLinkId":"483488256"}}},{"Relevance":1.0,"Distance":42.1,"MatchLevel":"houseNumber","MatchQuality":{"Country":1.0,"State":1.0,"County":1.0,"City":1.0,"District":1.0,"Street":[1.0],"HouseNumber":1.0,"PostalCode":1.0},"MatchType":"interpolated","Location":{"LocationId":"NT_QEhKv5C-87MSdXtdRgSe8B_yA","LocationType":"point","DisplayPosition":{"Latitude":39.54465,"Longitude":3.32934},"MapView":{"TopLeft":{"Latitude":39.5457742,"Longitude":3.3278822},"BottomRight":{"Latitude":39.5435258,"Longitude":3.3307978}},"Address":{"Label":"Carrer de l'Escamarlà, 2, 07680 Manacor (Illes Balears), Espanya","Country":"ESP","State":"Illes Balears","County":"Illes Balears","City":"Manacor","District":"Porto Cristo","Street":"Carrer de l'Escamarlà","HouseNumber":"2","PostalCode":"07680","AdditionalData":[{"value":"Espanya","key":"CountryName"},{"value":"Illes Balears","key":"StateName"},{"value":"Illes Balears","key":"CountyName"}]},"MapReference":{"ReferenceId":"76780728","Spot":0.72,"SideOfStreet":"left","CountryId":"20215059","StateId":"20226796","CountyId":"20226797","CityId":"20275657","DistrictId":"20275674","AddressId":"351477141","RoadLinkId":"66033048"}}},{"Relevance":1.0,"Distance":63.0,"MatchLevel":"houseNumber","MatchQuality":{"Country":1.0,"State":1.0,"County":1.0,"City":1.0,"District":1.0,"Street":[1.0],"HouseNumber":1.0,"PostalCode":1.0},"MatchType":"interpolated","Location":{"LocationId":"NT_5TC7gnUSm2mVihgiJgOBIC_1A","LocationType":"point","DisplayPosition":{"Latitude":39.54556,"Longitude":3.32862},"MapView":{"TopLeft":{"Latitude":39.5466842,"Longitude":3.3271622},"BottomRight":{"Latitude":39.5444358,"Longitude":3.3300778}},"Address":{"Label":"Carrer de s'Hort, 5, 07680 Manacor (Illes Balears), Espanya","Country":"ESP","State":"Illes Balears","County":"Illes Balears","City":"Manacor","District":"Porto Cristo","Street":"Carrer de s'Hort","HouseNumber":"5","PostalCode":"07680","AdditionalData":[{"value":"Espanya","key":"CountryName"},{"value":"Illes Balears","key":"StateName"},{"value":"Illes Balears","key":"CountyName"}]},"MapReference":{"ReferenceId":"76777747","Spot":0.42,"SideOfStreet":"right","CountryId":"20215059","StateId":"20226796","CountyId":"20226797","CityId":"20275657","DistrictId":"20275674","AddressId":"766145810","RoadLinkId":"65919891"}}},{"Relevance":1.0,"Distance":77.5,"MatchLevel":"street","MatchQuality":{"Country":1.0,"State":1.0,"County":1.0,"City":1.0,"District":1.0,"Street":[1.0],"PostalCode":1.0},"Location":{"LocationId":"NT_5TC7gnUSm2mVihgiJgOBIC_l_1167814091_R","LocationType":"point","DisplayPosition":{"Latitude":39.54514,"Longitude":3.32801},"MapView":{"TopLeft":{"Latitude":39.54514,"Longitude":3.3279},"BottomRight":{"Latitude":39.54508,"Longitude":3.32801}},"Address":{"Label":"Carrer de s'Hort, 07680 Manacor (Illes Balears), Espanya","Country":"ESP","State":"Illes Balears","County":"Illes Balears","City":"Manacor","District":"Porto Cristo","Street":"Carrer de s'Hort","PostalCode":"07680","AdditionalData":[{"value":"Espanya","key":"CountryName"},{"value":"Illes Balears","key":"StateName"},{"value":"Illes Balears","key":"CountyName"}]},"MapReference":{"ReferenceId":"1167814091","Spot":1.0,"SideOfStreet":"right","CountryId":"20215059","StateId":"20226796","CountyId":"20226797","CityId":"20275657","DistrictId":"20275674"}}},{"Relevance":1.0,"Distance":98.2,"MatchLevel":"houseNumber","MatchQuality":{"Country":1.0,"State":1.0,"County":1.0,"City":1.0,"District":1.0,"Street":[1.0],"HouseNumber":1.0,"PostalCode":1.0},"MatchType":"interpolated","Location":{"LocationId":"NT_QEhKv5C-87MSdXtdRgSe8B_yID","LocationType":"point","DisplayPosition":{"Latitude":39.54512,"Longitude":3.33002},"MapView":{"TopLeft":{"Latitude":39.5462442,"Longitude":3.3285622},"BottomRight":{"Latitude":39.5439958,"Longitude":3.3314778}},"Address":{"Label":"Carrer de l'Escamarlà, 22, 07680 Manacor (Illes Balears), Espanya","Country":"ESP","State":"Illes Balears","County":"Illes Balears","City":"Manacor","District":"Porto Cristo","Street":"Carrer de l'Escamarlà","HouseNumber":"22","PostalCode":"07680","AdditionalData":[{"value":"Espanya","key":"CountryName"},{"value":"Illes Balears","key":"StateName"},{"value":"Illes Balears","key":"CountyName"}]},"MapReference":{"ReferenceId":"564739657","Spot":0.3,"SideOfStreet":"right","CountryId":"20215059","StateId":"20226796","CountyId":"20226797","CityId":"20275657","DistrictId":"20275674","AddressId":"351491532","RoadLinkId":"66100682"}}},{"Relevance":1.0,"Distance":106.0,"MatchLevel":"houseNumber","MatchQuality":{"Country":1.0,"State":1.0,"County":1.0,"City":1.0,"District":1.0,"Street":[1.0],"HouseNumber":1.0,"PostalCode":1.0},"MatchType":"interpolated","Location":{"LocationId":"NT_RWew45Yk.tOcAv8iIA2R1C_yID","LocationType":"point","DisplayPosition":{"Latitude":39.54489,"Longitude":3.33012},"MapView":{"TopLeft":{"Latitude":39.5460142,"Longitude":3.3286622},"BottomRight":{"Latitude":39.5437658,"Longitude":3.3315778}},"Address":{"Label":"Carrer del Timó, 22, 07680 Manacor (Illes Balears), Espanya","Country":"ESP","State":"Illes Balears","County":"Illes Balears","City":"Manacor","District":"Porto Cristo","Street":"Carrer del Timó","HouseNumber":"22","PostalCode":"07680","AdditionalData":[{"value":"Espanya","key":"CountryName"},{"value":"Illes Balears","key":"StateName"},{"value":"Illes Balears","key":"CountyName"}]},"MapReference":{"ReferenceId":"564739854","Spot":0.53,"SideOfStreet":"right","CountryId":"20215059","StateId":"20226796","CountyId":"20226797","CityId":"20275657","DistrictId":"20275674","AddressId":"766122766","RoadLinkId":"66064236"}}}]}]}}