{"Response":{"MetaInfo":{"Timestamp":"2020-03-28T09:48:09.402+0000","NextPageInformation":"2"},"View":[{"_type":"SearchResultsViewType","ViewId":0,"Result":[{"Relevance":1.0,"Distance":-493.4,"MatchLevel":"landmark","MatchQuality":{"Country":1.0,"State":1.0,"County":1.0,"Name":1.0},"Location":{"LocationId":"NT_d0gsmqx3FeRc7gPkFbqRYB","LocationType":"island","Name":"Mallorca","DisplayPosition":{"Latitude":39.61354,"Longitude":2.88047},"MapView":{"TopLeft":{"Latitude":39.96254,"Longitude":2.3446},"BottomRight":{"Latitude":39.26453,"Longitude":3.47852}},"Address":{"Label":"(Illes Balears), Espanya","Country":"ESP","State":"Illes Balears","County":"Illes Balears","AdditionalData":[{"value":"Espanya","key":"CountryName"},{"value":"Illes Balears","key":"StateName"},{"value":"Illes Balears","key":"CountyName"}]},"MapReference":{"CountryId":"20215059","StateId":"20226796","CountyId":"20226797","PlaceId":"58562618"}}},{"Relevance":1.0,"Distance":0.0,"Direction":0.0,"MatchLevel":"district","MatchQuality":{"Country":1.0,"State":1.0,"County":1.0,"City":1.0,"District":1.0,"PostalCode":1.0},"Location":{"LocationId":"NT_0EGvKa-bTKnHcNNsDx.faC","LocationType":"point","DisplayPosition":{"Latitude":39.5731615,"Longitude":2.6350999},"MapView":{"TopLeft":{"Latitude":39.57688,"Longitude":2.63277},"BottomRight":{"Latitude":39.56933,"Longitude":2.64169}},"Address":{"Label":"Santa Catalina, Palma, Illes Balears, Espanya","Country":"ESP","State":"Illes Balears","County":"Illes Balears","City":"Palma","District":"Santa Catalina","PostalCode":"07013","AdditionalData":[{"value":"Espanya","key":"CountryName"},{"value":"Illes Balears","key":"StateName"},{"value":"Illes Balears","key":"CountyName"}]},"MapReference":{"ReferenceId":"564727736","SideOfStreet":"neither","CountryId":"20215059","StateId":"20226796","CountyId":"20226797","CityId":"20275706"}}},{"Relevance":1.0,"Distance":4.2,"MatchLevel":"landmark","MatchQuality":{"Country":1.0,"State":1.0,"County":1.0,"City":1.0,"District":1.0,"Street":[1.0],"PostalCode":1.0,"Name":1.0},"Location":{"LocationId":"NT_UzNRnyjCv0pp5J5NS6LnUC_p_aQRUw6YcQlKTiXln7NEG3D","LocationType":"park","Name":"Pau Casals Mob","DisplayPosition":{"Latitude":39.57312,"Longitude":2.63456},"MapView":{"TopLeft":{"Latitude":39.57335,"Longitude":2.63446},"BottomRight":{"Latitude":39.57278,"Longitude":2.63509}},"Address":{"Label":"Glorieta Pau Casals, 07013 Palma (Illes Balears), Espanya","Country":"ESP","State":"Illes Balears","County":"Illes Balears","City":"Palma","District":"Santa Catalina","Street":"Glorieta Pau Casals","PostalCode":"07013","AdditionalData":[{"value":"Espanya","key":"CountryName"},{"value":"Illes Balears","key":"StateName"},{"value":"Illes Balears","key":"CountyName"}]},"MapReference":{"CountryId":"20215059","StateId":"20226796","CountyId":"20226797","CityId":"20275706","PlaceId":"1113221549"}}},{"Relevance":1.0,"Distance":8.8,"MatchLevel":"street","MatchQuality":{"Country":1.0,"State":1.0,"County":1.0,"City":1.0,"District":1.0,"Street":[1.0],"PostalCode":1.0},"Location":{"LocationId":"NT_m1yPM9dsSzDQpuo6117MrC_l_950351093_L","LocationType":"point","DisplayPosition":{"Latitude":39.57324,"Longitude":2.63509},"MapView":{"TopLeft":{"Latitude":39.57335,"Longitude":2.63465},"BottomRight":{"Latitude":39.57324,"Longitude":2.63509}},"Address":{"Label":"Carrer Fàbrica, 07013 Palma (Illes Balears), Espanya","Country":"ESP","State":"Illes Balears","County":"Illes Balears","City":"Palma","District":"Santa Catalina","Street":"Carrer Fàbrica","PostalCode":"07013","AdditionalData":[{"value":"Espanya","key":"CountryName"},{"value":"Illes Balears","key":"StateName"},{"value":"Illes Balears","key":"CountyName"}]},"MapReference":{"ReferenceId":"950351093","Spot":0.0,"SideOfStreet":"left","CountryId":"20215059","StateId":"20226796","CountyId":"20226797","CityId":"20275706"}}},{"Relevance":1.0,"Distance":13.3,"MatchLevel":"houseNumber","MatchQuality":{"Country":1.0,"State":1.0,"County":1.0,"City":1.0,"District":1.0,"Street":[1.0],"HouseNumber":1.0,"PostalCode":1.0},"MatchType":"interpolated","Location":{"LocationId":"NT_m1yPM9dsSzDQpuo6117MrC_3kTQ","LocationType":"point","DisplayPosition":{"Latitude":39.57319,"Longitude":2.63528},"MapView":{"TopLeft":{"Latitude":39.5743142,"Longitude":2.6338216},"BottomRight":{"Latitude":39.5720658,"Longitude":2.6367384}},"Address":{"Label":"Carrer Fàbrica, 79A, 07013 Palma (Illes Balears), Espanya","Country":"ESP","State":"Illes Balears","County":"Illes Balears","City":"Palma","District":"Santa Catalina","Street":"Carrer Fàbrica","HouseNumber":"79A","PostalCode":"07013","AdditionalData":[{"value":"Espanya","key":"CountryName"},{"value":"Illes Balears","key":"StateName"},{"value":"Illes Balears","key":"CountyName"}]},"MapReference":{"ReferenceId":"950351092","Spot":0.59,"SideOfStreet":"left","CountryId":"20215059","StateId":"20226796","CountyId":"20226797","CityId":"20275706","AddressId":"351515842","RoadLinkId":"297243059"}}},{"Relevance":1.0,"Distance":18.7,"MatchLevel":"houseNumber","MatchQuality":{"Country":1.0,"State":1.0,"County":1.0,"City":1.0,"District":1.0,"Street":[1.0],"HouseNumber":1.0,"PostalCode":1.0},"MatchType":"interpolated","Location":{"LocationId":"NT_JYy9sjoyPHYFX0xcubU2BB_xA","LocationType":"point","DisplayPosition":{"Latitude":39.57312,"Longitude":2.63455},"MapView":{"TopLeft":{"Latitude":39.5742442,"Longitude":2.6330916},"BottomRight":{"Latitude":39.5719958,"Longitude":2.6360084}},"Address":{"Label":"Glorieta Pau Casals, 1, 07013 Palma (Illes Balears), Espanya","Country":"ESP","State":"Illes Balears","County":"Illes Balears","City":"Palma","District":"Santa Catalina","Street":"Glorieta Pau Casals","HouseNumber":"1","PostalCode":"07013","AdditionalData":[{"value":"Espanya","key":"CountryName"},{"value":"Illes Balears","key":"StateName"},{"value":"Illes Balears","key":"CountyName"}]},"MapReference":{"ReferenceId":"564727635","Spot":0.49,"SideOfStreet":"right","CountryId":"20215059","StateId":"20226796","CountyId":"20226797","CityId":"20275706","AddressId":"416988620","RoadLinkId":"175291624"}}},{"Relevance":1.0,"Distance":28.6,"MatchLevel":"houseNumber","MatchQuality":{"Country":1.0,"State":1.0,"County":1.0,"City":1.0,"District":1.0,"Street":[1.0],"HouseNumber":1.0,"PostalCode":1.0},"MatchType":"interpolated","Location":{"LocationId":"NT_UxbkFd5HkhZx1erlZSAM9B_0ID","LocationType":"point","DisplayPosition":{"Latitude":39.57302,"Longitude":2.63552},"MapView":{"TopLeft":{"Latitude":39.5741442,"Longitude":2.6340616},"BottomRight":{"Latitude":39.5718958,"Longitude":2.6369784}},"Address":{"Label":"Carrer Despuig, 42, 07013 Palma (Illes Balears), Espanya","Country":"ESP","State":"Illes Balears","County":"Illes Balears","City":"Palma","District":"Santa Catalina","Street":"Carrer Despuig","HouseNumber":"42","PostalCode":"07013","AdditionalData":[{"value":"Espanya","key":"CountryName"},{"value":"Illes Balears","key":"StateName"},{"value":"Illes Balears","key":"CountyName"}]},"MapReference":{"ReferenceId":"564727668","Spot":0.78,"SideOfStreet":"left","CountryId":"20215059","StateId":"20226796","CountyId":"20226797","CityId":"20275706","AddressId":"351431285","RoadLinkId":"65958944"}}},{"Relevance":1.0,"Distance":35.9,"MatchLevel":"houseNumber","MatchQuality":{"Country":1.0,"State":1.0,"County":1.0,"City":1.0,"District":1.0,"Street":[1.0],"HouseNumber":1.0,"PostalCode":1.0},"MatchType":"interpolated","Location":{"LocationId":"NT_UxbkFd5HkhZx1erlZSAM9B_0AD","LocationType":"point","DisplayPosition":{"Latitude":39.57325,"Longitude":2.63561},"MapView":{"TopLeft":{"Latitude":39.5743742,"Longitude":2.6341516},"BottomRight":{"Latitude":39.5721258,"Longitude":2.6370684}},"Address":{"Label":"Carrer Despuig, 40, 07013 Palma (Illes Balears), Espanya","Country":"ESP","State":"Illes Balears","County":"Illes Balears","City":"Palma","District":"Santa Catalina","Street":"Carrer Despuig","HouseNumber":"40","PostalCode":"07013","AdditionalData":[{"value":"Espanya","key":"CountryName"},{"value":"Illes Balears","key":"StateName"},{"value":"Illes Balears","key":"CountyName"}]},"MapReference":{"ReferenceId":"564727560","Spot":0.24,"SideOfStreet":"left","CountryId":"20215059","StateId":"20226796","CountyId":"20226797","CityId":"20275706","AddressId":"351577254","RoadLinkId":"66569952"}}},{"Relevance":1.0,"Distance":43.1,"MatchLevel":"houseNumber","MatchQuality":{"Country":1.0,"State":1.0,"County":1.0,"City":1.0,"District":1.0,"Street":[1.0],"HouseNumber":1.0,"PostalCode":1.0},"MatchType":"interpolated","Location":{"LocationId":"NT_BfatNFa1hYX-MK5m5EGQmD_4A","LocationType":"point","DisplayPosition":{"Latitude":39.57272,"Longitude":2.63517},"MapView":{"TopLeft":{"Latitude":39.5738442,"Longitude":2.6337116},"BottomRight":{"Latitude":39.5715958,"Longitude":2.6366284}},"Address":{"Label":"Carrer Cervantes, 8, 07013 Palma (Illes Balears), Espanya","Country":"ESP","State":"Illes Balears","County":"Illes Balears","City":"Palma","District":"Santa Catalina","Street":"Carrer Cervantes","HouseNumber":"8","PostalCode":"07013","AdditionalData":[{"value":"Espanya","key":"CountryName"},{"value":"Illes Balears","key":"StateName"},{"value":"Illes Balears","key":"CountyName"}]},"MapReference":{"ReferenceId":"950351090","Spot":0.45,"SideOfStreet":"right","CountryId":"20215059","StateId":"20226796","CountyId":"20226797","CityId":"20275706","AddressId":"351615341","RoadLinkId":"297243057"}}},{"Relevance":1.0,"Distance":43.6,"MatchLevel":"houseNumber","MatchQuality":{"Country":1.0,"State":1.0,"County":1.0,"City":1.0,"District":1.0,"Street":[1.0],"HouseNumber":1.0,"PostalCode":1.0},"MatchType":"interpolated","Location":{"LocationId":"NT_.KKUewaO5fBgFOIUPTevYB_zcD","LocationType":"point","DisplayPosition":{"Latitude":39.57348,"Longitude":2.6347},"MapView":{"TopLeft":{"Latitude":39.5746042,"Longitude":2.6332416},"BottomRight":{"Latitude":39.5723558,"Longitude":2.6361584}},"Address":{"Label":"Carrer Monterrey, 37, 07013 Palma (Illes Balears), Espanya","Country":"ESP","State":"Illes Balears","County":"Illes Balears","City":"Palma","District":"Santa Catalina","Street":"Carrer Monterrey","HouseNumber":"37","PostalCode":"07013","AdditionalData":[{"value":"Espanya","key":"CountryName"},{"value":"Illes Balears","key":"StateName"},{"value":"Illes Balears","key":"CountyName"}]},"MapReference":{"ReferenceId":"564727511","Spot":0.24,"SideOfStreet":"right","CountryId":"20215059","StateId":"20226796","CountyId":"20226797","CityId":"20275706","AddressId":"351435437","RoadLinkId":"66177560"}}}]}]}}