{"Response":{"MetaInfo":{"Timestamp":"2020-03-28T09:38:38.320+0000","NextPageInformation":"2"},"View":[{"_type":"SearchResultsViewType","ViewId":0,"Result":[{"Relevance":1.0,"Distance":-3065.3,"MatchLevel":"landmark","MatchQuality":{"Country":1.0,"State":1.0,"County":1.0,"Name":1.0},"Location":{"LocationId":"NT_d0gsmqx3FeRc7gPkFbqRYB","LocationType":"island","Name":"Mallorca","DisplayPosition":{"Latitude":39.61354,"Longitude":2.88047},"MapView":{"TopLeft":{"Latitude":39.96254,"Longitude":2.3446},"BottomRight":{"Latitude":39.26453,"Longitude":3.47852}},"Address":{"Label":"(Illes Balears), Espanya","Country":"ESP","State":"Illes Balears","County":"Illes Balears","AdditionalData":[{"value":"Espanya","key":"CountryName"},{"value":"Illes Balears","key":"StateName"},{"value":"Illes Balears","key":"CountyName"}]},"MapReference":{"CountryId":"20215059","StateId":"20226796","CountyId":"20226797","PlaceId":"58562618"}}},{"Relevance":1.0,"Distance":0.0,"Direction":0.0,"MatchLevel":"district","MatchQuality":{"Country":1.0,"State":1.0,"County":1.0,"City":1.0,"District":1.0,"PostalCode":1.0},"Location":{"LocationId":"NT_2aFjDfYirO0I5lZ4cTUH2B","LocationType":"point","DisplayPosition":{"Latitude":39.5930466,"Longitude":2.617076},"MapView":{"TopLeft":{"Latitude":39.59828,"Longitude":2.6101},"BottomRight":{"Latitude":39.58377,"Longitude":2.62732}},"Address":{"Label":"Sa Vileta, Palma, Illes Balears, Espanya","Country":"ESP","State":"Illes Balears","County":"Illes Balears","City":"Palma","District":"Sa Vileta","PostalCode":"07011","AdditionalData":[{"value":"Espanya","key":"CountryName"},{"value":"Illes Balears","key":"StateName"},{"value":"Illes Balears","key":"CountyName"}]},"MapReference":{"ReferenceId":"564724808","SideOfStreet":"neither","CountryId":"20215059","StateId":"20226796","CountyId":"20226797","CityId":"20275706","DistrictId":"20427657"}}},{"Relevance":1.0,"Distance":11.0,"MatchLevel":"houseNumber","MatchQuality":{"Country":1.0,"State":1.0,"County":1.0,"City":1.0,"District":1.0,"Street":[1.0],"HouseNumber":1.0,"PostalCode":1.0},"MatchType":"interpolated","Location":{"LocationId":"NT_DOMafQVr9yvLRLx9AkUrPD_xID","LocationType":"point","DisplayPosition":{"Latitude":39.59312,"Longitude":2.61699},"MapView":{"TopLeft":{"Latitude":39.5942442,"Longitude":2.6155312},"BottomRight":{"Latitude":39.5919958,"Longitude":2.6184488}},"Address":{"Label":"Carrer Ciri, 12, 07013 Palma (Illes Balears), Espanya","Country":"ESP","State":"Illes Balears","County":"Illes Balears","City":"Palma","District":"Sa Vileta","Street":"Carrer Ciri","HouseNumber":"12","PostalCode":"07013","AdditionalData":[{"value":"Espanya","key":"CountryName"},{"value":"Illes Balears","key":"StateName"},{"value":"Illes Balears","key":"CountyName"}]},"MapReference":{"ReferenceId":"564724796","Spot":0.45,"SideOfStreet":"left","CountryId":"20215059","StateId":"20226796","CountyId":"20226797","CityId":"20275706","DistrictId":"20427657","AddressId":"351474787","RoadLinkId":"65349505"}}},{"Relevance":1.0,"Distance":23.8,"MatchLevel":"landmark","MatchQuality":{"Country":1.0,"State":1.0,"County":1.0,"City":1.0,"District":1.0,"PostalCode":1.0,"Name":1.0},"Location":{"LocationId":"NT_EsMpPAFO.TWcpEBlartr2C","LocationType":"park","Name":"Son Xigala Parque","DisplayPosition":{"Latitude":39.59283,"Longitude":2.61662},"MapView":{"TopLeft":{"Latitude":39.59309,"Longitude":2.61635},"BottomRight":{"Latitude":39.59256,"Longitude":2.61692}},"Address":{"Label":"07011 Palma (Illes Balears), Espanya","Country":"ESP","State":"Illes Balears","County":"Illes Balears","City":"Palma","District":"Sa Vileta","PostalCode":"07011","AdditionalData":[{"value":"Espanya","key":"CountryName"},{"value":"Illes Balears","key":"StateName"},{"value":"Illes Balears","key":"CountyName"}]},"MapReference":{"CountryId":"20215059","StateId":"20226796","CountyId":"20226797","CityId":"20275706","DistrictId":"20427657","PlaceId":"1453843344"}}},{"Relevance":1.0,"Distance":23.8,"MatchLevel":"street","MatchQuality":{"Country":1.0,"State":1.0,"County":1.0,"City":1.0,"District":1.0,"Street":[1.0],"PostalCode":1.0},"Location":{"LocationId":"NT_mUV77p5MQQzBwGDxpUmhoD_l_564724836_R","LocationType":"point","DisplayPosition":{"Latitude":39.5929678,"Longitude":2.6168172},"MapView":{"TopLeft":{"Latitude":39.59309,"Longitude":2.61678},"BottomRight":{"Latitude":39.59263,"Longitude":2.61692}},"Address":{"Label":"Carrer Massanella, 07013 Palma (Illes Balears), Espanya","Country":"ESP","State":"Illes Balears","County":"Illes Balears","City":"Palma","District":"Sa Vileta","Street":"Carrer Massanella","PostalCode":"07013","AdditionalData":[{"value":"Espanya","key":"CountryName"},{"value":"Illes Balears","key":"StateName"},{"value":"Illes Balears","key":"CountyName"}]},"MapReference":{"ReferenceId":"564724836","Spot":0.73,"SideOfStreet":"right","CountryId":"20215059","StateId":"20226796","CountyId":"20226797","CityId":"20275706","DistrictId":"20427657"}}},{"Relevance":1.0,"Distance":32.7,"MatchLevel":"houseNumber","MatchQuality":{"Country":1.0,"State":1.0,"County":1.0,"City":1.0,"District":1.0,"Street":[1.0],"HouseNumber":1.0,"PostalCode":1.0},"MatchType":"interpolated","Location":{"LocationId":"NT_QBgmRl4l6sKizkSrbWdi8D_yYD","LocationType":"point","DisplayPosition":{"Latitude":39.59324,"Longitude":2.61673},"MapView":{"TopLeft":{"Latitude":39.5943642,"Longitude":2.6152712},"BottomRight":{"Latitude":39.5921158,"Longitude":2.6181888}},"Address":{"Label":"Carrer Massanella, 26, 07013 Palma (Illes Balears), Espanya","Country":"ESP","State":"Illes Balears","County":"Illes Balears","City":"Palma","District":"Sa Vileta","Street":"Carrer Massanella","HouseNumber":"26","PostalCode":"07013","AdditionalData":[{"value":"Espanya","key":"CountryName"},{"value":"Illes Balears","key":"StateName"},{"value":"Illes Balears","key":"CountyName"}]},"MapReference":{"ReferenceId":"564724797","Spot":0.32,"SideOfStreet":"right","CountryId":"20215059","StateId":"20226796","CountyId":"20226797","CityId":"20275706","DistrictId":"20427657","AddressId":"351549841","RoadLinkId":"66280381"}}},{"Relevance":1.0,"Distance":38.1,"MatchLevel":"houseNumber","MatchQuality":{"Country":1.0,"State":1.0,"County":1.0,"City":1.0,"District":1.0,"Street":[1.0],"HouseNumber":1.0,"PostalCode":1.0},"MatchType":"interpolated","Location":{"LocationId":"NT_DOMafQVr9yvLRLx9AkUrPD_xUD","LocationType":"point","DisplayPosition":{"Latitude":39.59319,"Longitude":2.61748},"MapView":{"TopLeft":{"Latitude":39.5943142,"Longitude":2.6160212},"BottomRight":{"Latitude":39.5920658,"Longitude":2.6189388}},"Address":{"Label":"Carrer Ciri, 15, 07013 Palma (Illes Balears), Espanya","Country":"ESP","State":"Illes Balears","County":"Illes Balears","City":"Palma","District":"Sa Vileta","Street":"Carrer Ciri","HouseNumber":"15","PostalCode":"07013","AdditionalData":[{"value":"Espanya","key":"CountryName"},{"value":"Illes Balears","key":"StateName"},{"value":"Illes Balears","key":"CountyName"}]},"MapReference":{"ReferenceId":"564724786","Spot":0.37,"SideOfStreet":"right","CountryId":"20215059","StateId":"20226796","CountyId":"20226797","CityId":"20275706","DistrictId":"20427657","AddressId":"351576806","RoadLinkId":"65751727"}}},{"Relevance":1.0,"Distance":43.3,"MatchLevel":"houseNumber","MatchQuality":{"Country":1.0,"State":1.0,"County":1.0,"City":1.0,"District":1.0,"Street":[1.0],"HouseNumber":1.0,"PostalCode":1.0},"MatchType":"interpolated","Location":{"LocationId":"NT_7ZRUFR.vsp1mX0C6FYKPiC_zA","LocationType":"point","DisplayPosition":{"Latitude":39.59266,"Longitude":2.61714},"MapView":{"TopLeft":{"Latitude":39.5937842,"Longitude":2.6156812},"BottomRight":{"Latitude":39.5915358,"Longitude":2.6185988}},"Address":{"Label":"Carrer Màntua, 3, 07013 Palma (Illes Balears), Espanya","Country":"ESP","State":"Illes Balears","County":"Illes Balears","City":"Palma","District":"Sa Vileta","Street":"Carrer Màntua","HouseNumber":"3","PostalCode":"07013","AdditionalData":[{"value":"Espanya","key":"CountryName"},{"value":"Illes Balears","key":"StateName"},{"value":"Illes Balears","key":"CountyName"}]},"MapReference":{"ReferenceId":"564724835","Spot":0.43,"SideOfStreet":"right","CountryId":"20215059","StateId":"20226796","CountyId":"20226797","CityId":"20275706","DistrictId":"20427657","AddressId":"351554647","RoadLinkId":"65187525"}}},{"Relevance":1.0,"Distance":44.2,"MatchLevel":"houseNumber","MatchQuality":{"Country":1.0,"State":1.0,"County":1.0,"City":1.0,"District":1.0,"Street":[1.0],"HouseNumber":1.0,"PostalCode":1.0},"MatchType":"interpolated","Location":{"LocationId":"NT_h0dWdhmMQRWD70FYGxpM0C_yA","LocationType":"point","DisplayPosition":{"Latitude":39.59305,"Longitude":2.61656},"MapView":{"TopLeft":{"Latitude":39.5941742,"Longitude":2.6151012},"BottomRight":{"Latitude":39.5919258,"Longitude":2.6180188}},"Address":{"Label":"Carrer d'Ancona, 2, 07013 Palma (Illes Balears), Espanya","Country":"ESP","State":"Illes Balears","County":"Illes Balears","City":"Palma","District":"Sa Vileta","Street":"Carrer d'Ancona","HouseNumber":"2","PostalCode":"07013","AdditionalData":[{"value":"Espanya","key":"CountryName"},{"value":"Illes Balears","key":"StateName"},{"value":"Illes Balears","key":"CountyName"}]},"MapReference":{"ReferenceId":"950374180","Spot":0.49,"SideOfStreet":"left","CountryId":"20215059","StateId":"20226796","CountyId":"20226797","CityId":"20275706","DistrictId":"20427657","AddressId":"351540953","RoadLinkId":"297266366"}}},{"Relevance":1.0,"Distance":49.0,"MatchLevel":"street","MatchQuality":{"Country":1.0,"State":1.0,"County":1.0,"City":1.0,"District":1.0,"Street":[1.0],"PostalCode":1.0},"Location":{"LocationId":"NT_7ZRUFR.vsp1mX0C6FYKPiC_l_564724864_L","LocationType":"point","DisplayPosition":{"Latitude":39.5927,"Longitude":2.61743},"MapView":{"TopLeft":{"Latitude":39.5927,"Longitude":2.61743},"BottomRight":{"Latitude":39.59239,"Longitude":2.61752}},"Address":{"Label":"Carrer Màntua, 07013 Palma (Illes Balears), Espanya","Country":"ESP","State":"Illes Balears","County":"Illes Balears","City":"Palma","District":"Sa Vileta","Street":"Carrer Màntua","PostalCode":"07013","AdditionalData":[{"value":"Espanya","key":"CountryName"},{"value":"Illes Balears","key":"StateName"},{"value":"Illes Balears","key":"CountyName"}]},"MapReference":{"ReferenceId":"564724864","Spot":1.0,"SideOfStreet":"left","CountryId":"20215059","StateId":"20226796","CountyId":"20226797","CityId":"20275706","DistrictId":"20427657"}}}]}]}}