{"Response":{"MetaInfo":{"Timestamp":"2020-03-28T11:04:39.703+0000","NextPageInformation":"2"},"View":[{"_type":"SearchResultsViewType","ViewId":0,"Result":[{"Relevance":1.0,"Distance":0.0,"Direction":0.0,"MatchLevel":"city","MatchQuality":{"Country":1.0,"State":1.0,"County":1.0,"City":1.0,"PostalCode":1.0},"Location":{"LocationId":"NT_V0uAcez1213IotcnhqUb.C","LocationType":"point","DisplayPosition":{"Latitude":39.5016118,"Longitude":-0.4084591},"MapView":{"TopLeft":{"Latitude":39.52011,"Longitude":-0.42782},"BottomRight":{"Latitude":39.49803,"Longitude":-0.39646}},"Address":{"Label":"Burjassot, Comunitat Valenciana, Espanya","Country":"ESP","State":"Comunitat Valenciana","County":"València","City":"Burjassot","PostalCode":"46100","AdditionalData":[{"value":"Espanya","key":"CountryName"},{"value":"Comunitat Valenciana","key":"StateName"},{"value":"València","key":"CountyName"}]},"MapReference":{"ReferenceId":"537067210","SideOfStreet":"neither","CountryId":"20215059","StateId":"20226784","CountyId":"20226787","CityId":"20250073"}}},{"Relevance":1.0,"Distance":3.9,"MatchLevel":"street","MatchQuality":{"Country":1.0,"State":1.0,"County":1.0,"City":1.0,"PostalCode":1.0},"Location":{"LocationId":"NT_yWprsrqlPkJssgTWOYC.uD_l_1243072879_R","LocationType":"point","DisplayPosition":{"Latitude":39.5016347,"Longitude":-0.4084935},"MapView":{"TopLeft":{"Latitude":39.50186,"Longitude":-0.40855},"BottomRight":{"Latitude":39.50155,"Longitude":-0.40843}},"Address":{"Label":"46100 Burjassot (Valencia), Espanya","Country":"ESP","State":"Comunidad Valenciana","County":"Valencia","City":"Burjassot","PostalCode":"46100","AdditionalData":[{"value":"Espanya","key":"CountryName"},{"value":"Comunidad Valenciana","key":"StateName"},{"value":"Valencia","key":"CountyName"}]},"MapReference":{"ReferenceId":"1243072879","Spot":0.28,"SideOfStreet":"right","CountryId":"20215059","StateId":"20226784","CountyId":"20226787","CityId":"20250073"}}},{"Relevance":1.0,"Distance":4.7,"MatchLevel":"street","MatchQuality":{"Country":1.0,"State":1.0,"County":1.0,"City":1.0,"Street":[1.0],"PostalCode":1.0},"Location":{"LocationId":"NT_r0NkZeXLTDd6l.Mu5vHhAB_l_1036664332_L","LocationType":"point","DisplayPosition":{"Latitude":39.5015787,"Longitude":-0.4084244},"MapView":{"TopLeft":{"Latitude":39.50177,"Longitude":-0.40849},"BottomRight":{"Latitude":39.50151,"Longitude":-0.40823}},"Address":{"Label":"Calle Doña Violante de Hungría, 46100 Burjassot (Valencia), Espanya","Country":"ESP","State":"Comunidad Valenciana","County":"Valencia","City":"Burjassot","Street":"Calle Doña Violante de Hungría","PostalCode":"46100","AdditionalData":[{"value":"Espanya","key":"CountryName"},{"value":"Comunidad Valenciana","key":"StateName"},{"value":"Valencia","key":"CountyName"}]},"MapReference":{"ReferenceId":"1036664332","Spot":0.26,"SideOfStreet":"left","CountryId":"20215059","StateId":"20226784","CountyId":"20226787","CityId":"20250073"}}},{"Relevance":1.0,"Distance":10.4,"MatchLevel":"street","MatchQuality":{"Country":1.0,"State":1.0,"County":1.0,"City":1.0,"PostalCode":1.0},"Location":{"LocationId":"NT_yWprsrqlPkJssgTWOYC.uD_l_1243072878_R","LocationType":"point","DisplayPosition":{"Latitude":39.50155,"Longitude":-0.40855},"MapView":{"TopLeft":{"Latitude":39.50197,"Longitude":-0.40912},"BottomRight":{"Latitude":39.50155,"Longitude":-0.40855}},"Address":{"Label":"46100 Burjassot (Valencia), Espanya","Country":"ESP","State":"Comunidad Valenciana","County":"Valencia","City":"Burjassot","PostalCode":"46100","AdditionalData":[{"value":"Espanya","key":"CountryName"},{"value":"Comunidad Valenciana","key":"StateName"},{"value":"Valencia","key":"CountyName"}]},"MapReference":{"ReferenceId":"1243072878","Spot":0.0,"SideOfStreet":"right","CountryId":"20215059","StateId":"20226784","CountyId":"20226787","CityId":"20250073"}}},{"Relevance":1.0,"Distance":10.6,"MatchLevel":"street","MatchQuality":{"Country":1.0,"State":1.0,"County":1.0,"City":1.0,"PostalCode":1.0},"Location":{"LocationId":"NT_yWprsrqlPkJssgTWOYC.uD_l_1243072877_R","LocationType":"point","DisplayPosition":{"Latitude":39.5015271,"Longitude":-0.4085156},"MapView":{"TopLeft":{"Latitude":39.50155,"Longitude":-0.40855},"BottomRight":{"Latitude":39.50151,"Longitude":-0.40849}},"Address":{"Label":"46100 Burjassot (Valencia), Espanya","Country":"ESP","State":"Comunidad Valenciana","County":"Valencia","City":"Burjassot","PostalCode":"46100","AdditionalData":[{"value":"Espanya","key":"CountryName"},{"value":"Comunidad Valenciana","key":"StateName"},{"value":"Valencia","key":"CountyName"}]},"MapReference":{"ReferenceId":"1243072877","Spot":0.43,"SideOfStreet":"right","CountryId":"20215059","StateId":"20226784","CountyId":"20226787","CityId":"20250073"}}},{"Relevance":1.0,"Distance":11.6,"MatchLevel":"street","MatchQuality":{"Country":1.0,"State":1.0,"County":1.0,"City":1.0,"PostalCode":1.0},"Location":{"LocationId":"NT_yWprsrqlPkJssgTWOYC.uD_l_1036664328_R","LocationType":"point","DisplayPosition":{"Latitude":39.50151,"Longitude":-0.40849},"MapView":{"TopLeft":{"Latitude":39.50151,"Longitude":-0.40849},"BottomRight":{"Latitude":39.50134,"Longitude":-0.40823}},"Address":{"Label":"46100 Burjassot (Valencia), Espanya","Country":"ESP","State":"Comunidad Valenciana","County":"Valencia","City":"Burjassot","PostalCode":"46100","AdditionalData":[{"value":"Espanya","key":"CountryName"},{"value":"Comunidad Valenciana","key":"StateName"},{"value":"Valencia","key":"CountyName"}]},"MapReference":{"ReferenceId":"1036664328","Spot":1.0,"SideOfStreet":"right","CountryId":"20215059","StateId":"20226784","CountyId":"20226787","CityId":"20250073"}}},{"Relevance":1.0,"Distance":25.7,"MatchLevel":"street","MatchQuality":{"Country":1.0,"State":1.0,"County":1.0,"City":1.0,"Street":[1.0],"PostalCode":1.0},"Location":{"LocationId":"NT_lGFhbhuMoqEqTOk-pW5NBB_l_924044367_R","LocationType":"point","DisplayPosition":{"Latitude":39.5014054,"Longitude":-0.4085941},"MapView":{"TopLeft":{"Latitude":39.50154,"Longitude":-0.4088},"BottomRight":{"Latitude":39.50137,"Longitude":-0.40854}},"Address":{"Label":"CV-35, 46100 Burjassot (Valencia), Espanya","Country":"ESP","State":"Comunidad Valenciana","County":"Valencia","City":"Burjassot","Street":"CV-35","PostalCode":"46100","AdditionalData":[{"value":"Espanya","key":"CountryName"},{"value":"Comunidad Valenciana","key":"StateName"},{"value":"Valencia","key":"CountyName"}]},"MapReference":{"ReferenceId":"924044367","Spot":0.21,"SideOfStreet":"right","CountryId":"20215059","StateId":"20226784","CountyId":"20226787","CityId":"20250073"}}},{"Relevance":1.0,"Distance":26.4,"MatchLevel":"street","MatchQuality":{"Country":1.0,"State":1.0,"County":1.0,"City":1.0,"Street":[1.0],"PostalCode":1.0},"Location":{"LocationId":"NT_r0NkZeXLTDd6l.Mu5vHhAB_l_1036664335_L","LocationType":"point","DisplayPosition":{"Latitude":39.50177,"Longitude":-0.40823},"MapView":{"TopLeft":{"Latitude":39.50202,"Longitude":-0.40823},"BottomRight":{"Latitude":39.50177,"Longitude":-0.40793}},"Address":{"Label":"Calle Doña Violante de Hungría, 46100 Burjassot (Valencia), Espanya","Country":"ESP","State":"Comunidad Valenciana","County":"Valencia","City":"Burjassot","Street":"Calle Doña Violante de Hungría","PostalCode":"46100","AdditionalData":[{"value":"Espanya","key":"CountryName"},{"value":"Comunidad Valenciana","key":"StateName"},{"value":"Valencia","key":"CountyName"}]},"MapReference":{"ReferenceId":"1036664335","Spot":0.0,"SideOfStreet":"left","CountryId":"20215059","StateId":"20226784","CountyId":"20226787","CityId":"20250073"}}},{"Relevance":1.0,"Distance":26.4,"MatchLevel":"street","MatchQuality":{"Country":1.0,"State":1.0,"County":1.0,"City":1.0,"PostalCode":1.0},"Location":{"LocationId":"NT_yWprsrqlPkJssgTWOYC.uD_l_1036664330_L","LocationType":"point","DisplayPosition":{"Latitude":39.50177,"Longitude":-0.40823},"MapView":{"TopLeft":{"Latitude":39.50177,"Longitude":-0.40823},"BottomRight":{"Latitude":39.50117,"Longitude":-0.40738}},"Address":{"Label":"46100 Burjassot (Valencia), Espanya","Country":"ESP","State":"Comunidad Valenciana","County":"Valencia","City":"Burjassot","PostalCode":"46100","AdditionalData":[{"value":"Espanya","key":"CountryName"},{"value":"Comunidad Valenciana","key":"StateName"},{"value":"Valencia","key":"CountyName"}]},"MapReference":{"ReferenceId":"1036664330","Spot":1.0,"SideOfStreet":"left","CountryId":"20215059","StateId":"20226784","CountyId":"20226787","CityId":"20250073"}}},{"Relevance":1.0,"Distance":26.9,"MatchLevel":"street","MatchQuality":{"Country":1.0,"State":1.0,"County":1.0,"City":1.0,"PostalCode":1.0},"Location":{"LocationId":"NT_yWprsrqlPkJssgTWOYC.uD_l_1243072871_L","LocationType":"point","DisplayPosition":{"Latitude":39.5018271,"Longitude":-0.4083156},"MapView":{"TopLeft":{"Latitude":39.50228,"Longitude":-0.40896},"BottomRight":{"Latitude":39.50177,"Longitude":-0.40823}},"Address":{"Label":"46100 Burjassot (Valencia), Espanya","Country":"ESP","State":"Comunidad Valenciana","County":"Valencia","City":"Burjassot","PostalCode":"46100","AdditionalData":[{"value":"Espanya","key":"CountryName"},{"value":"Comunidad Valenciana","key":"StateName"},{"value":"Valencia","key":"CountyName"}]},"MapReference":{"ReferenceId":"1243072871","Spot":0.12,"SideOfStreet":"left","CountryId":"20215059","StateId":"20226784","CountyId":"20226787","CityId":"20250073"}}}]}]}}