{"Response":{"MetaInfo":{"Timestamp":"2020-03-28T09:38:15.324+0000","NextPageInformation":"2"},"View":[{"_type":"SearchResultsViewType","ViewId":0,"Result":[{"Relevance":1.0,"Distance":-1224.1,"MatchLevel":"landmark","MatchQuality":{"Country":1.0,"State":1.0,"County":1.0,"Name":1.0},"Location":{"LocationId":"NT_d0gsmqx3FeRc7gPkFbqRYB","LocationType":"island","Name":"Mallorca","DisplayPosition":{"Latitude":39.61354,"Longitude":2.88047},"MapView":{"TopLeft":{"Latitude":39.96254,"Longitude":2.3446},"BottomRight":{"Latitude":39.26453,"Longitude":3.47852}},"Address":{"Label":"(Illes Balears), Espanya","Country":"ESP","State":"Illes Balears","County":"Illes Balears","AdditionalData":[{"value":"Espanya","key":"CountryName"},{"value":"Illes Balears","key":"StateName"},{"value":"Illes Balears","key":"CountyName"}]},"MapReference":{"CountryId":"20215059","StateId":"20226796","CountyId":"20226797","PlaceId":"58562618"}}},{"Relevance":1.0,"Distance":0.0,"Direction":0.0,"MatchLevel":"district","MatchQuality":{"Country":1.0,"State":1.0,"County":1.0,"City":1.0,"District":1.0,"PostalCode":1.0},"Location":{"LocationId":"NT_xJw5ZPWCtIMzm0Rl8xzVZB","LocationType":"point","DisplayPosition":{"Latitude":39.5732454,"Longitude":2.6649734},"MapView":{"TopLeft":{"Latitude":39.57873,"Longitude":2.65664},"BottomRight":{"Latitude":39.57122,"Longitude":2.67109}},"Address":{"Label":"Pere Garau, Palma, Illes Balears, Espanya","Country":"ESP","State":"Illes Balears","County":"Illes Balears","City":"Palma","District":"Pere Garau","PostalCode":"07005","AdditionalData":[{"value":"Espanya","key":"CountryName"},{"value":"Illes Balears","key":"StateName"},{"value":"Illes Balears","key":"CountyName"}]},"MapReference":{"ReferenceId":"1198795268","SideOfStreet":"neither","CountryId":"20215059","StateId":"20226796","CountyId":"20226797","CityId":"20275706"}}},{"Relevance":1.0,"Distance":6.1,"MatchLevel":"houseNumber","MatchQuality":{"Country":1.0,"State":1.0,"County":1.0,"City":1.0,"District":1.0,"Street":[1.0],"HouseNumber":1.0,"PostalCode":1.0},"MatchType":"interpolated","Location":{"LocationId":"NT_1pefOBSHZFtKu-AQNp047A_xMD","LocationType":"point","DisplayPosition":{"Latitude":39.57327,"Longitude":2.66486},"MapView":{"TopLeft":{"Latitude":39.5743942,"Longitude":2.6634016},"BottomRight":{"Latitude":39.5721458,"Longitude":2.6663184}},"Address":{"Label":"Carrer Capità Vila, 13, 07007 Palma (Illes Balears), Espanya","Country":"ESP","State":"Illes Balears","County":"Illes Balears","City":"Palma","District":"Pere Garau","Street":"Carrer Capità Vila","HouseNumber":"13","PostalCode":"07007","AdditionalData":[{"value":"Espanya","key":"CountryName"},{"value":"Illes Balears","key":"StateName"},{"value":"Illes Balears","key":"CountyName"}]},"MapReference":{"ReferenceId":"564727258","Spot":0.21,"SideOfStreet":"right","CountryId":"20215059","StateId":"20226796","CountyId":"20226797","CityId":"20275706","AddressId":"351487607","RoadLinkId":"65598751"}}},{"Relevance":1.0,"Distance":26.2,"MatchLevel":"houseNumber","MatchQuality":{"Country":1.0,"State":1.0,"County":1.0,"City":1.0,"District":1.0,"Street":[1.0],"HouseNumber":1.0,"PostalCode":1.0},"MatchType":"interpolated","Location":{"LocationId":"NT_JnvATFT2PiGGTuAQ4g84FB_zMD","LocationType":"point","DisplayPosition":{"Latitude":39.57312,"Longitude":2.66529},"MapView":{"TopLeft":{"Latitude":39.5742442,"Longitude":2.6638316},"BottomRight":{"Latitude":39.5719958,"Longitude":2.6667484}},"Address":{"Label":"Carrer Joan Bauzà, 33, 07007 Palma (Illes Balears), Espanya","Country":"ESP","State":"Illes Balears","County":"Illes Balears","City":"Palma","District":"Pere Garau","Street":"Carrer Joan Bauzà","HouseNumber":"33","PostalCode":"07007","AdditionalData":[{"value":"Espanya","key":"CountryName"},{"value":"Illes Balears","key":"StateName"},{"value":"Illes Balears","key":"CountyName"}]},"MapReference":{"ReferenceId":"564768603","Spot":0.17,"SideOfStreet":"left","CountryId":"20215059","StateId":"20226796","CountyId":"20226797","CityId":"20275706","AddressId":"351524902","RoadLinkId":"66518552"}}},{"Relevance":1.0,"Distance":29.1,"MatchLevel":"houseNumber","MatchQuality":{"Country":1.0,"State":1.0,"County":1.0,"City":1.0,"District":1.0,"Street":[1.0],"HouseNumber":1.0,"PostalCode":1.0},"MatchType":"interpolated","Location":{"LocationId":"NT_1pefOBSHZFtKu-AQNp047A_xcD","LocationType":"point","DisplayPosition":{"Latitude":39.57297,"Longitude":2.66498},"MapView":{"TopLeft":{"Latitude":39.5740942,"Longitude":2.6635216},"BottomRight":{"Latitude":39.5718458,"Longitude":2.6664384}},"Address":{"Label":"Carrer Capità Vila, 17, 07007 Palma (Illes Balears), Espanya","Country":"ESP","State":"Illes Balears","County":"Illes Balears","City":"Palma","District":"Pere Garau","Street":"Carrer Capità Vila","HouseNumber":"17","PostalCode":"07007","AdditionalData":[{"value":"Espanya","key":"CountryName"},{"value":"Illes Balears","key":"StateName"},{"value":"Illes Balears","key":"CountyName"}]},"MapReference":{"ReferenceId":"564727365","Spot":0.87,"SideOfStreet":"right","CountryId":"20215059","StateId":"20226796","CountyId":"20226797","CityId":"20275706","AddressId":"351522251","RoadLinkId":"65595096"}}},{"Relevance":1.0,"Distance":36.1,"MatchLevel":"houseNumber","MatchQuality":{"Country":1.0,"State":1.0,"County":1.0,"City":1.0,"District":1.0,"Street":[1.0],"HouseNumber":1.0,"PostalCode":1.0},"MatchType":"interpolated","Location":{"LocationId":"NT_jS6UfJp8B2jRlk1dhaSb.D_ykD","LocationType":"point","DisplayPosition":{"Latitude":39.57304,"Longitude":2.66458},"MapView":{"TopLeft":{"Latitude":39.5741642,"Longitude":2.6631216},"BottomRight":{"Latitude":39.5719158,"Longitude":2.6660384}},"Address":{"Label":"Carrer Joan Bauzà, 29, 07005 Palma (Illes Balears), Espanya","Country":"ESP","State":"Illes Balears","County":"Illes Balears","City":"Palma","District":"Pere Garau","Street":"Carrer Joan Bauzà","HouseNumber":"29","PostalCode":"07005","AdditionalData":[{"value":"Espanya","key":"CountryName"},{"value":"Illes Balears","key":"StateName"},{"value":"Illes Balears","key":"CountyName"}]},"MapReference":{"ReferenceId":"564727263","Spot":0.32,"SideOfStreet":"right","CountryId":"20215059","StateId":"20226796","CountyId":"20226797","CityId":"20275706","AddressId":"351557887","RoadLinkId":"65941994"}}},{"Relevance":1.0,"Distance":77.4,"MatchLevel":"houseNumber","MatchQuality":{"Country":1.0,"State":1.0,"County":1.0,"City":1.0,"District":1.0,"Street":[1.0],"HouseNumber":1.0,"PostalCode":1.0},"MatchType":"interpolated","Location":{"LocationId":"NT_vhHGy8zWiTcTRMBlTj.qmD_4ED","LocationType":"point","DisplayPosition":{"Latitude":39.57247,"Longitude":2.66493},"MapView":{"TopLeft":{"Latitude":39.5735942,"Longitude":2.6634716},"BottomRight":{"Latitude":39.5713458,"Longitude":2.6663884}},"Address":{"Label":"Carrer Lluís Martí, 81, 07005 Palma (Illes Balears), Espanya","Country":"ESP","State":"Illes Balears","County":"Illes Balears","City":"Palma","District":"Pere Garau","Street":"Carrer Lluís Martí","HouseNumber":"81","PostalCode":"07005","AdditionalData":[{"value":"Espanya","key":"CountryName"},{"value":"Illes Balears","key":"StateName"},{"value":"Illes Balears","key":"CountyName"}]},"MapReference":{"ReferenceId":"564727380","Spot":0.78,"SideOfStreet":"left","CountryId":"20215059","StateId":"20226796","CountyId":"20226797","CityId":"20275706","AddressId":"351451457","RoadLinkId":"66260670"}}},{"Relevance":1.0,"Distance":88.1,"MatchLevel":"houseNumber","MatchQuality":{"Country":1.0,"State":1.0,"County":1.0,"City":1.0,"District":1.0,"Street":[1.0],"HouseNumber":1.0,"PostalCode":1.0},"MatchType":"interpolated","Location":{"LocationId":"NT_42HSlc6krDDt-seCJlExgA_4MD","LocationType":"point","DisplayPosition":{"Latitude":39.57248,"Longitude":2.66549},"MapView":{"TopLeft":{"Latitude":39.5736042,"Longitude":2.6640316},"BottomRight":{"Latitude":39.5713558,"Longitude":2.6669484}},"Address":{"Label":"Carrer Lluís Martí, 83, 07007 Palma (Illes Balears), Espanya","Country":"ESP","State":"Illes Balears","County":"Illes Balears","City":"Palma","District":"Pere Garau","Street":"Carrer Lluís Martí","HouseNumber":"83","PostalCode":"07007","AdditionalData":[{"value":"Espanya","key":"CountryName"},{"value":"Illes Balears","key":"StateName"},{"value":"Illes Balears","key":"CountyName"}]},"MapReference":{"ReferenceId":"564727364","Spot":0.27,"SideOfStreet":"left","CountryId":"20215059","StateId":"20226796","CountyId":"20226797","CityId":"20275706","AddressId":"351487086","RoadLinkId":"66542375"}}},{"Relevance":1.0,"Distance":96.3,"MatchLevel":"houseNumber","MatchQuality":{"Country":1.0,"State":1.0,"County":1.0,"City":1.0,"District":1.0,"Street":[1.0],"HouseNumber":1.0,"PostalCode":1.0},"MatchType":"interpolated","Location":{"LocationId":"NT_5eP.KIMo51uGAkgQVf3PxC_xAD","LocationType":"point","DisplayPosition":{"Latitude":39.57416,"Longitude":2.66547},"MapView":{"TopLeft":{"Latitude":39.5752842,"Longitude":2.6640116},"BottomRight":{"Latitude":39.5730358,"Longitude":2.6669284}},"Address":{"Label":"Carrer Gabriel Llabrés, 10, 07007 Palma (Illes Balears), Espanya","Country":"ESP","State":"Illes Balears","County":"Illes Balears","City":"Palma","District":"Pere Garau","Street":"Carrer Gabriel Llabrés","HouseNumber":"10","PostalCode":"07007","AdditionalData":[{"value":"Espanya","key":"CountryName"},{"value":"Illes Balears","key":"StateName"},{"value":"Illes Balears","key":"CountyName"}]},"MapReference":{"ReferenceId":"564768596","Spot":0.74,"SideOfStreet":"left","CountryId":"20215059","StateId":"20226796","CountyId":"20226797","CityId":"20275706","AddressId":"351503300","RoadLinkId":"65512038"}}},{"Relevance":1.0,"Distance":96.7,"MatchLevel":"houseNumber","MatchQuality":{"Country":1.0,"State":1.0,"County":1.0,"City":1.0,"District":1.0,"Street":[1.0],"HouseNumber":1.0,"PostalCode":1.0},"MatchType":"interpolated","Location":{"LocationId":"NT_wloGSGqd2gYIMe-g.meBPB_xYD","LocationType":"point","DisplayPosition":{"Latitude":39.57403,"Longitude":2.6643},"MapView":{"TopLeft":{"Latitude":39.5751542,"Longitude":2.6628416},"BottomRight":{"Latitude":39.5729058,"Longitude":2.6657584}},"Address":{"Label":"Carrer de l'Abat de Sant Feliu, 16, 07005 Palma (Illes Balears), Espanya","Country":"ESP","State":"Illes Balears","County":"Illes Balears","City":"Palma","District":"Pere Garau","Street":"Carrer de l'Abat de Sant Feliu","HouseNumber":"16","PostalCode":"07005","AdditionalData":[{"value":"Espanya","key":"CountryName"},{"value":"Illes Balears","key":"StateName"},{"value":"Illes Balears","key":"CountyName"}]},"MapReference":{"ReferenceId":"564727172","Spot":0.8,"SideOfStreet":"right","CountryId":"20215059","StateId":"20226796","CountyId":"20226797","CityId":"20275706","AddressId":"351436974","RoadLinkId":"65181232"}}}]}]}}