{"Response":{"MetaInfo":{"Timestamp":"2020-03-28T09:48:13.054+0000","NextPageInformation":"2"},"View":[{"_type":"SearchResultsViewType","ViewId":0,"Result":[{"Relevance":1.0,"Distance":-1910.4,"MatchLevel":"landmark","MatchQuality":{"Country":1.0,"State":1.0,"County":1.0,"Name":1.0},"Location":{"LocationId":"NT_d0gsmqx3FeRc7gPkFbqRYB","LocationType":"island","Name":"Mallorca","DisplayPosition":{"Latitude":39.61354,"Longitude":2.88047},"MapView":{"TopLeft":{"Latitude":39.96254,"Longitude":2.3446},"BottomRight":{"Latitude":39.26453,"Longitude":3.47852}},"Address":{"Label":"(Illes Balears), Espanya","Country":"ESP","State":"Illes Balears","County":"Illes Balears","AdditionalData":[{"value":"Espanya","key":"CountryName"},{"value":"Illes Balears","key":"StateName"},{"value":"Illes Balears","key":"CountyName"}]},"MapReference":{"CountryId":"20215059","StateId":"20226796","CountyId":"20226797","PlaceId":"58562618"}}},{"Relevance":1.0,"Distance":-17.7,"MatchLevel":"landmark","MatchQuality":{"Country":1.0,"State":1.0,"County":1.0,"City":1.0,"District":1.0,"Street":[1.0],"PostalCode":1.0,"Name":1.0},"Location":{"LocationId":"NT_8SIYZagLvkj3EECv56afxC_p_JhuuroO5ndaywFfhlz6gYD","LocationType":"shoppingCentre","Name":"C. C. l'Excorsador","DisplayPosition":{"Latitude":39.58477,"Longitude":2.65103},"MapView":{"TopLeft":{"Latitude":39.58592,"Longitude":2.64877},"BottomRight":{"Latitude":39.58439,"Longitude":2.65141}},"Address":{"Label":"Carrer de la Emperadriu Eugènia, 07010 Palma (Illes Balears), Espanya","Country":"ESP","State":"Illes Balears","County":"Illes Balears","City":"Palma","District":"Bons Aires","Street":"Carrer de la Emperadriu Eugènia","PostalCode":"07010","AdditionalData":[{"value":"Espanya","key":"CountryName"},{"value":"Illes Balears","key":"StateName"},{"value":"Illes Balears","key":"CountyName"}]},"MapReference":{"CountryId":"20215059","StateId":"20226796","CountyId":"20226797","CityId":"20275706","PlaceId":"1005278384"}}},{"Relevance":1.0,"Distance":0.0,"Direction":0.0,"MatchLevel":"district","MatchQuality":{"Country":1.0,"State":1.0,"County":1.0,"City":1.0,"District":1.0,"PostalCode":1.0},"Location":{"LocationId":"NT_CUGS9PkTYFzFduhrDhDKfD","LocationType":"point","DisplayPosition":{"Latitude":39.5847003,"Longitude":2.64997},"MapView":{"TopLeft":{"Latitude":39.59486,"Longitude":2.63892},"BottomRight":{"Latitude":39.58269,"Longitude":2.65357}},"Address":{"Label":"Camp Redó, Palma, Illes Balears, Espanya","Country":"ESP","State":"Illes Balears","County":"Illes Balears","City":"Palma","District":"Camp Redó","PostalCode":"07010","AdditionalData":[{"value":"Espanya","key":"CountryName"},{"value":"Illes Balears","key":"StateName"},{"value":"Illes Balears","key":"CountyName"}]},"MapReference":{"ReferenceId":"564725260","SideOfStreet":"neither","CountryId":"20215059","StateId":"20226796","CountyId":"20226797","CityId":"20275706"}}},{"Relevance":1.0,"Distance":12.7,"MatchLevel":"houseNumber","MatchQuality":{"Country":1.0,"State":1.0,"County":1.0,"City":1.0,"District":1.0,"Street":[1.0],"HouseNumber":1.0,"PostalCode":1.0},"MatchType":"interpolated","Location":{"LocationId":"NT_JtKIPsErOLMyuKLoMqcRlC_2A","LocationType":"point","DisplayPosition":{"Latitude":39.58453,"Longitude":2.64993},"MapView":{"TopLeft":{"Latitude":39.5856542,"Longitude":2.6484714},"BottomRight":{"Latitude":39.5834058,"Longitude":2.6513886}},"Address":{"Label":"Carrer de la Emperadriu Eugènia, 6, 07010 Palma (Illes Balears), Espanya","Country":"ESP","State":"Illes Balears","County":"Illes Balears","City":"Palma","District":"Camp Redó","Street":"Carrer de la Emperadriu Eugènia","HouseNumber":"6","PostalCode":"07010","AdditionalData":[{"value":"Espanya","key":"CountryName"},{"value":"Illes Balears","key":"StateName"},{"value":"Illes Balears","key":"CountyName"}]},"MapReference":{"ReferenceId":"941303731","Spot":0.04,"SideOfStreet":"left","CountryId":"20215059","StateId":"20226796","CountyId":"20226797","CityId":"20275706","AddressId":"351594717","RoadLinkId":"291342019"}}},{"Relevance":1.0,"Distance":41.3,"MatchLevel":"houseNumber","MatchQuality":{"Country":1.0,"State":1.0,"County":1.0,"City":1.0,"District":1.0,"Street":[1.0],"HouseNumber":1.0,"PostalCode":1.0},"MatchType":"interpolated","Location":{"LocationId":"NT_kzRTAxXCZ.ojsws9SIRWJC_1ITQ","LocationType":"point","DisplayPosition":{"Latitude":39.58432,"Longitude":2.64995},"MapView":{"TopLeft":{"Latitude":39.5854442,"Longitude":2.6484914},"BottomRight":{"Latitude":39.5831958,"Longitude":2.6514086}},"Address":{"Label":"Carrer Ramon Muntaner, 52A, 07010 Palma (Illes Balears), Espanya","Country":"ESP","State":"Illes Balears","County":"Illes Balears","City":"Palma","District":"Bons Aires","Street":"Carrer Ramon Muntaner","HouseNumber":"52A","PostalCode":"07010","AdditionalData":[{"value":"Espanya","key":"CountryName"},{"value":"Illes Balears","key":"StateName"},{"value":"Illes Balears","key":"CountyName"}]},"MapReference":{"ReferenceId":"564725619","Spot":0.57,"SideOfStreet":"right","CountryId":"20215059","StateId":"20226796","CountyId":"20226797","CityId":"20275706","AddressId":"351561304","RoadLinkId":"66349972"}}},{"Relevance":1.0,"Distance":45.3,"MatchLevel":"houseNumber","MatchQuality":{"Country":1.0,"State":1.0,"County":1.0,"City":1.0,"District":1.0,"Street":[1.0],"HouseNumber":1.0,"PostalCode":1.0},"MatchType":"interpolated","Location":{"LocationId":"NT_JtKIPsErOLMyuKLoMqcRlC_4A","LocationType":"point","DisplayPosition":{"Latitude":39.58445,"Longitude":2.64951},"MapView":{"TopLeft":{"Latitude":39.5855742,"Longitude":2.6480514},"BottomRight":{"Latitude":39.5833258,"Longitude":2.6509686}},"Address":{"Label":"Carrer de la Emperadriu Eugènia, 8, 07010 Palma (Illes Balears), Espanya","Country":"ESP","State":"Illes Balears","County":"Illes Balears","City":"Palma","District":"Camp Redó","Street":"Carrer de la Emperadriu Eugènia","HouseNumber":"8","PostalCode":"07010","AdditionalData":[{"value":"Espanya","key":"CountryName"},{"value":"Illes Balears","key":"StateName"},{"value":"Illes Balears","key":"CountyName"}]},"MapReference":{"ReferenceId":"564725588","Spot":0.47,"SideOfStreet":"left","CountryId":"20215059","StateId":"20226796","CountyId":"20226797","CityId":"20275706","AddressId":"351501703","RoadLinkId":"66237624"}}},{"Relevance":1.0,"Distance":56.5,"MatchLevel":"street","MatchQuality":{"Country":1.0,"State":1.0,"County":1.0,"City":1.0,"District":1.0,"PostalCode":1.0},"Location":{"LocationId":"NT_iXTIND-OfDfgKIETuV495D_l_941303733_L","LocationType":"point","DisplayPosition":{"Latitude":39.5849054,"Longitude":2.6505734},"MapView":{"TopLeft":{"Latitude":39.58518,"Longitude":2.65048},"BottomRight":{"Latitude":39.58468,"Longitude":2.65065}},"Address":{"Label":"07010 Palma (Illes Balears), Espanya","Country":"ESP","State":"Illes Balears","County":"Illes Balears","City":"Palma","District":"Camp Redó","PostalCode":"07010","AdditionalData":[{"value":"Espanya","key":"CountryName"},{"value":"Illes Balears","key":"StateName"},{"value":"Illes Balears","key":"CountyName"}]},"MapReference":{"ReferenceId":"941303733","Spot":0.45,"SideOfStreet":"left","CountryId":"20215059","StateId":"20226796","CountyId":"20226797","CityId":"20275706"}}},{"Relevance":1.0,"Distance":61.0,"MatchLevel":"houseNumber","MatchQuality":{"Country":1.0,"State":1.0,"County":1.0,"City":1.0,"District":1.0,"Street":[1.0],"HouseNumber":1.0,"PostalCode":1.0},"MatchType":"interpolated","Location":{"LocationId":"NT_lcBnr86mhgfcQ6k9NjWadD_4A","LocationType":"point","DisplayPosition":{"Latitude":39.58411,"Longitude":2.65032},"MapView":{"TopLeft":{"Latitude":39.5852342,"Longitude":2.6488614},"BottomRight":{"Latitude":39.5829858,"Longitude":2.6517786}},"Address":{"Label":"Carrer Francesc Fiol i Juan, 8, 07010 Palma (Illes Balears), Espanya","Country":"ESP","State":"Illes Balears","County":"Illes Balears","City":"Palma","District":"Bons Aires","Street":"Carrer Francesc Fiol i Juan","HouseNumber":"8","PostalCode":"07010","AdditionalData":[{"value":"Espanya","key":"CountryName"},{"value":"Illes Balears","key":"StateName"},{"value":"Illes Balears","key":"CountyName"}]},"MapReference":{"ReferenceId":"564725618","Spot":0.2,"SideOfStreet":"left","CountryId":"20215059","StateId":"20226796","CountyId":"20226797","CityId":"20275706","AddressId":"351459467","RoadLinkId":"66586175"}}},{"Relevance":1.0,"Distance":68.8,"MatchLevel":"houseNumber","MatchQuality":{"Country":1.0,"State":1.0,"County":1.0,"City":1.0,"District":1.0,"Street":[1.0],"HouseNumber":1.0,"PostalCode":1.0},"MatchType":"interpolated","Location":{"LocationId":"NT_rWNNuPlpZGw2TInKzbz7AD_yA","LocationType":"point","DisplayPosition":{"Latitude":39.58458,"Longitude":2.64909},"MapView":{"TopLeft":{"Latitude":39.5857042,"Longitude":2.6476314},"BottomRight":{"Latitude":39.5834558,"Longitude":2.6505486}},"Address":{"Label":"Carrer del Camp Redó, 2, 07010 Palma (Illes Balears), Espanya","Country":"ESP","State":"Illes Balears","County":"Illes Balears","City":"Palma","District":"Camp Redó","Street":"Carrer del Camp Redó","HouseNumber":"2","PostalCode":"07010","AdditionalData":[{"value":"Espanya","key":"CountryName"},{"value":"Illes Balears","key":"StateName"},{"value":"Illes Balears","key":"CountyName"}]},"MapReference":{"ReferenceId":"564725589","Spot":0.37,"SideOfStreet":"right","CountryId":"20215059","StateId":"20226796","CountyId":"20226797","CityId":"20275706","AddressId":"351414251","RoadLinkId":"65543937"}}},{"Relevance":1.0,"Distance":69.0,"MatchLevel":"street","MatchQuality":{"Country":1.0,"State":1.0,"County":1.0,"City":1.0,"District":1.0,"PostalCode":1.0},"Location":{"LocationId":"NT_iXTIND-OfDfgKIETuV495D_l_1183234924_R","LocationType":"point","DisplayPosition":{"Latitude":39.58518,"Longitude":2.65048},"MapView":{"TopLeft":{"Latitude":39.58533,"Longitude":2.65048},"BottomRight":{"Latitude":39.58518,"Longitude":2.65122}},"Address":{"Label":"07010 Palma (Illes Balears), Espanya","Country":"ESP","State":"Illes Balears","County":"Illes Balears","City":"Palma","District":"Camp Redó","PostalCode":"07010","AdditionalData":[{"value":"Espanya","key":"CountryName"},{"value":"Illes Balears","key":"StateName"},{"value":"Illes Balears","key":"CountyName"}]},"MapReference":{"ReferenceId":"1183234924","Spot":0.0,"SideOfStreet":"right","CountryId":"20215059","StateId":"20226796","CountyId":"20226797","CityId":"20275706"}}}]}]}}