{"Response":{"MetaInfo":{"Timestamp":"2020-03-28T09:47:23.186+0000","NextPageInformation":"2"},"View":[{"_type":"SearchResultsViewType","ViewId":0,"Result":[{"Relevance":1.0,"Distance":-2036.6,"MatchLevel":"landmark","MatchQuality":{"Country":1.0,"State":1.0,"County":1.0,"Name":1.0},"Location":{"LocationId":"NT_d0gsmqx3FeRc7gPkFbqRYB","LocationType":"island","Name":"Mallorca","DisplayPosition":{"Latitude":39.61354,"Longitude":2.88047},"MapView":{"TopLeft":{"Latitude":39.96254,"Longitude":2.3446},"BottomRight":{"Latitude":39.26453,"Longitude":3.47852}},"Address":{"Label":"(Illes Balears), Espanya","Country":"ESP","State":"Illes Balears","County":"Illes Balears","AdditionalData":[{"value":"Espanya","key":"CountryName"},{"value":"Illes Balears","key":"StateName"},{"value":"Illes Balears","key":"CountyName"}]},"MapReference":{"CountryId":"20215059","StateId":"20226796","CountyId":"20226797","PlaceId":"58562618"}}},{"Relevance":1.0,"Distance":0.0,"Direction":0.0,"MatchLevel":"district","MatchQuality":{"Country":1.0,"State":1.0,"County":1.0,"City":1.0,"District":1.0,"PostalCode":1.0},"Location":{"LocationId":"NT_h-1v6N8lUn37vM4sHNtWaC","LocationType":"point","DisplayPosition":{"Latitude":39.5845366,"Longitude":2.653134},"MapView":{"TopLeft":{"Latitude":39.58832,"Longitude":2.65269},"BottomRight":{"Latitude":39.57985,"Longitude":2.6645}},"Address":{"Label":"Plaça de Toros, Palma, Illes Balears, Espanya","Country":"ESP","State":"Illes Balears","County":"Illes Balears","City":"Palma","District":"Plaça de Toros","PostalCode":"07004","AdditionalData":[{"value":"Espanya","key":"CountryName"},{"value":"Illes Balears","key":"StateName"},{"value":"Illes Balears","key":"CountyName"}]},"MapReference":{"ReferenceId":"564725545","SideOfStreet":"neither","CountryId":"20215059","StateId":"20226796","CountyId":"20226797","CityId":"20275706"}}},{"Relevance":1.0,"Distance":18.5,"MatchLevel":"houseNumber","MatchQuality":{"Country":1.0,"State":1.0,"County":1.0,"City":1.0,"District":1.0,"Street":[1.0],"HouseNumber":1.0,"PostalCode":1.0},"MatchType":"interpolated","Location":{"LocationId":"NT_7zK1g6u4kckc0lhhCeKonD_3MD","LocationType":"point","DisplayPosition":{"Latitude":39.58455,"Longitude":2.65336},"MapView":{"TopLeft":{"Latitude":39.5856742,"Longitude":2.6519014},"BottomRight":{"Latitude":39.5834258,"Longitude":2.6548186}},"Address":{"Label":"Avinguda Arquitecte Gaspar Bennàzar, 73, 07004 Palma (Illes Balears), Espanya","Country":"ESP","State":"Illes Balears","County":"Illes Balears","City":"Palma","District":"Plaça de Toros","Street":"Avinguda Arquitecte Gaspar Bennàzar","HouseNumber":"73","PostalCode":"07004","AdditionalData":[{"value":"Espanya","key":"CountryName"},{"value":"Illes Balears","key":"StateName"},{"value":"Illes Balears","key":"CountyName"}]},"MapReference":{"ReferenceId":"564725563","Spot":0.67,"SideOfStreet":"left","CountryId":"20215059","StateId":"20226796","CountyId":"20226797","CityId":"20275706","AddressId":"351557867","RoadLinkId":"66394967"}}},{"Relevance":1.0,"Distance":28.5,"MatchLevel":"houseNumber","MatchQuality":{"Country":1.0,"State":1.0,"County":1.0,"City":1.0,"District":1.0,"Street":[1.0],"HouseNumber":1.0,"PostalCode":1.0},"MatchType":"interpolated","Location":{"LocationId":"NT_Rmibewm9nAF.GuYs1SEFrC_yUD","LocationType":"point","DisplayPosition":{"Latitude":39.58478,"Longitude":2.65303},"MapView":{"TopLeft":{"Latitude":39.5859042,"Longitude":2.6515714},"BottomRight":{"Latitude":39.5836558,"Longitude":2.6544886}},"Address":{"Label":"Carrer Alfons el Magnànim, 25, 07004 Palma (Illes Balears), Espanya","Country":"ESP","State":"Illes Balears","County":"Illes Balears","City":"Palma","District":"Camp Redó","Street":"Carrer Alfons el Magnànim","HouseNumber":"25","PostalCode":"07004","AdditionalData":[{"value":"Espanya","key":"CountryName"},{"value":"Illes Balears","key":"StateName"},{"value":"Illes Balears","key":"CountyName"}]},"MapReference":{"ReferenceId":"983883265","Spot":0.92,"SideOfStreet":"left","CountryId":"20215059","StateId":"20226796","CountyId":"20226797","CityId":"20275706","AddressId":"351592393","RoadLinkId":"315136981"}}},{"Relevance":1.0,"Distance":34.6,"MatchLevel":"houseNumber","MatchQuality":{"Country":1.0,"State":1.0,"County":1.0,"City":1.0,"District":1.0,"Street":[1.0],"HouseNumber":1.0,"PostalCode":1.0},"MatchType":"interpolated","Location":{"LocationId":"NT_CDhNISSdV.XxkXlzHzGVVB_xID","LocationType":"point","DisplayPosition":{"Latitude":39.58459,"Longitude":2.65269},"MapView":{"TopLeft":{"Latitude":39.5857142,"Longitude":2.6512314},"BottomRight":{"Latitude":39.5834658,"Longitude":2.6541486}},"Address":{"Label":"Carrer Poeta Guillem Colom, 12, 07010 Palma (Illes Balears), Espanya","Country":"ESP","State":"Illes Balears","County":"Illes Balears","City":"Palma","District":"Bons Aires","Street":"Carrer Poeta Guillem Colom","HouseNumber":"12","PostalCode":"07010","AdditionalData":[{"value":"Espanya","key":"CountryName"},{"value":"Illes Balears","key":"StateName"},{"value":"Illes Balears","key":"CountyName"}]},"MapReference":{"ReferenceId":"564725550","Spot":0.51,"SideOfStreet":"right","CountryId":"20215059","StateId":"20226796","CountyId":"20226797","CityId":"20275706","AddressId":"351536920","RoadLinkId":"65824432"}}},{"Relevance":1.0,"Distance":39.4,"MatchLevel":"houseNumber","MatchQuality":{"Country":1.0,"State":1.0,"County":1.0,"City":1.0,"District":1.0,"Street":[1.0],"HouseNumber":1.0,"PostalCode":1.0},"MatchType":"interpolated","Location":{"LocationId":"NT_FFG-2n1D3WFmsRNx5XSdgA_xA","LocationType":"point","DisplayPosition":{"Latitude":39.58487,"Longitude":2.65329},"MapView":{"TopLeft":{"Latitude":39.5859942,"Longitude":2.6518314},"BottomRight":{"Latitude":39.5837458,"Longitude":2.6547486}},"Address":{"Label":"Carrer Son Ferragut, 1, 07004 Palma (Illes Balears), Espanya","Country":"ESP","State":"Illes Balears","County":"Illes Balears","City":"Palma","District":"l'Olivera","Street":"Carrer Son Ferragut","HouseNumber":"1","PostalCode":"07004","AdditionalData":[{"value":"Espanya","key":"CountryName"},{"value":"Illes Balears","key":"StateName"},{"value":"Illes Balears","key":"CountyName"}]},"MapReference":{"ReferenceId":"564725523","Spot":0.32,"SideOfStreet":"left","CountryId":"20215059","StateId":"20226796","CountyId":"20226797","CityId":"20275706","AddressId":"351582168","RoadLinkId":"65314371"}}},{"Relevance":1.0,"Distance":54.1,"MatchLevel":"houseNumber","MatchQuality":{"Country":1.0,"State":1.0,"County":1.0,"City":1.0,"District":1.0,"Street":[1.0],"HouseNumber":1.0,"PostalCode":1.0},"MatchType":"interpolated","Location":{"LocationId":"NT_ri7xVbYrVUVoNLCwaw.aUB_yAD","LocationType":"point","DisplayPosition":{"Latitude":39.58405,"Longitude":2.65299},"MapView":{"TopLeft":{"Latitude":39.5851742,"Longitude":2.6515314},"BottomRight":{"Latitude":39.5829258,"Longitude":2.6544486}},"Address":{"Label":"Carrer Alfons el Magnànim, 20, 07004 Palma (Illes Balears), Espanya","Country":"ESP","State":"Illes Balears","County":"Illes Balears","City":"Palma","District":"Plaça de Toros","Street":"Carrer Alfons el Magnànim","HouseNumber":"20","PostalCode":"07004","AdditionalData":[{"value":"Espanya","key":"CountryName"},{"value":"Illes Balears","key":"StateName"},{"value":"Illes Balears","key":"CountyName"}]},"MapReference":{"ReferenceId":"983883264","Spot":0.08,"SideOfStreet":"right","CountryId":"20215059","StateId":"20226796","CountyId":"20226797","CityId":"20275706","AddressId":"351446876","RoadLinkId":"315136980"}}},{"Relevance":1.0,"Distance":60.9,"MatchLevel":"houseNumber","MatchQuality":{"Country":1.0,"State":1.0,"County":1.0,"City":1.0,"District":1.0,"Street":[1.0],"HouseNumber":1.0,"PostalCode":1.0},"MatchType":"interpolated","Location":{"LocationId":"NT_zQED6WJx8OzazoKZhkQb4C_xcD","LocationType":"point","DisplayPosition":{"Latitude":39.584,"Longitude":2.65299},"MapView":{"TopLeft":{"Latitude":39.5851242,"Longitude":2.6515314},"BottomRight":{"Latitude":39.5828758,"Longitude":2.6544486}},"Address":{"Label":"Carrer Alfons el Magnànim, 17, 07004 Palma (Illes Balears), Espanya","Country":"ESP","State":"Illes Balears","County":"Illes Balears","City":"Palma","District":"Bons Aires","Street":"Carrer Alfons el Magnànim","HouseNumber":"17","PostalCode":"07004","AdditionalData":[{"value":"Espanya","key":"CountryName"},{"value":"Illes Balears","key":"StateName"},{"value":"Illes Balears","key":"CountyName"}]},"MapReference":{"ReferenceId":"983883263","Spot":1.0,"SideOfStreet":"left","CountryId":"20215059","StateId":"20226796","CountyId":"20226797","CityId":"20275706","AddressId":"351446875","RoadLinkId":"315136979"}}},{"Relevance":1.0,"Distance":67.1,"MatchLevel":"houseNumber","MatchQuality":{"Country":1.0,"State":1.0,"County":1.0,"City":1.0,"District":1.0,"Street":[1.0],"HouseNumber":1.0,"PostalCode":1.0},"MatchType":"interpolated","Location":{"LocationId":"NT_DAU84K64r7TnfuH6w37NlD_yQD","LocationType":"point","DisplayPosition":{"Latitude":39.58514,"Longitude":2.65305},"MapView":{"TopLeft":{"Latitude":39.5862642,"Longitude":2.6515913},"BottomRight":{"Latitude":39.5840158,"Longitude":2.6545087}},"Address":{"Label":"Carrer Alfons el Magnànim, 24, 07004 Palma (Illes Balears), Espanya","Country":"ESP","State":"Illes Balears","County":"Illes Balears","City":"Palma","District":"l'Olivera","Street":"Carrer Alfons el Magnànim","HouseNumber":"24","PostalCode":"07004","AdditionalData":[{"value":"Espanya","key":"CountryName"},{"value":"Illes Balears","key":"StateName"},{"value":"Illes Balears","key":"CountyName"}]},"MapReference":{"ReferenceId":"983883266","Spot":0.92,"SideOfStreet":"right","CountryId":"20215059","StateId":"20226796","CountyId":"20226797","CityId":"20275706","AddressId":"351592395","RoadLinkId":"315136982"}}},{"Relevance":1.0,"Distance":69.7,"MatchLevel":"houseNumber","MatchQuality":{"Country":1.0,"State":1.0,"County":1.0,"City":1.0,"District":1.0,"Street":[1.0],"HouseNumber":1.0,"PostalCode":1.0},"MatchType":"interpolated","Location":{"LocationId":"NT_jXmkzkJ9PgxXlA7byAKnNB_5AD","LocationType":"point","DisplayPosition":{"Latitude":39.58383,"Longitude":2.65312},"MapView":{"TopLeft":{"Latitude":39.5849542,"Longitude":2.6516614},"BottomRight":{"Latitude":39.5827058,"Longitude":2.6545786}},"Address":{"Label":"Carrer Pons i Gallarza, 90, 07004 Palma (Illes Balears), Espanya","Country":"ESP","State":"Illes Balears","County":"Illes Balears","City":"Palma","District":"Plaça de Toros","Street":"Carrer Pons i Gallarza","HouseNumber":"90","PostalCode":"07004","AdditionalData":[{"value":"Espanya","key":"CountryName"},{"value":"Illes Balears","key":"StateName"},{"value":"Illes Balears","key":"CountyName"}]},"MapReference":{"ReferenceId":"564725648","Spot":0.81,"SideOfStreet":"right","CountryId":"20215059","StateId":"20226796","CountyId":"20226797","CityId":"20275706","AddressId":"351600446","RoadLinkId":"65742317"}}}]}]}}