{"Response":{"MetaInfo":{"Timestamp":"2020-03-28T09:48:06.520+0000","NextPageInformation":"2"},"View":[{"_type":"SearchResultsViewType","ViewId":0,"Result":[{"Relevance":1.0,"Distance":-8829.6,"MatchLevel":"landmark","MatchQuality":{"Country":1.0,"State":1.0,"County":1.0,"Name":1.0},"Location":{"LocationId":"NT_d0gsmqx3FeRc7gPkFbqRYB","LocationType":"island","Name":"Mallorca","DisplayPosition":{"Latitude":39.61354,"Longitude":2.88047},"MapView":{"TopLeft":{"Latitude":39.96254,"Longitude":2.3446},"BottomRight":{"Latitude":39.26453,"Longitude":3.47852}},"Address":{"Label":"(Illes Balears), Espanya","Country":"ESP","State":"Illes Balears","County":"Illes Balears","AdditionalData":[{"value":"Espanya","key":"CountryName"},{"value":"Illes Balears","key":"StateName"},{"value":"Illes Balears","key":"CountyName"}]},"MapReference":{"CountryId":"20215059","StateId":"20226796","CountyId":"20226797","PlaceId":"58562618"}}},{"Relevance":1.0,"Distance":0.0,"Direction":0.0,"MatchLevel":"city","MatchQuality":{"Country":1.0,"State":1.0,"County":1.0,"City":1.0,"PostalCode":1.0},"Location":{"LocationId":"NT_sxRpRZkViYb9m3H5AQtsEB","LocationType":"point","DisplayPosition":{"Latitude":39.697159,"Longitude":2.700304},"MapView":{"TopLeft":{"Latitude":39.77707,"Longitude":2.64776},"BottomRight":{"Latitude":39.64868,"Longitude":2.80421}},"Address":{"Label":"Bunyola, Illes Balears, Espanya","Country":"ESP","State":"Illes Balears","County":"Illes Balears","City":"Bunyola","PostalCode":"07110","AdditionalData":[{"value":"Espanya","key":"CountryName"},{"value":"Illes Balears","key":"StateName"},{"value":"Illes Balears","key":"CountyName"}]},"MapReference":{"ReferenceId":"576791497","SideOfStreet":"neither","CountryId":"20215059","StateId":"20226796","CountyId":"20226797","CityId":"20275414"}}},{"Relevance":1.0,"Distance":21.9,"MatchLevel":"houseNumber","MatchQuality":{"Country":1.0,"State":1.0,"County":1.0,"City":1.0,"Street":[1.0],"HouseNumber":1.0,"PostalCode":1.0},"MatchType":"interpolated","Location":{"LocationId":"NT_AUwKi1fr.Y1iHGVYlxKHjB_0A","LocationType":"point","DisplayPosition":{"Latitude":39.69705,"Longitude":2.70008},"MapView":{"TopLeft":{"Latitude":39.6981742,"Longitude":2.698619},"BottomRight":{"Latitude":39.6959258,"Longitude":2.701541}},"Address":{"Label":"Plaça Andreu Estarelles, 4, 07110 Bunyola (Illes Balears), Espanya","Country":"ESP","State":"Illes Balears","County":"Illes Balears","City":"Bunyola","Street":"Plaça Andreu Estarelles","HouseNumber":"4","PostalCode":"07110","AdditionalData":[{"value":"Espanya","key":"CountryName"},{"value":"Illes Balears","key":"StateName"},{"value":"Illes Balears","key":"CountyName"}]},"MapReference":{"ReferenceId":"576791306","Spot":1.0,"SideOfStreet":"left","CountryId":"20215059","StateId":"20226796","CountyId":"20226797","CityId":"20275414","AddressId":"787681907","RoadLinkId":"66212208"}}},{"Relevance":1.0,"Distance":29.3,"MatchLevel":"houseNumber","MatchQuality":{"Country":1.0,"State":1.0,"County":1.0,"City":1.0,"Street":[1.0],"HouseNumber":1.0,"PostalCode":1.0},"MatchType":"interpolated","Location":{"LocationId":"NT_qN9APV0oANTyT2kpNMAlSD_3A","LocationType":"point","DisplayPosition":{"Latitude":39.6969,"Longitude":2.70024},"MapView":{"TopLeft":{"Latitude":39.6980242,"Longitude":2.698779},"BottomRight":{"Latitude":39.6957758,"Longitude":2.701701}},"Address":{"Label":"Carrer Doctor Fleming, 7, 07110 Bunyola (Illes Balears), Espanya","Country":"ESP","State":"Illes Balears","County":"Illes Balears","City":"Bunyola","Street":"Carrer Doctor Fleming","HouseNumber":"7","PostalCode":"07110","AdditionalData":[{"value":"Espanya","key":"CountryName"},{"value":"Illes Balears","key":"StateName"},{"value":"Illes Balears","key":"CountyName"}]},"MapReference":{"ReferenceId":"576791305","Spot":1.0,"SideOfStreet":"left","CountryId":"20215059","StateId":"20226796","CountyId":"20226797","CityId":"20275414","AddressId":"351483187","RoadLinkId":"66587516"}}},{"Relevance":1.0,"Distance":31.6,"MatchLevel":"houseNumber","MatchQuality":{"Country":1.0,"State":1.0,"County":1.0,"City":1.0,"Street":[1.0],"HouseNumber":1.0,"PostalCode":1.0},"MatchType":"interpolated","Location":{"LocationId":"NT_yRnrVlKHEb2dgEakg8yL8A_xYD","LocationType":"point","DisplayPosition":{"Latitude":39.69704,"Longitude":2.6997},"MapView":{"TopLeft":{"Latitude":39.6981642,"Longitude":2.698239},"BottomRight":{"Latitude":39.6959158,"Longitude":2.701161}},"Address":{"Label":"Carrer des Establidors, 16, 07110 Bunyola (Illes Balears), Espanya","Country":"ESP","State":"Illes Balears","County":"Illes Balears","City":"Bunyola","Street":"Carrer des Establidors","HouseNumber":"16","PostalCode":"07110","AdditionalData":[{"value":"Espanya","key":"CountryName"},{"value":"Illes Balears","key":"StateName"},{"value":"Illes Balears","key":"CountyName"}]},"MapReference":{"ReferenceId":"576791383","Spot":1.0,"SideOfStreet":"right","CountryId":"20215059","StateId":"20226796","CountyId":"20226797","CityId":"20275414","AddressId":"351417075","RoadLinkId":"65895695"}}},{"Relevance":1.0,"Distance":32.9,"MatchLevel":"houseNumber","MatchQuality":{"Country":1.0,"State":1.0,"County":1.0,"City":1.0,"Street":[1.0],"HouseNumber":1.0,"PostalCode":1.0},"MatchType":"interpolated","Location":{"LocationId":"NT_BXaxitnJxNmFImlJ2-jtyD_xA","LocationType":"point","DisplayPosition":{"Latitude":39.69727,"Longitude":2.70069},"MapView":{"TopLeft":{"Latitude":39.6983942,"Longitude":2.699229},"BottomRight":{"Latitude":39.6961458,"Longitude":2.702151}},"Address":{"Label":"Carrer del Rector Rullán, 1, 07110 Bunyola (Illes Balears), Espanya","Country":"ESP","State":"Illes Balears","County":"Illes Balears","City":"Bunyola","Street":"Carrer del Rector Rullán","HouseNumber":"1","PostalCode":"07110","AdditionalData":[{"value":"Espanya","key":"CountryName"},{"value":"Illes Balears","key":"StateName"},{"value":"Illes Balears","key":"CountyName"}]},"MapReference":{"ReferenceId":"988857747","Spot":0.11,"SideOfStreet":"left","CountryId":"20215059","StateId":"20226796","CountyId":"20226797","CityId":"20275414","AddressId":"351534511","RoadLinkId":"317914713"}}},{"Relevance":1.0,"Distance":33.0,"MatchLevel":"houseNumber","MatchQuality":{"Country":1.0,"State":1.0,"County":1.0,"City":1.0,"Street":[1.0],"HouseNumber":1.0,"PostalCode":1.0},"MatchType":"interpolated","Location":{"LocationId":"NT_BXaxitnJxNmFImlJ2-jtyD_2A","LocationType":"point","DisplayPosition":{"Latitude":39.69716,"Longitude":2.70069},"MapView":{"TopLeft":{"Latitude":39.6982842,"Longitude":2.699229},"BottomRight":{"Latitude":39.6960358,"Longitude":2.702151}},"Address":{"Label":"Carrer del Rector Rullán, 6, 07110 Bunyola (Illes Balears), Espanya","Country":"ESP","State":"Illes Balears","County":"Illes Balears","City":"Bunyola","Street":"Carrer del Rector Rullán","HouseNumber":"6","PostalCode":"07110","AdditionalData":[{"value":"Espanya","key":"CountryName"},{"value":"Illes Balears","key":"StateName"},{"value":"Illes Balears","key":"CountyName"}]},"MapReference":{"ReferenceId":"988613830","Spot":0.55,"SideOfStreet":"right","CountryId":"20215059","StateId":"20226796","CountyId":"20226797","CityId":"20275414","AddressId":"351534516","RoadLinkId":"495277895"}}},{"Relevance":1.0,"Distance":33.3,"MatchLevel":"houseNumber","MatchQuality":{"Country":1.0,"State":1.0,"County":1.0,"City":1.0,"Street":[1.0],"HouseNumber":1.0,"PostalCode":1.0},"MatchType":"interpolated","Location":{"LocationId":"NT_pBQwLwjP4IkinxFLcmRtcB_4A","LocationType":"point","DisplayPosition":{"Latitude":39.69693,"Longitude":2.70068},"MapView":{"TopLeft":{"Latitude":39.6980542,"Longitude":2.699219},"BottomRight":{"Latitude":39.6958058,"Longitude":2.702141}},"Address":{"Label":"Plaça del Rector Marroig, 8, 07110 Bunyola (Illes Balears), Espanya","Country":"ESP","State":"Illes Balears","County":"Illes Balears","City":"Bunyola","Street":"Plaça del Rector Marroig","HouseNumber":"8","PostalCode":"07110","AdditionalData":[{"value":"Espanya","key":"CountryName"},{"value":"Illes Balears","key":"StateName"},{"value":"Illes Balears","key":"CountyName"}]},"MapReference":{"ReferenceId":"988613829","Spot":0.44,"SideOfStreet":"left","CountryId":"20215059","StateId":"20226796","CountyId":"20226797","CityId":"20275414","AddressId":"351402458","RoadLinkId":"317676773"}}},{"Relevance":1.0,"Distance":45.0,"MatchLevel":"houseNumber","MatchQuality":{"Country":1.0,"State":1.0,"County":1.0,"City":1.0,"Street":[1.0],"HouseNumber":1.0,"PostalCode":1.0},"MatchType":"interpolated","Location":{"LocationId":"NT_pBQwLwjP4IkinxFLcmRtcB_xED","LocationType":"point","DisplayPosition":{"Latitude":39.69679,"Longitude":2.70061},"MapView":{"TopLeft":{"Latitude":39.6979142,"Longitude":2.699149},"BottomRight":{"Latitude":39.6956658,"Longitude":2.702071}},"Address":{"Label":"Plaça del Rector Marroig, 11, 07110 Bunyola (Illes Balears), Espanya","Country":"ESP","State":"Illes Balears","County":"Illes Balears","City":"Bunyola","Street":"Plaça del Rector Marroig","HouseNumber":"11","PostalCode":"07110","AdditionalData":[{"value":"Espanya","key":"CountryName"},{"value":"Illes Balears","key":"StateName"},{"value":"Illes Balears","key":"CountyName"}]},"MapReference":{"ReferenceId":"576802663","Spot":0.18,"SideOfStreet":"left","CountryId":"20215059","StateId":"20226796","CountyId":"20226797","CityId":"20275414","AddressId":"351415444","RoadLinkId":"65413387"}}},{"Relevance":1.0,"Distance":45.6,"MatchLevel":"houseNumber","MatchQuality":{"Country":1.0,"State":1.0,"County":1.0,"City":1.0,"Street":[1.0],"HouseNumber":1.0,"PostalCode":1.0},"MatchType":"interpolated","Location":{"LocationId":"NT_0qUd-XLHoTFyi.yIunq2dC_zMD","LocationType":"point","DisplayPosition":{"Latitude":39.69672,"Longitude":2.70034},"MapView":{"TopLeft":{"Latitude":39.6978442,"Longitude":2.698879},"BottomRight":{"Latitude":39.6955958,"Longitude":2.701801}},"Address":{"Label":"Carrer Major, 33, 07110 Bunyola (Illes Balears), Espanya","Country":"ESP","State":"Illes Balears","County":"Illes Balears","City":"Bunyola","Street":"Carrer Major","HouseNumber":"33","PostalCode":"07110","AdditionalData":[{"value":"Espanya","key":"CountryName"},{"value":"Illes Balears","key":"StateName"},{"value":"Illes Balears","key":"CountyName"}]},"MapReference":{"ReferenceId":"811961378","Spot":0.22,"SideOfStreet":"left","CountryId":"20215059","StateId":"20226796","CountyId":"20226797","CityId":"20275414","AddressId":"351534125","RoadLinkId":"199411877"}}}]}]}}