{"Response":{"MetaInfo":{"Timestamp":"2020-03-28T09:47:54.312+0000","NextPageInformation":"2"},"View":[{"_type":"SearchResultsViewType","ViewId":0,"Result":[{"Relevance":1.0,"Distance":-16438.6,"MatchLevel":"landmark","MatchQuality":{"Country":1.0,"State":1.0,"County":1.0,"Name":1.0},"Location":{"LocationId":"NT_d0gsmqx3FeRc7gPkFbqRYB","LocationType":"island","Name":"Mallorca","DisplayPosition":{"Latitude":39.61354,"Longitude":2.88047},"MapView":{"TopLeft":{"Latitude":39.96254,"Longitude":2.3446},"BottomRight":{"Latitude":39.26453,"Longitude":3.47852}},"Address":{"Label":"(Illes Balears), Espanya","Country":"ESP","State":"Illes Balears","County":"Illes Balears","AdditionalData":[{"value":"Espanya","key":"CountryName"},{"value":"Illes Balears","key":"StateName"},{"value":"Illes Balears","key":"CountyName"}]},"MapReference":{"CountryId":"20215059","StateId":"20226796","CountyId":"20226797","PlaceId":"58562618"}}},{"Relevance":1.0,"Distance":0.0,"Direction":0.0,"MatchLevel":"city","MatchQuality":{"Country":1.0,"State":1.0,"County":1.0,"City":1.0,"PostalCode":1.0},"Location":{"LocationId":"NT_3d5qDoQ1hxjg.n0JRvspRB","LocationType":"point","DisplayPosition":{"Latitude":39.720619,"Longitude":2.9019953},"MapView":{"TopLeft":{"Latitude":39.74999,"Longitude":2.87811},"BottomRight":{"Latitude":39.67059,"Longitude":3.0024}},"Address":{"Label":"Inca, Illes Balears, Espanya","Country":"ESP","State":"Illes Balears","County":"Illes Balears","City":"Inca","PostalCode":"07300","AdditionalData":[{"value":"Espanya","key":"CountryName"},{"value":"Illes Balears","key":"StateName"},{"value":"Illes Balears","key":"CountyName"}]},"MapReference":{"ReferenceId":"576810295","SideOfStreet":"neither","CountryId":"20215059","StateId":"20226796","CountyId":"20226797","CityId":"20275589"}}},{"Relevance":1.0,"Distance":9.0,"MatchLevel":"street","MatchQuality":{"Country":1.0,"State":1.0,"County":1.0,"City":1.0,"Street":[1.0],"PostalCode":1.0},"Location":{"LocationId":"NT_EQKichERsMmkntyyVubmvA_l_576796397_L","LocationType":"point","DisplayPosition":{"Latitude":39.72062,"Longitude":2.9021},"MapView":{"TopLeft":{"Latitude":39.72062,"Longitude":2.9021},"BottomRight":{"Latitude":39.72019,"Longitude":2.90257}},"Address":{"Label":"Carrer del Castell de Bellver, 07300 Inca (Illes Balears), Espanya","Country":"ESP","State":"Illes Balears","County":"Illes Balears","City":"Inca","Street":"Carrer del Castell de Bellver","PostalCode":"07300","AdditionalData":[{"value":"Espanya","key":"CountryName"},{"value":"Illes Balears","key":"StateName"},{"value":"Illes Balears","key":"CountyName"}]},"MapReference":{"ReferenceId":"576796397","Spot":1.0,"SideOfStreet":"left","CountryId":"20215059","StateId":"20226796","CountyId":"20226797","CityId":"20275589"}}},{"Relevance":1.0,"Distance":14.7,"MatchLevel":"houseNumber","MatchQuality":{"Country":1.0,"State":1.0,"County":1.0,"City":1.0,"Street":[1.0],"HouseNumber":1.0,"PostalCode":1.0},"MatchType":"interpolated","Location":{"LocationId":"NT_EQKichERsMmkntyyVubmvA_yMD","LocationType":"point","DisplayPosition":{"Latitude":39.72073,"Longitude":2.90188},"MapView":{"TopLeft":{"Latitude":39.7218542,"Longitude":2.9004185},"BottomRight":{"Latitude":39.7196058,"Longitude":2.9033415}},"Address":{"Label":"Carrer del Castell de Bellver, 23, 07300 Inca (Illes Balears), Espanya","Country":"ESP","State":"Illes Balears","County":"Illes Balears","City":"Inca","Street":"Carrer del Castell de Bellver","HouseNumber":"23","PostalCode":"07300","AdditionalData":[{"value":"Espanya","key":"CountryName"},{"value":"Illes Balears","key":"StateName"},{"value":"Illes Balears","key":"CountyName"}]},"MapReference":{"ReferenceId":"576796796","Spot":0.36,"SideOfStreet":"left","CountryId":"20215059","StateId":"20226796","CountyId":"20226797","CityId":"20275589","AddressId":"351588858","RoadLinkId":"66262642"}}},{"Relevance":1.0,"Distance":32.3,"MatchLevel":"houseNumber","MatchQuality":{"Country":1.0,"State":1.0,"County":1.0,"City":1.0,"Street":[1.0],"HouseNumber":1.0,"PostalCode":1.0},"MatchType":"interpolated","Location":{"LocationId":"NT_fMNm9sZkwaTa-8Cx1rAPxA_5ID","LocationType":"point","DisplayPosition":{"Latitude":39.72077,"Longitude":2.90232},"MapView":{"TopLeft":{"Latitude":39.7218942,"Longitude":2.9008585},"BottomRight":{"Latitude":39.7196458,"Longitude":2.9037815}},"Address":{"Label":"Carrer del Canonge Payeras, 92, 07300 Inca (Illes Balears), Espanya","Country":"ESP","State":"Illes Balears","County":"Illes Balears","City":"Inca","Street":"Carrer del Canonge Payeras","HouseNumber":"92","PostalCode":"07300","AdditionalData":[{"value":"Espanya","key":"CountryName"},{"value":"Illes Balears","key":"StateName"},{"value":"Illes Balears","key":"CountyName"}]},"MapReference":{"ReferenceId":"576796763","Spot":0.32,"SideOfStreet":"left","CountryId":"20215059","StateId":"20226796","CountyId":"20226797","CityId":"20275589","AddressId":"351435416","RoadLinkId":"65716430"}}},{"Relevance":1.0,"Distance":33.7,"MatchLevel":"houseNumber","MatchQuality":{"Country":1.0,"State":1.0,"County":1.0,"City":1.0,"Street":[1.0],"HouseNumber":1.0,"PostalCode":1.0},"MatchType":"interpolated","Location":{"LocationId":"NT_AD.qyY2YarYTFJ59.EmCXA_ygD","LocationType":"point","DisplayPosition":{"Latitude":39.72026,"Longitude":2.90176},"MapView":{"TopLeft":{"Latitude":39.7213842,"Longitude":2.9002985},"BottomRight":{"Latitude":39.7191358,"Longitude":2.9032215}},"Address":{"Label":"Carrer Canonge Sebastià Garcias Palou, 28, 07300 Inca (Illes Balears), Espanya","Country":"ESP","State":"Illes Balears","County":"Illes Balears","City":"Inca","Street":"Carrer Canonge Sebastià Garcias Palou","HouseNumber":"28","PostalCode":"07300","AdditionalData":[{"value":"Espanya","key":"CountryName"},{"value":"Illes Balears","key":"StateName"},{"value":"Illes Balears","key":"CountyName"}]},"MapReference":{"ReferenceId":"576796794","Spot":0.89,"SideOfStreet":"right","CountryId":"20215059","StateId":"20226796","CountyId":"20226797","CityId":"20275589","AddressId":"365635810","RoadLinkId":"66388505"}}},{"Relevance":1.0,"Distance":37.5,"MatchLevel":"houseNumber","MatchQuality":{"Country":1.0,"State":1.0,"County":1.0,"City":1.0,"Street":[1.0],"HouseNumber":1.0,"PostalCode":1.0},"MatchType":"interpolated","Location":{"LocationId":"NT_Oe7RuxOzZEFp4Rit7.meJD_zYD","LocationType":"point","DisplayPosition":{"Latitude":39.7203,"Longitude":2.90166},"MapView":{"TopLeft":{"Latitude":39.7214242,"Longitude":2.9001985},"BottomRight":{"Latitude":39.7191758,"Longitude":2.9031215}},"Address":{"Label":"Carrer c. Sebastià Garcias Palou, 36, 07300 Inca (Illes Balears), Espanya","Country":"ESP","State":"Illes Balears","County":"Illes Balears","City":"Inca","Street":"Carrer c. Sebastià Garcias Palou","HouseNumber":"36","PostalCode":"07300","AdditionalData":[{"value":"Espanya","key":"CountryName"},{"value":"Illes Balears","key":"StateName"},{"value":"Illes Balears","key":"CountyName"}]},"MapReference":{"ReferenceId":"576796657","Spot":0.07,"SideOfStreet":"right","CountryId":"20215059","StateId":"20226796","CountyId":"20226797","CityId":"20275589","AddressId":"770540396","RoadLinkId":"66424274"}}},{"Relevance":1.0,"Distance":39.9,"MatchLevel":"houseNumber","MatchQuality":{"Country":1.0,"State":1.0,"County":1.0,"City":1.0,"Street":[1.0],"HouseNumber":1.0,"PostalCode":1.0},"MatchType":"interpolated","Location":{"LocationId":"NT_9X8F-Rhw3V3bCUDAK.CpMA_yAD","LocationType":"point","DisplayPosition":{"Latitude":39.72,"Longitude":2.90227},"MapView":{"TopLeft":{"Latitude":39.7211242,"Longitude":2.9008085},"BottomRight":{"Latitude":39.7188758,"Longitude":2.9037315}},"Address":{"Label":"Carrer Llorenç Maria Durán, 20, 07300 Inca (Illes Balears), Espanya","Country":"ESP","State":"Illes Balears","County":"Illes Balears","City":"Inca","Street":"Carrer Llorenç Maria Durán","HouseNumber":"20","PostalCode":"07300","AdditionalData":[{"value":"Espanya","key":"CountryName"},{"value":"Illes Balears","key":"StateName"},{"value":"Illes Balears","key":"CountyName"}]},"MapReference":{"ReferenceId":"576796760","Spot":0.12,"SideOfStreet":"left","CountryId":"20215059","StateId":"20226796","CountyId":"20226797","CityId":"20275589","AddressId":"351617692","RoadLinkId":"65840270"}}},{"Relevance":1.0,"Distance":43.3,"MatchLevel":"houseNumber","MatchQuality":{"Country":1.0,"State":1.0,"County":1.0,"City":1.0,"Street":[1.0],"HouseNumber":1.0,"PostalCode":1.0},"MatchType":"interpolated","Location":{"LocationId":"NT_z.JzdmqZVZjUot0NzJXJTC_0AD","LocationType":"point","DisplayPosition":{"Latitude":39.72076,"Longitude":2.9014},"MapView":{"TopLeft":{"Latitude":39.7218842,"Longitude":2.8999385},"BottomRight":{"Latitude":39.7196358,"Longitude":2.9028615}},"Address":{"Label":"Carrer de Felip II, 40, 07300 Inca (Illes Balears), Espanya","Country":"ESP","State":"Illes Balears","County":"Illes Balears","City":"Inca","Street":"Carrer de Felip II","HouseNumber":"40","PostalCode":"07300","AdditionalData":[{"value":"Espanya","key":"CountryName"},{"value":"Illes Balears","key":"StateName"},{"value":"Illes Balears","key":"CountyName"}]},"MapReference":{"ReferenceId":"576786535","Spot":0.75,"SideOfStreet":"right","CountryId":"20215059","StateId":"20226796","CountyId":"20226797","CityId":"20275589","AddressId":"351528972","RoadLinkId":"66332650"}}},{"Relevance":1.0,"Distance":44.4,"MatchLevel":"houseNumber","MatchQuality":{"Country":1.0,"State":1.0,"County":1.0,"City":1.0,"Street":[1.0],"HouseNumber":1.0,"PostalCode":1.0},"MatchType":"interpolated","Location":{"LocationId":"NT_fDzbr3DQvIBsCvuHS59HuB_5ED","LocationType":"point","DisplayPosition":{"Latitude":39.72107,"Longitude":2.90178},"MapView":{"TopLeft":{"Latitude":39.7221942,"Longitude":2.9003185},"BottomRight":{"Latitude":39.7199458,"Longitude":2.9032415}},"Address":{"Label":"Carrer del Canonge Quetglas, 91, 07300 Inca (Illes Balears), Espanya","Country":"ESP","State":"Illes Balears","County":"Illes Balears","City":"Inca","Street":"Carrer del Canonge Quetglas","HouseNumber":"91","PostalCode":"07300","AdditionalData":[{"value":"Espanya","key":"CountryName"},{"value":"Illes Balears","key":"StateName"},{"value":"Illes Balears","key":"CountyName"}]},"MapReference":{"ReferenceId":"576796592","Spot":0.34,"SideOfStreet":"right","CountryId":"20215059","StateId":"20226796","CountyId":"20226797","CityId":"20275589","AddressId":"351492474","RoadLinkId":"65735058"}}}]}]}}