{"Response":{"MetaInfo":{"Timestamp":"2020-03-28T10:26:19.435+0000","NextPageInformation":"2"},"View":[{"_type":"SearchResultsViewType","ViewId":0,"Result":[{"Relevance":1.0,"Distance":-109.0,"MatchLevel":"landmark","MatchQuality":{"Country":1.0,"State":1.0,"County":1.0,"Name":1.0},"Location":{"LocationId":"NT_8bGHfaogWYE3rjoNLkNNWC","LocationType":"island","Name":"Menorca","DisplayPosition":{"Latitude":39.94985,"Longitude":4.04549},"MapView":{"TopLeft":{"Latitude":40.09066,"Longitude":3.7906},"BottomRight":{"Latitude":39.80904,"Longitude":4.32788}},"Address":{"Label":"(Illes Balears), Espanya","Country":"ESP","State":"Illes Balears","County":"Illes Balears","AdditionalData":[{"value":"Espanya","key":"CountryName"},{"value":"Illes Balears","key":"StateName"},{"value":"Illes Balears","key":"CountyName"}]},"MapReference":{"CountryId":"20215059","StateId":"20226796","CountyId":"20226797","PlaceId":"58562619"}}},{"Relevance":1.0,"Distance":0.0,"Direction":0.0,"MatchLevel":"city","MatchQuality":{"Country":1.0,"State":1.0,"County":1.0,"City":1.0,"PostalCode":1.0},"Location":{"LocationId":"NT_Ph8ak-vuzGQmBIVkN21-CA","LocationType":"point","DisplayPosition":{"Latitude":39.8891184,"Longitude":4.2713142},"MapView":{"TopLeft":{"Latitude":40.02203,"Longitude":4.15865},"BottomRight":{"Latitude":39.8309,"Longitude":4.32788}},"Address":{"Label":"Maó, Illes Balears, Espanya","Country":"ESP","State":"Illes Balears","County":"Illes Balears","City":"Maó","PostalCode":"07701","AdditionalData":[{"value":"Espanya","key":"CountryName"},{"value":"Illes Balears","key":"StateName"},{"value":"Illes Balears","key":"CountyName"}]},"MapReference":{"ReferenceId":"572137713","SideOfStreet":"neither","CountryId":"20215059","StateId":"20226796","CountyId":"20226797","CityId":"20275622"}}},{"Relevance":1.0,"Distance":5.5,"MatchLevel":"houseNumber","MatchQuality":{"Country":1.0,"State":1.0,"County":1.0,"City":1.0,"Street":[1.0],"HouseNumber":1.0,"PostalCode":1.0},"MatchType":"interpolated","Location":{"LocationId":"NT_szYeO.Fcnzx2Fp77yQmDOD_l_538101852_R_xAD","LocationType":"point","DisplayPosition":{"Latitude":39.88919,"Longitude":4.27119},"MapView":{"TopLeft":{"Latitude":39.8903142,"Longitude":4.2697249},"BottomRight":{"Latitude":39.8880659,"Longitude":4.2726551}},"Address":{"Label":"Passeig Marítim, 10, 07701 Maó (Illes Balears), Espanya","Country":"ESP","State":"Illes Balears","County":"Illes Balears","City":"Maó","Street":"Passeig Marítim","HouseNumber":"10","PostalCode":"07701","AdditionalData":[{"value":"Espanya","key":"CountryName"},{"value":"Illes Balears","key":"StateName"},{"value":"Illes Balears","key":"CountyName"}]},"MapReference":{"ReferenceId":"538101852","Spot":0.0,"SideOfStreet":"right","CountryId":"20215059","StateId":"20226796","CountyId":"20226797","CityId":"20275622"}}},{"Relevance":1.0,"Distance":13.7,"MatchLevel":"houseNumber","MatchQuality":{"Country":1.0,"State":1.0,"County":1.0,"City":1.0,"Street":[1.0],"HouseNumber":1.0,"PostalCode":1.0},"MatchType":"interpolated","Location":{"LocationId":"NT_rZyJc9MmddJppXgAm-6caD_0UD","LocationType":"point","DisplayPosition":{"Latitude":39.88904,"Longitude":4.27119},"MapView":{"TopLeft":{"Latitude":39.8901642,"Longitude":4.2697249},"BottomRight":{"Latitude":39.8879158,"Longitude":4.2726551}},"Address":{"Label":"Carrer Bellavista, 45, 07701 Maó (Illes Balears), Espanya","Country":"ESP","State":"Illes Balears","County":"Illes Balears","City":"Maó","Street":"Carrer Bellavista","HouseNumber":"45","PostalCode":"07701","AdditionalData":[{"value":"Espanya","key":"CountryName"},{"value":"Illes Balears","key":"StateName"},{"value":"Illes Balears","key":"CountyName"}]},"MapReference":{"ReferenceId":"538101659","Spot":0.4,"SideOfStreet":"left","CountryId":"20215059","StateId":"20226796","CountyId":"20226797","CityId":"20275622","AddressId":"351509188","RoadLinkId":"66265401"}}},{"Relevance":1.0,"Distance":15.9,"MatchLevel":"houseNumber","MatchQuality":{"Country":1.0,"State":1.0,"County":1.0,"City":1.0,"Street":[1.0],"HouseNumber":1.0,"PostalCode":1.0},"MatchType":"interpolated","Location":{"LocationId":"NT_C-aiBHzrNw0MiupfbUOyzA_yA","LocationType":"point","DisplayPosition":{"Latitude":39.88898,"Longitude":4.27136},"MapView":{"TopLeft":{"Latitude":39.8901042,"Longitude":4.2698949},"BottomRight":{"Latitude":39.8878558,"Longitude":4.2728251}},"Address":{"Label":"Carrer Barcelona, 2, 07701 Maó (Illes Balears), Espanya","Country":"ESP","State":"Illes Balears","County":"Illes Balears","City":"Maó","Street":"Carrer Barcelona","HouseNumber":"2","PostalCode":"07701","AdditionalData":[{"value":"Espanya","key":"CountryName"},{"value":"Illes Balears","key":"StateName"},{"value":"Illes Balears","key":"CountyName"}]},"MapReference":{"ReferenceId":"717620196","Spot":0.31,"SideOfStreet":"right","CountryId":"20215059","StateId":"20226796","CountyId":"20226797","CityId":"20275622","AddressId":"351447336","RoadLinkId":"122589982"}}},{"Relevance":1.0,"Distance":24.9,"MatchLevel":"street","MatchQuality":{"Country":1.0,"State":1.0,"County":1.0,"City":1.0,"Street":[1.0],"PostalCode":1.0},"Location":{"LocationId":"NT_szYeO.Fcnzx2Fp77yQmDOD_l_717616928_R","LocationType":"point","DisplayPosition":{"Latitude":39.88933,"Longitude":4.27122},"MapView":{"TopLeft":{"Latitude":39.89011,"Longitude":4.27122},"BottomRight":{"Latitude":39.88933,"Longitude":4.27253}},"Address":{"Label":"Passeig Marítim, 07701 Maó (Illes Balears), Espanya","Country":"ESP","State":"Illes Balears","County":"Illes Balears","City":"Maó","Street":"Passeig Marítim","PostalCode":"07701","AdditionalData":[{"value":"Espanya","key":"CountryName"},{"value":"Illes Balears","key":"StateName"},{"value":"Illes Balears","key":"CountyName"}]},"MapReference":{"ReferenceId":"717616928","Spot":0.0,"SideOfStreet":"right","CountryId":"20215059","StateId":"20226796","CountyId":"20226797","CityId":"20275622"}}},{"Relevance":1.0,"Distance":28.0,"MatchLevel":"houseNumber","MatchQuality":{"Country":1.0,"State":1.0,"County":1.0,"City":1.0,"Street":[1.0],"HouseNumber":1.0,"PostalCode":1.0},"MatchType":"interpolated","Location":{"LocationId":"NT_wTugmuBhHHBRH8UKbKe3CC_l_538101767_L_zED","LocationType":"point","DisplayPosition":{"Latitude":39.88923,"Longitude":4.27102},"MapView":{"TopLeft":{"Latitude":39.8903542,"Longitude":4.2695549},"BottomRight":{"Latitude":39.8881059,"Longitude":4.2724851}},"Address":{"Label":"Plaça Josep Claret, 31, 07701 Maó (Illes Balears), Espanya","Country":"ESP","State":"Illes Balears","County":"Illes Balears","City":"Maó","Street":"Plaça Josep Claret","HouseNumber":"31","PostalCode":"07701","AdditionalData":[{"value":"Espanya","key":"CountryName"},{"value":"Illes Balears","key":"StateName"},{"value":"Illes Balears","key":"CountyName"}]},"MapReference":{"ReferenceId":"538101767","Spot":0.33,"SideOfStreet":"left","CountryId":"20215059","StateId":"20226796","CountyId":"20226797","CityId":"20275622"}}},{"Relevance":1.0,"Distance":28.6,"MatchLevel":"houseNumber","MatchQuality":{"Country":1.0,"State":1.0,"County":1.0,"City":1.0,"Street":[1.0],"HouseNumber":1.0,"PostalCode":1.0},"MatchType":"interpolated","Location":{"LocationId":"NT_rZyJc9MmddJppXgAm-6caD_0ED","LocationType":"point","DisplayPosition":{"Latitude":39.88889,"Longitude":4.27116},"MapView":{"TopLeft":{"Latitude":39.8900142,"Longitude":4.2696949},"BottomRight":{"Latitude":39.8877658,"Longitude":4.2726251}},"Address":{"Label":"Carrer Bellavista, 41, 07701 Maó (Illes Balears), Espanya","Country":"ESP","State":"Illes Balears","County":"Illes Balears","City":"Maó","Street":"Carrer Bellavista","HouseNumber":"41","PostalCode":"07701","AdditionalData":[{"value":"Espanya","key":"CountryName"},{"value":"Illes Balears","key":"StateName"},{"value":"Illes Balears","key":"CountyName"}]},"MapReference":{"ReferenceId":"538101658","Spot":0.75,"SideOfStreet":"left","CountryId":"20215059","StateId":"20226796","CountyId":"20226797","CityId":"20275622","AddressId":"351561763","RoadLinkId":"65415081"}}},{"Relevance":1.0,"Distance":30.2,"MatchLevel":"street","MatchQuality":{"Country":1.0,"State":1.0,"County":1.0,"City":1.0,"PostalCode":1.0},"Location":{"LocationId":"NT_tUwg9vWp2o.ZntAr6Eo4xB_l_1186248778_R","LocationType":"point","DisplayPosition":{"Latitude":39.88911,"Longitude":4.27096},"MapView":{"TopLeft":{"Latitude":39.88918,"Longitude":4.27064},"BottomRight":{"Latitude":39.88879,"Longitude":4.27096}},"Address":{"Label":"07701 Maó (Illes Balears), Espanya","Country":"ESP","State":"Illes Balears","County":"Illes Balears","City":"Maó","PostalCode":"07701","AdditionalData":[{"value":"Espanya","key":"CountryName"},{"value":"Illes Balears","key":"StateName"},{"value":"Illes Balears","key":"CountyName"}]},"MapReference":{"ReferenceId":"1186248778","Spot":0.51,"SideOfStreet":"right","CountryId":"20215059","StateId":"20226796","CountyId":"20226797","CityId":"20275622"}}},{"Relevance":1.0,"Distance":35.6,"MatchLevel":"street","MatchQuality":{"Country":1.0,"State":1.0,"County":1.0,"City":1.0,"PostalCode":1.0},"Location":{"LocationId":"NT_tUwg9vWp2o.ZntAr6Eo4xB_l_717620198_L","LocationType":"point","DisplayPosition":{"Latitude":39.8892485,"Longitude":4.2716957},"MapView":{"TopLeft":{"Latitude":39.88968,"Longitude":4.27161},"BottomRight":{"Latitude":39.88906,"Longitude":4.27218}},"Address":{"Label":"07701 Maó (Illes Balears), Espanya","Country":"ESP","State":"Illes Balears","County":"Illes Balears","City":"Maó","PostalCode":"07701","AdditionalData":[{"value":"Espanya","key":"CountryName"},{"value":"Illes Balears","key":"StateName"},{"value":"Illes Balears","key":"CountyName"}]},"MapReference":{"ReferenceId":"717620198","Spot":0.18,"SideOfStreet":"left","CountryId":"20215059","StateId":"20226796","CountyId":"20226797","CityId":"20275622"}}}]}]}}