{"Response":{"MetaInfo":{"Timestamp":"2020-03-28T12:06:55.776+0000","NextPageInformation":"2"},"View":[{"_type":"SearchResultsViewType","ViewId":0,"Result":[{"Relevance":1.0,"Distance":0.0,"Direction":0.0,"MatchLevel":"district","MatchQuality":{"Country":1.0,"County":1.0,"City":1.0,"District":1.0,"PostalCode":1.0},"Location":{"LocationId":"NT_vzhcEwwwDVKfo2XLn0P7qB","LocationType":"point","DisplayPosition":{"Latitude":39.8287839,"Longitude":-8.8402426},"MapView":{"TopLeft":{"Latitude":39.83231,"Longitude":-8.84596},"BottomRight":{"Latitude":39.81517,"Longitude":-8.8351}},"Address":{"Label":"Ortigosa, Leiria, Portugal","Country":"PRT","County":"Leiria","City":"Leiria","District":"Ortigosa","PostalCode":"2425-741","AdditionalData":[{"value":"Portugal","key":"CountryName"},{"value":"Leiria","key":"CountyName"}]},"MapReference":{"ReferenceId":"542392912","SideOfStreet":"neither","CountryId":"20317122","CountyId":"20319270","CityId":"20319345","DistrictId":"20319363"}}},{"Relevance":1.0,"Distance":8.3,"MatchLevel":"houseNumber","MatchQuality":{"Country":1.0,"County":1.0,"City":1.0,"District":1.0,"Street":[1.0],"HouseNumber":1.0,"PostalCode":1.0},"MatchType":"interpolated","Location":{"LocationId":"NT_lPNawWWV1qAuHhLVDTgqdB_yAD","LocationType":"point","DisplayPosition":{"Latitude":39.82868,"Longitude":-8.84027},"MapView":{"TopLeft":{"Latitude":39.8298042,"Longitude":-8.8417338},"BottomRight":{"Latitude":39.8275558,"Longitude":-8.8388062}},"Address":{"Label":"Rua do Outeiro 20, 2425-669 Leiria, Portugal","Country":"PRT","County":"Leiria","City":"Leiria","District":"Ortigosa","Street":"Rua do Outeiro","HouseNumber":"20","PostalCode":"2425-669","AdditionalData":[{"value":"Portugal","key":"CountryName"},{"value":"Leiria","key":"CountyName"}]},"MapReference":{"ReferenceId":"542396106","Spot":0.82,"SideOfStreet":"left","CountryId":"20317122","CountyId":"20319270","CityId":"20319345","DistrictId":"20319363","AddressId":"342521946","RoadLinkId":"70685420"}}},{"Relevance":1.0,"Distance":19.1,"MatchLevel":"street","MatchQuality":{"Country":1.0,"County":1.0,"City":1.0,"District":1.0,"Street":[1.0],"PostalCode":1.0},"Location":{"LocationId":"NT_-yWg-VN5IZ-JZqHNkmapKB_l_542392974_L","LocationType":"point","DisplayPosition":{"Latitude":39.82873,"Longitude":-8.84003},"MapView":{"TopLeft":{"Latitude":39.82873,"Longitude":-8.84005},"BottomRight":{"Latitude":39.82854,"Longitude":-8.84003}},"Address":{"Label":"IC1, 2425-741 Leiria, Portugal","Country":"PRT","County":"Leiria","City":"Leiria","District":"Ortigosa","Street":"IC1","PostalCode":"2425-741","AdditionalData":[{"value":"Portugal","key":"CountryName"},{"value":"Leiria","key":"CountyName"}]},"MapReference":{"ReferenceId":"542392974","Spot":1.0,"SideOfStreet":"left","CountryId":"20317122","CountyId":"20319270","CityId":"20319345","DistrictId":"20319363"}}},{"Relevance":1.0,"Distance":21.0,"MatchLevel":"houseNumber","MatchQuality":{"Country":1.0,"County":1.0,"City":1.0,"District":1.0,"Street":[1.0],"HouseNumber":1.0,"PostalCode":1.0},"MatchType":"interpolated","Location":{"LocationId":"NT_MWfHdW9URsbkiOvh19UnwC_3ETN","LocationType":"point","DisplayPosition":{"Latitude":39.82895,"Longitude":-8.84},"MapView":{"TopLeft":{"Latitude":39.8300742,"Longitude":-8.8414638},"BottomRight":{"Latitude":39.8278258,"Longitude":-8.8385362}},"Address":{"Label":"Rua Joaquim de Sousa 715, 2425-737 Leiria, Portugal","Country":"PRT","County":"Leiria","City":"Leiria","District":"Ortigosa","Street":"Rua Joaquim de Sousa","HouseNumber":"715","PostalCode":"2425-737","AdditionalData":[{"value":"Portugal","key":"CountryName"},{"value":"Leiria","key":"CountyName"}]},"MapReference":{"ReferenceId":"542392975","Spot":0.16,"SideOfStreet":"left","CountryId":"20317122","CountyId":"20319270","CityId":"20319345","DistrictId":"20319363","AddressId":"343015086","RoadLinkId":"70642147"}}},{"Relevance":1.0,"Distance":31.7,"MatchLevel":"street","MatchQuality":{"Country":1.0,"County":1.0,"City":1.0,"District":1.0,"PostalCode":1.0},"Location":{"LocationId":"NT_wThNbNCZT1-FfEt4SYM-MC_l_542393025_R","LocationType":"point","DisplayPosition":{"Latitude":39.82854,"Longitude":-8.84005},"MapView":{"TopLeft":{"Latitude":39.82854,"Longitude":-8.84005},"BottomRight":{"Latitude":39.8284,"Longitude":-8.839}},"Address":{"Label":"2425 Leiria, Portugal","Country":"PRT","County":"Leiria","City":"Leiria","District":"Ortigosa","PostalCode":"2425","AdditionalData":[{"value":"Portugal","key":"CountryName"},{"value":"Leiria","key":"CountyName"}]},"MapReference":{"ReferenceId":"542393025","Spot":1.0,"SideOfStreet":"right","CountryId":"20317122","CountyId":"20319270","CityId":"20319345","DistrictId":"20319363"}}},{"Relevance":1.0,"Distance":58.6,"MatchLevel":"houseNumber","MatchQuality":{"Country":1.0,"County":1.0,"City":1.0,"District":1.0,"Street":[1.0],"HouseNumber":1.0,"PostalCode":1.0},"MatchType":"interpolated","Location":{"LocationId":"NT_-yWg-VN5IZ-JZqHNkmapKB_l_914399761_R_2IDM","LocationType":"point","DisplayPosition":{"Latitude":39.8282743,"Longitude":-8.8400697},"MapView":{"TopLeft":{"Latitude":39.8293985,"Longitude":-8.8415335},"BottomRight":{"Latitude":39.8271502,"Longitude":-8.8386059}},"Address":{"Label":"IC1 620, 2425-741 Leiria, Portugal","Country":"PRT","County":"Leiria","City":"Leiria","District":"Ortigosa","Street":"IC1","HouseNumber":"620","PostalCode":"2425-741","AdditionalData":[{"value":"Portugal","key":"CountryName"},{"value":"Leiria","key":"CountyName"}]},"MapReference":{"ReferenceId":"914399761","Spot":0.5,"SideOfStreet":"right","CountryId":"20317122","CountyId":"20319270","CityId":"20319345","DistrictId":"20319363"}}},{"Relevance":1.0,"Distance":105.4,"MatchLevel":"houseNumber","MatchQuality":{"Country":1.0,"County":1.0,"City":1.0,"District":1.0,"Street":[1.0],"HouseNumber":1.0,"PostalCode":1.0},"MatchType":"interpolated","Location":{"LocationId":"NT_a4fcyEbV2ZNmyQd9wLwj4B_l_914399760_R_1cjN","LocationType":"point","DisplayPosition":{"Latitude":39.8278411,"Longitude":-8.8401133},"MapView":{"TopLeft":{"Latitude":39.8289653,"Longitude":-8.8415771},"BottomRight":{"Latitude":39.826717,"Longitude":-8.8386495}},"Address":{"Label":"IC1 576, 2425-741 Leiria, Portugal","Country":"PRT","County":"Leiria","City":"Leiria","District":"Ortigosa","Street":"IC1","HouseNumber":"576","PostalCode":"2425-741","AdditionalData":[{"value":"Portugal","key":"CountryName"},{"value":"Leiria","key":"CountyName"}]},"MapReference":{"ReferenceId":"914399760","Spot":0.68,"SideOfStreet":"right","CountryId":"20317122","CountyId":"20319270","CityId":"20319345","DistrictId":"20319363"}}},{"Relevance":1.0,"Distance":105.5,"MatchLevel":"street","MatchQuality":{"Country":1.0,"County":1.0,"City":1.0,"District":1.0,"Street":[1.0],"PostalCode":1.0},"Location":{"LocationId":"NT_LwNIUIG54QBD5a.iY-AKgB_l_542396119_R","LocationType":"point","DisplayPosition":{"Latitude":39.82838,"Longitude":-8.84136},"MapView":{"TopLeft":{"Latitude":39.82884,"Longitude":-8.84148},"BottomRight":{"Latitude":39.82832,"Longitude":-8.84134}},"Address":{"Label":"Rua do Dionisio, 2425 Leiria, Portugal","Country":"PRT","County":"Leiria","City":"Leiria","District":"Ortigosa","Street":"Rua do Dionisio","PostalCode":"2425","AdditionalData":[{"value":"Portugal","key":"CountryName"},{"value":"Leiria","key":"CountyName"}]},"MapReference":{"ReferenceId":"542396119","Spot":0.12,"SideOfStreet":"right","CountryId":"20317122","CountyId":"20319270","CityId":"20319345","DistrictId":"20319363"}}},{"Relevance":1.0,"Distance":107.0,"MatchLevel":"street","MatchQuality":{"Country":1.0,"County":1.0,"City":1.0,"District":1.0,"Street":[1.0],"PostalCode":1.0},"Location":{"LocationId":"NT_lPNawWWV1qAuHhLVDTgqdB_l_542396179_L","LocationType":"point","DisplayPosition":{"Latitude":39.82832,"Longitude":-8.84134},"MapView":{"TopLeft":{"Latitude":39.82832,"Longitude":-8.84224},"BottomRight":{"Latitude":39.82818,"Longitude":-8.84134}},"Address":{"Label":"Rua do Outeiro, 2425-669 Leiria, Portugal","Country":"PRT","County":"Leiria","City":"Leiria","District":"Ortigosa","Street":"Rua do Outeiro","PostalCode":"2425-669","AdditionalData":[{"value":"Portugal","key":"CountryName"},{"value":"Leiria","key":"CountyName"}]},"MapReference":{"ReferenceId":"542396179","Spot":1.0,"SideOfStreet":"left","CountryId":"20317122","CountyId":"20319270","CityId":"20319345","DistrictId":"20319363"}}},{"Relevance":1.0,"Distance":114.4,"MatchLevel":"street","MatchQuality":{"Country":1.0,"County":1.0,"City":1.0,"District":1.0,"Street":[1.0],"PostalCode":1.0},"Location":{"LocationId":"NT_6UQQ6JPk9EzXIl2I9wQ0lA_l_542392611_L","LocationType":"point","DisplayPosition":{"Latitude":39.8284,"Longitude":-8.839},"MapView":{"TopLeft":{"Latitude":39.8284,"Longitude":-8.83901},"BottomRight":{"Latitude":39.82834,"Longitude":-8.839}},"Address":{"Label":"Rua da Meio, 2425 Leiria, Portugal","Country":"PRT","County":"Leiria","City":"Leiria","District":"Ortigosa","Street":"Rua da Meio","PostalCode":"2425","AdditionalData":[{"value":"Portugal","key":"CountryName"},{"value":"Leiria","key":"CountyName"}]},"MapReference":{"ReferenceId":"542392611","Spot":1.0,"SideOfStreet":"left","CountryId":"20317122","CountyId":"20319270","CityId":"20319345","DistrictId":"20319363"}}}]}]}}