{"Response":{"MetaInfo":{"Timestamp":"2020-03-28T11:33:35.029+0000","NextPageInformation":"2"},"View":[{"_type":"SearchResultsViewType","ViewId":0,"Result":[{"Relevance":1.0,"Distance":-5.8,"MatchLevel":"landmark","MatchQuality":{"Country":1.0,"County":1.0,"City":1.0,"District":1.0,"PostalCode":1.0,"Name":1.0},"Location":{"LocationId":"NT_jXMTlaC3xAMgqledwdyDqD_p_Knx5fpToFaclIWdCCe8XgB","LocationType":"hospital","Name":"Hospital Amato Lusitano","DisplayPosition":{"Latitude":39.82225,"Longitude":-7.50018},"MapView":{"TopLeft":{"Latitude":39.82408,"Longitude":-7.50136},"BottomRight":{"Latitude":39.82166,"Longitude":-7.49849}},"Address":{"Label":"6000 Castelo Branco, Portugal","Country":"PRT","County":"Castelo Branco","City":"Castelo Branco","District":"Castelo Branco","PostalCode":"6000","AdditionalData":[{"value":"Portugal","key":"CountryName"},{"value":"Castelo Branco","key":"CountyName"}]},"MapReference":{"CountryId":"20317122","CountyId":"20318327","CityId":"20318334","DistrictId":"20318339","PlaceId":"67195634"}}},{"Relevance":1.0,"Distance":0.0,"Direction":0.0,"MatchLevel":"district","MatchQuality":{"Country":1.0,"County":1.0,"City":1.0,"District":1.0,"PostalCode":1.0},"Location":{"LocationId":"NT_TXIlhqCk9hLXYtKMp-SY5B","LocationType":"point","DisplayPosition":{"Latitude":39.8234183,"Longitude":-7.4986418},"MapView":{"TopLeft":{"Latitude":39.83508,"Longitude":-7.54424},"BottomRight":{"Latitude":39.796,"Longitude":-7.46211}},"Address":{"Label":"Castelo Branco, Portugal","Country":"PRT","County":"Castelo Branco","City":"Castelo Branco","District":"Castelo Branco","PostalCode":"6000-083","AdditionalData":[{"value":"Portugal","key":"CountryName"},{"value":"Castelo Branco","key":"CountyName"}]},"MapReference":{"ReferenceId":"545970842","SideOfStreet":"neither","CountryId":"20317122","CountyId":"20318327","CityId":"20318334","DistrictId":"20318339"}}},{"Relevance":1.0,"Distance":8.7,"MatchLevel":"houseNumber","MatchQuality":{"Country":1.0,"County":1.0,"City":1.0,"District":1.0,"Street":[1.0],"HouseNumber":1.0,"PostalCode":1.0},"MatchType":"interpolated","Location":{"LocationId":"NT_.u0P5fd5uhpfaRt4Ov6ONC_l_1064457483_R_xADM","LocationType":"point","DisplayPosition":{"Latitude":39.8234902,"Longitude":-7.4986826},"MapView":{"TopLeft":{"Latitude":39.8246144,"Longitude":-7.5001463},"BottomRight":{"Latitude":39.8223661,"Longitude":-7.4972189}},"Address":{"Label":"Rua da Granja 100, 6000-169 Castelo Branco, Portugal","Country":"PRT","County":"Castelo Branco","City":"Castelo Branco","District":"Castelo Branco","Street":"Rua da Granja","HouseNumber":"100","PostalCode":"6000-169","AdditionalData":[{"value":"Portugal","key":"CountryName"},{"value":"Castelo Branco","key":"CountyName"}]},"MapReference":{"ReferenceId":"1064457483","Spot":0.52,"SideOfStreet":"right","CountryId":"20317122","CountyId":"20318327","CityId":"20318334","DistrictId":"20318339"}}},{"Relevance":1.0,"Distance":10.0,"MatchLevel":"street","MatchQuality":{"Country":1.0,"County":1.0,"City":1.0,"District":1.0,"PostalCode":1.0},"Location":{"LocationId":"NT_lBInaHCPQkf7BWMtGKFEDC_l_905524349_R","LocationType":"point","DisplayPosition":{"Latitude":39.82334,"Longitude":-7.4987},"MapView":{"TopLeft":{"Latitude":39.82381,"Longitude":-7.50039},"BottomRight":{"Latitude":39.82334,"Longitude":-7.4987}},"Address":{"Label":"6000-764 Castelo Branco, Portugal","Country":"PRT","County":"Castelo Branco","City":"Castelo Branco","District":"Castelo Branco","PostalCode":"6000-764","AdditionalData":[{"value":"Portugal","key":"CountryName"},{"value":"Castelo Branco","key":"CountyName"}]},"MapReference":{"ReferenceId":"905524349","Spot":0.0,"SideOfStreet":"right","CountryId":"20317122","CountyId":"20318327","CityId":"20318334","DistrictId":"20318339"}}},{"Relevance":1.0,"Distance":22.4,"MatchLevel":"street","MatchQuality":{"Country":1.0,"County":1.0,"City":1.0,"District":1.0,"Street":[1.0],"PostalCode":1.0},"Location":{"LocationId":"NT_.u0P5fd5uhpfaRt4Ov6ONC_l_1064457484_L","LocationType":"point","DisplayPosition":{"Latitude":39.82355,"Longitude":-7.49884},"MapView":{"TopLeft":{"Latitude":39.82365,"Longitude":-7.4991},"BottomRight":{"Latitude":39.82355,"Longitude":-7.49884}},"Address":{"Label":"Rua da Granja, 6000-169 Castelo Branco, Portugal","Country":"PRT","County":"Castelo Branco","City":"Castelo Branco","District":"Castelo Branco","Street":"Rua da Granja","PostalCode":"6000-169","AdditionalData":[{"value":"Portugal","key":"CountryName"},{"value":"Castelo Branco","key":"CountyName"}]},"MapReference":{"ReferenceId":"1064457484","Spot":0.0,"SideOfStreet":"left","CountryId":"20317122","CountyId":"20318327","CityId":"20318334","DistrictId":"20318339"}}},{"Relevance":1.0,"Distance":23.2,"MatchLevel":"street","MatchQuality":{"Country":1.0,"County":1.0,"City":1.0,"District":1.0,"PostalCode":1.0},"Location":{"LocationId":"NT_tSXLdlF5q0Krvng8asLj1C_l_1123848646_R","LocationType":"point","DisplayPosition":{"Latitude":39.8232209,"Longitude":-7.4987295},"MapView":{"TopLeft":{"Latitude":39.82369,"Longitude":-7.50051},"BottomRight":{"Latitude":39.82292,"Longitude":-7.49864}},"Address":{"Label":"6000 Castelo Branco, Portugal","Country":"PRT","County":"Castelo Branco","City":"Castelo Branco","District":"Castelo Branco","PostalCode":"6000","AdditionalData":[{"value":"Portugal","key":"CountryName"},{"value":"Castelo Branco","key":"CountyName"}]},"MapReference":{"ReferenceId":"1123848646","Spot":0.15,"SideOfStreet":"right","CountryId":"20317122","CountyId":"20318327","CityId":"20318334","DistrictId":"20318339"}}},{"Relevance":1.0,"Distance":36.0,"MatchLevel":"houseNumber","MatchQuality":{"Country":1.0,"County":1.0,"City":1.0,"District":1.0,"Street":[1.0],"HouseNumber":1.0,"PostalCode":1.0},"MatchType":"interpolated","Location":{"LocationId":"NT_nhxByjplJP7LquGs4bgA-B_2MD","LocationType":"point","DisplayPosition":{"Latitude":39.82334,"Longitude":-7.49823},"MapView":{"TopLeft":{"Latitude":39.8244642,"Longitude":-7.4996937},"BottomRight":{"Latitude":39.8222158,"Longitude":-7.4967663}},"Address":{"Label":"Rua da Granja 63, 6000-169 Castelo Branco, Portugal","Country":"PRT","County":"Castelo Branco","City":"Castelo Branco","District":"Castelo Branco","Street":"Rua da Granja","HouseNumber":"63","PostalCode":"6000-169","AdditionalData":[{"value":"Portugal","key":"CountryName"},{"value":"Castelo Branco","key":"CountyName"}]},"MapReference":{"ReferenceId":"1047888164","Spot":0.84,"SideOfStreet":"left","CountryId":"20317122","CountyId":"20318327","CityId":"20318334","DistrictId":"20318339","AddressId":"343186192","RoadLinkId":"368047389"}}},{"Relevance":1.0,"Distance":36.3,"MatchLevel":"houseNumber","MatchQuality":{"Country":1.0,"County":1.0,"City":1.0,"District":1.0,"Street":[1.0],"HouseNumber":1.0,"PostalCode":1.0},"MatchType":"interpolated","Location":{"LocationId":"NT_odlBEE.Sos.UMz1WyirXgD_MR1MyA","LocationType":"point","DisplayPosition":{"Latitude":39.82381,"Longitude":-7.4984},"MapView":{"TopLeft":{"Latitude":39.8249342,"Longitude":-7.4998637},"BottomRight":{"Latitude":39.8226858,"Longitude":-7.4969363}},"Address":{"Label":"Rua da Piscina LT32, 6000-776 Castelo Branco, Portugal","Country":"PRT","County":"Castelo Branco","City":"Castelo Branco","District":"Castelo Branco","Street":"Rua da Piscina","HouseNumber":"LT32","PostalCode":"6000-776","AdditionalData":[{"value":"Portugal","key":"CountryName"},{"value":"Castelo Branco","key":"CountyName"}]},"MapReference":{"ReferenceId":"545970682","Spot":0.5,"SideOfStreet":"left","CountryId":"20317122","CountyId":"20318327","CityId":"20318334","DistrictId":"20318339","AddressId":"377300557","RoadLinkId":"70184771"}}},{"Relevance":1.0,"Distance":49.1,"MatchLevel":"street","MatchQuality":{"Country":1.0,"County":1.0,"City":1.0,"District":1.0,"PostalCode":1.0},"Location":{"LocationId":"NT_tSXLdlF5q0Krvng8asLj1C_l_1123847398_R","LocationType":"point","DisplayPosition":{"Latitude":39.8230053,"Longitude":-7.4988441},"MapView":{"TopLeft":{"Latitude":39.8234,"Longitude":-7.49965},"BottomRight":{"Latitude":39.82292,"Longitude":-7.49867}},"Address":{"Label":"6000 Castelo Branco, Portugal","Country":"PRT","County":"Castelo Branco","City":"Castelo Branco","District":"Castelo Branco","PostalCode":"6000","AdditionalData":[{"value":"Portugal","key":"CountryName"},{"value":"Castelo Branco","key":"CountyName"}]},"MapReference":{"ReferenceId":"1123847398","Spot":0.18,"SideOfStreet":"right","CountryId":"20317122","CountyId":"20318327","CityId":"20318334","DistrictId":"20318339"}}},{"Relevance":1.0,"Distance":51.5,"MatchLevel":"houseNumber","MatchQuality":{"Country":1.0,"County":1.0,"City":1.0,"District":1.0,"Street":[1.0],"HouseNumber":1.0,"PostalCode":1.0},"MatchType":"interpolated","Location":{"LocationId":"NT_1lA0zlelGuFzrLNT.YmwcB_2A","LocationType":"point","DisplayPosition":{"Latitude":39.82297,"Longitude":-7.49849},"MapView":{"TopLeft":{"Latitude":39.8240942,"Longitude":-7.4999537},"BottomRight":{"Latitude":39.8218458,"Longitude":-7.4970263}},"Address":{"Label":"Rua Médico Henrique Ferreira 6, 6000-248 Castelo Branco, Portugal","Country":"PRT","County":"Castelo Branco","City":"Castelo Branco","District":"Castelo Branco","Street":"Rua Médico Henrique Ferreira","HouseNumber":"6","PostalCode":"6000-248","AdditionalData":[{"value":"Portugal","key":"CountryName"},{"value":"Castelo Branco","key":"CountyName"}]},"MapReference":{"ReferenceId":"545970431","Spot":0.11,"SideOfStreet":"right","CountryId":"20317122","CountyId":"20318327","CityId":"20318334","DistrictId":"20318339","AddressId":"343089089","RoadLinkId":"70878491"}}}]}]}}