{"Response":{"MetaInfo":{"Timestamp":"2020-03-28T10:27:01.547+0000","NextPageInformation":"2"},"View":[{"_type":"SearchResultsViewType","ViewId":0,"Result":[{"Relevance":1.0,"Distance":0.0,"Direction":0.0,"MatchLevel":"district","MatchQuality":{"Country":1.0,"State":1.0,"County":1.0,"City":1.0,"District":1.0,"PostalCode":1.0},"Location":{"LocationId":"NT_XgTL3xeLX68adZvY-ivXtB","LocationType":"point","DisplayPosition":{"Latitude":39.8834302,"Longitude":-3.9732437},"MapView":{"TopLeft":{"Latitude":39.88776,"Longitude":-3.98037},"BottomRight":{"Latitude":39.87963,"Longitude":-3.96804}},"Address":{"Label":"Azucaica, Toledo, Castilla-La Mancha, España","Country":"ESP","State":"Castilla-La Mancha","County":"Toledo","City":"Toledo","District":"Azucaica","PostalCode":"45008","AdditionalData":[{"value":"España","key":"CountryName"},{"value":"Castilla-La Mancha","key":"StateName"},{"value":"Toledo","key":"CountyName"}]},"MapReference":{"ReferenceId":"77125879","SideOfStreet":"neither","CountryId":"20215059","StateId":"20221903","CountyId":"20221908","CityId":"20297620","DistrictId":"20429174"}}},{"Relevance":1.0,"Distance":12.8,"MatchLevel":"houseNumber","MatchQuality":{"Country":1.0,"State":1.0,"County":1.0,"City":1.0,"District":1.0,"Street":[1.0],"HouseNumber":1.0,"PostalCode":1.0},"MatchType":"interpolated","Location":{"LocationId":"NT_bnMvJStKWvvihykFvJaOxA_xID","LocationType":"point","DisplayPosition":{"Latitude":39.88336,"Longitude":-3.9731},"MapView":{"TopLeft":{"Latitude":39.8844842,"Longitude":-3.974565},"BottomRight":{"Latitude":39.8822358,"Longitude":-3.971635}},"Address":{"Label":"Avenida Azucaica, 12, 45008 Toledo (Toledo), España","Country":"ESP","State":"Castilla-La Mancha","County":"Toledo","City":"Toledo","District":"Azucaica","Street":"Avenida Azucaica","HouseNumber":"12","PostalCode":"45008","AdditionalData":[{"value":"España","key":"CountryName"},{"value":"Castilla-La Mancha","key":"StateName"},{"value":"Toledo","key":"CountyName"}]},"MapReference":{"ReferenceId":"77125839","Spot":0.32,"SideOfStreet":"left","CountryId":"20215059","StateId":"20221903","CountyId":"20221908","CityId":"20297620","DistrictId":"20429174","AddressId":"266353198","RoadLinkId":"67332950"}}},{"Relevance":1.0,"Distance":18.9,"MatchLevel":"houseNumber","MatchQuality":{"Country":1.0,"State":1.0,"County":1.0,"City":1.0,"District":1.0,"Street":[1.0],"HouseNumber":1.0,"PostalCode":1.0},"MatchType":"interpolated","Location":{"LocationId":"NT_WxQhKnE-RdjVSZXlPOfSVC_5A","LocationType":"point","DisplayPosition":{"Latitude":39.88316,"Longitude":-3.97325},"MapView":{"TopLeft":{"Latitude":39.8842842,"Longitude":-3.974715},"BottomRight":{"Latitude":39.8820358,"Longitude":-3.971785}},"Address":{"Label":"Calle Estudiantes, 9, 45008 Toledo (Toledo), España","Country":"ESP","State":"Castilla-La Mancha","County":"Toledo","City":"Toledo","District":"Azucaica","Street":"Calle Estudiantes","HouseNumber":"9","PostalCode":"45008","AdditionalData":[{"value":"España","key":"CountryName"},{"value":"Castilla-La Mancha","key":"StateName"},{"value":"Toledo","key":"CountyName"}]},"MapReference":{"ReferenceId":"940451063","Spot":0.53,"SideOfStreet":"right","CountryId":"20215059","StateId":"20221903","CountyId":"20221908","CityId":"20297620","DistrictId":"20429174","AddressId":"782196140","RoadLinkId":"290464530"}}},{"Relevance":1.0,"Distance":44.2,"MatchLevel":"street","MatchQuality":{"Country":1.0,"State":1.0,"County":1.0,"City":1.0,"District":1.0,"Street":[1.0],"PostalCode":1.0},"Location":{"LocationId":"NT_WxQhKnE-RdjVSZXlPOfSVC_l_940451064_R","LocationType":"point","DisplayPosition":{"Latitude":39.8834,"Longitude":-3.97376},"MapView":{"TopLeft":{"Latitude":39.88365,"Longitude":-3.97421},"BottomRight":{"Latitude":39.8834,"Longitude":-3.97376}},"Address":{"Label":"Calle Estudiantes, 45008 Toledo (Toledo), España","Country":"ESP","State":"Castilla-La Mancha","County":"Toledo","City":"Toledo","District":"Azucaica","Street":"Calle Estudiantes","PostalCode":"45008","AdditionalData":[{"value":"España","key":"CountryName"},{"value":"Castilla-La Mancha","key":"StateName"},{"value":"Toledo","key":"CountyName"}]},"MapReference":{"ReferenceId":"940451064","Spot":0.0,"SideOfStreet":"right","CountryId":"20215059","StateId":"20221903","CountyId":"20221908","CityId":"20297620","DistrictId":"20429174"}}},{"Relevance":1.0,"Distance":44.2,"MatchLevel":"street","MatchQuality":{"Country":1.0,"State":1.0,"County":1.0,"City":1.0,"District":1.0,"PostalCode":1.0},"Location":{"LocationId":"NT_FLFdpDDH.4C7rG87Sxx8WA_l_940451065_R","LocationType":"point","DisplayPosition":{"Latitude":39.8834,"Longitude":-3.97376},"MapView":{"TopLeft":{"Latitude":39.8834,"Longitude":-3.97403},"BottomRight":{"Latitude":39.88328,"Longitude":-3.97376}},"Address":{"Label":"45008 Toledo (Toledo), España","Country":"ESP","State":"Castilla-La Mancha","County":"Toledo","City":"Toledo","District":"Azucaica","PostalCode":"45008","AdditionalData":[{"value":"España","key":"CountryName"},{"value":"Castilla-La Mancha","key":"StateName"},{"value":"Toledo","key":"CountyName"}]},"MapReference":{"ReferenceId":"940451065","Spot":1.0,"SideOfStreet":"right","CountryId":"20215059","StateId":"20221903","CountyId":"20221908","CityId":"20297620","DistrictId":"20429174"}}},{"Relevance":1.0,"Distance":45.8,"MatchLevel":"street","MatchQuality":{"Country":1.0,"State":1.0,"County":1.0,"City":1.0,"District":1.0,"Street":[1.0],"PostalCode":1.0},"Location":{"LocationId":"NT_mHnOj7Kk7fh0KwdM-F4w1C_l_77125844_L","LocationType":"point","DisplayPosition":{"Latitude":39.88315,"Longitude":-3.97285},"MapView":{"TopLeft":{"Latitude":39.88353,"Longitude":-3.97285},"BottomRight":{"Latitude":39.88315,"Longitude":-3.9722}},"Address":{"Label":"Calle del Norte, 45008 Toledo (Toledo), España","Country":"ESP","State":"Castilla-La Mancha","County":"Toledo","City":"Toledo","District":"Azucaica","Street":"Calle del Norte","PostalCode":"45008","AdditionalData":[{"value":"España","key":"CountryName"},{"value":"Castilla-La Mancha","key":"StateName"},{"value":"Toledo","key":"CountyName"}]},"MapReference":{"ReferenceId":"77125844","Spot":0.0,"SideOfStreet":"left","CountryId":"20215059","StateId":"20221903","CountyId":"20221908","CityId":"20297620","DistrictId":"20429174"}}},{"Relevance":1.0,"Distance":53.6,"MatchLevel":"street","MatchQuality":{"Country":1.0,"State":1.0,"County":1.0,"City":1.0,"District":1.0,"Street":[1.0],"PostalCode":1.0},"Location":{"LocationId":"NT_sck1iPD7AuKDXlAe0V6C7B_l_1053447227_R","LocationType":"point","DisplayPosition":{"Latitude":39.8838511,"Longitude":-3.9735498},"MapView":{"TopLeft":{"Latitude":39.88388,"Longitude":-3.97362},"BottomRight":{"Latitude":39.8838,"Longitude":-3.97351}},"Address":{"Label":"Calle Azucena, 45008 Toledo (Toledo), España","Country":"ESP","State":"Castilla-La Mancha","County":"Toledo","City":"Toledo","District":"Azucaica","Street":"Calle Azucena","PostalCode":"45008","AdditionalData":[{"value":"España","key":"CountryName"},{"value":"Castilla-La Mancha","key":"StateName"},{"value":"Toledo","key":"CountyName"}]},"MapReference":{"ReferenceId":"1053447227","Spot":0.64,"SideOfStreet":"right","CountryId":"20215059","StateId":"20221903","CountyId":"20221908","CityId":"20297620","DistrictId":"20429174"}}},{"Relevance":1.0,"Distance":54.3,"MatchLevel":"houseNumber","MatchQuality":{"Country":1.0,"State":1.0,"County":1.0,"City":1.0,"District":1.0,"Street":[1.0],"HouseNumber":1.0,"PostalCode":1.0},"MatchType":"interpolated","Location":{"LocationId":"NT_elsCbh9wEHKvQRbITtuIsD_xA","LocationType":"point","DisplayPosition":{"Latitude":39.88299,"Longitude":-3.9738},"MapView":{"TopLeft":{"Latitude":39.8841142,"Longitude":-3.975265},"BottomRight":{"Latitude":39.8818658,"Longitude":-3.972335}},"Address":{"Label":"Camino de la Huerta, 1, 45008 Toledo (Toledo), España","Country":"ESP","State":"Castilla-La Mancha","County":"Toledo","City":"Toledo","District":"Azucaica","Street":"Camino de la Huerta","HouseNumber":"1","PostalCode":"45008","AdditionalData":[{"value":"España","key":"CountryName"},{"value":"Castilla-La Mancha","key":"StateName"},{"value":"Toledo","key":"CountyName"}]},"MapReference":{"ReferenceId":"940451059","Spot":0.91,"SideOfStreet":"right","CountryId":"20215059","StateId":"20221903","CountyId":"20221908","CityId":"20297620","DistrictId":"20429174","AddressId":"266379088","RoadLinkId":"290464526"}}},{"Relevance":1.0,"Distance":54.9,"MatchLevel":"street","MatchQuality":{"Country":1.0,"State":1.0,"County":1.0,"City":1.0,"District":1.0,"Street":[1.0],"PostalCode":1.0},"Location":{"LocationId":"NT_sck1iPD7AuKDXlAe0V6C7B_l_1053447228_R","LocationType":"point","DisplayPosition":{"Latitude":39.88388,"Longitude":-3.97351},"MapView":{"TopLeft":{"Latitude":39.88428,"Longitude":-3.97351},"BottomRight":{"Latitude":39.88388,"Longitude":-3.973}},"Address":{"Label":"Calle Azucena, 45008 Toledo (Toledo), España","Country":"ESP","State":"Castilla-La Mancha","County":"Toledo","City":"Toledo","District":"Azucaica","Street":"Calle Azucena","PostalCode":"45008","AdditionalData":[{"value":"España","key":"CountryName"},{"value":"Castilla-La Mancha","key":"StateName"},{"value":"Toledo","key":"CountyName"}]},"MapReference":{"ReferenceId":"1053447228","Spot":0.0,"SideOfStreet":"right","CountryId":"20215059","StateId":"20221903","CountyId":"20221908","CityId":"20297620","DistrictId":"20429174"}}},{"Relevance":1.0,"Distance":54.9,"MatchLevel":"street","MatchQuality":{"Country":1.0,"State":1.0,"County":1.0,"City":1.0,"District":1.0,"Street":[1.0],"PostalCode":1.0},"Location":{"LocationId":"NT_bnMvJStKWvvihykFvJaOxA_l_1053447229_L","LocationType":"point","DisplayPosition":{"Latitude":39.88388,"Longitude":-3.97351},"MapView":{"TopLeft":{"Latitude":39.88426,"Longitude":-3.97363},"BottomRight":{"Latitude":39.88388,"Longitude":-3.97351}},"Address":{"Label":"Avenida Azucaica, 45008 Toledo (Toledo), España","Country":"ESP","State":"Castilla-La Mancha","County":"Toledo","City":"Toledo","District":"Azucaica","Street":"Avenida Azucaica","PostalCode":"45008","AdditionalData":[{"value":"España","key":"CountryName"},{"value":"Castilla-La Mancha","key":"StateName"},{"value":"Toledo","key":"CountyName"}]},"MapReference":{"ReferenceId":"1053447229","Spot":0.0,"SideOfStreet":"left","CountryId":"20215059","StateId":"20221903","CountyId":"20221908","CityId":"20297620","DistrictId":"20429174"}}}]}]}}