{"Response":{"MetaInfo":{"Timestamp":"2020-03-28T09:39:14.087+0000","NextPageInformation":"2"},"View":[{"_type":"SearchResultsViewType","ViewId":0,"Result":[{"Relevance":1.0,"Distance":0.0,"Direction":0.0,"MatchLevel":"city","MatchQuality":{"Country":1.0,"State":1.0,"County":1.0,"City":1.0,"PostalCode":1.0},"Location":{"LocationId":"NT_JWnlb9HBUqTeo1Cm3TYMxC","LocationType":"point","DisplayPosition":{"Latitude":39.9791638,"Longitude":-0.051649},"MapView":{"TopLeft":{"Latitude":40.06444,"Longitude":-0.16444},"BottomRight":{"Latitude":39.94201,"Longitude":0.03991}},"Address":{"Label":"Castellón de la Plana, Comunidad Valenciana, España","Country":"ESP","State":"Comunidad Valenciana","County":"Castellón","City":"Castellón de la Plana","PostalCode":"12002","AdditionalData":[{"value":"España","key":"CountryName"},{"value":"Comunidad Valenciana","key":"StateName"},{"value":"Castellón","key":"CountyName"}]},"MapReference":{"ReferenceId":"1225051637","SideOfStreet":"neither","CountryId":"20215059","StateId":"20226784","CountyId":"20226786","CityId":"20249533"}}},{"Relevance":1.0,"Distance":7.0,"MatchLevel":"houseNumber","MatchQuality":{"Country":1.0,"State":1.0,"County":1.0,"City":1.0,"Street":[1.0],"HouseNumber":1.0,"PostalCode":1.0},"MatchType":"interpolated","Location":{"LocationId":"NT_d3wvyRmVrSJjTTJ72yNyPB_ykTQ","LocationType":"point","DisplayPosition":{"Latitude":39.97921,"Longitude":-0.05152},"MapView":{"TopLeft":{"Latitude":39.9803342,"Longitude":-0.052987},"BottomRight":{"Latitude":39.9780858,"Longitude":-0.050053}},"Address":{"Label":"Calle Onda, 29A, 12006 Castellón de la Plana (Castellón), España","Country":"ESP","State":"Comunidad Valenciana","County":"Castellón","City":"Castellón de la Plana","Street":"Calle Onda","HouseNumber":"29A","PostalCode":"12006","AdditionalData":[{"value":"España","key":"CountryName"},{"value":"Comunidad Valenciana","key":"StateName"},{"value":"Castellón","key":"CountyName"}]},"MapReference":{"ReferenceId":"1114812776","Spot":0.1,"SideOfStreet":"left","CountryId":"20215059","StateId":"20226784","CountyId":"20226786","CityId":"20249533","AddressId":"269125617","RoadLinkId":"424762311"}}},{"Relevance":1.0,"Distance":20.1,"MatchLevel":"street","MatchQuality":{"Country":1.0,"State":1.0,"County":1.0,"City":1.0,"Street":[1.0],"PostalCode":1.0},"Location":{"LocationId":"NT_dYOYjsHLySA5qNw4kdWFsC_l_1114812777_L","LocationType":"point","DisplayPosition":{"Latitude":39.9790556,"Longitude":-0.0514597},"MapView":{"TopLeft":{"Latitude":39.97916,"Longitude":-0.05168},"BottomRight":{"Latitude":39.97867,"Longitude":-0.0514}},"Address":{"Label":"Calle Río Navia, 12006 Castellón de la Plana (Castellón), España","Country":"ESP","State":"Comunidad Valenciana","County":"Castellón","City":"Castellón de la Plana","Street":"Calle Río Navia","PostalCode":"12006","AdditionalData":[{"value":"España","key":"CountryName"},{"value":"Comunidad Valenciana","key":"StateName"},{"value":"Castellón","key":"CountyName"}]},"MapReference":{"ReferenceId":"1114812777","Spot":0.79,"SideOfStreet":"left","CountryId":"20215059","StateId":"20226784","CountyId":"20226786","CityId":"20249533"}}},{"Relevance":1.0,"Distance":21.2,"MatchLevel":"street","MatchQuality":{"Country":1.0,"State":1.0,"County":1.0,"City":1.0,"Street":[1.0],"PostalCode":1.0},"Location":{"LocationId":"NT_d3wvyRmVrSJjTTJ72yNyPB_l_1114812775_L","LocationType":"point","DisplayPosition":{"Latitude":39.97916,"Longitude":-0.0514},"MapView":{"TopLeft":{"Latitude":39.97916,"Longitude":-0.0514},"BottomRight":{"Latitude":39.97911,"Longitude":-0.05127}},"Address":{"Label":"Calle Onda, 12006 Castellón de la Plana (Castellón), España","Country":"ESP","State":"Comunidad Valenciana","County":"Castellón","City":"Castellón de la Plana","Street":"Calle Onda","PostalCode":"12006","AdditionalData":[{"value":"España","key":"CountryName"},{"value":"Comunidad Valenciana","key":"StateName"},{"value":"Castellón","key":"CountyName"}]},"MapReference":{"ReferenceId":"1114812775","Spot":1.0,"SideOfStreet":"left","CountryId":"20215059","StateId":"20226784","CountyId":"20226786","CityId":"20249533"}}},{"Relevance":1.0,"Distance":26.2,"MatchLevel":"houseNumber","MatchQuality":{"Country":1.0,"State":1.0,"County":1.0,"City":1.0,"Street":[1.0],"HouseNumber":1.0,"PostalCode":1.0},"MatchType":"interpolated","Location":{"LocationId":"NT_dYOYjsHLySA5qNw4kdWFsC_xYD","LocationType":"point","DisplayPosition":{"Latitude":39.97926,"Longitude":-0.05133},"MapView":{"TopLeft":{"Latitude":39.9803842,"Longitude":-0.052797},"BottomRight":{"Latitude":39.9781358,"Longitude":-0.049863}},"Address":{"Label":"Calle Río Navia, 16, 12006 Castellón de la Plana (Castellón), España","Country":"ESP","State":"Comunidad Valenciana","County":"Castellón","City":"Castellón de la Plana","Street":"Calle Río Navia","HouseNumber":"16","PostalCode":"12006","AdditionalData":[{"value":"España","key":"CountryName"},{"value":"Comunidad Valenciana","key":"StateName"},{"value":"Castellón","key":"CountyName"}]},"MapReference":{"ReferenceId":"1116297149","Spot":0.21,"SideOfStreet":"left","CountryId":"20215059","StateId":"20226784","CountyId":"20226786","CityId":"20249533","AddressId":"269221504","RoadLinkId":"426539872"}}},{"Relevance":1.0,"Distance":32.8,"MatchLevel":"street","MatchQuality":{"Country":1.0,"State":1.0,"County":1.0,"City":1.0,"Street":[1.0],"PostalCode":1.0},"Location":{"LocationId":"NT_dYOYjsHLySA5qNw4kdWFsC_l_1114812748_L","LocationType":"point","DisplayPosition":{"Latitude":39.97911,"Longitude":-0.05127},"MapView":{"TopLeft":{"Latitude":39.97962,"Longitude":-0.05127},"BottomRight":{"Latitude":39.97911,"Longitude":-0.05096}},"Address":{"Label":"Calle Río Navia, 12006 Castellón de la Plana (Castellón), España","Country":"ESP","State":"Comunidad Valenciana","County":"Castellón","City":"Castellón de la Plana","Street":"Calle Río Navia","PostalCode":"12006","AdditionalData":[{"value":"España","key":"CountryName"},{"value":"Comunidad Valenciana","key":"StateName"},{"value":"Castellón","key":"CountyName"}]},"MapReference":{"ReferenceId":"1114812748","Spot":0.0,"SideOfStreet":"left","CountryId":"20215059","StateId":"20226784","CountyId":"20226786","CityId":"20249533"}}},{"Relevance":1.0,"Distance":32.8,"MatchLevel":"street","MatchQuality":{"Country":1.0,"State":1.0,"County":1.0,"City":1.0,"Street":[1.0],"PostalCode":1.0},"Location":{"LocationId":"NT_d3wvyRmVrSJjTTJ72yNyPB_l_1114812764_L","LocationType":"point","DisplayPosition":{"Latitude":39.97911,"Longitude":-0.05127},"MapView":{"TopLeft":{"Latitude":39.97911,"Longitude":-0.05127},"BottomRight":{"Latitude":39.97901,"Longitude":-0.05098}},"Address":{"Label":"Calle Onda, 12006 Castellón de la Plana (Castellón), España","Country":"ESP","State":"Comunidad Valenciana","County":"Castellón","City":"Castellón de la Plana","Street":"Calle Onda","PostalCode":"12006","AdditionalData":[{"value":"España","key":"CountryName"},{"value":"Comunidad Valenciana","key":"StateName"},{"value":"Castellón","key":"CountyName"}]},"MapReference":{"ReferenceId":"1114812764","Spot":1.0,"SideOfStreet":"left","CountryId":"20215059","StateId":"20226784","CountyId":"20226786","CityId":"20249533"}}},{"Relevance":1.0,"Distance":33.0,"MatchLevel":"street","MatchQuality":{"Country":1.0,"State":1.0,"County":1.0,"City":1.0,"Street":[1.0],"PostalCode":1.0},"Location":{"LocationId":"NT_dYOYjsHLySA5qNw4kdWFsC_l_1114812762_L","LocationType":"point","DisplayPosition":{"Latitude":39.9789987,"Longitude":-0.0513271},"MapView":{"TopLeft":{"Latitude":39.97911,"Longitude":-0.05157},"BottomRight":{"Latitude":39.97863,"Longitude":-0.05127}},"Address":{"Label":"Calle Río Navia, 12006 Castellón de la Plana (Castellón), España","Country":"ESP","State":"Comunidad Valenciana","County":"Castellón","City":"Castellón de la Plana","Street":"Calle Río Navia","PostalCode":"12006","AdditionalData":[{"value":"España","key":"CountryName"},{"value":"Comunidad Valenciana","key":"StateName"},{"value":"Castellón","key":"CountyName"}]},"MapReference":{"ReferenceId":"1114812762","Spot":0.78,"SideOfStreet":"left","CountryId":"20215059","StateId":"20226784","CountyId":"20226786","CityId":"20249533"}}},{"Relevance":1.0,"Distance":40.9,"MatchLevel":"street","MatchQuality":{"Country":1.0,"State":1.0,"County":1.0,"City":1.0,"PostalCode":1.0},"Location":{"LocationId":"NT_.bvKrYqMLDqbR2GmxVlqIA_l_1114812744_L","LocationType":"point","DisplayPosition":{"Latitude":39.97953,"Longitude":-0.05161},"MapView":{"TopLeft":{"Latitude":39.97968,"Longitude":-0.05202},"BottomRight":{"Latitude":39.97953,"Longitude":-0.05161}},"Address":{"Label":"12006 Castellón de la Plana (Castellón), España","Country":"ESP","State":"Comunidad Valenciana","County":"Castellón","City":"Castellón de la Plana","PostalCode":"12006","AdditionalData":[{"value":"España","key":"CountryName"},{"value":"Comunidad Valenciana","key":"StateName"},{"value":"Castellón","key":"CountyName"}]},"MapReference":{"ReferenceId":"1114812744","Spot":0.0,"SideOfStreet":"left","CountryId":"20215059","StateId":"20226784","CountyId":"20226786","CityId":"20249533"}}},{"Relevance":1.0,"Distance":40.9,"MatchLevel":"street","MatchQuality":{"Country":1.0,"State":1.0,"County":1.0,"City":1.0,"PostalCode":1.0},"Location":{"LocationId":"NT_.bvKrYqMLDqbR2GmxVlqIA_l_1114812745_R","LocationType":"point","DisplayPosition":{"Latitude":39.97953,"Longitude":-0.05161},"MapView":{"TopLeft":{"Latitude":39.97981,"Longitude":-0.05161},"BottomRight":{"Latitude":39.97953,"Longitude":-0.05145}},"Address":{"Label":"12006 Castellón de la Plana (Castellón), España","Country":"ESP","State":"Comunidad Valenciana","County":"Castellón","City":"Castellón de la Plana","PostalCode":"12006","AdditionalData":[{"value":"España","key":"CountryName"},{"value":"Comunidad Valenciana","key":"StateName"},{"value":"Castellón","key":"CountyName"}]},"MapReference":{"ReferenceId":"1114812745","Spot":0.0,"SideOfStreet":"right","CountryId":"20215059","StateId":"20226784","CountyId":"20226786","CityId":"20249533"}}}]}]}}