{"Response":{"MetaInfo":{"Timestamp":"2020-03-28T09:47:25.043+0000","NextPageInformation":"2"},"View":[{"_type":"SearchResultsViewType","ViewId":0,"Result":[{"Relevance":1.0,"Distance":0.0,"Direction":0.0,"MatchLevel":"city","MatchQuality":{"Country":1.0,"State":1.0,"County":1.0,"City":1.0,"PostalCode":1.0},"Location":{"LocationId":"NT_cNILWJXFTiJMLUOTloAUeB","LocationType":"point","DisplayPosition":{"Latitude":39.9594611,"Longitude":-4.818511},"MapView":{"TopLeft":{"Latitude":40.01883,"Longitude":-5.05987},"BottomRight":{"Latitude":39.88543,"Longitude":-4.64311}},"Address":{"Label":"Talavera de la Reina, Castilla-La Mancha, España","Country":"ESP","State":"Castilla-La Mancha","County":"Toledo","City":"Talavera de la Reina","PostalCode":"45600","AdditionalData":[{"value":"España","key":"CountryName"},{"value":"Castilla-La Mancha","key":"StateName"},{"value":"Toledo","key":"CountyName"}]},"MapReference":{"ReferenceId":"575674931","SideOfStreet":"neither","CountryId":"20215059","StateId":"20221903","CountyId":"20221908","CityId":"20297601"}}},{"Relevance":1.0,"Distance":11.4,"MatchLevel":"landmark","MatchQuality":{"Country":1.0,"State":1.0,"County":1.0,"City":1.0,"PostalCode":1.0,"Name":1.0},"Location":{"LocationId":"NT_zAaIXVRFt-sLuazY8lNcwA_p_wfGD6A-Hp77kV2jPCAHzuD","LocationType":"park","Name":"Parque de la Alameda","DisplayPosition":{"Latitude":39.95983,"Longitude":-4.8251},"MapView":{"TopLeft":{"Latitude":39.96146,"Longitude":-4.82542},"BottomRight":{"Latitude":39.9577,"Longitude":-4.81854}},"Address":{"Label":"45600 Talavera de la Reina (Toledo), España","Country":"ESP","State":"Castilla-La Mancha","County":"Toledo","City":"Talavera de la Reina","PostalCode":"45600","AdditionalData":[{"value":"España","key":"CountryName"},{"value":"Castilla-La Mancha","key":"StateName"},{"value":"Toledo","key":"CountyName"}]},"MapReference":{"CountryId":"20215059","StateId":"20221903","CountyId":"20221908","CityId":"20297601","PlaceId":"1017256861"}}},{"Relevance":1.0,"Distance":11.4,"MatchLevel":"street","MatchQuality":{"Country":1.0,"State":1.0,"County":1.0,"City":1.0,"Street":[1.0],"PostalCode":1.0},"Location":{"LocationId":"NT_CXJPPPpde.q7MvSzLjtSaA_l_874829195_R","LocationType":"point","DisplayPosition":{"Latitude":39.959497,"Longitude":-4.8186366},"MapView":{"TopLeft":{"Latitude":39.95966,"Longitude":-4.81875},"BottomRight":{"Latitude":39.95927,"Longitude":-4.81859}},"Address":{"Label":"Calle Gregorio de los Ríos, 45600 Talavera de la Reina (Toledo), España","Country":"ESP","State":"Castilla-La Mancha","County":"Toledo","City":"Talavera de la Reina","Street":"Calle Gregorio de los Ríos","PostalCode":"45600","AdditionalData":[{"value":"España","key":"CountryName"},{"value":"Castilla-La Mancha","key":"StateName"},{"value":"Toledo","key":"CountyName"}]},"MapReference":{"ReferenceId":"874829195","Spot":0.6,"SideOfStreet":"right","CountryId":"20215059","StateId":"20221903","CountyId":"20221908","CityId":"20297601"}}},{"Relevance":1.0,"Distance":22.5,"MatchLevel":"houseNumber","MatchQuality":{"Country":1.0,"State":1.0,"County":1.0,"City":1.0,"Street":[1.0],"HouseNumber":1.0,"PostalCode":1.0},"MatchType":"interpolated","Location":{"LocationId":"NT_GSbHTkM7.fma465LjkJT.A_l_874829226_L_yA","LocationType":"point","DisplayPosition":{"Latitude":39.9594376,"Longitude":-4.8182209},"MapView":{"TopLeft":{"Latitude":39.9605617,"Longitude":-4.8196875},"BottomRight":{"Latitude":39.9583134,"Longitude":-4.8167543}},"Address":{"Label":"Calle Carlos Barral, 2, 45600 Talavera de la Reina (Toledo), España","Country":"ESP","State":"Castilla-La Mancha","County":"Toledo","City":"Talavera de la Reina","Street":"Calle Carlos Barral","HouseNumber":"2","PostalCode":"45600","AdditionalData":[{"value":"España","key":"CountryName"},{"value":"Castilla-La Mancha","key":"StateName"},{"value":"Toledo","key":"CountyName"}]},"MapReference":{"ReferenceId":"874829226","Spot":0.49,"SideOfStreet":"left","CountryId":"20215059","StateId":"20221903","CountyId":"20221908","CityId":"20297601"}}},{"Relevance":1.0,"Distance":23.1,"MatchLevel":"street","MatchQuality":{"Country":1.0,"State":1.0,"County":1.0,"City":1.0,"Street":[1.0],"PostalCode":1.0},"Location":{"LocationId":"NT_GSbHTkM7.fma465LjkJT.A_l_591964801_R","LocationType":"point","DisplayPosition":{"Latitude":39.95966,"Longitude":-4.81859},"MapView":{"TopLeft":{"Latitude":39.96001,"Longitude":-4.81859},"BottomRight":{"Latitude":39.95966,"Longitude":-4.81857}},"Address":{"Label":"Calle Carlos Barral, 45600 Talavera de la Reina (Toledo), España","Country":"ESP","State":"Castilla-La Mancha","County":"Toledo","City":"Talavera de la Reina","Street":"Calle Carlos Barral","PostalCode":"45600","AdditionalData":[{"value":"España","key":"CountryName"},{"value":"Castilla-La Mancha","key":"StateName"},{"value":"Toledo","key":"CountyName"}]},"MapReference":{"ReferenceId":"591964801","Spot":0.0,"SideOfStreet":"right","CountryId":"20215059","StateId":"20221903","CountyId":"20221908","CityId":"20297601"}}},{"Relevance":1.0,"Distance":30.4,"MatchLevel":"street","MatchQuality":{"Country":1.0,"State":1.0,"County":1.0,"City":1.0,"Street":[1.0],"PostalCode":1.0},"Location":{"LocationId":"NT_mubgFan52zt5cDvuKpMwMA_l_874829197_R","LocationType":"point","DisplayPosition":{"Latitude":39.9592253,"Longitude":-4.8186917},"MapView":{"TopLeft":{"Latitude":39.95927,"Longitude":-4.81875},"BottomRight":{"Latitude":39.95904,"Longitude":-4.81845}},"Address":{"Label":"Calle Ermita de San Cristóbal, 45600 Talavera de la Reina (Toledo), España","Country":"ESP","State":"Castilla-La Mancha","County":"Toledo","City":"Talavera de la Reina","Street":"Calle Ermita de San Cristóbal","PostalCode":"45600","AdditionalData":[{"value":"España","key":"CountryName"},{"value":"Castilla-La Mancha","key":"StateName"},{"value":"Toledo","key":"CountyName"}]},"MapReference":{"ReferenceId":"874829197","Spot":0.81,"SideOfStreet":"right","CountryId":"20215059","StateId":"20221903","CountyId":"20221908","CityId":"20297601"}}},{"Relevance":1.0,"Distance":37.8,"MatchLevel":"street","MatchQuality":{"Country":1.0,"State":1.0,"County":1.0,"City":1.0,"Street":[1.0],"PostalCode":1.0},"Location":{"LocationId":"NT_mubgFan52zt5cDvuKpMwMA_l_874829196_L","LocationType":"point","DisplayPosition":{"Latitude":39.9591692,"Longitude":-4.8182839},"MapView":{"TopLeft":{"Latitude":39.95918,"Longitude":-4.81845},"BottomRight":{"Latitude":39.95904,"Longitude":-4.81827}},"Address":{"Label":"Calle Ermita de San Cristóbal, 45600 Talavera de la Reina (Toledo), España","Country":"ESP","State":"Castilla-La Mancha","County":"Toledo","City":"Talavera de la Reina","Street":"Calle Ermita de San Cristóbal","PostalCode":"45600","AdditionalData":[{"value":"España","key":"CountryName"},{"value":"Castilla-La Mancha","key":"StateName"},{"value":"Toledo","key":"CountyName"}]},"MapReference":{"ReferenceId":"874829196","Spot":0.92,"SideOfStreet":"left","CountryId":"20215059","StateId":"20221903","CountyId":"20221908","CityId":"20297601"}}},{"Relevance":1.0,"Distance":47.0,"MatchLevel":"street","MatchQuality":{"Country":1.0,"State":1.0,"County":1.0,"City":1.0,"PostalCode":1.0},"Location":{"LocationId":"NT_Ws8GmX5CxgtgHPiHF3wdVC_l_874829280_R","LocationType":"point","DisplayPosition":{"Latitude":39.9598,"Longitude":-4.81884},"MapView":{"TopLeft":{"Latitude":39.95999,"Longitude":-4.81936},"BottomRight":{"Latitude":39.95965,"Longitude":-4.81884}},"Address":{"Label":"45600 Talavera de la Reina (Toledo), España","Country":"ESP","State":"Castilla-La Mancha","County":"Toledo","City":"Talavera de la Reina","PostalCode":"45600","AdditionalData":[{"value":"España","key":"CountryName"},{"value":"Castilla-La Mancha","key":"StateName"},{"value":"Toledo","key":"CountyName"}]},"MapReference":{"ReferenceId":"874829280","Spot":0.75,"SideOfStreet":"right","CountryId":"20215059","StateId":"20221903","CountyId":"20221908","CityId":"20297601"}}},{"Relevance":1.0,"Distance":47.1,"MatchLevel":"street","MatchQuality":{"Country":1.0,"State":1.0,"County":1.0,"City":1.0,"Street":[1.0],"PostalCode":1.0},"Location":{"LocationId":"NT_mubgFan52zt5cDvuKpMwMA_l_874829198_R","LocationType":"point","DisplayPosition":{"Latitude":39.95904,"Longitude":-4.81845},"MapView":{"TopLeft":{"Latitude":39.95904,"Longitude":-4.81845},"BottomRight":{"Latitude":39.9589,"Longitude":-4.81825}},"Address":{"Label":"Calle Ermita de San Cristóbal, 45600 Talavera de la Reina (Toledo), España","Country":"ESP","State":"Castilla-La Mancha","County":"Toledo","City":"Talavera de la Reina","Street":"Calle Ermita de San Cristóbal","PostalCode":"45600","AdditionalData":[{"value":"España","key":"CountryName"},{"value":"Castilla-La Mancha","key":"StateName"},{"value":"Toledo","key":"CountyName"}]},"MapReference":{"ReferenceId":"874829198","Spot":1.0,"SideOfStreet":"right","CountryId":"20215059","StateId":"20221903","CountyId":"20221908","CityId":"20297601"}}},{"Relevance":1.0,"Distance":57.6,"MatchLevel":"houseNumber","MatchQuality":{"Country":1.0,"State":1.0,"County":1.0,"City":1.0,"Street":[1.0],"HouseNumber":1.0,"PostalCode":1.0},"MatchType":"interpolated","Location":{"LocationId":"NT_CXJPPPpde.q7MvSzLjtSaA_1A","LocationType":"point","DisplayPosition":{"Latitude":39.95901,"Longitude":-4.81887},"MapView":{"TopLeft":{"Latitude":39.9601342,"Longitude":-4.8203366},"BottomRight":{"Latitude":39.9578858,"Longitude":-4.8174034}},"Address":{"Label":"Calle Gregorio de los Ríos, 5, 45600 Talavera de la Reina (Toledo), España","Country":"ESP","State":"Castilla-La Mancha","County":"Toledo","City":"Talavera de la Reina","Street":"Calle Gregorio de los Ríos","HouseNumber":"5","PostalCode":"45600","AdditionalData":[{"value":"España","key":"CountryName"},{"value":"Castilla-La Mancha","key":"StateName"},{"value":"Toledo","key":"CountyName"}]},"MapReference":{"ReferenceId":"874829200","Spot":0.33,"SideOfStreet":"right","CountryId":"20215059","StateId":"20221903","CountyId":"20221908","CityId":"20297601","AddressId":"348723985","RoadLinkId":"245617967"}}}]}]}}