{"Response":{"MetaInfo":{"Timestamp":"2020-03-28T11:05:03.369+0000","NextPageInformation":"2"},"View":[{"_type":"SearchResultsViewType","ViewId":0,"Result":[{"Relevance":1.0,"Distance":0.0,"Direction":0.0,"MatchLevel":"city","MatchQuality":{"Country":1.0,"State":1.0,"County":1.0,"City":1.0,"PostalCode":1.0},"Location":{"LocationId":"NT_JWnlb9HBUqTeo1Cm3TYMxC","LocationType":"point","DisplayPosition":{"Latitude":39.9974086,"Longitude":-0.0364203},"MapView":{"TopLeft":{"Latitude":40.06444,"Longitude":-0.16444},"BottomRight":{"Latitude":39.94201,"Longitude":0.03991}},"Address":{"Label":"Castellón de la Plana, Comunidad Valenciana, España","Country":"ESP","State":"Comunidad Valenciana","County":"Castellón","City":"Castellón de la Plana","PostalCode":"12002","AdditionalData":[{"value":"España","key":"CountryName"},{"value":"Comunidad Valenciana","key":"StateName"},{"value":"Castellón","key":"CountyName"}]},"MapReference":{"ReferenceId":"1225051637","SideOfStreet":"neither","CountryId":"20215059","StateId":"20226784","CountyId":"20226786","CityId":"20249533"}}},{"Relevance":1.0,"Distance":25.0,"MatchLevel":"houseNumber","MatchQuality":{"Country":1.0,"State":1.0,"County":1.0,"City":1.0,"Street":[1.0],"HouseNumber":1.0,"PostalCode":1.0},"MatchType":"interpolated","Location":{"LocationId":"NT_xQa-LEXUPfBFFr8D0IHgfD_yUD","LocationType":"point","DisplayPosition":{"Latitude":39.99734,"Longitude":-0.03605},"MapView":{"TopLeft":{"Latitude":39.9984642,"Longitude":-0.0375174},"BottomRight":{"Latitude":39.9962158,"Longitude":-0.0345826}},"Address":{"Label":"Calle María Rosa Molas, 25, 12004 Castellón de la Plana (Castellón), España","Country":"ESP","State":"Comunidad Valenciana","County":"Castellón","City":"Castellón de la Plana","Street":"Calle María Rosa Molas","HouseNumber":"25","PostalCode":"12004","AdditionalData":[{"value":"España","key":"CountryName"},{"value":"Comunidad Valenciana","key":"StateName"},{"value":"Castellón","key":"CountyName"}]},"MapReference":{"ReferenceId":"958358591","Spot":0.61,"SideOfStreet":"left","CountryId":"20215059","StateId":"20226784","CountyId":"20226786","CityId":"20249533","AddressId":"268973342","RoadLinkId":"301335530"}}},{"Relevance":1.0,"Distance":34.8,"MatchLevel":"street","MatchQuality":{"Country":1.0,"State":1.0,"County":1.0,"City":1.0,"Street":[1.0],"PostalCode":1.0},"Location":{"LocationId":"NT_uO9xEXt-Re0Tb2i2MEf2SC_l_704657027_R","LocationType":"point","DisplayPosition":{"Latitude":39.99765,"Longitude":-0.03616},"MapView":{"TopLeft":{"Latitude":39.99785,"Longitude":-0.03616},"BottomRight":{"Latitude":39.99765,"Longitude":-0.03556}},"Address":{"Label":"Pasaje Impresores Armengot, 12004 Castellón de la Plana (Castellón), España","Country":"ESP","State":"Comunidad Valenciana","County":"Castellón","City":"Castellón de la Plana","Street":"Pasaje Impresores Armengot","PostalCode":"12004","AdditionalData":[{"value":"España","key":"CountryName"},{"value":"Comunidad Valenciana","key":"StateName"},{"value":"Castellón","key":"CountyName"}]},"MapReference":{"ReferenceId":"704657027","Spot":0.0,"SideOfStreet":"right","CountryId":"20215059","StateId":"20226784","CountyId":"20226786","CityId":"20249533"}}},{"Relevance":1.0,"Distance":40.3,"MatchLevel":"houseNumber","MatchQuality":{"Country":1.0,"State":1.0,"County":1.0,"City":1.0,"Street":[1.0],"HouseNumber":1.0,"PostalCode":1.0},"MatchType":"interpolated","Location":{"LocationId":"NT_xQa-LEXUPfBFFr8D0IHgfD_yQD","LocationType":"point","DisplayPosition":{"Latitude":39.99777,"Longitude":-0.03645},"MapView":{"TopLeft":{"Latitude":39.9988942,"Longitude":-0.0379174},"BottomRight":{"Latitude":39.9966458,"Longitude":-0.0349826}},"Address":{"Label":"Calle María Rosa Molas, 24, 12004 Castellón de la Plana (Castellón), España","Country":"ESP","State":"Comunidad Valenciana","County":"Castellón","City":"Castellón de la Plana","Street":"Calle María Rosa Molas","HouseNumber":"24","PostalCode":"12004","AdditionalData":[{"value":"España","key":"CountryName"},{"value":"Comunidad Valenciana","key":"StateName"},{"value":"Castellón","key":"CountyName"}]},"MapReference":{"ReferenceId":"704657094","Spot":0.56,"SideOfStreet":"right","CountryId":"20215059","StateId":"20226784","CountyId":"20226786","CityId":"20249533","AddressId":"268907752","RoadLinkId":"107977306"}}},{"Relevance":1.0,"Distance":54.2,"MatchLevel":"houseNumber","MatchQuality":{"Country":1.0,"State":1.0,"County":1.0,"City":1.0,"Street":[1.0],"HouseNumber":1.0,"PostalCode":1.0},"MatchType":"interpolated","Location":{"LocationId":"NT_M9JVw7wZ77FkcR8mJ3SW1A_zkD","LocationType":"point","DisplayPosition":{"Latitude":39.99734,"Longitude":-0.03705},"MapView":{"TopLeft":{"Latitude":39.9984642,"Longitude":-0.0385174},"BottomRight":{"Latitude":39.9962158,"Longitude":-0.0355826}},"Address":{"Label":"Calle Alicante, 39, 12004 Castellón de la Plana (Castellón), España","Country":"ESP","State":"Comunidad Valenciana","County":"Castellón","City":"Castellón de la Plana","Street":"Calle Alicante","HouseNumber":"39","PostalCode":"12004","AdditionalData":[{"value":"España","key":"CountryName"},{"value":"Comunidad Valenciana","key":"StateName"},{"value":"Castellón","key":"CountyName"}]},"MapReference":{"ReferenceId":"873440414","Spot":0.77,"SideOfStreet":"left","CountryId":"20215059","StateId":"20226784","CountyId":"20226786","CityId":"20249533","AddressId":"269224932","RoadLinkId":"245321418"}}},{"Relevance":1.0,"Distance":57.4,"MatchLevel":"street","MatchQuality":{"Country":1.0,"State":1.0,"County":1.0,"City":1.0,"Street":[1.0],"PostalCode":1.0},"Location":{"LocationId":"NT_1h.U1pD9uRZowj9YU1BmvA_l_704657095_L","LocationType":"point","DisplayPosition":{"Latitude":39.99791,"Longitude":-0.03658},"MapView":{"TopLeft":{"Latitude":39.99818,"Longitude":-0.03684},"BottomRight":{"Latitude":39.99791,"Longitude":-0.03658}},"Address":{"Label":"Calle María Rosa Molas, 12004 Castellón de la Plana (Castellón), España","Country":"ESP","State":"Comunidad Valenciana","County":"Castellón","City":"Castellón de la Plana","Street":"Calle María Rosa Molas","PostalCode":"12004","AdditionalData":[{"value":"España","key":"CountryName"},{"value":"Comunidad Valenciana","key":"StateName"},{"value":"Castellón","key":"CountyName"}]},"MapReference":{"ReferenceId":"704657095","Spot":0.0,"SideOfStreet":"left","CountryId":"20215059","StateId":"20226784","CountyId":"20226786","CityId":"20249533"}}},{"Relevance":1.0,"Distance":73.2,"MatchLevel":"houseNumber","MatchQuality":{"Country":1.0,"State":1.0,"County":1.0,"City":1.0,"Street":[1.0],"HouseNumber":1.0,"PostalCode":1.0},"MatchType":"interpolated","Location":{"LocationId":"NT_70MxasrxYSbKIowWkKniwB_3A","LocationType":"point","DisplayPosition":{"Latitude":39.99679,"Longitude":-0.036},"MapView":{"TopLeft":{"Latitude":39.9979142,"Longitude":-0.0374674},"BottomRight":{"Latitude":39.9956658,"Longitude":-0.0345326}},"Address":{"Label":"Calle Doctor Vicente Altava, 7, 12004 Castellón de la Plana (Castellón), España","Country":"ESP","State":"Comunidad Valenciana","County":"Castellón","City":"Castellón de la Plana","Street":"Calle Doctor Vicente Altava","HouseNumber":"7","PostalCode":"12004","AdditionalData":[{"value":"España","key":"CountryName"},{"value":"Comunidad Valenciana","key":"StateName"},{"value":"Castellón","key":"CountyName"}]},"MapReference":{"ReferenceId":"1148106587","Spot":0.97,"SideOfStreet":"left","CountryId":"20215059","StateId":"20226784","CountyId":"20226786","CityId":"20249533","AddressId":"696155370","RoadLinkId":"453332046"}}},{"Relevance":1.0,"Distance":73.5,"MatchLevel":"street","MatchQuality":{"Country":1.0,"State":1.0,"County":1.0,"City":1.0,"Street":[1.0],"PostalCode":1.0},"Location":{"LocationId":"NT_70MxasrxYSbKIowWkKniwB_l_1148106586_L","LocationType":"point","DisplayPosition":{"Latitude":39.99675,"Longitude":-0.03635},"MapView":{"TopLeft":{"Latitude":39.99675,"Longitude":-0.03658},"BottomRight":{"Latitude":39.99672,"Longitude":-0.03635}},"Address":{"Label":"Calle Doctor Vicente Altava, 12004 Castellón de la Plana (Castellón), España","Country":"ESP","State":"Comunidad Valenciana","County":"Castellón","City":"Castellón de la Plana","Street":"Calle Doctor Vicente Altava","PostalCode":"12004","AdditionalData":[{"value":"España","key":"CountryName"},{"value":"Comunidad Valenciana","key":"StateName"},{"value":"Castellón","key":"CountyName"}]},"MapReference":{"ReferenceId":"1148106586","Spot":1.0,"SideOfStreet":"left","CountryId":"20215059","StateId":"20226784","CountyId":"20226786","CityId":"20249533"}}},{"Relevance":1.0,"Distance":77.8,"MatchLevel":"street","MatchQuality":{"Country":1.0,"State":1.0,"County":1.0,"City":1.0,"Street":[1.0],"PostalCode":1.0},"Location":{"LocationId":"NT_M9JVw7wZ77FkcR8mJ3SW1A_l_958309057_R","LocationType":"point","DisplayPosition":{"Latitude":39.99672,"Longitude":-0.03658},"MapView":{"TopLeft":{"Latitude":39.99672,"Longitude":-0.03658},"BottomRight":{"Latitude":39.99662,"Longitude":-0.03655}},"Address":{"Label":"Calle Alicante, 12004 Castellón de la Plana (Castellón), España","Country":"ESP","State":"Comunidad Valenciana","County":"Castellón","City":"Castellón de la Plana","Street":"Calle Alicante","PostalCode":"12004","AdditionalData":[{"value":"España","key":"CountryName"},{"value":"Comunidad Valenciana","key":"StateName"},{"value":"Castellón","key":"CountyName"}]},"MapReference":{"ReferenceId":"958309057","Spot":1.0,"SideOfStreet":"right","CountryId":"20215059","StateId":"20226784","CountyId":"20226786","CityId":"20249533"}}},{"Relevance":1.0,"Distance":77.9,"MatchLevel":"street","MatchQuality":{"Country":1.0,"State":1.0,"County":1.0,"City":1.0,"Street":[1.0],"PostalCode":1.0},"Location":{"LocationId":"NT_70MxasrxYSbKIowWkKniwB_l_958358593_L","LocationType":"point","DisplayPosition":{"Latitude":39.99679,"Longitude":-0.03599},"MapView":{"TopLeft":{"Latitude":39.9968,"Longitude":-0.03599},"BottomRight":{"Latitude":39.99679,"Longitude":-0.03586}},"Address":{"Label":"Calle Doctor Vicente Altava, 12004 Castellón de la Plana (Castellón), España","Country":"ESP","State":"Comunidad Valenciana","County":"Castellón","City":"Castellón de la Plana","Street":"Calle Doctor Vicente Altava","PostalCode":"12004","AdditionalData":[{"value":"España","key":"CountryName"},{"value":"Comunidad Valenciana","key":"StateName"},{"value":"Castellón","key":"CountyName"}]},"MapReference":{"ReferenceId":"958358593","Spot":0.0,"SideOfStreet":"left","CountryId":"20215059","StateId":"20226784","CountyId":"20226786","CityId":"20249533"}}}]}]}}