{"Response":{"MetaInfo":{"Timestamp":"2020-03-28T12:04:00.864+0000","NextPageInformation":"2"},"View":[{"_type":"SearchResultsViewType","ViewId":0,"Result":[{"Relevance":1.0,"Distance":0.0,"Direction":0.0,"MatchLevel":"city","MatchQuality":{"Country":1.0,"State":1.0,"County":1.0,"City":1.0,"PostalCode":1.0},"Location":{"LocationId":"NT_rih9ZfZD8.a-NclJJuzPiC","LocationType":"point","DisplayPosition":{"Latitude":39.965734,"Longitude":18.3128064},"MapView":{"TopLeft":{"Latitude":39.9866,"Longitude":18.28627},"BottomRight":{"Latitude":39.94915,"Longitude":18.33324}},"Address":{"Label":"Miggiano, Puglia, Italia","Country":"ITA","State":"Puglia","County":"LE","City":"Miggiano","PostalCode":"73035","AdditionalData":[{"value":"Italia","key":"CountryName"},{"value":"Puglia","key":"StateName"},{"value":"Lecce","key":"CountyName"}]},"MapReference":{"ReferenceId":"575574524","SideOfStreet":"neither","CountryId":"20110484","StateId":"20218506","CountyId":"20239198","CityId":"20239348"}}},{"Relevance":1.0,"Distance":17.2,"MatchLevel":"houseNumber","MatchQuality":{"Country":1.0,"State":1.0,"County":1.0,"City":1.0,"Street":[1.0],"HouseNumber":1.0,"PostalCode":1.0},"MatchType":"interpolated","Location":{"LocationId":"NT_OMrY1NLa.4TUPunoFJVl6D_5kD","LocationType":"point","DisplayPosition":{"Latitude":39.96589,"Longitude":18.31267},"MapView":{"TopLeft":{"Latitude":39.9670142,"Longitude":18.3112033},"BottomRight":{"Latitude":39.9647658,"Longitude":18.3141367}},"Address":{"Label":"Via Calvario, 99, 73035 Miggiano LE, Italia","Country":"ITA","State":"Puglia","County":"LE","City":"Miggiano","Street":"Via Calvario","HouseNumber":"99","PostalCode":"73035","AdditionalData":[{"value":"Italia","key":"CountryName"},{"value":"Puglia","key":"StateName"},{"value":"Lecce","key":"CountyName"}]},"MapReference":{"ReferenceId":"591883724","Spot":0.45,"SideOfStreet":"right","CountryId":"20110484","StateId":"20218506","CountyId":"20239198","CityId":"20239348","AddressId":"669885340","RoadLinkId":"57293304"}}},{"Relevance":1.0,"Distance":23.0,"MatchLevel":"street","MatchQuality":{"Country":1.0,"State":1.0,"County":1.0,"City":1.0,"Street":[1.0],"PostalCode":1.0},"Location":{"LocationId":"NT_jz7vSVneMd0SUPJUm7R09B_l_575573884_L","LocationType":"point","DisplayPosition":{"Latitude":39.9655278,"Longitude":18.3128221},"MapView":{"TopLeft":{"Latitude":39.9656,"Longitude":18.31272},"BottomRight":{"Latitude":39.96552,"Longitude":18.31377}},"Address":{"Label":"Via Provinciale, 73035 Miggiano LE, Italia","Country":"ITA","State":"Puglia","County":"LE","City":"Miggiano","Street":"Via Provinciale","PostalCode":"73035","AdditionalData":[{"value":"Italia","key":"CountryName"},{"value":"Puglia","key":"StateName"},{"value":"Lecce","key":"CountyName"}]},"MapReference":{"ReferenceId":"575573884","Spot":0.1,"SideOfStreet":"left","CountryId":"20110484","StateId":"20218506","CountyId":"20239198","CityId":"20239348"}}},{"Relevance":1.0,"Distance":24.9,"MatchLevel":"street","MatchQuality":{"Country":1.0,"State":1.0,"County":1.0,"City":1.0,"Street":[1.0],"PostalCode":1.0},"Location":{"LocationId":"NT_EgxyXtylGDUK.bXGN4sVfA_l_575578749_R","LocationType":"point","DisplayPosition":{"Latitude":39.96552,"Longitude":18.31272},"MapView":{"TopLeft":{"Latitude":39.96552,"Longitude":18.31272},"BottomRight":{"Latitude":39.96498,"Longitude":18.31282}},"Address":{"Label":"Via Giovanni Pascoli, 73035 Miggiano LE, Italia","Country":"ITA","State":"Puglia","County":"LE","City":"Miggiano","Street":"Via Giovanni Pascoli","PostalCode":"73035","AdditionalData":[{"value":"Italia","key":"CountryName"},{"value":"Puglia","key":"StateName"},{"value":"Lecce","key":"CountyName"}]},"MapReference":{"ReferenceId":"575578749","Spot":1.0,"SideOfStreet":"right","CountryId":"20110484","StateId":"20218506","CountyId":"20239198","CityId":"20239348"}}},{"Relevance":1.0,"Distance":24.9,"MatchLevel":"street","MatchQuality":{"Country":1.0,"State":1.0,"County":1.0,"City":1.0,"Street":[1.0],"PostalCode":1.0},"Location":{"LocationId":"NT_jz7vSVneMd0SUPJUm7R09B_l_575573883_L","LocationType":"point","DisplayPosition":{"Latitude":39.96552,"Longitude":18.31272},"MapView":{"TopLeft":{"Latitude":39.96552,"Longitude":18.31201},"BottomRight":{"Latitude":39.96548,"Longitude":18.31272}},"Address":{"Label":"Via Provinciale, 73035 Miggiano LE, Italia","Country":"ITA","State":"Puglia","County":"LE","City":"Miggiano","Street":"Via Provinciale","PostalCode":"73035","AdditionalData":[{"value":"Italia","key":"CountryName"},{"value":"Puglia","key":"StateName"},{"value":"Lecce","key":"CountyName"}]},"MapReference":{"ReferenceId":"575573883","Spot":1.0,"SideOfStreet":"left","CountryId":"20110484","StateId":"20218506","CountyId":"20239198","CityId":"20239348"}}},{"Relevance":1.0,"Distance":73.5,"MatchLevel":"street","MatchQuality":{"Country":1.0,"State":1.0,"County":1.0,"City":1.0,"Street":[1.0],"PostalCode":1.0},"Location":{"LocationId":"NT_rr5S.DTeinFN65BbK4U6KC_l_575577431_L","LocationType":"point","DisplayPosition":{"Latitude":39.96548,"Longitude":18.31201},"MapView":{"TopLeft":{"Latitude":39.96548,"Longitude":18.31149},"BottomRight":{"Latitude":39.96544,"Longitude":18.31201}},"Address":{"Label":"Via Provinciale, 73035 Miggiano LE, Italia","Country":"ITA","State":"Puglia","County":"LE","City":"Miggiano","Street":"Via Provinciale","PostalCode":"73035","AdditionalData":[{"value":"Italia","key":"CountryName"},{"value":"Puglia","key":"StateName"},{"value":"Lecce","key":"CountyName"}]},"MapReference":{"ReferenceId":"575577431","Spot":1.0,"SideOfStreet":"left","CountryId":"20110484","StateId":"20218506","CountyId":"20239198","CityId":"20239348"}}},{"Relevance":1.0,"Distance":78.6,"MatchLevel":"houseNumber","MatchQuality":{"Country":1.0,"State":1.0,"County":1.0,"City":1.0,"Street":[1.0],"HouseNumber":1.0,"PostalCode":1.0},"MatchType":"interpolated","Location":{"LocationId":"NT_RpsXN-zCm0bsIdXf8prrmA_xkD","LocationType":"point","DisplayPosition":{"Latitude":39.96499,"Longitude":18.31289},"MapView":{"TopLeft":{"Latitude":39.9661142,"Longitude":18.3114233},"BottomRight":{"Latitude":39.9638658,"Longitude":18.3143567}},"Address":{"Label":"Via Livorno, 19, 73035 Miggiano LE, Italia","Country":"ITA","State":"Puglia","County":"LE","City":"Miggiano","Street":"Via Livorno","HouseNumber":"19","PostalCode":"73035","AdditionalData":[{"value":"Italia","key":"CountryName"},{"value":"Puglia","key":"StateName"},{"value":"Lecce","key":"CountyName"}]},"MapReference":{"ReferenceId":"575578752","Spot":0.07,"SideOfStreet":"left","CountryId":"20110484","StateId":"20218506","CountyId":"20239198","CityId":"20239348","AddressId":"670082338","RoadLinkId":"57378159"}}},{"Relevance":1.0,"Distance":81.0,"MatchLevel":"street","MatchQuality":{"Country":1.0,"State":1.0,"County":1.0,"City":1.0,"Street":[1.0],"PostalCode":1.0},"Location":{"LocationId":"NT_JLGzqJiUyj85ghudugVyKB_l_575577944_R","LocationType":"point","DisplayPosition":{"Latitude":39.96636,"Longitude":18.31232},"MapView":{"TopLeft":{"Latitude":39.96636,"Longitude":18.31127},"BottomRight":{"Latitude":39.96611,"Longitude":18.31232}},"Address":{"Label":"Via Giuseppe Verdi, 73035 Miggiano LE, Italia","Country":"ITA","State":"Puglia","County":"LE","City":"Miggiano","Street":"Via Giuseppe Verdi","PostalCode":"73035","AdditionalData":[{"value":"Italia","key":"CountryName"},{"value":"Puglia","key":"StateName"},{"value":"Lecce","key":"CountyName"}]},"MapReference":{"ReferenceId":"575577944","Spot":1.0,"SideOfStreet":"right","CountryId":"20110484","StateId":"20218506","CountyId":"20239198","CityId":"20239348"}}},{"Relevance":1.0,"Distance":81.2,"MatchLevel":"houseNumber","MatchQuality":{"Country":1.0,"State":1.0,"County":1.0,"City":1.0,"Street":[1.0],"HouseNumber":1.0,"PostalCode":1.0},"MatchType":"interpolated","Location":{"LocationId":"NT_5nZJkuzFO1.xaPfsntPgBB_yA","LocationType":"point","DisplayPosition":{"Latitude":39.96588,"Longitude":18.31379},"MapView":{"TopLeft":{"Latitude":39.9670042,"Longitude":18.3123233},"BottomRight":{"Latitude":39.9647558,"Longitude":18.3152567}},"Address":{"Label":"Via Francesco Petrarca, 2, 73035 Miggiano LE, Italia","Country":"ITA","State":"Puglia","County":"LE","City":"Miggiano","Street":"Via Francesco Petrarca","HouseNumber":"2","PostalCode":"73035","AdditionalData":[{"value":"Italia","key":"CountryName"},{"value":"Puglia","key":"StateName"},{"value":"Lecce","key":"CountyName"}]},"MapReference":{"ReferenceId":"575578751","Spot":0.66,"SideOfStreet":"left","CountryId":"20110484","StateId":"20218506","CountyId":"20239198","CityId":"20239348","AddressId":"670085118","RoadLinkId":"58315286"}}},{"Relevance":1.0,"Distance":81.7,"MatchLevel":"houseNumber","MatchQuality":{"Country":1.0,"State":1.0,"County":1.0,"City":1.0,"Street":[1.0],"HouseNumber":1.0,"PostalCode":1.0},"MatchType":"interpolated","Location":{"LocationId":"NT_RpsXN-zCm0bsIdXf8prrmA_xUD","LocationType":"point","DisplayPosition":{"Latitude":39.96496,"Longitude":18.31277},"MapView":{"TopLeft":{"Latitude":39.9660842,"Longitude":18.3113033},"BottomRight":{"Latitude":39.9638358,"Longitude":18.3142367}},"Address":{"Label":"Via Livorno, 15, 73035 Miggiano LE, Italia","Country":"ITA","State":"Puglia","County":"LE","City":"Miggiano","Street":"Via Livorno","HouseNumber":"15","PostalCode":"73035","AdditionalData":[{"value":"Italia","key":"CountryName"},{"value":"Puglia","key":"StateName"},{"value":"Lecce","key":"CountyName"}]},"MapReference":{"ReferenceId":"575578798","Spot":0.93,"SideOfStreet":"left","CountryId":"20110484","StateId":"20218506","CountyId":"20239198","CityId":"20239348","AddressId":"670082361","RoadLinkId":"58020577"}}}]}]}}