{"Response":{"MetaInfo":{"Timestamp":"2020-03-28T09:43:30.194+0000","NextPageInformation":"2"},"View":[{"_type":"SearchResultsViewType","ViewId":0,"Result":[{"Relevance":1.0,"Distance":0.0,"Direction":0.0,"MatchLevel":"city","MatchQuality":{"Country":1.0,"State":1.0,"County":1.0,"City":1.0,"PostalCode":1.0},"Location":{"LocationId":"NT_4-tBNBGJUHWMnSTtmynOgD","LocationType":"point","DisplayPosition":{"Latitude":39.9893946,"Longitude":-4.2786134},"MapView":{"TopLeft":{"Latitude":40.00726,"Longitude":-4.31952},"BottomRight":{"Latitude":39.9622,"Longitude":-4.24851}},"Address":{"Label":"Torrijos, Castilla-La Mancha, España","Country":"ESP","State":"Castilla-La Mancha","County":"Toledo","City":"Torrijos","PostalCode":"45500","AdditionalData":[{"value":"España","key":"CountryName"},{"value":"Castilla-La Mancha","key":"StateName"},{"value":"Toledo","key":"CountyName"}]},"MapReference":{"ReferenceId":"819696981","SideOfStreet":"neither","CountryId":"20215059","StateId":"20221903","CountyId":"20221908","CityId":"20297637"}}},{"Relevance":1.0,"Distance":17.6,"MatchLevel":"houseNumber","MatchQuality":{"Country":1.0,"State":1.0,"County":1.0,"City":1.0,"Street":[1.0],"HouseNumber":1.0,"PostalCode":1.0},"MatchType":"interpolated","Location":{"LocationId":"NT_l2eeNhLwIz3QXgMm1HfG3D_xADM","LocationType":"point","DisplayPosition":{"Latitude":39.98927,"Longitude":-4.27879},"MapView":{"TopLeft":{"Latitude":39.9903942,"Longitude":-4.2802572},"BottomRight":{"Latitude":39.9881458,"Longitude":-4.2773228}},"Address":{"Label":"Avenida de la Estación, 100, 45500 Torrijos (Toledo), España","Country":"ESP","State":"Castilla-La Mancha","County":"Toledo","City":"Torrijos","Street":"Avenida de la Estación","HouseNumber":"100","PostalCode":"45500","AdditionalData":[{"value":"España","key":"CountryName"},{"value":"Castilla-La Mancha","key":"StateName"},{"value":"Toledo","key":"CountyName"}]},"MapReference":{"ReferenceId":"1220261076","Spot":0.29,"SideOfStreet":"right","CountryId":"20215059","StateId":"20221903","CountyId":"20221908","CityId":"20297637","AddressId":"348516966","RoadLinkId":"537366506"}}},{"Relevance":1.0,"Distance":38.9,"MatchLevel":"street","MatchQuality":{"Country":1.0,"State":1.0,"County":1.0,"City":1.0,"PostalCode":1.0},"Location":{"LocationId":"NT_0XX.g05W2v9SrAKH.4VkYA_l_1220263655_L","LocationType":"point","DisplayPosition":{"Latitude":39.98974,"Longitude":-4.2785418},"MapView":{"TopLeft":{"Latitude":39.98975,"Longitude":-4.27859},"BottomRight":{"Latitude":39.98958,"Longitude":-4.27777}},"Address":{"Label":"45500 Torrijos (Toledo), España","Country":"ESP","State":"Castilla-La Mancha","County":"Toledo","City":"Torrijos","PostalCode":"45500","AdditionalData":[{"value":"España","key":"CountryName"},{"value":"Castilla-La Mancha","key":"StateName"},{"value":"Toledo","key":"CountyName"}]},"MapReference":{"ReferenceId":"1220263655","Spot":0.94,"SideOfStreet":"left","CountryId":"20215059","StateId":"20221903","CountyId":"20221908","CityId":"20297637"}}},{"Relevance":1.0,"Distance":41.4,"MatchLevel":"houseNumber","MatchQuality":{"Country":1.0,"State":1.0,"County":1.0,"City":1.0,"Street":[1.0],"HouseNumber":1.0,"PostalCode":1.0},"MatchType":"interpolated","Location":{"LocationId":"NT_Oj61gWSz8ypsgPXjgKourA_xkD","LocationType":"point","DisplayPosition":{"Latitude":39.98909,"Longitude":-4.27891},"MapView":{"TopLeft":{"Latitude":39.9902142,"Longitude":-4.2803772},"BottomRight":{"Latitude":39.9879658,"Longitude":-4.2774428}},"Address":{"Label":"Calle Núñez de Balboa, 19, 45500 Torrijos (Toledo), España","Country":"ESP","State":"Castilla-La Mancha","County":"Toledo","City":"Torrijos","Street":"Calle Núñez de Balboa","HouseNumber":"19","PostalCode":"45500","AdditionalData":[{"value":"España","key":"CountryName"},{"value":"Castilla-La Mancha","key":"StateName"},{"value":"Toledo","key":"CountyName"}]},"MapReference":{"ReferenceId":"545902183","Spot":0.07,"SideOfStreet":"right","CountryId":"20215059","StateId":"20221903","CountyId":"20221908","CityId":"20297637","AddressId":"348682759","RoadLinkId":"67274244"}}},{"Relevance":1.0,"Distance":41.7,"MatchLevel":"street","MatchQuality":{"Country":1.0,"State":1.0,"County":1.0,"City":1.0,"Street":[1.0],"PostalCode":1.0},"Location":{"LocationId":"NT_l2eeNhLwIz3QXgMm1HfG3D_l_545902204_R","LocationType":"point","DisplayPosition":{"Latitude":39.98908,"Longitude":-4.27888},"MapView":{"TopLeft":{"Latitude":39.98908,"Longitude":-4.279},"BottomRight":{"Latitude":39.98875,"Longitude":-4.27888}},"Address":{"Label":"Avenida de la Estación, 45500 Torrijos (Toledo), España","Country":"ESP","State":"Castilla-La Mancha","County":"Toledo","City":"Torrijos","Street":"Avenida de la Estación","PostalCode":"45500","AdditionalData":[{"value":"España","key":"CountryName"},{"value":"Castilla-La Mancha","key":"StateName"},{"value":"Toledo","key":"CountyName"}]},"MapReference":{"ReferenceId":"545902204","Spot":1.0,"SideOfStreet":"right","CountryId":"20215059","StateId":"20221903","CountyId":"20221908","CityId":"20297637"}}},{"Relevance":1.0,"Distance":43.0,"MatchLevel":"houseNumber","MatchQuality":{"Country":1.0,"State":1.0,"County":1.0,"City":1.0,"Street":[1.0],"HouseNumber":1.0,"PostalCode":1.0},"MatchType":"interpolated","Location":{"LocationId":"NT_QPCWrW8RGFKA2inq8iTTzD_xID","LocationType":"point","DisplayPosition":{"Latitude":39.98958,"Longitude":-4.27916},"MapView":{"TopLeft":{"Latitude":39.9907042,"Longitude":-4.2806273},"BottomRight":{"Latitude":39.9884558,"Longitude":-4.2776927}},"Address":{"Label":"Calle Orellana, 12, 45500 Torrijos (Toledo), España","Country":"ESP","State":"Castilla-La Mancha","County":"Toledo","City":"Torrijos","Street":"Calle Orellana","HouseNumber":"12","PostalCode":"45500","AdditionalData":[{"value":"España","key":"CountryName"},{"value":"Castilla-La Mancha","key":"StateName"},{"value":"Toledo","key":"CountyName"}]},"MapReference":{"ReferenceId":"545902151","Spot":0.41,"SideOfStreet":"right","CountryId":"20215059","StateId":"20221903","CountyId":"20221908","CityId":"20297637","AddressId":"348829716","RoadLinkId":"67325175"}}},{"Relevance":1.0,"Distance":44.2,"MatchLevel":"houseNumber","MatchQuality":{"Country":1.0,"State":1.0,"County":1.0,"City":1.0,"Street":[1.0],"HouseNumber":1.0,"PostalCode":1.0},"MatchType":"interpolated","Location":{"LocationId":"NT_l2eeNhLwIz3QXgMm1HfG3D_xMTM","LocationType":"point","DisplayPosition":{"Latitude":39.98979,"Longitude":-4.27856},"MapView":{"TopLeft":{"Latitude":39.9909142,"Longitude":-4.2800273},"BottomRight":{"Latitude":39.9886658,"Longitude":-4.2770927}},"Address":{"Label":"Avenida de la Estación, 131, 45500 Torrijos (Toledo), España","Country":"ESP","State":"Castilla-La Mancha","County":"Toledo","City":"Torrijos","Street":"Avenida de la Estación","HouseNumber":"131","PostalCode":"45500","AdditionalData":[{"value":"España","key":"CountryName"},{"value":"Castilla-La Mancha","key":"StateName"},{"value":"Toledo","key":"CountyName"}]},"MapReference":{"ReferenceId":"1220261077","Spot":0.13,"SideOfStreet":"left","CountryId":"20215059","StateId":"20221903","CountyId":"20221908","CityId":"20297637","AddressId":"348516959","RoadLinkId":"537366507"}}},{"Relevance":1.0,"Distance":56.2,"MatchLevel":"houseNumber","MatchQuality":{"Country":1.0,"State":1.0,"County":1.0,"City":1.0,"Street":[1.0],"HouseNumber":1.0,"PostalCode":1.0},"MatchType":"interpolated","Location":{"LocationId":"NT_QGGKXjnVLvwb.jGPUG9uLA_xQD","LocationType":"point","DisplayPosition":{"Latitude":39.99006,"Longitude":-4.27834},"MapView":{"TopLeft":{"Latitude":39.9911842,"Longitude":-4.2798073},"BottomRight":{"Latitude":39.9889358,"Longitude":-4.2768727}},"Address":{"Label":"Avenida Doce de Octubre, 14, 45500 Torrijos (Toledo), España","Country":"ESP","State":"Castilla-La Mancha","County":"Toledo","City":"Torrijos","Street":"Avenida Doce de Octubre","HouseNumber":"14","PostalCode":"45500","AdditionalData":[{"value":"España","key":"CountryName"},{"value":"Castilla-La Mancha","key":"StateName"},{"value":"Toledo","key":"CountyName"}]},"MapReference":{"ReferenceId":"1218113072","Spot":0.87,"SideOfStreet":"left","CountryId":"20215059","StateId":"20221903","CountyId":"20221908","CityId":"20297637","AddressId":"348577615","RoadLinkId":"534687325"}}},{"Relevance":1.0,"Distance":62.7,"MatchLevel":"houseNumber","MatchQuality":{"Country":1.0,"State":1.0,"County":1.0,"City":1.0,"Street":[1.0],"HouseNumber":1.0,"PostalCode":1.0},"MatchType":"interpolated","Location":{"LocationId":"NT_Oj61gWSz8ypsgPXjgKourA_yMD","LocationType":"point","DisplayPosition":{"Latitude":39.98896,"Longitude":-4.27813},"MapView":{"TopLeft":{"Latitude":39.9900842,"Longitude":-4.2795972},"BottomRight":{"Latitude":39.9878358,"Longitude":-4.2766628}},"Address":{"Label":"Calle Núñez de Balboa, 23, 45500 Torrijos (Toledo), España","Country":"ESP","State":"Castilla-La Mancha","County":"Toledo","City":"Torrijos","Street":"Calle Núñez de Balboa","HouseNumber":"23","PostalCode":"45500","AdditionalData":[{"value":"España","key":"CountryName"},{"value":"Castilla-La Mancha","key":"StateName"},{"value":"Toledo","key":"CountyName"}]},"MapReference":{"ReferenceId":"545902227","Spot":0.69,"SideOfStreet":"right","CountryId":"20215059","StateId":"20221903","CountyId":"20221908","CityId":"20297637","AddressId":"348507884","RoadLinkId":"67151214"}}},{"Relevance":1.0,"Distance":63.2,"MatchLevel":"houseNumber","MatchQuality":{"Country":1.0,"State":1.0,"County":1.0,"City":1.0,"Street":[1.0],"HouseNumber":1.0,"PostalCode":1.0},"MatchType":"interpolated","Location":{"LocationId":"NT_QGGKXjnVLvwb.jGPUG9uLA_xID","LocationType":"point","DisplayPosition":{"Latitude":39.9901,"Longitude":-4.27848},"MapView":{"TopLeft":{"Latitude":39.9912242,"Longitude":-4.2799473},"BottomRight":{"Latitude":39.9889758,"Longitude":-4.2770127}},"Address":{"Label":"Avenida Doce de Octubre, 12, 45500 Torrijos (Toledo), España","Country":"ESP","State":"Castilla-La Mancha","County":"Toledo","City":"Torrijos","Street":"Avenida Doce de Octubre","HouseNumber":"12","PostalCode":"45500","AdditionalData":[{"value":"España","key":"CountryName"},{"value":"Castilla-La Mancha","key":"StateName"},{"value":"Toledo","key":"CountyName"}]},"MapReference":{"ReferenceId":"545902260","Spot":0.08,"SideOfStreet":"left","CountryId":"20215059","StateId":"20221903","CountyId":"20221908","CityId":"20297637","AddressId":"417029141","RoadLinkId":"214361420"}}}]}]}}