{"Response":{"MetaInfo":{"Timestamp":"2020-03-28T12:04:11.852+0000","NextPageInformation":"2"},"View":[{"_type":"SearchResultsViewType","ViewId":0,"Result":[{"Relevance":1.0,"Distance":0.0,"Direction":0.0,"MatchLevel":"city","MatchQuality":{"Country":1.0,"State":1.0,"County":1.0,"City":1.0,"PostalCode":1.0},"Location":{"LocationId":"NT_2MTrCf-yF5fVjYaPZWf1YD","LocationType":"point","DisplayPosition":{"Latitude":40.0096181,"Longitude":18.158445},"MapView":{"TopLeft":{"Latitude":40.06312,"Longitude":18.12291},"BottomRight":{"Latitude":39.97951,"Longitude":18.22031}},"Address":{"Label":"Casarano, Puglia, Italia","Country":"ITA","State":"Puglia","County":"LE","City":"Casarano","PostalCode":"73042","AdditionalData":[{"value":"Italia","key":"CountryName"},{"value":"Puglia","key":"StateName"},{"value":"Lecce","key":"CountyName"}]},"MapReference":{"ReferenceId":"575582207","SideOfStreet":"neither","CountryId":"20110484","StateId":"20218506","CountyId":"20239198","CityId":"20239248"}}},{"Relevance":1.0,"Distance":2.9,"MatchLevel":"houseNumber","MatchQuality":{"Country":1.0,"State":1.0,"County":1.0,"City":1.0,"Street":[1.0],"HouseNumber":1.0,"PostalCode":1.0},"MatchType":"interpolated","Location":{"LocationId":"NT_Fb5VuC9bD63rUyD6CE5bZA_0QTQ","LocationType":"point","DisplayPosition":{"Latitude":40.0096,"Longitude":18.15841},"MapView":{"TopLeft":{"Latitude":40.0107242,"Longitude":18.1569423},"BottomRight":{"Latitude":40.0084758,"Longitude":18.1598777}},"Address":{"Label":"Via Calatafimi, 44A, 73042 Casarano LE, Italia","Country":"ITA","State":"Puglia","County":"LE","City":"Casarano","Street":"Via Calatafimi","HouseNumber":"44A","PostalCode":"73042","AdditionalData":[{"value":"Italia","key":"CountryName"},{"value":"Puglia","key":"StateName"},{"value":"Lecce","key":"CountyName"}]},"MapReference":{"ReferenceId":"575582466","Spot":0.53,"SideOfStreet":"right","CountryId":"20110484","StateId":"20218506","CountyId":"20239198","CityId":"20239248","AddressId":"811589496","RoadLinkId":"58023916"}}},{"Relevance":1.0,"Distance":23.5,"MatchLevel":"houseNumber","MatchQuality":{"Country":1.0,"State":1.0,"County":1.0,"City":1.0,"Street":[1.0],"HouseNumber":1.0,"PostalCode":1.0},"MatchType":"interpolated","Location":{"LocationId":"NT_gfYtbYxNUItP2pGQi9E6aC_1ED","LocationType":"point","DisplayPosition":{"Latitude":40.00978,"Longitude":18.15869},"MapView":{"TopLeft":{"Latitude":40.0109042,"Longitude":18.1572223},"BottomRight":{"Latitude":40.0086558,"Longitude":18.1601577}},"Address":{"Label":"Via Palestro, 51, 73042 Casarano LE, Italia","Country":"ITA","State":"Puglia","County":"LE","City":"Casarano","Street":"Via Palestro","HouseNumber":"51","PostalCode":"73042","AdditionalData":[{"value":"Italia","key":"CountryName"},{"value":"Puglia","key":"StateName"},{"value":"Lecce","key":"CountyName"}]},"MapReference":{"ReferenceId":"575582514","Spot":0.59,"SideOfStreet":"left","CountryId":"20110484","StateId":"20218506","CountyId":"20239198","CityId":"20239248","AddressId":"670075249","RoadLinkId":"58131197"}}},{"Relevance":1.0,"Distance":33.7,"MatchLevel":"houseNumber","MatchQuality":{"Country":1.0,"State":1.0,"County":1.0,"City":1.0,"Street":[1.0],"HouseNumber":1.0,"PostalCode":1.0},"MatchType":"interpolated","Location":{"LocationId":"NT_.lDlJG2-4keLpw..4MHfoB_yYD","LocationType":"point","DisplayPosition":{"Latitude":40.00933,"Longitude":18.15866},"MapView":{"TopLeft":{"Latitude":40.0104542,"Longitude":18.1571923},"BottomRight":{"Latitude":40.0082058,"Longitude":18.1601277}},"Address":{"Label":"Via Solferino, 26, 73042 Casarano LE, Italia","Country":"ITA","State":"Puglia","County":"LE","City":"Casarano","Street":"Via Solferino","HouseNumber":"26","PostalCode":"73042","AdditionalData":[{"value":"Italia","key":"CountryName"},{"value":"Puglia","key":"StateName"},{"value":"Lecce","key":"CountyName"}]},"MapReference":{"ReferenceId":"591874231","Spot":0.25,"SideOfStreet":"left","CountryId":"20110484","StateId":"20218506","CountyId":"20239198","CityId":"20239248","AddressId":"669895639","RoadLinkId":"57537499"}}},{"Relevance":1.0,"Distance":35.0,"MatchLevel":"houseNumber","MatchQuality":{"Country":1.0,"State":1.0,"County":1.0,"City":1.0,"Street":[1.0],"HouseNumber":1.0,"PostalCode":1.0},"MatchType":"interpolated","Location":{"LocationId":"NT_YUMYrUf8.lD8CbA9Fu8sFB_0A","LocationType":"point","DisplayPosition":{"Latitude":40.00946,"Longitude":18.15808},"MapView":{"TopLeft":{"Latitude":40.0105842,"Longitude":18.1566123},"BottomRight":{"Latitude":40.0083358,"Longitude":18.1595477}},"Address":{"Label":"Via Principe di Piemonte, 4, 73042 Casarano LE, Italia","Country":"ITA","State":"Puglia","County":"LE","City":"Casarano","Street":"Via Principe di Piemonte","HouseNumber":"4","PostalCode":"73042","AdditionalData":[{"value":"Italia","key":"CountryName"},{"value":"Puglia","key":"StateName"},{"value":"Lecce","key":"CountyName"}]},"MapReference":{"ReferenceId":"575582512","Spot":0.58,"SideOfStreet":"right","CountryId":"20110484","StateId":"20218506","CountyId":"20239198","CityId":"20239248","AddressId":"811840035","RoadLinkId":"57678672"}}},{"Relevance":1.0,"Distance":38.0,"MatchLevel":"houseNumber","MatchQuality":{"Country":1.0,"State":1.0,"County":1.0,"City":1.0,"Street":[1.0],"HouseNumber":1.0,"PostalCode":1.0},"MatchType":"interpolated","Location":{"LocationId":"NT_PWN1ei6gt8VBxQYvrB2sCA_xcD","LocationType":"point","DisplayPosition":{"Latitude":40.00996,"Longitude":18.15846},"MapView":{"TopLeft":{"Latitude":40.0110842,"Longitude":18.1569923},"BottomRight":{"Latitude":40.0088358,"Longitude":18.1599277}},"Address":{"Label":"Via Magenta, 17, 73042 Casarano LE, Italia","Country":"ITA","State":"Puglia","County":"LE","City":"Casarano","Street":"Via Magenta","HouseNumber":"17","PostalCode":"73042","AdditionalData":[{"value":"Italia","key":"CountryName"},{"value":"Puglia","key":"StateName"},{"value":"Lecce","key":"CountyName"}]},"MapReference":{"ReferenceId":"575582492","Spot":0.66,"SideOfStreet":"right","CountryId":"20110484","StateId":"20218506","CountyId":"20239198","CityId":"20239248","AddressId":"670072848","RoadLinkId":"58070013"}}},{"Relevance":1.0,"Distance":41.6,"MatchLevel":"houseNumber","MatchQuality":{"Country":1.0,"State":1.0,"County":1.0,"City":1.0,"Street":[1.0],"HouseNumber":1.0,"PostalCode":1.0},"MatchType":"interpolated","Location":{"LocationId":"NT_Fb5VuC9bD63rUyD6CE5bZA_0YjQ","LocationType":"point","DisplayPosition":{"Latitude":40.00995,"Longitude":18.15821},"MapView":{"TopLeft":{"Latitude":40.0110742,"Longitude":18.1567423},"BottomRight":{"Latitude":40.0088258,"Longitude":18.1596777}},"Address":{"Label":"Via Calatafimi, 46B, 73042 Casarano LE, Italia","Country":"ITA","State":"Puglia","County":"LE","City":"Casarano","Street":"Via Calatafimi","HouseNumber":"46B","PostalCode":"73042","AdditionalData":[{"value":"Italia","key":"CountryName"},{"value":"Puglia","key":"StateName"},{"value":"Lecce","key":"CountyName"}]},"MapReference":{"ReferenceId":"575582464","Spot":0.07,"SideOfStreet":"right","CountryId":"20110484","StateId":"20218506","CountyId":"20239198","CityId":"20239248","AddressId":"811694358","RoadLinkId":"58109744"}}},{"Relevance":1.0,"Distance":41.8,"MatchLevel":"houseNumber","MatchQuality":{"Country":1.0,"State":1.0,"County":1.0,"City":1.0,"Street":[1.0],"HouseNumber":1.0,"PostalCode":1.0},"MatchType":"interpolated","Location":{"LocationId":"NT_.lDlJG2-4keLpw..4MHfoB_xgD","LocationType":"point","DisplayPosition":{"Latitude":40.00953,"Longitude":18.15896},"MapView":{"TopLeft":{"Latitude":40.0106542,"Longitude":18.1574923},"BottomRight":{"Latitude":40.0084058,"Longitude":18.1604277}},"Address":{"Label":"Via Solferino, 18, 73042 Casarano LE, Italia","Country":"ITA","State":"Puglia","County":"LE","City":"Casarano","Street":"Via Solferino","HouseNumber":"18","PostalCode":"73042","AdditionalData":[{"value":"Italia","key":"CountryName"},{"value":"Puglia","key":"StateName"},{"value":"Lecce","key":"CountyName"}]},"MapReference":{"ReferenceId":"575582241","Spot":0.33,"SideOfStreet":"left","CountryId":"20110484","StateId":"20218506","CountyId":"20239198","CityId":"20239248","AddressId":"670073343","RoadLinkId":"58270432"}}},{"Relevance":1.0,"Distance":41.9,"MatchLevel":"houseNumber","MatchQuality":{"Country":1.0,"State":1.0,"County":1.0,"City":1.0,"Street":[1.0],"HouseNumber":1.0,"PostalCode":1.0},"MatchType":"interpolated","Location":{"LocationId":"NT_PWN1ei6gt8VBxQYvrB2sCA_yED","LocationType":"point","DisplayPosition":{"Latitude":40.00983,"Longitude":18.15803},"MapView":{"TopLeft":{"Latitude":40.0109542,"Longitude":18.1565623},"BottomRight":{"Latitude":40.0087058,"Longitude":18.1594977}},"Address":{"Label":"Via Magenta, 21, 73042 Casarano LE, Italia","Country":"ITA","State":"Puglia","County":"LE","City":"Casarano","Street":"Via Magenta","HouseNumber":"21","PostalCode":"73042","AdditionalData":[{"value":"Italia","key":"CountryName"},{"value":"Puglia","key":"StateName"},{"value":"Lecce","key":"CountyName"}]},"MapReference":{"ReferenceId":"575582516","Spot":0.4,"SideOfStreet":"right","CountryId":"20110484","StateId":"20218506","CountyId":"20239198","CityId":"20239248","AddressId":"670075213","RoadLinkId":"57269823"}}},{"Relevance":1.0,"Distance":42.9,"MatchLevel":"houseNumber","MatchQuality":{"Country":1.0,"State":1.0,"County":1.0,"City":1.0,"Street":[1.0],"HouseNumber":1.0,"PostalCode":1.0},"MatchType":"interpolated","Location":{"LocationId":"NT_PWN1ei6gt8VBxQYvrB2sCA_xUD","LocationType":"point","DisplayPosition":{"Latitude":40.01001,"Longitude":18.15861},"MapView":{"TopLeft":{"Latitude":40.0111342,"Longitude":18.1571423},"BottomRight":{"Latitude":40.0088858,"Longitude":18.1600777}},"Address":{"Label":"Via Magenta, 15, 73042 Casarano LE, Italia","Country":"ITA","State":"Puglia","County":"LE","City":"Casarano","Street":"Via Magenta","HouseNumber":"15","PostalCode":"73042","AdditionalData":[{"value":"Italia","key":"CountryName"},{"value":"Puglia","key":"StateName"},{"value":"Lecce","key":"CountyName"}]},"MapReference":{"ReferenceId":"575582504","Spot":0.11,"SideOfStreet":"right","CountryId":"20110484","StateId":"20218506","CountyId":"20239198","CityId":"20239248","AddressId":"670072844","RoadLinkId":"57739322"}}}]}]}}