{"Response":{"MetaInfo":{"Timestamp":"2020-03-28T12:03:42.176+0000","NextPageInformation":"2"},"View":[{"_type":"SearchResultsViewType","ViewId":0,"Result":[{"Relevance":1.0,"Distance":0.0,"Direction":0.0,"MatchLevel":"city","MatchQuality":{"Country":1.0,"State":1.0,"County":1.0,"City":1.0,"PostalCode":1.0},"Location":{"LocationId":"NT_2MTrCf-yF5fVjYaPZWf1YD","LocationType":"point","DisplayPosition":{"Latitude":40.0100217,"Longitude":18.160889},"MapView":{"TopLeft":{"Latitude":40.06312,"Longitude":18.12291},"BottomRight":{"Latitude":39.97951,"Longitude":18.22031}},"Address":{"Label":"Casarano, Puglia, Italia","Country":"ITA","State":"Puglia","County":"LE","City":"Casarano","PostalCode":"73042","AdditionalData":[{"value":"Italia","key":"CountryName"},{"value":"Puglia","key":"StateName"},{"value":"Lecce","key":"CountyName"}]},"MapReference":{"ReferenceId":"575582207","SideOfStreet":"neither","CountryId":"20110484","StateId":"20218506","CountyId":"20239198","CityId":"20239248"}}},{"Relevance":1.0,"Distance":38.9,"MatchLevel":"houseNumber","MatchQuality":{"Country":1.0,"State":1.0,"County":1.0,"City":1.0,"Street":[1.0],"HouseNumber":1.0,"PostalCode":1.0},"MatchType":"interpolated","Location":{"LocationId":"NT_jTBt1mz2vOwZpUzWnYPx0B_zED","LocationType":"point","DisplayPosition":{"Latitude":40.01042,"Longitude":18.1609},"MapView":{"TopLeft":{"Latitude":40.0115442,"Longitude":18.1594323},"BottomRight":{"Latitude":40.0092958,"Longitude":18.1623677}},"Address":{"Label":"Via Dante, 31, 73042 Casarano LE, Italia","Country":"ITA","State":"Puglia","County":"LE","City":"Casarano","Street":"Via Dante","HouseNumber":"31","PostalCode":"73042","AdditionalData":[{"value":"Italia","key":"CountryName"},{"value":"Puglia","key":"StateName"},{"value":"Lecce","key":"CountyName"}]},"MapReference":{"ReferenceId":"575582287","Spot":0.26,"SideOfStreet":"right","CountryId":"20110484","StateId":"20218506","CountyId":"20239198","CityId":"20239248","AddressId":"670073233","RoadLinkId":"58004125"}}},{"Relevance":1.0,"Distance":43.1,"MatchLevel":"houseNumber","MatchQuality":{"Country":1.0,"State":1.0,"County":1.0,"City":1.0,"Street":[1.0],"HouseNumber":1.0,"PostalCode":1.0},"MatchType":"interpolated","Location":{"LocationId":"NT_iEhHACDazT-UE3oxQPsDOB_xcD","LocationType":"point","DisplayPosition":{"Latitude":40.01034,"Longitude":18.16059},"MapView":{"TopLeft":{"Latitude":40.0114642,"Longitude":18.1591223},"BottomRight":{"Latitude":40.0092158,"Longitude":18.1620577}},"Address":{"Label":"Piazza San Domenico, 17, 73042 Casarano LE, Italia","Country":"ITA","State":"Puglia","County":"LE","City":"Casarano","Street":"Piazza San Domenico","HouseNumber":"17","PostalCode":"73042","AdditionalData":[{"value":"Italia","key":"CountryName"},{"value":"Puglia","key":"StateName"},{"value":"Lecce","key":"CountyName"}]},"MapReference":{"ReferenceId":"575582268","Spot":0.14,"SideOfStreet":"right","CountryId":"20110484","StateId":"20218506","CountyId":"20239198","CityId":"20239248","AddressId":"811731498","RoadLinkId":"58190722"}}},{"Relevance":1.0,"Distance":45.5,"MatchLevel":"houseNumber","MatchQuality":{"Country":1.0,"State":1.0,"County":1.0,"City":1.0,"Street":[1.0],"HouseNumber":1.0,"PostalCode":1.0},"MatchType":"interpolated","Location":{"LocationId":"NT_TmLz6SnIWUW4eVkyS2Q4rD_zID","LocationType":"point","DisplayPosition":{"Latitude":40.00943,"Longitude":18.16144},"MapView":{"TopLeft":{"Latitude":40.0105542,"Longitude":18.1599723},"BottomRight":{"Latitude":40.0083058,"Longitude":18.1629077}},"Address":{"Label":"Via Padova, 32, 73042 Casarano LE, Italia","Country":"ITA","State":"Puglia","County":"LE","City":"Casarano","Street":"Via Padova","HouseNumber":"32","PostalCode":"73042","AdditionalData":[{"value":"Italia","key":"CountryName"},{"value":"Puglia","key":"StateName"},{"value":"Lecce","key":"CountyName"}]},"MapReference":{"ReferenceId":"575582342","Spot":0.0,"SideOfStreet":"left","CountryId":"20110484","StateId":"20218506","CountyId":"20239198","CityId":"20239248","AddressId":"811827030","RoadLinkId":"57468454"}}},{"Relevance":1.0,"Distance":48.0,"MatchLevel":"street","MatchQuality":{"Country":1.0,"State":1.0,"County":1.0,"City":1.0,"PostalCode":1.0},"Location":{"LocationId":"NT_5mSNDHn3CnaFKR3AtTFmTD_l_591865928_L","LocationType":"point","DisplayPosition":{"Latitude":40.00969,"Longitude":18.16125},"MapView":{"TopLeft":{"Latitude":40.00969,"Longitude":18.16125},"BottomRight":{"Latitude":40.00943,"Longitude":18.16144}},"Address":{"Label":"73042 Casarano LE, Italia","Country":"ITA","State":"Puglia","County":"LE","City":"Casarano","PostalCode":"73042","AdditionalData":[{"value":"Italia","key":"CountryName"},{"value":"Puglia","key":"StateName"},{"value":"Lecce","key":"CountyName"}]},"MapReference":{"ReferenceId":"591865928","Spot":1.0,"SideOfStreet":"left","CountryId":"20110484","StateId":"20218506","CountyId":"20239198","CityId":"20239248"}}},{"Relevance":1.0,"Distance":49.6,"MatchLevel":"houseNumber","MatchQuality":{"Country":1.0,"State":1.0,"County":1.0,"City":1.0,"Street":[1.0],"HouseNumber":1.0,"PostalCode":1.0},"MatchType":"interpolated","Location":{"LocationId":"NT_.4lNjc7nGrfRYfflPwk25B_xA","LocationType":"point","DisplayPosition":{"Latitude":40.0096,"Longitude":18.16108},"MapView":{"TopLeft":{"Latitude":40.0107242,"Longitude":18.1596123},"BottomRight":{"Latitude":40.0084758,"Longitude":18.1625477}},"Address":{"Label":"Via Camillo Benso di Cavour, 1, 73042 Casarano LE, Italia","Country":"ITA","State":"Puglia","County":"LE","City":"Casarano","Street":"Via Camillo Benso di Cavour","HouseNumber":"1","PostalCode":"73042","AdditionalData":[{"value":"Italia","key":"CountryName"},{"value":"Puglia","key":"StateName"},{"value":"Lecce","key":"CountyName"}]},"MapReference":{"ReferenceId":"1178331280","Spot":0.18,"SideOfStreet":"right","CountryId":"20110484","StateId":"20218506","CountyId":"20239198","CityId":"20239248","AddressId":"669897967","RoadLinkId":"485935542"}}},{"Relevance":1.0,"Distance":57.5,"MatchLevel":"street","MatchQuality":{"Country":1.0,"State":1.0,"County":1.0,"City":1.0,"Street":[1.0],"PostalCode":1.0},"Location":{"LocationId":"NT_YJrPqTxFLNKIPZK6ME2UID_l_575582273_R","LocationType":"point","DisplayPosition":{"Latitude":40.01045,"Longitude":18.16051},"MapView":{"TopLeft":{"Latitude":40.01051,"Longitude":18.16046},"BottomRight":{"Latitude":40.01045,"Longitude":18.16051}},"Address":{"Label":"Via San Domenico, 73042 Casarano LE, Italia","Country":"ITA","State":"Puglia","County":"LE","City":"Casarano","Street":"Via San Domenico","PostalCode":"73042","AdditionalData":[{"value":"Italia","key":"CountryName"},{"value":"Puglia","key":"StateName"},{"value":"Lecce","key":"CountyName"}]},"MapReference":{"ReferenceId":"575582273","Spot":0.0,"SideOfStreet":"right","CountryId":"20110484","StateId":"20218506","CountyId":"20239198","CityId":"20239248"}}},{"Relevance":1.0,"Distance":60.5,"MatchLevel":"houseNumber","MatchQuality":{"Country":1.0,"State":1.0,"County":1.0,"City":1.0,"Street":[1.0],"HouseNumber":1.0,"PostalCode":1.0},"MatchType":"interpolated","Location":{"LocationId":"NT_UxA70VVxU-nHhFGQn09D7A_zkTQ","LocationType":"point","DisplayPosition":{"Latitude":40.01054,"Longitude":18.16053},"MapView":{"TopLeft":{"Latitude":40.0116642,"Longitude":18.1590623},"BottomRight":{"Latitude":40.0094158,"Longitude":18.1619977}},"Address":{"Label":"Via San Giuseppe, 39A, 73042 Casarano LE, Italia","Country":"ITA","State":"Puglia","County":"LE","City":"Casarano","Street":"Via San Giuseppe","HouseNumber":"39A","PostalCode":"73042","AdditionalData":[{"value":"Italia","key":"CountryName"},{"value":"Puglia","key":"StateName"},{"value":"Lecce","key":"CountyName"}]},"MapReference":{"ReferenceId":"575582270","Spot":0.07,"SideOfStreet":"right","CountryId":"20110484","StateId":"20218506","CountyId":"20239198","CityId":"20239248","AddressId":"670073223","RoadLinkId":"57898650"}}},{"Relevance":1.0,"Distance":61.6,"MatchLevel":"houseNumber","MatchQuality":{"Country":1.0,"State":1.0,"County":1.0,"City":1.0,"Street":[1.0],"HouseNumber":1.0,"PostalCode":1.0},"MatchType":"interpolated","Location":{"LocationId":"NT_iEhHACDazT-UE3oxQPsDOB_xA","LocationType":"point","DisplayPosition":{"Latitude":40.01013,"Longitude":18.16013},"MapView":{"TopLeft":{"Latitude":40.0112542,"Longitude":18.1586623},"BottomRight":{"Latitude":40.0090058,"Longitude":18.1615977}},"Address":{"Label":"Piazza San Domenico, 1, 73042 Casarano LE, Italia","Country":"ITA","State":"Puglia","County":"LE","City":"Casarano","Street":"Piazza San Domenico","HouseNumber":"1","PostalCode":"73042","AdditionalData":[{"value":"Italia","key":"CountryName"},{"value":"Puglia","key":"StateName"},{"value":"Lecce","key":"CountyName"}]},"MapReference":{"ReferenceId":"575582247","Spot":0.4,"SideOfStreet":"right","CountryId":"20110484","StateId":"20218506","CountyId":"20239198","CityId":"20239248","AddressId":"811593558","RoadLinkId":"57478042"}}},{"Relevance":1.0,"Distance":66.1,"MatchLevel":"houseNumber","MatchQuality":{"Country":1.0,"State":1.0,"County":1.0,"City":1.0,"Street":[1.0],"HouseNumber":1.0,"PostalCode":1.0},"MatchType":"interpolated","Location":{"LocationId":"NT_iEhHACDazT-UE3oxQPsDOB_xID","LocationType":"point","DisplayPosition":{"Latitude":40.01037,"Longitude":18.16026},"MapView":{"TopLeft":{"Latitude":40.0114942,"Longitude":18.1587923},"BottomRight":{"Latitude":40.0092458,"Longitude":18.1617277}},"Address":{"Label":"Piazza San Domenico, 12, 73042 Casarano LE, Italia","Country":"ITA","State":"Puglia","County":"LE","City":"Casarano","Street":"Piazza San Domenico","HouseNumber":"12","PostalCode":"73042","AdditionalData":[{"value":"Italia","key":"CountryName"},{"value":"Puglia","key":"StateName"},{"value":"Lecce","key":"CountyName"}]},"MapReference":{"ReferenceId":"575582246","Spot":0.7,"SideOfStreet":"left","CountryId":"20110484","StateId":"20218506","CountyId":"20239198","CityId":"20239248","AddressId":"811567903","RoadLinkId":"58254793"}}}]}]}}