{"Response":{"MetaInfo":{"Timestamp":"2020-03-28T11:27:09.900+0000","NextPageInformation":"2"},"View":[{"_type":"SearchResultsViewType","ViewId":0,"Result":[{"Relevance":1.0,"Distance":0.0,"Direction":0.0,"MatchLevel":"city","MatchQuality":{"Country":1.0,"State":1.0,"County":1.0,"City":1.0,"PostalCode":1.0},"Location":{"LocationId":"NT_n1qEBnqZcM.Rw0cqP9kwuC","LocationType":"point","DisplayPosition":{"Latitude":40.0698372,"Longitude":15.6172822},"MapView":{"TopLeft":{"Latitude":40.08704,"Longitude":15.61194},"BottomRight":{"Latitude":40.04296,"Longitude":15.67661}},"Address":{"Label":"Sapri, Campania, Italia","Country":"ITA","State":"Campania","County":"SA","City":"Sapri","PostalCode":"84073","AdditionalData":[{"value":"Italia","key":"CountryName"},{"value":"Campania","key":"StateName"},{"value":"Salerno","key":"CountyName"}]},"MapReference":{"ReferenceId":"585468758","SideOfStreet":"neither","CountryId":"20110484","StateId":"20127654","CountyId":"20221061","CityId":"20221086"}}},{"Relevance":1.0,"Distance":7.2,"MatchLevel":"street","MatchQuality":{"Country":1.0,"State":1.0,"County":1.0,"City":1.0,"PostalCode":1.0},"Location":{"LocationId":"NT_e.EGXcdpORF8J05vMHqLtB_l_591885769_L","LocationType":"point","DisplayPosition":{"Latitude":40.0698498,"Longitude":15.6173649},"MapView":{"TopLeft":{"Latitude":40.07061,"Longitude":15.61731},"BottomRight":{"Latitude":40.06962,"Longitude":15.6177}},"Address":{"Label":"84079 Vibonati SA, Italia","Country":"ITA","State":"Campania","County":"SA","City":"Vibonati","PostalCode":"84079","AdditionalData":[{"value":"Italia","key":"CountryName"},{"value":"Campania","key":"StateName"},{"value":"Salerno","key":"CountyName"}]},"MapReference":{"ReferenceId":"591885769","Spot":0.2,"SideOfStreet":"left","CountryId":"20110484","StateId":"20127654","CountyId":"20221061","CityId":"20238671"}}},{"Relevance":1.0,"Distance":26.1,"MatchLevel":"street","MatchQuality":{"Country":1.0,"State":1.0,"County":1.0,"City":1.0,"PostalCode":1.0},"Location":{"LocationId":"NT_UT6AoeExthCLaWPDUZIZ-C_l_591885772_L","LocationType":"point","DisplayPosition":{"Latitude":40.06962,"Longitude":15.6174},"MapView":{"TopLeft":{"Latitude":40.06973,"Longitude":15.6174},"BottomRight":{"Latitude":40.06928,"Longitude":15.61856}},"Address":{"Label":"84073 Sapri SA, Italia","Country":"ITA","State":"Campania","County":"SA","City":"Sapri","PostalCode":"84073","AdditionalData":[{"value":"Italia","key":"CountryName"},{"value":"Campania","key":"StateName"},{"value":"Salerno","key":"CountyName"}]},"MapReference":{"ReferenceId":"591885772","Spot":0.0,"SideOfStreet":"left","CountryId":"20110484","StateId":"20127654","CountyId":"20221061","CityId":"20221086"}}},{"Relevance":1.0,"Distance":40.1,"MatchLevel":"street","MatchQuality":{"Country":1.0,"State":1.0,"County":1.0,"City":1.0,"Street":[1.0],"PostalCode":1.0},"Location":{"LocationId":"NT_cT6Wau0ua9SpKLhmF9CYgD_l_1195022137_L","LocationType":"point","DisplayPosition":{"Latitude":40.06956,"Longitude":15.61698},"MapView":{"TopLeft":{"Latitude":40.06956,"Longitude":15.61679},"BottomRight":{"Latitude":40.06924,"Longitude":15.61707}},"Address":{"Label":"Strada Statale Tirrena Inferiore, 84079 Vibonati SA, Italia","Country":"ITA","State":"Campania","County":"SA","City":"Vibonati","Street":"Strada Statale Tirrena Inferiore","PostalCode":"84079","AdditionalData":[{"value":"Italia","key":"CountryName"},{"value":"Campania","key":"StateName"},{"value":"Salerno","key":"CountyName"}]},"MapReference":{"ReferenceId":"1195022137","Spot":1.0,"SideOfStreet":"left","CountryId":"20110484","StateId":"20127654","CountyId":"20221061","CityId":"20238671"}}},{"Relevance":1.0,"Distance":68.6,"MatchLevel":"street","MatchQuality":{"Country":1.0,"State":1.0,"County":1.0,"City":1.0,"Street":[1.0],"PostalCode":1.0},"Location":{"LocationId":"NT_b.QCkbcRTJLO4vnX2c57QC_l_1190372056_R","LocationType":"point","DisplayPosition":{"Latitude":40.0692231,"Longitude":15.6172054},"MapView":{"TopLeft":{"Latitude":40.06924,"Longitude":15.61707},"BottomRight":{"Latitude":40.06921,"Longitude":15.61738}},"Address":{"Label":"Via Giuseppe Verdi, 84079 Vibonati SA, Italia","Country":"ITA","State":"Campania","County":"SA","City":"Vibonati","Street":"Via Giuseppe Verdi","PostalCode":"84079","AdditionalData":[{"value":"Italia","key":"CountryName"},{"value":"Campania","key":"StateName"},{"value":"Salerno","key":"CountyName"}]},"MapReference":{"ReferenceId":"1190372056","Spot":0.56,"SideOfStreet":"right","CountryId":"20110484","StateId":"20127654","CountyId":"20221061","CityId":"20238671"}}},{"Relevance":1.0,"Distance":68.8,"MatchLevel":"street","MatchQuality":{"Country":1.0,"State":1.0,"County":1.0,"City":1.0,"Street":[1.0],"PostalCode":1.0},"Location":{"LocationId":"NT_sl3F60DxIRFRAdqoxy.BYC_l_1190372057_R","LocationType":"point","DisplayPosition":{"Latitude":40.06924,"Longitude":15.61707},"MapView":{"TopLeft":{"Latitude":40.06974,"Longitude":15.61572},"BottomRight":{"Latitude":40.06924,"Longitude":15.61707}},"Address":{"Label":"Via Giuseppe Verdi, 84079 Vibonati SA, Italia","Country":"ITA","State":"Campania","County":"SA","City":"Vibonati","Street":"Via Giuseppe Verdi","PostalCode":"84079","AdditionalData":[{"value":"Italia","key":"CountryName"},{"value":"Campania","key":"StateName"},{"value":"Salerno","key":"CountyName"}]},"MapReference":{"ReferenceId":"1190372057","Spot":0.0,"SideOfStreet":"right","CountryId":"20110484","StateId":"20127654","CountyId":"20221061","CityId":"20238671"}}},{"Relevance":1.0,"Distance":70.2,"MatchLevel":"street","MatchQuality":{"Country":1.0,"State":1.0,"County":1.0,"City":1.0,"Street":[1.0],"PostalCode":1.0},"Location":{"LocationId":"NT_pTcFRsbw5zKJNh1ITCT3VD_l_585467631_L","LocationType":"point","DisplayPosition":{"Latitude":40.06921,"Longitude":15.61738},"MapView":{"TopLeft":{"Latitude":40.06921,"Longitude":15.61738},"BottomRight":{"Latitude":40.0692,"Longitude":15.61779}},"Address":{"Label":"Strada Statale Tirrena Inferiore, 84073 Sapri SA, Italia","Country":"ITA","State":"Campania","County":"SA","City":"Sapri","Street":"Strada Statale Tirrena Inferiore","PostalCode":"84073","AdditionalData":[{"value":"Italia","key":"CountryName"},{"value":"Campania","key":"StateName"},{"value":"Salerno","key":"CountyName"}]},"MapReference":{"ReferenceId":"585467631","Spot":0.0,"SideOfStreet":"left","CountryId":"20110484","StateId":"20127654","CountyId":"20221061","CityId":"20221086"}}},{"Relevance":1.0,"Distance":77.7,"MatchLevel":"street","MatchQuality":{"Country":1.0,"State":1.0,"County":1.0,"City":1.0,"PostalCode":1.0},"Location":{"LocationId":"NT_UT6AoeExthCLaWPDUZIZ-C_l_591885773_L","LocationType":"point","DisplayPosition":{"Latitude":40.0703411,"Longitude":15.6179144},"MapView":{"TopLeft":{"Latitude":40.07061,"Longitude":15.6177},"BottomRight":{"Latitude":40.06973,"Longitude":15.61856}},"Address":{"Label":"84073 Sapri SA, Italia","Country":"ITA","State":"Campania","County":"SA","City":"Sapri","PostalCode":"84073","AdditionalData":[{"value":"Italia","key":"CountryName"},{"value":"Campania","key":"StateName"},{"value":"Salerno","key":"CountyName"}]},"MapReference":{"ReferenceId":"591885773","Spot":0.73,"SideOfStreet":"left","CountryId":"20110484","StateId":"20127654","CountyId":"20221061","CityId":"20221086"}}},{"Relevance":1.0,"Distance":82.0,"MatchLevel":"street","MatchQuality":{"Country":1.0,"State":1.0,"County":1.0,"City":1.0,"Street":[1.0],"PostalCode":1.0},"Location":{"LocationId":"NT_sXPdzkqUTJ9peIK93hev3A_l_1155978903_L","LocationType":"point","DisplayPosition":{"Latitude":40.06921,"Longitude":15.61779},"MapView":{"TopLeft":{"Latitude":40.06929,"Longitude":15.61779},"BottomRight":{"Latitude":40.06921,"Longitude":15.61817}},"Address":{"Label":"Strada Statale Tirrena Inferiore, 84073 Sapri SA, Italia","Country":"ITA","State":"Campania","County":"SA","City":"Sapri","Street":"Strada Statale Tirrena Inferiore","PostalCode":"84073","AdditionalData":[{"value":"Italia","key":"CountryName"},{"value":"Campania","key":"StateName"},{"value":"Salerno","key":"CountyName"}]},"MapReference":{"ReferenceId":"1155978903","Spot":0.0,"SideOfStreet":"left","CountryId":"20110484","StateId":"20127654","CountyId":"20221061","CityId":"20221086"}}},{"Relevance":1.0,"Distance":82.0,"MatchLevel":"street","MatchQuality":{"Country":1.0,"State":1.0,"County":1.0,"City":1.0,"Street":[1.0],"PostalCode":1.0},"Location":{"LocationId":"NT_pTcFRsbw5zKJNh1ITCT3VD_l_585467628_R","LocationType":"point","DisplayPosition":{"Latitude":40.06921,"Longitude":15.61779},"MapView":{"TopLeft":{"Latitude":40.06921,"Longitude":15.61779},"BottomRight":{"Latitude":40.06913,"Longitude":15.61825}},"Address":{"Label":"Via Giuseppe Verdi, 84073 Sapri SA, Italia","Country":"ITA","State":"Campania","County":"SA","City":"Sapri","Street":"Via Giuseppe Verdi","PostalCode":"84073","AdditionalData":[{"value":"Italia","key":"CountryName"},{"value":"Campania","key":"StateName"},{"value":"Salerno","key":"CountyName"}]},"MapReference":{"ReferenceId":"585467628","Spot":1.0,"SideOfStreet":"right","CountryId":"20110484","StateId":"20127654","CountyId":"20221061","CityId":"20221086"}}}]}]}}