{"Response":{"MetaInfo":{"Timestamp":"2020-03-28T09:47:09.889+0000","NextPageInformation":"2"},"View":[{"_type":"SearchResultsViewType","ViewId":0,"Result":[{"Relevance":1.0,"Distance":0.0,"Direction":0.0,"MatchLevel":"city","MatchQuality":{"Country":1.0,"State":1.0,"County":1.0,"City":1.0,"PostalCode":1.0},"Location":{"LocationId":"NT_va7ERSy8AhSkqa.MGV1rKC","LocationType":"point","DisplayPosition":{"Latitude":40.0460857,"Longitude":-3.8371285},"MapView":{"TopLeft":{"Latitude":40.06902,"Longitude":-3.87347},"BottomRight":{"Latitude":40.02112,"Longitude":-3.76887}},"Address":{"Label":"Pantoja, Castilla-La Mancha, España","Country":"ESP","State":"Castilla-La Mancha","County":"Toledo","City":"Pantoja","PostalCode":"45290","AdditionalData":[{"value":"España","key":"CountryName"},{"value":"Castilla-La Mancha","key":"StateName"},{"value":"Toledo","key":"CountyName"}]},"MapReference":{"ReferenceId":"818763948","SideOfStreet":"neither","CountryId":"20215059","StateId":"20221903","CountyId":"20221908","CityId":"20297448"}}},{"Relevance":1.0,"Distance":16.1,"MatchLevel":"houseNumber","MatchQuality":{"Country":1.0,"State":1.0,"County":1.0,"City":1.0,"Street":[1.0],"HouseNumber":1.0,"PostalCode":1.0},"MatchType":"interpolated","Location":{"LocationId":"NT_G50crEggQ0nSey1DGNxKtD_zA","LocationType":"point","DisplayPosition":{"Latitude":40.04626,"Longitude":-3.83704},"MapView":{"TopLeft":{"Latitude":40.0473842,"Longitude":-3.8385085},"BottomRight":{"Latitude":40.0451358,"Longitude":-3.8355715}},"Address":{"Label":"Calle Escuelas, 3, 45290 Pantoja (Toledo), España","Country":"ESP","State":"Castilla-La Mancha","County":"Toledo","City":"Pantoja","Street":"Calle Escuelas","HouseNumber":"3","PostalCode":"45290","AdditionalData":[{"value":"España","key":"CountryName"},{"value":"Castilla-La Mancha","key":"StateName"},{"value":"Toledo","key":"CountyName"}]},"MapReference":{"ReferenceId":"564149350","Spot":0.12,"SideOfStreet":"left","CountryId":"20215059","StateId":"20221903","CountyId":"20221908","CityId":"20297448","AddressId":"348647656","RoadLinkId":"66965041"}}},{"Relevance":1.0,"Distance":18.1,"MatchLevel":"houseNumber","MatchQuality":{"Country":1.0,"State":1.0,"County":1.0,"City":1.0,"Street":[1.0],"HouseNumber":1.0,"PostalCode":1.0},"MatchType":"interpolated","Location":{"LocationId":"NT_G50crEggQ0nSey1DGNxKtD_xA","LocationType":"point","DisplayPosition":{"Latitude":40.04603,"Longitude":-3.83686},"MapView":{"TopLeft":{"Latitude":40.0471542,"Longitude":-3.8383285},"BottomRight":{"Latitude":40.0449058,"Longitude":-3.8353915}},"Address":{"Label":"Calle Escuelas, 1, 45290 Pantoja (Toledo), España","Country":"ESP","State":"Castilla-La Mancha","County":"Toledo","City":"Pantoja","Street":"Calle Escuelas","HouseNumber":"1","PostalCode":"45290","AdditionalData":[{"value":"España","key":"CountryName"},{"value":"Castilla-La Mancha","key":"StateName"},{"value":"Toledo","key":"CountyName"}]},"MapReference":{"ReferenceId":"564149291","Spot":0.84,"SideOfStreet":"left","CountryId":"20215059","StateId":"20221903","CountyId":"20221908","CityId":"20297448","AddressId":"348776795","RoadLinkId":"66694656"}}},{"Relevance":1.0,"Distance":31.5,"MatchLevel":"houseNumber","MatchQuality":{"Country":1.0,"State":1.0,"County":1.0,"City":1.0,"Street":[1.0],"HouseNumber":1.0,"PostalCode":1.0},"MatchType":"interpolated","Location":{"LocationId":"NT_CfVRUwhCisUUT8zglVgC4D_l_564149374_L_xYD","LocationType":"point","DisplayPosition":{"Latitude":40.04623,"Longitude":-3.83681},"MapView":{"TopLeft":{"Latitude":40.0473542,"Longitude":-3.8382784},"BottomRight":{"Latitude":40.0451059,"Longitude":-3.8353415}},"Address":{"Label":"Travesía de las Escuelas, 16, 45290 Pantoja (Toledo), España","Country":"ESP","State":"Castilla-La Mancha","County":"Toledo","City":"Pantoja","Street":"Travesía de las Escuelas","HouseNumber":"16","PostalCode":"45290","AdditionalData":[{"value":"España","key":"CountryName"},{"value":"Castilla-La Mancha","key":"StateName"},{"value":"Toledo","key":"CountyName"}]},"MapReference":{"ReferenceId":"564149374","Spot":0.09,"SideOfStreet":"left","CountryId":"20215059","StateId":"20221903","CountyId":"20221908","CityId":"20297448"}}},{"Relevance":1.0,"Distance":32.0,"MatchLevel":"houseNumber","MatchQuality":{"Country":1.0,"State":1.0,"County":1.0,"City":1.0,"Street":[1.0],"HouseNumber":1.0,"PostalCode":1.0},"MatchType":"interpolated","Location":{"LocationId":"NT_wyV2jZ0fA0OWwfV2TtAXzB_xAD","LocationType":"point","DisplayPosition":{"Latitude":40.04582,"Longitude":-3.83731},"MapView":{"TopLeft":{"Latitude":40.0469442,"Longitude":-3.8387785},"BottomRight":{"Latitude":40.0446958,"Longitude":-3.8358415}},"Address":{"Label":"Calle Marquesa de Manzanedo, 10, 45290 Pantoja (Toledo), España","Country":"ESP","State":"Castilla-La Mancha","County":"Toledo","City":"Pantoja","Street":"Calle Marquesa de Manzanedo","HouseNumber":"10","PostalCode":"45290","AdditionalData":[{"value":"España","key":"CountryName"},{"value":"Castilla-La Mancha","key":"StateName"},{"value":"Toledo","key":"CountyName"}]},"MapReference":{"ReferenceId":"564149297","Spot":0.86,"SideOfStreet":"right","CountryId":"20215059","StateId":"20221903","CountyId":"20221908","CityId":"20297448","AddressId":"348744241","RoadLinkId":"67703851"}}},{"Relevance":1.0,"Distance":65.7,"MatchLevel":"houseNumber","MatchQuality":{"Country":1.0,"State":1.0,"County":1.0,"City":1.0,"Street":[1.0],"HouseNumber":1.0,"PostalCode":1.0},"MatchType":"interpolated","Location":{"LocationId":"NT_MEwYXw4uM6Mi6-KxY8q6FA_l_564149310_L_0kD","LocationType":"point","DisplayPosition":{"Latitude":40.0454225,"Longitude":-3.8367475},"MapView":{"TopLeft":{"Latitude":40.0465467,"Longitude":-3.8382159},"BottomRight":{"Latitude":40.0442984,"Longitude":-3.835279}},"Address":{"Label":"Calle Real, 49, 45290 Pantoja (Toledo), España","Country":"ESP","State":"Castilla-La Mancha","County":"Toledo","City":"Pantoja","Street":"Calle Real","HouseNumber":"49","PostalCode":"45290","AdditionalData":[{"value":"España","key":"CountryName"},{"value":"Castilla-La Mancha","key":"StateName"},{"value":"Toledo","key":"CountyName"}]},"MapReference":{"ReferenceId":"564149310","Spot":0.75,"SideOfStreet":"left","CountryId":"20215059","StateId":"20221903","CountyId":"20221908","CityId":"20297448"}}},{"Relevance":1.0,"Distance":67.1,"MatchLevel":"houseNumber","MatchQuality":{"Country":1.0,"State":1.0,"County":1.0,"City":1.0,"Street":[1.0],"HouseNumber":1.0,"PostalCode":1.0},"MatchType":"interpolated","Location":{"LocationId":"NT_475pymfhhr9KUoMMm-s5HD_2A","LocationType":"point","DisplayPosition":{"Latitude":40.04561,"Longitude":-3.83764},"MapView":{"TopLeft":{"Latitude":40.0467342,"Longitude":-3.8391085},"BottomRight":{"Latitude":40.0444858,"Longitude":-3.8361715}},"Address":{"Label":"Calle Cementerio, 6, 45290 Pantoja (Toledo), España","Country":"ESP","State":"Castilla-La Mancha","County":"Toledo","City":"Pantoja","Street":"Calle Cementerio","HouseNumber":"6","PostalCode":"45290","AdditionalData":[{"value":"España","key":"CountryName"},{"value":"Castilla-La Mancha","key":"StateName"},{"value":"Toledo","key":"CountyName"}]},"MapReference":{"ReferenceId":"564149430","Spot":0.44,"SideOfStreet":"right","CountryId":"20215059","StateId":"20221903","CountyId":"20221908","CityId":"20297448","AddressId":"348545969","RoadLinkId":"67674069"}}},{"Relevance":1.0,"Distance":69.0,"MatchLevel":"houseNumber","MatchQuality":{"Country":1.0,"State":1.0,"County":1.0,"City":1.0,"Street":[1.0],"HouseNumber":1.0,"PostalCode":1.0},"MatchType":"interpolated","Location":{"LocationId":"NT_475pymfhhr9KUoMMm-s5HD_xEE","LocationType":"point","DisplayPosition":{"Latitude":40.04618,"Longitude":-3.83793},"MapView":{"TopLeft":{"Latitude":40.0473042,"Longitude":-3.8393985},"BottomRight":{"Latitude":40.0450558,"Longitude":-3.8364615}},"Address":{"Label":"Calle Cementerio, 1A, 45290 Pantoja (Toledo), España","Country":"ESP","State":"Castilla-La Mancha","County":"Toledo","City":"Pantoja","Street":"Calle Cementerio","HouseNumber":"1A","PostalCode":"45290","AdditionalData":[{"value":"España","key":"CountryName"},{"value":"Castilla-La Mancha","key":"StateName"},{"value":"Toledo","key":"CountyName"}]},"MapReference":{"ReferenceId":"564149334","Spot":0.2,"SideOfStreet":"left","CountryId":"20215059","StateId":"20221903","CountyId":"20221908","CityId":"20297448","AddressId":"348715470","RoadLinkId":"67114205"}}},{"Relevance":1.0,"Distance":82.8,"MatchLevel":"houseNumber","MatchQuality":{"Country":1.0,"State":1.0,"County":1.0,"City":1.0,"Street":[1.0],"HouseNumber":1.0,"PostalCode":1.0},"MatchType":"interpolated","Location":{"LocationId":"NT_MEwYXw4uM6Mi6-KxY8q6FA_4A","LocationType":"point","DisplayPosition":{"Latitude":40.04535,"Longitude":-3.83698},"MapView":{"TopLeft":{"Latitude":40.0464742,"Longitude":-3.8384485},"BottomRight":{"Latitude":40.0442258,"Longitude":-3.8355115}},"Address":{"Label":"Calle Real, 8, 45290 Pantoja (Toledo), España","Country":"ESP","State":"Castilla-La Mancha","County":"Toledo","City":"Pantoja","Street":"Calle Real","HouseNumber":"8","PostalCode":"45290","AdditionalData":[{"value":"España","key":"CountryName"},{"value":"Castilla-La Mancha","key":"StateName"},{"value":"Toledo","key":"CountyName"}]},"MapReference":{"ReferenceId":"564149491","Spot":0.73,"SideOfStreet":"right","CountryId":"20215059","StateId":"20221903","CountyId":"20221908","CityId":"20297448","AddressId":"348535046","RoadLinkId":"67583626"}}},{"Relevance":1.0,"Distance":85.4,"MatchLevel":"houseNumber","MatchQuality":{"Country":1.0,"State":1.0,"County":1.0,"City":1.0,"Street":[1.0],"HouseNumber":1.0,"PostalCode":1.0},"MatchType":"interpolated","Location":{"LocationId":"NT_MEwYXw4uM6Mi6-KxY8q6FA_zMD","LocationType":"point","DisplayPosition":{"Latitude":40.0453,"Longitude":-3.83723},"MapView":{"TopLeft":{"Latitude":40.0464242,"Longitude":-3.8386985},"BottomRight":{"Latitude":40.0441758,"Longitude":-3.8357615}},"Address":{"Label":"Calle Real, 33, 45290 Pantoja (Toledo), España","Country":"ESP","State":"Castilla-La Mancha","County":"Toledo","City":"Pantoja","Street":"Calle Real","HouseNumber":"33","PostalCode":"45290","AdditionalData":[{"value":"España","key":"CountryName"},{"value":"Castilla-La Mancha","key":"StateName"},{"value":"Toledo","key":"CountyName"}]},"MapReference":{"ReferenceId":"564149446","Spot":1.0,"SideOfStreet":"left","CountryId":"20215059","StateId":"20221903","CountyId":"20221908","CityId":"20297448","AddressId":"348580291","RoadLinkId":"67162224"}}}]}]}}