{"Response":{"MetaInfo":{"Timestamp":"2020-03-28T09:43:00.279+0000","NextPageInformation":"2"},"View":[{"_type":"SearchResultsViewType","ViewId":0,"Result":[{"Relevance":1.0,"Distance":0.0,"Direction":0.0,"MatchLevel":"city","MatchQuality":{"Country":1.0,"State":1.0,"County":1.0,"City":1.0,"PostalCode":1.0},"Location":{"LocationId":"NT_UaRG.CoGwWk1gr1VN1US1A","LocationType":"point","DisplayPosition":{"Latitude":40.0512331,"Longitude":0.0582029},"MapView":{"TopLeft":{"Latitude":40.08649,"Longitude":-0.00324},"BottomRight":{"Latitude":40.01617,"Longitude":0.094}},"Address":{"Label":"Benicasim, Comunidad Valenciana, España","Country":"ESP","State":"Comunidad Valenciana","County":"Castellón","City":"Benicasim","PostalCode":"12560","AdditionalData":[{"value":"España","key":"CountryName"},{"value":"Comunidad Valenciana","key":"StateName"},{"value":"Castellón","key":"CountyName"}]},"MapReference":{"ReferenceId":"1156037865","SideOfStreet":"neither","CountryId":"20215059","StateId":"20226784","CountyId":"20226786","CityId":"20249496"}}},{"Relevance":1.0,"Distance":16.9,"MatchLevel":"houseNumber","MatchQuality":{"Country":1.0,"State":1.0,"County":1.0,"City":1.0,"Street":[1.0],"HouseNumber":1.0,"PostalCode":1.0},"MatchType":"interpolated","Location":{"LocationId":"NT_hlQuAePZeXbb4xMt69Yb2A_zA","LocationType":"point","DisplayPosition":{"Latitude":40.05114,"Longitude":0.05836},"MapView":{"TopLeft":{"Latitude":40.0522642,"Longitude":0.0568914},"BottomRight":{"Latitude":40.0500158,"Longitude":0.0598286}},"Address":{"Label":"Calle Carles Salvador, 3, 12560 Benicasim (Castellón), España","Country":"ESP","State":"Comunidad Valenciana","County":"Castellón","City":"Benicasim","Street":"Calle Carles Salvador","HouseNumber":"3","PostalCode":"12560","AdditionalData":[{"value":"España","key":"CountryName"},{"value":"Comunidad Valenciana","key":"StateName"},{"value":"Castellón","key":"CountyName"}]},"MapReference":{"ReferenceId":"544864466","Spot":0.44,"SideOfStreet":"left","CountryId":"20215059","StateId":"20226784","CountyId":"20226786","CityId":"20249496","AddressId":"269432167","RoadLinkId":"405972195"}}},{"Relevance":1.0,"Distance":37.0,"MatchLevel":"street","MatchQuality":{"Country":1.0,"State":1.0,"County":1.0,"City":1.0,"PostalCode":1.0},"Location":{"LocationId":"NT_sismaHXqCqAvN5BCeKkCfA_l_572062990_R","LocationType":"point","DisplayPosition":{"Latitude":40.0509212,"Longitude":0.0580499},"MapView":{"TopLeft":{"Latitude":40.0513,"Longitude":0.05733},"BottomRight":{"Latitude":40.05072,"Longitude":0.05846}},"Address":{"Label":"12560 Benicasim (Castellón), España","Country":"ESP","State":"Comunidad Valenciana","County":"Castellón","City":"Benicasim","PostalCode":"12560","AdditionalData":[{"value":"España","key":"CountryName"},{"value":"Comunidad Valenciana","key":"StateName"},{"value":"Castellón","key":"CountyName"}]},"MapReference":{"ReferenceId":"572062990","Spot":0.36,"SideOfStreet":"right","CountryId":"20215059","StateId":"20226784","CountyId":"20226786","CityId":"20249496"}}},{"Relevance":1.0,"Distance":44.7,"MatchLevel":"houseNumber","MatchQuality":{"Country":1.0,"State":1.0,"County":1.0,"City":1.0,"Street":[1.0],"HouseNumber":1.0,"PostalCode":1.0},"MatchType":"interpolated","Location":{"LocationId":"NT_Qyp7.YfOOjUFNn1Hy.tDsB_0cD","LocationType":"point","DisplayPosition":{"Latitude":40.05165,"Longitude":0.05777},"MapView":{"TopLeft":{"Latitude":40.0527742,"Longitude":0.0563014},"BottomRight":{"Latitude":40.0505258,"Longitude":0.0592386}},"Address":{"Label":"Avenida de Castellón, 47, 12560 Benicasim (Castellón), España","Country":"ESP","State":"Comunidad Valenciana","County":"Castellón","City":"Benicasim","Street":"Avenida de Castellón","HouseNumber":"47","PostalCode":"12560","AdditionalData":[{"value":"España","key":"CountryName"},{"value":"Comunidad Valenciana","key":"StateName"},{"value":"Castellón","key":"CountyName"}]},"MapReference":{"ReferenceId":"958392819","Spot":1.0,"SideOfStreet":"right","CountryId":"20215059","StateId":"20226784","CountyId":"20226786","CityId":"20249496","AddressId":"673111920","RoadLinkId":"405970871"}}},{"Relevance":1.0,"Distance":47.7,"MatchLevel":"street","MatchQuality":{"Country":1.0,"State":1.0,"County":1.0,"City":1.0,"Street":[1.0],"PostalCode":1.0},"Location":{"LocationId":"NT_FTlau6HI0JQlBwuItfHCuA_l_1114717719_L","LocationType":"point","DisplayPosition":{"Latitude":40.05157,"Longitude":0.05855},"MapView":{"TopLeft":{"Latitude":40.05157,"Longitude":0.05855},"BottomRight":{"Latitude":40.05118,"Longitude":0.05906}},"Address":{"Label":"Calle Farja, 12560 Benicasim (Castellón), España","Country":"ESP","State":"Comunidad Valenciana","County":"Castellón","City":"Benicasim","Street":"Calle Farja","PostalCode":"12560","AdditionalData":[{"value":"España","key":"CountryName"},{"value":"Comunidad Valenciana","key":"StateName"},{"value":"Castellón","key":"CountyName"}]},"MapReference":{"ReferenceId":"1114717719","Spot":1.0,"SideOfStreet":"left","CountryId":"20215059","StateId":"20226784","CountyId":"20226786","CityId":"20249496"}}},{"Relevance":1.0,"Distance":47.7,"MatchLevel":"street","MatchQuality":{"Country":1.0,"State":1.0,"County":1.0,"City":1.0,"PostalCode":1.0},"Location":{"LocationId":"NT_sismaHXqCqAvN5BCeKkCfA_l_1114717715_R","LocationType":"point","DisplayPosition":{"Latitude":40.05157,"Longitude":0.05855},"MapView":{"TopLeft":{"Latitude":40.05196,"Longitude":0.05855},"BottomRight":{"Latitude":40.05157,"Longitude":0.05907}},"Address":{"Label":"12560 Benicasim (Castellón), España","Country":"ESP","State":"Comunidad Valenciana","County":"Castellón","City":"Benicasim","PostalCode":"12560","AdditionalData":[{"value":"España","key":"CountryName"},{"value":"Comunidad Valenciana","key":"StateName"},{"value":"Castellón","key":"CountyName"}]},"MapReference":{"ReferenceId":"1114717715","Spot":0.0,"SideOfStreet":"right","CountryId":"20215059","StateId":"20226784","CountyId":"20226786","CityId":"20249496"}}},{"Relevance":1.0,"Distance":49.1,"MatchLevel":"street","MatchQuality":{"Country":1.0,"State":1.0,"County":1.0,"City":1.0,"Street":[1.0],"PostalCode":1.0},"Location":{"LocationId":"NT_FTlau6HI0JQlBwuItfHCuA_l_1114717712_L","LocationType":"point","DisplayPosition":{"Latitude":40.0516239,"Longitude":0.0584716},"MapView":{"TopLeft":{"Latitude":40.05184,"Longitude":0.05809},"BottomRight":{"Latitude":40.05157,"Longitude":0.05855}},"Address":{"Label":"Calle Farja, 12560 Benicasim (Castellón), España","Country":"ESP","State":"Comunidad Valenciana","County":"Castellón","City":"Benicasim","Street":"Calle Farja","PostalCode":"12560","AdditionalData":[{"value":"España","key":"CountryName"},{"value":"Comunidad Valenciana","key":"StateName"},{"value":"Castellón","key":"CountyName"}]},"MapReference":{"ReferenceId":"1114717712","Spot":0.18,"SideOfStreet":"left","CountryId":"20215059","StateId":"20226784","CountyId":"20226786","CityId":"20249496"}}},{"Relevance":1.0,"Distance":49.5,"MatchLevel":"houseNumber","MatchQuality":{"Country":1.0,"State":1.0,"County":1.0,"City":1.0,"Street":[1.0],"HouseNumber":1.0,"PostalCode":1.0},"MatchType":"interpolated","Location":{"LocationId":"NT_Qyp7.YfOOjUFNn1Hy.tDsB_0UD","LocationType":"point","DisplayPosition":{"Latitude":40.05177,"Longitude":0.05798},"MapView":{"TopLeft":{"Latitude":40.0528942,"Longitude":0.0565114},"BottomRight":{"Latitude":40.0506458,"Longitude":0.0594486}},"Address":{"Label":"Avenida de Castellón, 45, 12560 Benicasim (Castellón), España","Country":"ESP","State":"Comunidad Valenciana","County":"Castellón","City":"Benicasim","Street":"Avenida de Castellón","HouseNumber":"45","PostalCode":"12560","AdditionalData":[{"value":"España","key":"CountryName"},{"value":"Comunidad Valenciana","key":"StateName"},{"value":"Castellón","key":"CountyName"}]},"MapReference":{"ReferenceId":"958392820","Spot":0.87,"SideOfStreet":"right","CountryId":"20215059","StateId":"20226784","CountyId":"20226786","CityId":"20249496","AddressId":"673111921","RoadLinkId":"405970875"}}},{"Relevance":1.0,"Distance":61.1,"MatchLevel":"street","MatchQuality":{"Country":1.0,"State":1.0,"County":1.0,"City":1.0,"PostalCode":1.0},"Location":{"LocationId":"NT_sismaHXqCqAvN5BCeKkCfA_l_572062991_L","LocationType":"point","DisplayPosition":{"Latitude":40.05072,"Longitude":0.05846},"MapView":{"TopLeft":{"Latitude":40.05099,"Longitude":0.05846},"BottomRight":{"Latitude":40.05072,"Longitude":0.05899}},"Address":{"Label":"12560 Benicasim (Castellón), España","Country":"ESP","State":"Comunidad Valenciana","County":"Castellón","City":"Benicasim","PostalCode":"12560","AdditionalData":[{"value":"España","key":"CountryName"},{"value":"Comunidad Valenciana","key":"StateName"},{"value":"Castellón","key":"CountyName"}]},"MapReference":{"ReferenceId":"572062991","Spot":0.0,"SideOfStreet":"left","CountryId":"20215059","StateId":"20226784","CountyId":"20226786","CityId":"20249496"}}},{"Relevance":1.0,"Distance":61.1,"MatchLevel":"street","MatchQuality":{"Country":1.0,"State":1.0,"County":1.0,"City":1.0,"PostalCode":1.0},"Location":{"LocationId":"NT_sismaHXqCqAvN5BCeKkCfA_l_572062992_L","LocationType":"point","DisplayPosition":{"Latitude":40.05072,"Longitude":0.05846},"MapView":{"TopLeft":{"Latitude":40.05072,"Longitude":0.0574},"BottomRight":{"Latitude":40.04977,"Longitude":0.05846}},"Address":{"Label":"12560 Benicasim (Castellón), España","Country":"ESP","State":"Comunidad Valenciana","County":"Castellón","City":"Benicasim","PostalCode":"12560","AdditionalData":[{"value":"España","key":"CountryName"},{"value":"Comunidad Valenciana","key":"StateName"},{"value":"Castellón","key":"CountyName"}]},"MapReference":{"ReferenceId":"572062992","Spot":1.0,"SideOfStreet":"left","CountryId":"20215059","StateId":"20226784","CountyId":"20226786","CityId":"20249496"}}}]}]}}