{"Response":{"MetaInfo":{"Timestamp":"2020-03-28T12:04:27.345+0000","NextPageInformation":"2"},"View":[{"_type":"SearchResultsViewType","ViewId":0,"Result":[{"Relevance":1.0,"Distance":0.0,"Direction":0.0,"MatchLevel":"city","MatchQuality":{"Country":1.0,"State":1.0,"County":1.0,"City":1.0,"PostalCode":1.0},"Location":{"LocationId":"NT_2MTrCf-yF5fVjYaPZWf1YD","LocationType":"point","DisplayPosition":{"Latitude":40.0130057,"Longitude":18.1677961},"MapView":{"TopLeft":{"Latitude":40.06312,"Longitude":18.12291},"BottomRight":{"Latitude":39.97951,"Longitude":18.22031}},"Address":{"Label":"Casarano, Puglia, Italia","Country":"ITA","State":"Puglia","County":"LE","City":"Casarano","PostalCode":"73042","AdditionalData":[{"value":"Italia","key":"CountryName"},{"value":"Puglia","key":"StateName"},{"value":"Lecce","key":"CountyName"}]},"MapReference":{"ReferenceId":"575582207","SideOfStreet":"neither","CountryId":"20110484","StateId":"20218506","CountyId":"20239198","CityId":"20239248"}}},{"Relevance":1.0,"Distance":3.6,"MatchLevel":"street","MatchQuality":{"Country":1.0,"State":1.0,"County":1.0,"City":1.0,"Street":[1.0],"PostalCode":1.0},"Location":{"LocationId":"NT_D5589tPsOpS2tJjdS5QkLC_l_575583320_R","LocationType":"point","DisplayPosition":{"Latitude":40.0129842,"Longitude":18.1677639},"MapView":{"TopLeft":{"Latitude":40.01325,"Longitude":18.1675},"BottomRight":{"Latitude":40.01293,"Longitude":18.1678}},"Address":{"Label":"Via Corte 5 Vittorio Emanuele II, 73042 Casarano LE, Italia","Country":"ITA","State":"Puglia","County":"LE","City":"Casarano","Street":"Via Corte 5 Vittorio Emanuele II","PostalCode":"73042","AdditionalData":[{"value":"Italia","key":"CountryName"},{"value":"Puglia","key":"StateName"},{"value":"Lecce","key":"CountyName"}]},"MapReference":{"ReferenceId":"575583320","Spot":0.15,"SideOfStreet":"right","CountryId":"20110484","StateId":"20218506","CountyId":"20239198","CityId":"20239248"}}},{"Relevance":1.0,"Distance":8.4,"MatchLevel":"street","MatchQuality":{"Country":1.0,"State":1.0,"County":1.0,"City":1.0,"Street":[1.0],"PostalCode":1.0},"Location":{"LocationId":"NT_tRI96OQno5GsHVJ3XEkKbD_l_575583310_R","LocationType":"point","DisplayPosition":{"Latitude":40.01293,"Longitude":18.1678},"MapView":{"TopLeft":{"Latitude":40.01293,"Longitude":18.1678},"BottomRight":{"Latitude":40.01261,"Longitude":18.16792}},"Address":{"Label":"Via Guglielmo Tell Corte 2, 73042 Casarano LE, Italia","Country":"ITA","State":"Puglia","County":"LE","City":"Casarano","Street":"Via Guglielmo Tell Corte 2","PostalCode":"73042","AdditionalData":[{"value":"Italia","key":"CountryName"},{"value":"Puglia","key":"StateName"},{"value":"Lecce","key":"CountyName"}]},"MapReference":{"ReferenceId":"575583310","Spot":1.0,"SideOfStreet":"right","CountryId":"20110484","StateId":"20218506","CountyId":"20239198","CityId":"20239248"}}},{"Relevance":1.0,"Distance":14.2,"MatchLevel":"houseNumber","MatchQuality":{"Country":1.0,"State":1.0,"County":1.0,"City":1.0,"Street":[1.0],"HouseNumber":1.0,"PostalCode":1.0},"MatchType":"interpolated","Location":{"LocationId":"NT_HLYTjUqrSPcSHE6qzBiODB_zcD","LocationType":"point","DisplayPosition":{"Latitude":40.01304,"Longitude":18.16798},"MapView":{"TopLeft":{"Latitude":40.0141642,"Longitude":18.1665122},"BottomRight":{"Latitude":40.0119158,"Longitude":18.1694478}},"Address":{"Label":"Via Alpestre, 37, 73042 Casarano LE, Italia","Country":"ITA","State":"Puglia","County":"LE","City":"Casarano","Street":"Via Alpestre","HouseNumber":"37","PostalCode":"73042","AdditionalData":[{"value":"Italia","key":"CountryName"},{"value":"Puglia","key":"StateName"},{"value":"Lecce","key":"CountyName"}]},"MapReference":{"ReferenceId":"575583316","Spot":1.0,"SideOfStreet":"left","CountryId":"20110484","StateId":"20218506","CountyId":"20239198","CityId":"20239248","AddressId":"811692996","RoadLinkId":"58015430"}}},{"Relevance":1.0,"Distance":14.6,"MatchLevel":"street","MatchQuality":{"Country":1.0,"State":1.0,"County":1.0,"City":1.0,"PostalCode":1.0},"Location":{"LocationId":"NT_5mSNDHn3CnaFKR3AtTFmTD_l_575583308_L","LocationType":"point","DisplayPosition":{"Latitude":40.0131164,"Longitude":18.1678883},"MapView":{"TopLeft":{"Latitude":40.01332,"Longitude":18.16761},"BottomRight":{"Latitude":40.01304,"Longitude":18.16798}},"Address":{"Label":"73042 Casarano LE, Italia","Country":"ITA","State":"Puglia","County":"LE","City":"Casarano","PostalCode":"73042","AdditionalData":[{"value":"Italia","key":"CountryName"},{"value":"Puglia","key":"StateName"},{"value":"Lecce","key":"CountyName"}]},"MapReference":{"ReferenceId":"575583308","Spot":0.26,"SideOfStreet":"left","CountryId":"20110484","StateId":"20218506","CountyId":"20239198","CityId":"20239248"}}},{"Relevance":1.0,"Distance":17.5,"MatchLevel":"houseNumber","MatchQuality":{"Country":1.0,"State":1.0,"County":1.0,"City":1.0,"Street":[1.0],"HouseNumber":1.0,"PostalCode":1.0},"MatchType":"interpolated","Location":{"LocationId":"NT_HLYTjUqrSPcSHE6qzBiODB_0MD","LocationType":"point","DisplayPosition":{"Latitude":40.01311,"Longitude":18.16798},"MapView":{"TopLeft":{"Latitude":40.0142342,"Longitude":18.1665122},"BottomRight":{"Latitude":40.0119858,"Longitude":18.1694478}},"Address":{"Label":"Via Alpestre, 43, 73042 Casarano LE, Italia","Country":"ITA","State":"Puglia","County":"LE","City":"Casarano","Street":"Via Alpestre","HouseNumber":"43","PostalCode":"73042","AdditionalData":[{"value":"Italia","key":"CountryName"},{"value":"Puglia","key":"StateName"},{"value":"Lecce","key":"CountyName"}]},"MapReference":{"ReferenceId":"575583297","Spot":0.22,"SideOfStreet":"left","CountryId":"20110484","StateId":"20218506","CountyId":"20239198","CityId":"20239248","AddressId":"811668000","RoadLinkId":"57395188"}}},{"Relevance":1.0,"Distance":19.5,"MatchLevel":"houseNumber","MatchQuality":{"Country":1.0,"State":1.0,"County":1.0,"City":1.0,"Street":[1.0],"HouseNumber":1.0,"PostalCode":1.0},"MatchType":"interpolated","Location":{"LocationId":"NT_S-BRlZ3vLR4ewUbzFQRcBA_zID","LocationType":"point","DisplayPosition":{"Latitude":40.01292,"Longitude":18.16755},"MapView":{"TopLeft":{"Latitude":40.0140442,"Longitude":18.1660822},"BottomRight":{"Latitude":40.0117958,"Longitude":18.1690178}},"Address":{"Label":"Via De Pindeo, 32, 73042 Casarano LE, Italia","Country":"ITA","State":"Puglia","County":"LE","City":"Casarano","Street":"Via De Pindeo","HouseNumber":"32","PostalCode":"73042","AdditionalData":[{"value":"Italia","key":"CountryName"},{"value":"Puglia","key":"StateName"},{"value":"Lecce","key":"CountyName"}]},"MapReference":{"ReferenceId":"575583296","Spot":0.54,"SideOfStreet":"right","CountryId":"20110484","StateId":"20218506","CountyId":"20239198","CityId":"20239248","AddressId":"670070174","RoadLinkId":"57891913"}}},{"Relevance":1.0,"Distance":31.1,"MatchLevel":"houseNumber","MatchQuality":{"Country":1.0,"State":1.0,"County":1.0,"City":1.0,"Street":[1.0],"HouseNumber":1.0,"PostalCode":1.0},"MatchType":"interpolated","Location":{"LocationId":"NT_HLYTjUqrSPcSHE6qzBiODB_zED","LocationType":"point","DisplayPosition":{"Latitude":40.01286,"Longitude":18.16812},"MapView":{"TopLeft":{"Latitude":40.0139842,"Longitude":18.1666522},"BottomRight":{"Latitude":40.0117358,"Longitude":18.1695878}},"Address":{"Label":"Via Alpestre, 31, 73042 Casarano LE, Italia","Country":"ITA","State":"Puglia","County":"LE","City":"Casarano","Street":"Via Alpestre","HouseNumber":"31","PostalCode":"73042","AdditionalData":[{"value":"Italia","key":"CountryName"},{"value":"Puglia","key":"StateName"},{"value":"Lecce","key":"CountyName"}]},"MapReference":{"ReferenceId":"575583291","Spot":0.97,"SideOfStreet":"left","CountryId":"20110484","StateId":"20218506","CountyId":"20239198","CityId":"20239248","AddressId":"670070144","RoadLinkId":"57277901"}}},{"Relevance":1.0,"Distance":31.5,"MatchLevel":"houseNumber","MatchQuality":{"Country":1.0,"State":1.0,"County":1.0,"City":1.0,"Street":[1.0],"HouseNumber":1.0,"PostalCode":1.0},"MatchType":"interpolated","Location":{"LocationId":"NT_63Pf5CWyjgxICFIYvEzU1C_xEDO","LocationType":"point","DisplayPosition":{"Latitude":40.01329,"Longitude":18.16756},"MapView":{"TopLeft":{"Latitude":40.0144142,"Longitude":18.1660922},"BottomRight":{"Latitude":40.0121658,"Longitude":18.1690278}},"Address":{"Label":"Via Vittorio Emanuele, 118, 73042 Casarano LE, Italia","Country":"ITA","State":"Puglia","County":"LE","City":"Casarano","Street":"Via Vittorio Emanuele","HouseNumber":"118","PostalCode":"73042","AdditionalData":[{"value":"Italia","key":"CountryName"},{"value":"Puglia","key":"StateName"},{"value":"Lecce","key":"CountyName"}]},"MapReference":{"ReferenceId":"575581361","Spot":0.55,"SideOfStreet":"right","CountryId":"20110484","StateId":"20218506","CountyId":"20239198","CityId":"20239248","AddressId":"670071527","RoadLinkId":"57732433"}}},{"Relevance":1.0,"Distance":32.1,"MatchLevel":"houseNumber","MatchQuality":{"Country":1.0,"State":1.0,"County":1.0,"City":1.0,"Street":[1.0],"HouseNumber":1.0,"PostalCode":1.0},"MatchType":"interpolated","Location":{"LocationId":"NT_63Pf5CWyjgxICFIYvEzU1C_xEjM","LocationType":"point","DisplayPosition":{"Latitude":40.0132,"Longitude":18.16741},"MapView":{"TopLeft":{"Latitude":40.0143242,"Longitude":18.1659422},"BottomRight":{"Latitude":40.0120758,"Longitude":18.1688778}},"Address":{"Label":"Via Vittorio Emanuele, 112, 73042 Casarano LE, Italia","Country":"ITA","State":"Puglia","County":"LE","City":"Casarano","Street":"Via Vittorio Emanuele","HouseNumber":"112","PostalCode":"73042","AdditionalData":[{"value":"Italia","key":"CountryName"},{"value":"Puglia","key":"StateName"},{"value":"Lecce","key":"CountyName"}]},"MapReference":{"ReferenceId":"575581360","Spot":0.57,"SideOfStreet":"right","CountryId":"20110484","StateId":"20218506","CountyId":"20239198","CityId":"20239248","AddressId":"670070958","RoadLinkId":"57815852"}}}]}]}}