{"Response":{"MetaInfo":{"Timestamp":"2020-03-28T09:40:36.250+0000","NextPageInformation":"2"},"View":[{"_type":"SearchResultsViewType","ViewId":0,"Result":[{"Relevance":1.0,"Distance":0.0,"Direction":0.0,"MatchLevel":"district","MatchQuality":{"Country":1.0,"State":1.0,"County":1.0,"City":1.0,"District":1.0,"PostalCode":1.0},"Location":{"LocationId":"NT_JRz2zYJT5dN7B6jOhdNRND","LocationType":"point","DisplayPosition":{"Latitude":40.0372331,"Longitude":-2.7360993},"MapView":{"TopLeft":{"Latitude":40.04057,"Longitude":-2.74215},"BottomRight":{"Latitude":40.03312,"Longitude":-2.73227}},"Address":{"Label":"Carrascosa del Campo, Campos del Paraíso, Castilla-La Mancha, España","Country":"ESP","State":"Castilla-La Mancha","County":"Cuenca","City":"Campos del Paraíso","District":"Carrascosa del Campo","PostalCode":"16555","AdditionalData":[{"value":"España","key":"CountryName"},{"value":"Castilla-La Mancha","key":"StateName"},{"value":"Cuenca","key":"CountyName"}]},"MapReference":{"ReferenceId":"553494341","SideOfStreet":"neither","CountryId":"20215059","StateId":"20221903","CountyId":"20221906","CityId":"20295125","DistrictId":"20295126"}}},{"Relevance":1.0,"Distance":9.6,"MatchLevel":"street","MatchQuality":{"Country":1.0,"State":1.0,"County":1.0,"City":1.0,"District":1.0,"Street":[1.0],"PostalCode":1.0},"Location":{"LocationId":"NT_V4YlpFuoWkPDNln2MoP3iB_l_572145632_R","LocationType":"point","DisplayPosition":{"Latitude":40.0371551,"Longitude":-2.7361481},"MapView":{"TopLeft":{"Latitude":40.03749,"Longitude":-2.73654},"BottomRight":{"Latitude":40.03708,"Longitude":-2.736}},"Address":{"Label":"Calle Santa Ana, 16555 Campos del Paraíso (Cuenca), España","Country":"ESP","State":"Castilla-La Mancha","County":"Cuenca","City":"Campos del Paraíso","District":"Carrascosa del Campo","Street":"Calle Santa Ana","PostalCode":"16555","AdditionalData":[{"value":"España","key":"CountryName"},{"value":"Castilla-La Mancha","key":"StateName"},{"value":"Cuenca","key":"CountyName"}]},"MapReference":{"ReferenceId":"572145632","Spot":0.24,"SideOfStreet":"right","CountryId":"20215059","StateId":"20221903","CountyId":"20221906","CityId":"20295125","DistrictId":"20295126"}}},{"Relevance":1.0,"Distance":19.0,"MatchLevel":"street","MatchQuality":{"Country":1.0,"State":1.0,"County":1.0,"City":1.0,"District":1.0,"Street":[1.0],"PostalCode":1.0},"Location":{"LocationId":"NT_NvqcONHyKnuFgnXL70oNTB_l_572145641_L","LocationType":"point","DisplayPosition":{"Latitude":40.03708,"Longitude":-2.736},"MapView":{"TopLeft":{"Latitude":40.03708,"Longitude":-2.73615},"BottomRight":{"Latitude":40.03635,"Longitude":-2.73584}},"Address":{"Label":"Calle del Río, 16555 Campos del Paraíso (Cuenca), España","Country":"ESP","State":"Castilla-La Mancha","County":"Cuenca","City":"Campos del Paraíso","District":"Carrascosa del Campo","Street":"Calle del Río","PostalCode":"16555","AdditionalData":[{"value":"España","key":"CountryName"},{"value":"Castilla-La Mancha","key":"StateName"},{"value":"Cuenca","key":"CountyName"}]},"MapReference":{"ReferenceId":"572145641","Spot":1.0,"SideOfStreet":"left","CountryId":"20215059","StateId":"20221903","CountyId":"20221906","CityId":"20295125","DistrictId":"20295126"}}},{"Relevance":1.0,"Distance":34.8,"MatchLevel":"houseNumber","MatchQuality":{"Country":1.0,"State":1.0,"County":1.0,"City":1.0,"District":1.0,"Street":[1.0],"HouseNumber":1.0,"PostalCode":1.0},"MatchType":"interpolated","Location":{"LocationId":"NT_vclYF9jL9Pjo3aK5Nth--A_xA","LocationType":"point","DisplayPosition":{"Latitude":40.03719,"Longitude":-2.73565},"MapView":{"TopLeft":{"Latitude":40.0383142,"Longitude":-2.7371183},"BottomRight":{"Latitude":40.0360658,"Longitude":-2.7341817}},"Address":{"Label":"Calle Santa Ana la Vieja, 1, 16555 Campos del Paraíso (Cuenca), España","Country":"ESP","State":"Castilla-La Mancha","County":"Cuenca","City":"Campos del Paraíso","District":"Carrascosa del Campo","Street":"Calle Santa Ana la Vieja","HouseNumber":"1","PostalCode":"16555","AdditionalData":[{"value":"España","key":"CountryName"},{"value":"Castilla-La Mancha","key":"StateName"},{"value":"Cuenca","key":"CountyName"}]},"MapReference":{"ReferenceId":"553495201","Spot":0.28,"SideOfStreet":"left","CountryId":"20215059","StateId":"20221903","CountyId":"20221906","CityId":"20295125","DistrictId":"20295126","AddressId":"405308081","RoadLinkId":"66061324"}}},{"Relevance":1.0,"Distance":47.2,"MatchLevel":"street","MatchQuality":{"Country":1.0,"State":1.0,"County":1.0,"City":1.0,"District":1.0,"Street":[1.0],"PostalCode":1.0},"Location":{"LocationId":"NT_V4YlpFuoWkPDNln2MoP3iB_l_553495196_R","LocationType":"point","DisplayPosition":{"Latitude":40.03749,"Longitude":-2.73654},"MapView":{"TopLeft":{"Latitude":40.03762,"Longitude":-2.73661},"BottomRight":{"Latitude":40.03749,"Longitude":-2.73654}},"Address":{"Label":"Calle Santa Ana, 16555 Campos del Paraíso (Cuenca), España","Country":"ESP","State":"Castilla-La Mancha","County":"Cuenca","City":"Campos del Paraíso","District":"Carrascosa del Campo","Street":"Calle Santa Ana","PostalCode":"16555","AdditionalData":[{"value":"España","key":"CountryName"},{"value":"Castilla-La Mancha","key":"StateName"},{"value":"Cuenca","key":"CountyName"}]},"MapReference":{"ReferenceId":"553495196","Spot":0.0,"SideOfStreet":"right","CountryId":"20215059","StateId":"20221903","CountyId":"20221906","CityId":"20295125","DistrictId":"20295126"}}},{"Relevance":1.0,"Distance":47.2,"MatchLevel":"street","MatchQuality":{"Country":1.0,"State":1.0,"County":1.0,"City":1.0,"District":1.0,"PostalCode":1.0},"Location":{"LocationId":"NT_XSUvoXryjxsUu35cTHSB9A_l_572145622_R","LocationType":"point","DisplayPosition":{"Latitude":40.03749,"Longitude":-2.73654},"MapView":{"TopLeft":{"Latitude":40.03749,"Longitude":-2.73672},"BottomRight":{"Latitude":40.03745,"Longitude":-2.73654}},"Address":{"Label":"16555 Campos del Paraíso (Cuenca), España","Country":"ESP","State":"Castilla-La Mancha","County":"Cuenca","City":"Campos del Paraíso","District":"Carrascosa del Campo","PostalCode":"16555","AdditionalData":[{"value":"España","key":"CountryName"},{"value":"Castilla-La Mancha","key":"StateName"},{"value":"Cuenca","key":"CountyName"}]},"MapReference":{"ReferenceId":"572145622","Spot":1.0,"SideOfStreet":"right","CountryId":"20215059","StateId":"20221903","CountyId":"20221906","CityId":"20295125","DistrictId":"20295126"}}},{"Relevance":1.0,"Distance":50.0,"MatchLevel":"houseNumber","MatchQuality":{"Country":1.0,"State":1.0,"County":1.0,"City":1.0,"District":1.0,"Street":[1.0],"HouseNumber":1.0,"PostalCode":1.0},"MatchType":"interpolated","Location":{"LocationId":"NT_RHwkEIZ-flYzwThQp68XEC_yA","LocationType":"point","DisplayPosition":{"Latitude":40.03772,"Longitude":-2.73638},"MapView":{"TopLeft":{"Latitude":40.0388442,"Longitude":-2.7378483},"BottomRight":{"Latitude":40.0365958,"Longitude":-2.7349117}},"Address":{"Label":"Calle del Coso, 2, 16555 Campos del Paraíso (Cuenca), España","Country":"ESP","State":"Castilla-La Mancha","County":"Cuenca","City":"Campos del Paraíso","District":"Carrascosa del Campo","Street":"Calle del Coso","HouseNumber":"2","PostalCode":"16555","AdditionalData":[{"value":"España","key":"CountryName"},{"value":"Castilla-La Mancha","key":"StateName"},{"value":"Cuenca","key":"CountyName"}]},"MapReference":{"ReferenceId":"971957787","Spot":0.45,"SideOfStreet":"right","CountryId":"20215059","StateId":"20221903","CountyId":"20221906","CityId":"20295125","DistrictId":"20295126","AddressId":"405297313","RoadLinkId":"308349025"}}},{"Relevance":1.0,"Distance":53.0,"MatchLevel":"houseNumber","MatchQuality":{"Country":1.0,"State":1.0,"County":1.0,"City":1.0,"District":1.0,"Street":[1.0],"HouseNumber":1.0,"PostalCode":1.0},"MatchType":"interpolated","Location":{"LocationId":"NT_pfQvhmbpCSOas2zf-WCrUC_yA","LocationType":"point","DisplayPosition":{"Latitude":40.03777,"Longitude":-2.73584},"MapView":{"TopLeft":{"Latitude":40.0388942,"Longitude":-2.7373083},"BottomRight":{"Latitude":40.0366458,"Longitude":-2.7343717}},"Address":{"Label":"Calle Nueva, 2, 16555 Campos del Paraíso (Cuenca), España","Country":"ESP","State":"Castilla-La Mancha","County":"Cuenca","City":"Campos del Paraíso","District":"Carrascosa del Campo","Street":"Calle Nueva","HouseNumber":"2","PostalCode":"16555","AdditionalData":[{"value":"España","key":"CountryName"},{"value":"Castilla-La Mancha","key":"StateName"},{"value":"Cuenca","key":"CountyName"}]},"MapReference":{"ReferenceId":"553495195","Spot":0.76,"SideOfStreet":"left","CountryId":"20215059","StateId":"20221903","CountyId":"20221906","CityId":"20295125","DistrictId":"20295126","AddressId":"405284198","RoadLinkId":"66586429"}}},{"Relevance":1.0,"Distance":64.3,"MatchLevel":"houseNumber","MatchQuality":{"Country":1.0,"State":1.0,"County":1.0,"City":1.0,"District":1.0,"Street":[1.0],"HouseNumber":1.0,"PostalCode":1.0},"MatchType":"interpolated","Location":{"LocationId":"NT_pfQvhmbpCSOas2zf-WCrUC_0A","LocationType":"point","DisplayPosition":{"Latitude":40.03768,"Longitude":-2.73562},"MapView":{"TopLeft":{"Latitude":40.0388042,"Longitude":-2.7370883},"BottomRight":{"Latitude":40.0365558,"Longitude":-2.7341517}},"Address":{"Label":"Calle Nueva, 4, 16555 Campos del Paraíso (Cuenca), España","Country":"ESP","State":"Castilla-La Mancha","County":"Cuenca","City":"Campos del Paraíso","District":"Carrascosa del Campo","Street":"Calle Nueva","HouseNumber":"4","PostalCode":"16555","AdditionalData":[{"value":"España","key":"CountryName"},{"value":"Castilla-La Mancha","key":"StateName"},{"value":"Cuenca","key":"CountyName"}]},"MapReference":{"ReferenceId":"553495194","Spot":0.2,"SideOfStreet":"left","CountryId":"20215059","StateId":"20221903","CountyId":"20221906","CityId":"20295125","DistrictId":"20295126","AddressId":"405245236","RoadLinkId":"65737484"}}},{"Relevance":1.0,"Distance":69.9,"MatchLevel":"houseNumber","MatchQuality":{"Country":1.0,"State":1.0,"County":1.0,"City":1.0,"District":1.0,"Street":[1.0],"HouseNumber":1.0,"PostalCode":1.0},"MatchType":"interpolated","Location":{"LocationId":"NT_RHwkEIZ-flYzwThQp68XEC_0A","LocationType":"point","DisplayPosition":{"Latitude":40.03786,"Longitude":-2.73604},"MapView":{"TopLeft":{"Latitude":40.0389842,"Longitude":-2.7375083},"BottomRight":{"Latitude":40.0367358,"Longitude":-2.7345717}},"Address":{"Label":"Calle del Coso, 4, 16555 Campos del Paraíso (Cuenca), España","Country":"ESP","State":"Castilla-La Mancha","County":"Cuenca","City":"Campos del Paraíso","District":"Carrascosa del Campo","Street":"Calle del Coso","HouseNumber":"4","PostalCode":"16555","AdditionalData":[{"value":"España","key":"CountryName"},{"value":"Castilla-La Mancha","key":"StateName"},{"value":"Cuenca","key":"CountyName"}]},"MapReference":{"ReferenceId":"553495200","Spot":0.61,"SideOfStreet":"right","CountryId":"20215059","StateId":"20221903","CountyId":"20221906","CityId":"20295125","DistrictId":"20295126","AddressId":"405332030","RoadLinkId":"65555630"}}}]}]}}