{"Response":{"MetaInfo":{"Timestamp":"2020-03-28T12:03:45.978+0000","NextPageInformation":"2"},"View":[{"_type":"SearchResultsViewType","ViewId":0,"Result":[{"Relevance":1.0,"Distance":0.0,"Direction":0.0,"MatchLevel":"city","MatchQuality":{"Country":1.0,"State":1.0,"County":1.0,"City":1.0,"PostalCode":1.0},"Location":{"LocationId":"NT_2MTrCf-yF5fVjYaPZWf1YD","LocationType":"point","DisplayPosition":{"Latitude":40.0166654,"Longitude":18.1615927},"MapView":{"TopLeft":{"Latitude":40.06312,"Longitude":18.12291},"BottomRight":{"Latitude":39.97951,"Longitude":18.22031}},"Address":{"Label":"Casarano, Puglia, Italia","Country":"ITA","State":"Puglia","County":"LE","City":"Casarano","PostalCode":"73042","AdditionalData":[{"value":"Italia","key":"CountryName"},{"value":"Puglia","key":"StateName"},{"value":"Lecce","key":"CountyName"}]},"MapReference":{"ReferenceId":"575582207","SideOfStreet":"neither","CountryId":"20110484","StateId":"20218506","CountyId":"20239198","CityId":"20239248"}}},{"Relevance":1.0,"Distance":11.8,"MatchLevel":"houseNumber","MatchQuality":{"Country":1.0,"State":1.0,"County":1.0,"City":1.0,"Street":[1.0],"HouseNumber":1.0,"PostalCode":1.0},"MatchType":"interpolated","Location":{"LocationId":"NT_8P.3r1-z2L0.GdhdF31M3B_0MjR","LocationType":"point","DisplayPosition":{"Latitude":40.01672,"Longitude":18.16173},"MapView":{"TopLeft":{"Latitude":40.0178442,"Longitude":18.1602622},"BottomRight":{"Latitude":40.0155958,"Longitude":18.1631978}},"Address":{"Label":"Via Francesco Ferrari, 43F, 73042 Casarano LE, Italia","Country":"ITA","State":"Puglia","County":"LE","City":"Casarano","Street":"Via Francesco Ferrari","HouseNumber":"43F","PostalCode":"73042","AdditionalData":[{"value":"Italia","key":"CountryName"},{"value":"Puglia","key":"StateName"},{"value":"Lecce","key":"CountyName"}]},"MapReference":{"ReferenceId":"591866045","Spot":0.02,"SideOfStreet":"left","CountryId":"20110484","StateId":"20218506","CountyId":"20239198","CityId":"20239248","AddressId":"669897547","RoadLinkId":"58256213"}}},{"Relevance":1.0,"Distance":23.3,"MatchLevel":"houseNumber","MatchQuality":{"Country":1.0,"State":1.0,"County":1.0,"City":1.0,"Street":[1.0],"HouseNumber":1.0,"PostalCode":1.0},"MatchType":"interpolated","Location":{"LocationId":"NT_8P.3r1-z2L0.GdhdF31M3B_xADN","LocationType":"point","DisplayPosition":{"Latitude":40.01672,"Longitude":18.16186},"MapView":{"TopLeft":{"Latitude":40.0178442,"Longitude":18.1603922},"BottomRight":{"Latitude":40.0155958,"Longitude":18.1633278}},"Address":{"Label":"Via Francesco Ferrari, 104, 73042 Casarano LE, Italia","Country":"ITA","State":"Puglia","County":"LE","City":"Casarano","Street":"Via Francesco Ferrari","HouseNumber":"104","PostalCode":"73042","AdditionalData":[{"value":"Italia","key":"CountryName"},{"value":"Puglia","key":"StateName"},{"value":"Lecce","key":"CountyName"}]},"MapReference":{"ReferenceId":"591866046","Spot":0.74,"SideOfStreet":"left","CountryId":"20110484","StateId":"20218506","CountyId":"20239198","CityId":"20239248","AddressId":"669897557","RoadLinkId":"57660204"}}},{"Relevance":1.0,"Distance":45.7,"MatchLevel":"houseNumber","MatchQuality":{"Country":1.0,"State":1.0,"County":1.0,"City":1.0,"Street":[1.0],"HouseNumber":1.0,"PostalCode":1.0},"MatchType":"interpolated","Location":{"LocationId":"NT_Xg3X-rOnvCbcszMaPIwi1B_zcD","LocationType":"point","DisplayPosition":{"Latitude":40.01653,"Longitude":18.16217},"MapView":{"TopLeft":{"Latitude":40.0176542,"Longitude":18.1607022},"BottomRight":{"Latitude":40.0154058,"Longitude":18.1636378}},"Address":{"Label":"Via Nardò, 37, 73042 Casarano LE, Italia","Country":"ITA","State":"Puglia","County":"LE","City":"Casarano","Street":"Via Nardò","HouseNumber":"37","PostalCode":"73042","AdditionalData":[{"value":"Italia","key":"CountryName"},{"value":"Puglia","key":"StateName"},{"value":"Lecce","key":"CountyName"}]},"MapReference":{"ReferenceId":"575581331","Spot":0.69,"SideOfStreet":"left","CountryId":"20110484","StateId":"20218506","CountyId":"20239198","CityId":"20239248","AddressId":"811774508","RoadLinkId":"57619198"}}},{"Relevance":1.0,"Distance":49.5,"MatchLevel":"houseNumber","MatchQuality":{"Country":1.0,"State":1.0,"County":1.0,"City":1.0,"Street":[1.0],"HouseNumber":1.0,"PostalCode":1.0},"MatchType":"interpolated","Location":{"LocationId":"NT_c21u1idQj8oiGMQWIZH2yA_xEE","LocationType":"point","DisplayPosition":{"Latitude":40.01693,"Longitude":18.16216},"MapView":{"TopLeft":{"Latitude":40.0180542,"Longitude":18.1606922},"BottomRight":{"Latitude":40.0158058,"Longitude":18.1636278}},"Address":{"Label":"Via Alto Adige, 1A, 73042 Casarano LE, Italia","Country":"ITA","State":"Puglia","County":"LE","City":"Casarano","Street":"Via Alto Adige","HouseNumber":"1A","PostalCode":"73042","AdditionalData":[{"value":"Italia","key":"CountryName"},{"value":"Puglia","key":"StateName"},{"value":"Lecce","key":"CountyName"}]},"MapReference":{"ReferenceId":"575581419","Spot":0.59,"SideOfStreet":"left","CountryId":"20110484","StateId":"20218506","CountyId":"20239198","CityId":"20239248","AddressId":"811827029","RoadLinkId":"57815262"}}},{"Relevance":1.0,"Distance":63.3,"MatchLevel":"houseNumber","MatchQuality":{"Country":1.0,"State":1.0,"County":1.0,"City":1.0,"Street":[1.0],"HouseNumber":1.0,"PostalCode":1.0},"MatchType":"interpolated","Location":{"LocationId":"NT_8P.3r1-z2L0.GdhdF31M3B_3YD","LocationType":"point","DisplayPosition":{"Latitude":40.01689,"Longitude":18.16089},"MapView":{"TopLeft":{"Latitude":40.0180142,"Longitude":18.1594222},"BottomRight":{"Latitude":40.0157658,"Longitude":18.1623578}},"Address":{"Label":"Via Francesco Ferrari, 76, 73042 Casarano LE, Italia","Country":"ITA","State":"Puglia","County":"LE","City":"Casarano","Street":"Via Francesco Ferrari","HouseNumber":"76","PostalCode":"73042","AdditionalData":[{"value":"Italia","key":"CountryName"},{"value":"Puglia","key":"StateName"},{"value":"Lecce","key":"CountyName"}]},"MapReference":{"ReferenceId":"591866048","Spot":0.85,"SideOfStreet":"left","CountryId":"20110484","StateId":"20218506","CountyId":"20239198","CityId":"20239248","AddressId":"669897553","RoadLinkId":"57406364"}}},{"Relevance":1.0,"Distance":65.2,"MatchLevel":"street","MatchQuality":{"Country":1.0,"State":1.0,"County":1.0,"City":1.0,"PostalCode":1.0},"Location":{"LocationId":"NT_5mSNDHn3CnaFKR3AtTFmTD_l_575582141_R","LocationType":"point","DisplayPosition":{"Latitude":40.0172482,"Longitude":18.1615044},"MapView":{"TopLeft":{"Latitude":40.01734,"Longitude":18.16079},"BottomRight":{"Latitude":40.01714,"Longitude":18.16211}},"Address":{"Label":"73042 Casarano LE, Italia","Country":"ITA","State":"Puglia","County":"LE","City":"Casarano","PostalCode":"73042","AdditionalData":[{"value":"Italia","key":"CountryName"},{"value":"Puglia","key":"StateName"},{"value":"Lecce","key":"CountyName"}]},"MapReference":{"ReferenceId":"575582141","Spot":0.54,"SideOfStreet":"right","CountryId":"20110484","StateId":"20218506","CountyId":"20239198","CityId":"20239248"}}},{"Relevance":1.0,"Distance":65.5,"MatchLevel":"houseNumber","MatchQuality":{"Country":1.0,"State":1.0,"County":1.0,"City":1.0,"Street":[1.0],"HouseNumber":1.0,"PostalCode":1.0},"MatchType":"interpolated","Location":{"LocationId":"NT_c21u1idQj8oiGMQWIZH2yA_xIE","LocationType":"point","DisplayPosition":{"Latitude":40.01716,"Longitude":18.16213},"MapView":{"TopLeft":{"Latitude":40.0182842,"Longitude":18.1606622},"BottomRight":{"Latitude":40.0160358,"Longitude":18.1635978}},"Address":{"Label":"Via Alto Adige, 1B, 73042 Casarano LE, Italia","Country":"ITA","State":"Puglia","County":"LE","City":"Casarano","Street":"Via Alto Adige","HouseNumber":"1B","PostalCode":"73042","AdditionalData":[{"value":"Italia","key":"CountryName"},{"value":"Puglia","key":"StateName"},{"value":"Lecce","key":"CountyName"}]},"MapReference":{"ReferenceId":"575581420","Spot":0.31,"SideOfStreet":"left","CountryId":"20110484","StateId":"20218506","CountyId":"20239198","CityId":"20239248","AddressId":"811768062","RoadLinkId":"57256710"}}},{"Relevance":1.0,"Distance":74.5,"MatchLevel":"houseNumber","MatchQuality":{"Country":1.0,"State":1.0,"County":1.0,"City":1.0,"Street":[1.0],"HouseNumber":1.0,"PostalCode":1.0},"MatchType":"interpolated","Location":{"LocationId":"NT_PMitB2aeZ1M7CX.NkN5VZA_1ID","LocationType":"point","DisplayPosition":{"Latitude":40.01671,"Longitude":18.16069},"MapView":{"TopLeft":{"Latitude":40.0178342,"Longitude":18.1592222},"BottomRight":{"Latitude":40.0155858,"Longitude":18.1621578}},"Address":{"Label":"Via Giotto, 52, 73042 Casarano LE, Italia","Country":"ITA","State":"Puglia","County":"LE","City":"Casarano","Street":"Via Giotto","HouseNumber":"52","PostalCode":"73042","AdditionalData":[{"value":"Italia","key":"CountryName"},{"value":"Puglia","key":"StateName"},{"value":"Lecce","key":"CountyName"}]},"MapReference":{"ReferenceId":"575582535","Spot":0.92,"SideOfStreet":"right","CountryId":"20110484","StateId":"20218506","CountyId":"20239198","CityId":"20239248","AddressId":"811658970","RoadLinkId":"58041044"}}},{"Relevance":1.0,"Distance":83.5,"MatchLevel":"houseNumber","MatchQuality":{"Country":1.0,"State":1.0,"County":1.0,"City":1.0,"Street":[1.0],"HouseNumber":1.0,"PostalCode":1.0},"MatchType":"interpolated","Location":{"LocationId":"NT_VF1eGrQJl400ULjkxPGi1A_xA","LocationType":"point","DisplayPosition":{"Latitude":40.01615,"Longitude":18.16233},"MapView":{"TopLeft":{"Latitude":40.0172742,"Longitude":18.1608622},"BottomRight":{"Latitude":40.0150258,"Longitude":18.1637978}},"Address":{"Label":"Via Scalella, 1, 73042 Casarano LE, Italia","Country":"ITA","State":"Puglia","County":"LE","City":"Casarano","Street":"Via Scalella","HouseNumber":"1","PostalCode":"73042","AdditionalData":[{"value":"Italia","key":"CountryName"},{"value":"Puglia","key":"StateName"},{"value":"Lecce","key":"CountyName"}]},"MapReference":{"ReferenceId":"591866246","Spot":0.91,"SideOfStreet":"right","CountryId":"20110484","StateId":"20218506","CountyId":"20239198","CityId":"20239248","AddressId":"811830088","RoadLinkId":"57326288"}}}]}]}}