{"Response":{"MetaInfo":{"Timestamp":"2020-03-28T09:45:27.225+0000","NextPageInformation":"2"},"View":[{"_type":"SearchResultsViewType","ViewId":0,"Result":[{"Relevance":1.0,"Distance":0.0,"Direction":0.0,"MatchLevel":"city","MatchQuality":{"Country":1.0,"State":1.0,"County":1.0,"City":1.0,"PostalCode":1.0},"Location":{"LocationId":"NT_4-RuN67UJmmJ52sSu34lxD","LocationType":"point","DisplayPosition":{"Latitude":40.0986057,"Longitude":-4.644957},"MapView":{"TopLeft":{"Latitude":40.16693,"Longitude":-4.66701},"BottomRight":{"Latitude":40.07912,"Longitude":-4.59038}},"Address":{"Label":"Garciotum, Castilla-La Mancha, España","Country":"ESP","State":"Castilla-La Mancha","County":"Toledo","City":"Garciotum","PostalCode":"45643","AdditionalData":[{"value":"España","key":"CountryName"},{"value":"Castilla-La Mancha","key":"StateName"},{"value":"Toledo","key":"CountyName"}]},"MapReference":{"ReferenceId":"818765924","SideOfStreet":"neither","CountryId":"20215059","StateId":"20221903","CountyId":"20221908","CityId":"20297176"}}},{"Relevance":1.0,"Distance":9.5,"MatchLevel":"houseNumber","MatchQuality":{"Country":1.0,"State":1.0,"County":1.0,"City":1.0,"Street":[1.0],"HouseNumber":1.0,"PostalCode":1.0},"MatchType":"interpolated","Location":{"LocationId":"NT_gU1gNAD7Oqltmyc3ZPCRWB_0YD","LocationType":"point","DisplayPosition":{"Latitude":40.09872,"Longitude":-4.64504},"MapView":{"TopLeft":{"Latitude":40.0998442,"Longitude":-4.6465096},"BottomRight":{"Latitude":40.0975958,"Longitude":-4.6435704}},"Address":{"Label":"Avenida Castilla La Mancha, 46, 45643 Garciotum (Toledo), España","Country":"ESP","State":"Castilla-La Mancha","County":"Toledo","City":"Garciotum","Street":"Avenida Castilla La Mancha","HouseNumber":"46","PostalCode":"45643","AdditionalData":[{"value":"España","key":"CountryName"},{"value":"Castilla-La Mancha","key":"StateName"},{"value":"Toledo","key":"CountyName"}]},"MapReference":{"ReferenceId":"818765517","Spot":0.74,"SideOfStreet":"right","CountryId":"20215059","StateId":"20221903","CountyId":"20221908","CityId":"20297176","AddressId":"404952377","RoadLinkId":"205985261"}}},{"Relevance":1.0,"Distance":11.3,"MatchLevel":"street","MatchQuality":{"Country":1.0,"State":1.0,"County":1.0,"City":1.0,"Street":[1.0],"PostalCode":1.0},"Location":{"LocationId":"NT_gU1gNAD7Oqltmyc3ZPCRWB_l_818765516_R","LocationType":"point","DisplayPosition":{"Latitude":40.0986,"Longitude":-4.64509},"MapView":{"TopLeft":{"Latitude":40.0986,"Longitude":-4.64515},"BottomRight":{"Latitude":40.09849,"Longitude":-4.64509}},"Address":{"Label":"Avenida Castilla La Mancha, 45643 Garciotum (Toledo), España","Country":"ESP","State":"Castilla-La Mancha","County":"Toledo","City":"Garciotum","Street":"Avenida Castilla La Mancha","PostalCode":"45643","AdditionalData":[{"value":"España","key":"CountryName"},{"value":"Castilla-La Mancha","key":"StateName"},{"value":"Toledo","key":"CountyName"}]},"MapReference":{"ReferenceId":"818765516","Spot":1.0,"SideOfStreet":"right","CountryId":"20215059","StateId":"20221903","CountyId":"20221908","CityId":"20297176"}}},{"Relevance":1.0,"Distance":19.0,"MatchLevel":"houseNumber","MatchQuality":{"Country":1.0,"State":1.0,"County":1.0,"City":1.0,"Street":[1.0],"HouseNumber":1.0,"PostalCode":1.0},"MatchType":"interpolated","Location":{"LocationId":"NT_lasy1SONMg3bEmDt1i.HID_yA","LocationType":"point","DisplayPosition":{"Latitude":40.09859,"Longitude":-4.64522},"MapView":{"TopLeft":{"Latitude":40.0997142,"Longitude":-4.6466896},"BottomRight":{"Latitude":40.0974658,"Longitude":-4.6437504}},"Address":{"Label":"Calle Doctor Ama Manzano, 2, 45643 Garciotum (Toledo), España","Country":"ESP","State":"Castilla-La Mancha","County":"Toledo","City":"Garciotum","Street":"Calle Doctor Ama Manzano","HouseNumber":"2","PostalCode":"45643","AdditionalData":[{"value":"España","key":"CountryName"},{"value":"Castilla-La Mancha","key":"StateName"},{"value":"Toledo","key":"CountyName"}]},"MapReference":{"ReferenceId":"564456300","Spot":0.19,"SideOfStreet":"right","CountryId":"20215059","StateId":"20221903","CountyId":"20221908","CityId":"20297176","AddressId":"404959850","RoadLinkId":"67488522"}}},{"Relevance":1.0,"Distance":23.1,"MatchLevel":"houseNumber","MatchQuality":{"Country":1.0,"State":1.0,"County":1.0,"City":1.0,"Street":[1.0],"HouseNumber":1.0,"PostalCode":1.0},"MatchType":"interpolated","Location":{"LocationId":"NT_gU1gNAD7Oqltmyc3ZPCRWB_0QD","LocationType":"point","DisplayPosition":{"Latitude":40.09846,"Longitude":-4.64517},"MapView":{"TopLeft":{"Latitude":40.0995842,"Longitude":-4.6466396},"BottomRight":{"Latitude":40.0973358,"Longitude":-4.6437004}},"Address":{"Label":"Avenida Castilla La Mancha, 44, 45643 Garciotum (Toledo), España","Country":"ESP","State":"Castilla-La Mancha","County":"Toledo","City":"Garciotum","Street":"Avenida Castilla La Mancha","HouseNumber":"44","PostalCode":"45643","AdditionalData":[{"value":"España","key":"CountryName"},{"value":"Castilla-La Mancha","key":"StateName"},{"value":"Toledo","key":"CountyName"}]},"MapReference":{"ReferenceId":"564456233","Spot":0.85,"SideOfStreet":"right","CountryId":"20215059","StateId":"20221903","CountyId":"20221908","CityId":"20297176","AddressId":"404956836","RoadLinkId":"66787284"}}},{"Relevance":1.0,"Distance":25.0,"MatchLevel":"houseNumber","MatchQuality":{"Country":1.0,"State":1.0,"County":1.0,"City":1.0,"Street":[1.0],"HouseNumber":1.0,"PostalCode":1.0},"MatchType":"interpolated","Location":{"LocationId":"NT_gU1gNAD7Oqltmyc3ZPCRWB_0gD","LocationType":"point","DisplayPosition":{"Latitude":40.09883,"Longitude":-4.64501},"MapView":{"TopLeft":{"Latitude":40.0999542,"Longitude":-4.6464796},"BottomRight":{"Latitude":40.0977058,"Longitude":-4.6435404}},"Address":{"Label":"Avenida Castilla La Mancha, 48, 45643 Garciotum (Toledo), España","Country":"ESP","State":"Castilla-La Mancha","County":"Toledo","City":"Garciotum","Street":"Avenida Castilla La Mancha","HouseNumber":"48","PostalCode":"45643","AdditionalData":[{"value":"España","key":"CountryName"},{"value":"Castilla-La Mancha","key":"StateName"},{"value":"Toledo","key":"CountyName"}]},"MapReference":{"ReferenceId":"818764128","Spot":0.08,"SideOfStreet":"right","CountryId":"20215059","StateId":"20221903","CountyId":"20221908","CityId":"20297176","AddressId":"404964808","RoadLinkId":"205983822"}}},{"Relevance":1.0,"Distance":39.6,"MatchLevel":"street","MatchQuality":{"Country":1.0,"State":1.0,"County":1.0,"City":1.0,"Street":[1.0],"PostalCode":1.0},"Location":{"LocationId":"NT_4tgzrjL.MnuVskBMN.Wu5A_l_567498908_R","LocationType":"point","DisplayPosition":{"Latitude":40.09826,"Longitude":-4.64507},"MapView":{"TopLeft":{"Latitude":40.09829,"Longitude":-4.64529},"BottomRight":{"Latitude":40.09826,"Longitude":-4.64507}},"Address":{"Label":"Calle Pozo Nuevo, 45643 Garciotum (Toledo), España","Country":"ESP","State":"Castilla-La Mancha","County":"Toledo","City":"Garciotum","Street":"Calle Pozo Nuevo","PostalCode":"45643","AdditionalData":[{"value":"España","key":"CountryName"},{"value":"Castilla-La Mancha","key":"StateName"},{"value":"Toledo","key":"CountyName"}]},"MapReference":{"ReferenceId":"567498908","Spot":0.0,"SideOfStreet":"right","CountryId":"20215059","StateId":"20221903","CountyId":"20221908","CityId":"20297176"}}},{"Relevance":1.0,"Distance":43.3,"MatchLevel":"houseNumber","MatchQuality":{"Country":1.0,"State":1.0,"County":1.0,"City":1.0,"Street":[1.0],"HouseNumber":1.0,"PostalCode":1.0},"MatchType":"interpolated","Location":{"LocationId":"NT_4tgzrjL.MnuVskBMN.Wu5A_xA","LocationType":"point","DisplayPosition":{"Latitude":40.09827,"Longitude":-4.6447},"MapView":{"TopLeft":{"Latitude":40.0993942,"Longitude":-4.6461696},"BottomRight":{"Latitude":40.0971458,"Longitude":-4.6432304}},"Address":{"Label":"Calle Pozo Nuevo, 1, 45643 Garciotum (Toledo), España","Country":"ESP","State":"Castilla-La Mancha","County":"Toledo","City":"Garciotum","Street":"Calle Pozo Nuevo","HouseNumber":"1","PostalCode":"45643","AdditionalData":[{"value":"España","key":"CountryName"},{"value":"Castilla-La Mancha","key":"StateName"},{"value":"Toledo","key":"CountyName"}]},"MapReference":{"ReferenceId":"1036480840","Spot":0.86,"SideOfStreet":"right","CountryId":"20215059","StateId":"20221903","CountyId":"20221908","CityId":"20297176","AddressId":"404958882","RoadLinkId":"358344466"}}},{"Relevance":1.0,"Distance":45.1,"MatchLevel":"street","MatchQuality":{"Country":1.0,"State":1.0,"County":1.0,"City":1.0,"Street":[1.0],"PostalCode":1.0},"Location":{"LocationId":"NT_gtXoEBiNZLw03JK6q9pNaD_l_818763887_R","LocationType":"point","DisplayPosition":{"Latitude":40.09829,"Longitude":-4.64529},"MapView":{"TopLeft":{"Latitude":40.09829,"Longitude":-4.64538},"BottomRight":{"Latitude":40.09814,"Longitude":-4.64529}},"Address":{"Label":"Avenida Castilla La Mancha, 45643 Garciotum (Toledo), España","Country":"ESP","State":"Castilla-La Mancha","County":"Toledo","City":"Garciotum","Street":"Avenida Castilla La Mancha","PostalCode":"45643","AdditionalData":[{"value":"España","key":"CountryName"},{"value":"Castilla-La Mancha","key":"StateName"},{"value":"Toledo","key":"CountyName"}]},"MapReference":{"ReferenceId":"818763887","Spot":1.0,"SideOfStreet":"right","CountryId":"20215059","StateId":"20221903","CountyId":"20221908","CityId":"20297176"}}},{"Relevance":1.0,"Distance":46.0,"MatchLevel":"street","MatchQuality":{"Country":1.0,"State":1.0,"County":1.0,"City":1.0,"PostalCode":1.0},"Location":{"LocationId":"NT_SCzFZQupay.d-kSmvvp46A_l_1037811161_R","LocationType":"point","DisplayPosition":{"Latitude":40.09827,"Longitude":-4.64464},"MapView":{"TopLeft":{"Latitude":40.09843,"Longitude":-4.64464},"BottomRight":{"Latitude":40.09808,"Longitude":-4.63975}},"Address":{"Label":"45643 Garciotum (Toledo), España","Country":"ESP","State":"Castilla-La Mancha","County":"Toledo","City":"Garciotum","PostalCode":"45643","AdditionalData":[{"value":"España","key":"CountryName"},{"value":"Castilla-La Mancha","key":"StateName"},{"value":"Toledo","key":"CountyName"}]},"MapReference":{"ReferenceId":"1037811161","Spot":1.0,"SideOfStreet":"right","CountryId":"20215059","StateId":"20221903","CountyId":"20221908","CityId":"20297176"}}}]}]}}