{"Response":{"MetaInfo":{"Timestamp":"2020-03-28T09:58:42.560+0000","NextPageInformation":"2"},"View":[{"_type":"SearchResultsViewType","ViewId":0,"Result":[{"Relevance":1.0,"Distance":0.0,"Direction":0.0,"MatchLevel":"district","MatchQuality":{"Country":1.0,"County":1.0,"City":1.0,"District":1.0,"PostalCode":1.0},"Location":{"LocationId":"NT_4dzgEvtbR4aN6tYYJWdV3D","LocationType":"point","DisplayPosition":{"Latitude":40.1426474,"Longitude":-7.4968801},"MapView":{"TopLeft":{"Latitude":40.18001,"Longitude":-7.50989},"BottomRight":{"Latitude":40.12953,"Longitude":-7.48118}},"Address":{"Label":"Fundão, Portugal","Country":"PRT","County":"Castelo Branco","City":"Fundão","District":"Fundão","PostalCode":"6230-398","AdditionalData":[{"value":"Portugal","key":"CountryName"},{"value":"Castelo Branco","key":"CountyName"}]},"MapReference":{"ReferenceId":"995423920","SideOfStreet":"neither","CountryId":"20317122","CountyId":"20318327","CityId":"20318391","DistrictId":"20318408"}}},{"Relevance":1.0,"Distance":3.6,"MatchLevel":"street","MatchQuality":{"Country":1.0,"County":1.0,"City":1.0,"District":1.0,"Street":[1.0],"PostalCode":1.0},"Location":{"LocationId":"NT_.bCLPKReBTvpA7Xvs72rwD_l_590388205_L","LocationType":"point","DisplayPosition":{"Latitude":40.1426308,"Longitude":-7.4968443},"MapView":{"TopLeft":{"Latitude":40.14272,"Longitude":-7.49719},"BottomRight":{"Latitude":40.1421,"Longitude":-7.4968}},"Address":{"Label":"Rua António Antunes Pião, 6230-481 Fundão, Portugal","Country":"PRT","County":"Castelo Branco","City":"Fundão","District":"Fundão","Street":"Rua António Antunes Pião","PostalCode":"6230-481","AdditionalData":[{"value":"Portugal","key":"CountryName"},{"value":"Castelo Branco","key":"CountyName"}]},"MapReference":{"ReferenceId":"590388205","Spot":0.87,"SideOfStreet":"left","CountryId":"20317122","CountyId":"20318327","CityId":"20318391","DistrictId":"20318408"}}},{"Relevance":1.0,"Distance":26.7,"MatchLevel":"street","MatchQuality":{"Country":1.0,"County":1.0,"City":1.0,"District":1.0,"PostalCode":1.0},"Location":{"LocationId":"NT_zqa-nAxj3lG0j8wpyueALA_l_590388197_L","LocationType":"point","DisplayPosition":{"Latitude":40.14274,"Longitude":-7.49659},"MapView":{"TopLeft":{"Latitude":40.14302,"Longitude":-7.49668},"BottomRight":{"Latitude":40.14256,"Longitude":-7.49636}},"Address":{"Label":"6230 Fundão, Portugal","Country":"PRT","County":"Castelo Branco","City":"Fundão","District":"Fundão","PostalCode":"6230","AdditionalData":[{"value":"Portugal","key":"CountryName"},{"value":"Castelo Branco","key":"CountyName"}]},"MapReference":{"ReferenceId":"590388197","Spot":0.52,"SideOfStreet":"left","CountryId":"20317122","CountyId":"20318327","CityId":"20318391","DistrictId":"20318408"}}},{"Relevance":1.0,"Distance":35.5,"MatchLevel":"houseNumber","MatchQuality":{"Country":1.0,"County":1.0,"City":1.0,"District":1.0,"Street":[1.0],"HouseNumber":1.0,"PostalCode":1.0},"MatchType":"interpolated","Location":{"LocationId":"NT_n8C8WpIfek7ziRafxrrazC_yUD","LocationType":"point","DisplayPosition":{"Latitude":40.1425,"Longitude":-7.49725},"MapView":{"TopLeft":{"Latitude":40.1436242,"Longitude":-7.4987205},"BottomRight":{"Latitude":40.1413758,"Longitude":-7.4957795}},"Address":{"Label":"Rua Cidade da Covilhã 25, 6230-481 Fundão, Portugal","Country":"PRT","County":"Castelo Branco","City":"Fundão","District":"Fundão","Street":"Rua Cidade da Covilhã","HouseNumber":"25","PostalCode":"6230-481","AdditionalData":[{"value":"Portugal","key":"CountryName"},{"value":"Castelo Branco","key":"CountyName"}]},"MapReference":{"ReferenceId":"1048330256","Spot":0.36,"SideOfStreet":"left","CountryId":"20317122","CountyId":"20318327","CityId":"20318391","DistrictId":"20318408","AddressId":"342952979","RoadLinkId":"368471939"}}},{"Relevance":1.0,"Distance":44.8,"MatchLevel":"street","MatchQuality":{"Country":1.0,"County":1.0,"City":1.0,"District":1.0,"Street":[1.0],"PostalCode":1.0},"Location":{"LocationId":"NT_g3i2S9xPfYkAUeWMCvAmcB_l_590388200_L","LocationType":"point","DisplayPosition":{"Latitude":40.14302,"Longitude":-7.49668},"MapView":{"TopLeft":{"Latitude":40.14322,"Longitude":-7.49674},"BottomRight":{"Latitude":40.14302,"Longitude":-7.49668}},"Address":{"Label":"Rua António Antunes Pião, 6230-200 Fundão, Portugal","Country":"PRT","County":"Castelo Branco","City":"Fundão","District":"Fundão","Street":"Rua António Antunes Pião","PostalCode":"6230-200","AdditionalData":[{"value":"Portugal","key":"CountryName"},{"value":"Castelo Branco","key":"CountyName"}]},"MapReference":{"ReferenceId":"590388200","Spot":0.0,"SideOfStreet":"left","CountryId":"20317122","CountyId":"20318327","CityId":"20318391","DistrictId":"20318408"}}},{"Relevance":1.0,"Distance":45.0,"MatchLevel":"street","MatchQuality":{"Country":1.0,"County":1.0,"City":1.0,"District":1.0,"Street":[1.0],"PostalCode":1.0},"Location":{"LocationId":"NT_ORX5BBOLY0jb4PGClB4YcB_l_1186188460_L","LocationType":"point","DisplayPosition":{"Latitude":40.14257,"Longitude":-7.49636},"MapView":{"TopLeft":{"Latitude":40.14297,"Longitude":-7.49636},"BottomRight":{"Latitude":40.14257,"Longitude":-7.49459}},"Address":{"Label":"Largo do Cabecinho, 6230 Fundão, Portugal","Country":"PRT","County":"Castelo Branco","City":"Fundão","District":"Fundão","Street":"Largo do Cabecinho","PostalCode":"6230","AdditionalData":[{"value":"Portugal","key":"CountryName"},{"value":"Castelo Branco","key":"CountyName"}]},"MapReference":{"ReferenceId":"1186188460","Spot":0.0,"SideOfStreet":"left","CountryId":"20317122","CountyId":"20318327","CityId":"20318391","DistrictId":"20318408"}}},{"Relevance":1.0,"Distance":45.0,"MatchLevel":"street","MatchQuality":{"Country":1.0,"County":1.0,"City":1.0,"District":1.0,"PostalCode":1.0},"Location":{"LocationId":"NT_zqa-nAxj3lG0j8wpyueALA_l_590388194_L","LocationType":"point","DisplayPosition":{"Latitude":40.14257,"Longitude":-7.49636},"MapView":{"TopLeft":{"Latitude":40.14257,"Longitude":-7.49636},"BottomRight":{"Latitude":40.14206,"Longitude":-7.49623}},"Address":{"Label":"6230 Fundão, Portugal","Country":"PRT","County":"Castelo Branco","City":"Fundão","District":"Fundão","PostalCode":"6230","AdditionalData":[{"value":"Portugal","key":"CountryName"},{"value":"Castelo Branco","key":"CountyName"}]},"MapReference":{"ReferenceId":"590388194","Spot":1.0,"SideOfStreet":"left","CountryId":"20317122","CountyId":"20318327","CityId":"20318391","DistrictId":"20318408"}}},{"Relevance":1.0,"Distance":64.8,"MatchLevel":"street","MatchQuality":{"Country":1.0,"County":1.0,"City":1.0,"District":1.0,"Street":[1.0],"PostalCode":1.0},"Location":{"LocationId":"NT_g3i2S9xPfYkAUeWMCvAmcB_l_590388186_L","LocationType":"point","DisplayPosition":{"Latitude":40.14322,"Longitude":-7.49674},"MapView":{"TopLeft":{"Latitude":40.14485,"Longitude":-7.49824},"BottomRight":{"Latitude":40.14322,"Longitude":-7.49674}},"Address":{"Label":"Rua António Antunes Pião, 6230-200 Fundão, Portugal","Country":"PRT","County":"Castelo Branco","City":"Fundão","District":"Fundão","Street":"Rua António Antunes Pião","PostalCode":"6230-200","AdditionalData":[{"value":"Portugal","key":"CountryName"},{"value":"Castelo Branco","key":"CountyName"}]},"MapReference":{"ReferenceId":"590388186","Spot":0.0,"SideOfStreet":"left","CountryId":"20317122","CountyId":"20318327","CityId":"20318391","DistrictId":"20318408"}}},{"Relevance":1.0,"Distance":64.8,"MatchLevel":"street","MatchQuality":{"Country":1.0,"County":1.0,"City":1.0,"District":1.0,"PostalCode":1.0},"Location":{"LocationId":"NT_zqa-nAxj3lG0j8wpyueALA_l_590388185_R","LocationType":"point","DisplayPosition":{"Latitude":40.14322,"Longitude":-7.49674},"MapView":{"TopLeft":{"Latitude":40.14341,"Longitude":-7.49674},"BottomRight":{"Latitude":40.14322,"Longitude":-7.49663}},"Address":{"Label":"6230 Fundão, Portugal","Country":"PRT","County":"Castelo Branco","City":"Fundão","District":"Fundão","PostalCode":"6230","AdditionalData":[{"value":"Portugal","key":"CountryName"},{"value":"Castelo Branco","key":"CountyName"}]},"MapReference":{"ReferenceId":"590388185","Spot":0.0,"SideOfStreet":"right","CountryId":"20317122","CountyId":"20318327","CityId":"20318391","DistrictId":"20318408"}}},{"Relevance":1.0,"Distance":71.3,"MatchLevel":"street","MatchQuality":{"Country":1.0,"County":1.0,"City":1.0,"District":1.0,"PostalCode":1.0},"Location":{"LocationId":"NT_wT8g0VdHi8M-KCEeiWJq.B_l_590388175_R","LocationType":"point","DisplayPosition":{"Latitude":40.1420071,"Longitude":-7.4968481},"MapView":{"TopLeft":{"Latitude":40.14201,"Longitude":-7.49719},"BottomRight":{"Latitude":40.1419,"Longitude":-7.49678}},"Address":{"Label":"6230-481 Fundão, Portugal","Country":"PRT","County":"Castelo Branco","City":"Fundão","District":"Fundão","PostalCode":"6230-481","AdditionalData":[{"value":"Portugal","key":"CountryName"},{"value":"Castelo Branco","key":"CountyName"}]},"MapReference":{"ReferenceId":"590388175","Spot":0.33,"SideOfStreet":"right","CountryId":"20317122","CountyId":"20318327","CityId":"20318391","DistrictId":"20318408"}}}]}]}}