{"Response":{"MetaInfo":{"Timestamp":"2020-03-28T11:33:02.323+0000","NextPageInformation":"2"},"View":[{"_type":"SearchResultsViewType","ViewId":0,"Result":[{"Relevance":1.0,"Distance":0.0,"Direction":0.0,"MatchLevel":"district","MatchQuality":{"Country":1.0,"County":1.0,"City":1.0,"District":1.0,"PostalCode":1.0},"Location":{"LocationId":"NT_WkXGj8NVhGPPHq32F94hTD","LocationType":"point","DisplayPosition":{"Latitude":40.149944,"Longitude":-8.6510938},"MapView":{"TopLeft":{"Latitude":40.15614,"Longitude":-8.65888},"BottomRight":{"Latitude":40.14611,"Longitude":-8.64502}},"Address":{"Label":"Alfarelos, Soure, Portugal","Country":"PRT","County":"Coimbra","City":"Soure","District":"Alfarelos","PostalCode":"3130-001","AdditionalData":[{"value":"Portugal","key":"CountryName"},{"value":"Coimbra","key":"CountyName"}]},"MapReference":{"ReferenceId":"956544378","SideOfStreet":"neither","CountryId":"20317122","CountyId":"20318498","CityId":"20318689","DistrictId":"20318690"}}},{"Relevance":1.0,"Distance":7.0,"MatchLevel":"houseNumber","MatchQuality":{"Country":1.0,"County":1.0,"City":1.0,"District":1.0,"Street":[1.0],"HouseNumber":1.0,"PostalCode":1.0},"MatchType":"interpolated","Location":{"LocationId":"NT_qRlgQvDNLRQCYk6E5X.u6C_yED","LocationType":"point","DisplayPosition":{"Latitude":40.14999,"Longitude":-8.65115},"MapView":{"TopLeft":{"Latitude":40.1511142,"Longitude":-8.6526207},"BottomRight":{"Latitude":40.1488658,"Longitude":-8.6496793}},"Address":{"Label":"Praça Luís de Camões 21, 3130-001 Soure, Portugal","Country":"PRT","County":"Coimbra","City":"Soure","District":"Alfarelos","Street":"Praça Luís de Camões","HouseNumber":"21","PostalCode":"3130-001","AdditionalData":[{"value":"Portugal","key":"CountryName"},{"value":"Coimbra","key":"CountyName"}]},"MapReference":{"ReferenceId":"587898493","Spot":0.25,"SideOfStreet":"right","CountryId":"20317122","CountyId":"20318498","CityId":"20318689","DistrictId":"20318690","AddressId":"343503427","RoadLinkId":"69724150"}}},{"Relevance":1.0,"Distance":16.7,"MatchLevel":"street","MatchQuality":{"Country":1.0,"County":1.0,"City":1.0,"District":1.0,"PostalCode":1.0},"Location":{"LocationId":"NT_KgsEQ7mVu.m6zwR.MZrfUD_l_587898564_R","LocationType":"point","DisplayPosition":{"Latitude":40.14993,"Longitude":-8.65129},"MapView":{"TopLeft":{"Latitude":40.14995,"Longitude":-8.65132},"BottomRight":{"Latitude":40.14974,"Longitude":-8.65129}},"Address":{"Label":"3130-001 Soure, Portugal","Country":"PRT","County":"Coimbra","City":"Soure","District":"Alfarelos","PostalCode":"3130-001","AdditionalData":[{"value":"Portugal","key":"CountryName"},{"value":"Coimbra","key":"CountyName"}]},"MapReference":{"ReferenceId":"587898564","Spot":0.87,"SideOfStreet":"right","CountryId":"20317122","CountyId":"20318498","CityId":"20318689","DistrictId":"20318690"}}},{"Relevance":1.0,"Distance":18.4,"MatchLevel":"street","MatchQuality":{"Country":1.0,"County":1.0,"City":1.0,"District":1.0,"Street":[1.0],"PostalCode":1.0},"Location":{"LocationId":"NT_qRlgQvDNLRQCYk6E5X.u6C_l_587898317_R","LocationType":"point","DisplayPosition":{"Latitude":40.1499858,"Longitude":-8.6513028},"MapView":{"TopLeft":{"Latitude":40.15,"Longitude":-8.65131},"BottomRight":{"Latitude":40.14995,"Longitude":-8.6513}},"Address":{"Label":"Praça Luís de Camões, 3130-001 Soure, Portugal","Country":"PRT","County":"Coimbra","City":"Soure","District":"Alfarelos","Street":"Praça Luís de Camões","PostalCode":"3130-001","AdditionalData":[{"value":"Portugal","key":"CountryName"},{"value":"Coimbra","key":"CountyName"}]},"MapReference":{"ReferenceId":"587898317","Spot":0.72,"SideOfStreet":"right","CountryId":"20317122","CountyId":"20318498","CityId":"20318689","DistrictId":"20318690"}}},{"Relevance":1.0,"Distance":25.5,"MatchLevel":"houseNumber","MatchQuality":{"Country":1.0,"County":1.0,"City":1.0,"District":1.0,"Street":[1.0],"HouseNumber":1.0,"PostalCode":1.0},"MatchType":"interpolated","Location":{"LocationId":"NT_qRlgQvDNLRQCYk6E5X.u6C_xMD","LocationType":"point","DisplayPosition":{"Latitude":40.15013,"Longitude":-8.65127},"MapView":{"TopLeft":{"Latitude":40.1512542,"Longitude":-8.6527407},"BottomRight":{"Latitude":40.1490058,"Longitude":-8.6497993}},"Address":{"Label":"Praça Luís de Camões 13, 3130-001 Soure, Portugal","Country":"PRT","County":"Coimbra","City":"Soure","District":"Alfarelos","Street":"Praça Luís de Camões","HouseNumber":"13","PostalCode":"3130-001","AdditionalData":[{"value":"Portugal","key":"CountryName"},{"value":"Coimbra","key":"CountyName"}]},"MapReference":{"ReferenceId":"587898436","Spot":0.48,"SideOfStreet":"right","CountryId":"20317122","CountyId":"20318498","CityId":"20318689","DistrictId":"20318690","AddressId":"344051242","RoadLinkId":"69740692"}}},{"Relevance":1.0,"Distance":29.7,"MatchLevel":"street","MatchQuality":{"Country":1.0,"County":1.0,"City":1.0,"District":1.0,"PostalCode":1.0},"Location":{"LocationId":"NT_KgsEQ7mVu.m6zwR.MZrfUD_l_587898476_R","LocationType":"point","DisplayPosition":{"Latitude":40.14974,"Longitude":-8.65132},"MapView":{"TopLeft":{"Latitude":40.14979,"Longitude":-8.65178},"BottomRight":{"Latitude":40.14974,"Longitude":-8.65132}},"Address":{"Label":"3130-001 Soure, Portugal","Country":"PRT","County":"Coimbra","City":"Soure","District":"Alfarelos","PostalCode":"3130-001","AdditionalData":[{"value":"Portugal","key":"CountryName"},{"value":"Coimbra","key":"CountyName"}]},"MapReference":{"ReferenceId":"587898476","Spot":0.0,"SideOfStreet":"right","CountryId":"20317122","CountyId":"20318498","CityId":"20318689","DistrictId":"20318690"}}},{"Relevance":1.0,"Distance":42.1,"MatchLevel":"houseNumber","MatchQuality":{"Country":1.0,"County":1.0,"City":1.0,"District":1.0,"Street":[1.0],"HouseNumber":1.0,"PostalCode":1.0},"MatchType":"interpolated","Location":{"LocationId":"NT_lylJVPCMwIQHX76xso8uKC_3A","LocationType":"point","DisplayPosition":{"Latitude":40.1496,"Longitude":-8.65133},"MapView":{"TopLeft":{"Latitude":40.1507242,"Longitude":-8.6528007},"BottomRight":{"Latitude":40.1484758,"Longitude":-8.6498593}},"Address":{"Label":"Largo dos Combatentes da Grande Guerra 7, 3130-001 Soure, Portugal","Country":"PRT","County":"Coimbra","City":"Soure","District":"Alfarelos","Street":"Largo dos Combatentes da Grande Guerra","HouseNumber":"7","PostalCode":"3130-001","AdditionalData":[{"value":"Portugal","key":"CountryName"},{"value":"Coimbra","key":"CountyName"}]},"MapReference":{"ReferenceId":"587898433","Spot":0.45,"SideOfStreet":"right","CountryId":"20317122","CountyId":"20318498","CityId":"20318689","DistrictId":"20318690","AddressId":"343594075","RoadLinkId":"70851228"}}},{"Relevance":1.0,"Distance":42.4,"MatchLevel":"houseNumber","MatchQuality":{"Country":1.0,"County":1.0,"City":1.0,"District":1.0,"Street":[1.0],"HouseNumber":1.0,"PostalCode":1.0},"MatchType":"interpolated","Location":{"LocationId":"NT_qRlgQvDNLRQCYk6E5X.u6C_xAD","LocationType":"point","DisplayPosition":{"Latitude":40.15028,"Longitude":-8.65133},"MapView":{"TopLeft":{"Latitude":40.1514042,"Longitude":-8.6528007},"BottomRight":{"Latitude":40.1491558,"Longitude":-8.6498593}},"Address":{"Label":"Praça Luís de Camões 10, 3130-001 Soure, Portugal","Country":"PRT","County":"Coimbra","City":"Soure","District":"Alfarelos","Street":"Praça Luís de Camões","HouseNumber":"10","PostalCode":"3130-001","AdditionalData":[{"value":"Portugal","key":"CountryName"},{"value":"Coimbra","key":"CountyName"}]},"MapReference":{"ReferenceId":"587898478","Spot":0.74,"SideOfStreet":"left","CountryId":"20317122","CountyId":"20318498","CityId":"20318689","DistrictId":"20318690","AddressId":"343752752","RoadLinkId":"70685404"}}},{"Relevance":1.0,"Distance":43.2,"MatchLevel":"houseNumber","MatchQuality":{"Country":1.0,"County":1.0,"City":1.0,"District":1.0,"Street":[1.0],"HouseNumber":1.0,"PostalCode":1.0},"MatchType":"interpolated","Location":{"LocationId":"NT_qRlgQvDNLRQCYk6E5X.u6C_yYD","LocationType":"point","DisplayPosition":{"Latitude":40.14998,"Longitude":-8.6516},"MapView":{"TopLeft":{"Latitude":40.1511042,"Longitude":-8.6530707},"BottomRight":{"Latitude":40.1488558,"Longitude":-8.6501293}},"Address":{"Label":"Praça Luís de Camões 26, 3130-001 Soure, Portugal","Country":"PRT","County":"Coimbra","City":"Soure","District":"Alfarelos","Street":"Praça Luís de Camões","HouseNumber":"26","PostalCode":"3130-001","AdditionalData":[{"value":"Portugal","key":"CountryName"},{"value":"Coimbra","key":"CountyName"}]},"MapReference":{"ReferenceId":"587898335","Spot":0.83,"SideOfStreet":"left","CountryId":"20317122","CountyId":"20318498","CityId":"20318689","DistrictId":"20318690","AddressId":"377393676","RoadLinkId":"69356523"}}},{"Relevance":1.0,"Distance":46.3,"MatchLevel":"houseNumber","MatchQuality":{"Country":1.0,"County":1.0,"City":1.0,"District":1.0,"Street":[1.0],"HouseNumber":1.0,"PostalCode":1.0},"MatchType":"interpolated","Location":{"LocationId":"NT_LS1IyqjQT34raAh22yB3KD_yA","LocationType":"point","DisplayPosition":{"Latitude":40.15039,"Longitude":-8.65112},"MapView":{"TopLeft":{"Latitude":40.1515142,"Longitude":-8.6525907},"BottomRight":{"Latitude":40.1492658,"Longitude":-8.6496493}},"Address":{"Label":"Ladeira do Outeiro 2, 3130-001 Soure, Portugal","Country":"PRT","County":"Coimbra","City":"Soure","District":"Alfarelos","Street":"Ladeira do Outeiro","HouseNumber":"2","PostalCode":"3130-001","AdditionalData":[{"value":"Portugal","key":"CountryName"},{"value":"Coimbra","key":"CountyName"}]},"MapReference":{"ReferenceId":"587898400","Spot":0.14,"SideOfStreet":"right","CountryId":"20317122","CountyId":"20318498","CityId":"20318689","DistrictId":"20318690","AddressId":"343734410","RoadLinkId":"69971158"}}}]}]}}