{"Response":{"MetaInfo":{"Timestamp":"2020-03-28T09:43:02.968+0000","NextPageInformation":"2"},"View":[{"_type":"SearchResultsViewType","ViewId":0,"Result":[{"Relevance":1.0,"Distance":0.0,"Direction":0.0,"MatchLevel":"city","MatchQuality":{"Country":1.0,"State":1.0,"County":1.0,"City":1.0,"PostalCode":1.0},"Location":{"LocationId":"NT_1u1qIj69kf83qx9CEGtgeB","LocationType":"point","DisplayPosition":{"Latitude":40.1560747,"Longitude":0.0445111},"MapView":{"TopLeft":{"Latitude":40.20531,"Longitude":0.01459},"BottomRight":{"Latitude":40.07594,"Longitude":0.2008}},"Address":{"Label":"Cabanes, Comunitat Valenciana, Espanya","Country":"ESP","State":"Comunitat Valenciana","County":"Castelló","City":"Cabanes","PostalCode":"12180","AdditionalData":[{"value":"Espanya","key":"CountryName"},{"value":"Comunitat Valenciana","key":"StateName"},{"value":"Castelló","key":"CountyName"}]},"MapReference":{"ReferenceId":"767273874","SideOfStreet":"neither","CountryId":"20215059","StateId":"20226784","CountyId":"20226786","CityId":"20249514"}}},{"Relevance":1.0,"Distance":11.5,"MatchLevel":"houseNumber","MatchQuality":{"Country":1.0,"State":1.0,"County":1.0,"City":1.0,"Street":[1.0],"HouseNumber":1.0,"PostalCode":1.0},"MatchType":"interpolated","Location":{"LocationId":"NT_vOvFHqUs8qbevRVImtcR8C_xED","LocationType":"point","DisplayPosition":{"Latitude":40.1562,"Longitude":0.04449},"MapView":{"TopLeft":{"Latitude":40.1573242,"Longitude":0.0430192},"BottomRight":{"Latitude":40.1550758,"Longitude":0.0459608}},"Address":{"Label":"Calle Hospital, 11, 12180 Cabanes (Castellón), Espanya","Country":"ESP","State":"Comunidad Valenciana","County":"Castellón","City":"Cabanes","Street":"Calle Hospital","HouseNumber":"11","PostalCode":"12180","AdditionalData":[{"value":"Espanya","key":"CountryName"},{"value":"Comunidad Valenciana","key":"StateName"},{"value":"Castellón","key":"CountyName"}]},"MapReference":{"ReferenceId":"553415633","Spot":0.0,"SideOfStreet":"right","CountryId":"20215059","StateId":"20226784","CountyId":"20226786","CityId":"20249514","AddressId":"269426137","RoadLinkId":"65736842"}}},{"Relevance":1.0,"Distance":14.9,"MatchLevel":"houseNumber","MatchQuality":{"Country":1.0,"State":1.0,"County":1.0,"City":1.0,"Street":[1.0],"HouseNumber":1.0,"PostalCode":1.0},"MatchType":"interpolated","Location":{"LocationId":"NT_d1ZzeeeTg1IA37V8AcmnKA_xYD","LocationType":"point","DisplayPosition":{"Latitude":40.15594,"Longitude":0.04443},"MapView":{"TopLeft":{"Latitude":40.1570642,"Longitude":0.0429592},"BottomRight":{"Latitude":40.1548158,"Longitude":0.0459008}},"Address":{"Label":"Calle Ramón y Cajal, 16, 12180 Cabanes (Castellón), Espanya","Country":"ESP","State":"Comunidad Valenciana","County":"Castellón","City":"Cabanes","Street":"Calle Ramón y Cajal","HouseNumber":"16","PostalCode":"12180","AdditionalData":[{"value":"Espanya","key":"CountryName"},{"value":"Comunidad Valenciana","key":"StateName"},{"value":"Castellón","key":"CountyName"}]},"MapReference":{"ReferenceId":"553415715","Spot":0.84,"SideOfStreet":"left","CountryId":"20215059","StateId":"20226784","CountyId":"20226786","CityId":"20249514","AddressId":"269454026","RoadLinkId":"421527120"}}},{"Relevance":1.0,"Distance":18.6,"MatchLevel":"houseNumber","MatchQuality":{"Country":1.0,"State":1.0,"County":1.0,"City":1.0,"Street":[1.0],"HouseNumber":1.0,"PostalCode":1.0},"MatchType":"interpolated","Location":{"LocationId":"NT_QhlGWoEMGv2EOZDJp4iA6B_xA","LocationType":"point","DisplayPosition":{"Latitude":40.15624,"Longitude":0.04448},"MapView":{"TopLeft":{"Latitude":40.1573642,"Longitude":0.0430092},"BottomRight":{"Latitude":40.1551158,"Longitude":0.0459508}},"Address":{"Label":"Calle Peñagolosa, 1, 12180 Cabanes (Castellón), Espanya","Country":"ESP","State":"Comunidad Valenciana","County":"Castellón","City":"Cabanes","Street":"Calle Peñagolosa","HouseNumber":"1","PostalCode":"12180","AdditionalData":[{"value":"Espanya","key":"CountryName"},{"value":"Comunidad Valenciana","key":"StateName"},{"value":"Castellón","key":"CountyName"}]},"MapReference":{"ReferenceId":"553415643","Spot":0.05,"SideOfStreet":"left","CountryId":"20215059","StateId":"20226784","CountyId":"20226786","CityId":"20249514","AddressId":"269494785","RoadLinkId":"421527250"}}},{"Relevance":1.0,"Distance":19.5,"MatchLevel":"houseNumber","MatchQuality":{"Country":1.0,"State":1.0,"County":1.0,"City":1.0,"Street":[1.0],"HouseNumber":1.0,"PostalCode":1.0},"MatchType":"interpolated","Location":{"LocationId":"NT_vOvFHqUs8qbevRVImtcR8C_xMD","LocationType":"point","DisplayPosition":{"Latitude":40.15619,"Longitude":0.0443},"MapView":{"TopLeft":{"Latitude":40.1573142,"Longitude":0.0428292},"BottomRight":{"Latitude":40.1550658,"Longitude":0.0457708}},"Address":{"Label":"Calle Hospital, 13, 12180 Cabanes (Castellón), Espanya","Country":"ESP","State":"Comunidad Valenciana","County":"Castellón","City":"Cabanes","Street":"Calle Hospital","HouseNumber":"13","PostalCode":"12180","AdditionalData":[{"value":"Espanya","key":"CountryName"},{"value":"Comunidad Valenciana","key":"StateName"},{"value":"Castellón","key":"CountyName"}]},"MapReference":{"ReferenceId":"553415990","Spot":0.27,"SideOfStreet":"right","CountryId":"20215059","StateId":"20226784","CountyId":"20226786","CityId":"20249514","AddressId":"269401499","RoadLinkId":"421527308"}}},{"Relevance":1.0,"Distance":20.3,"MatchLevel":"houseNumber","MatchQuality":{"Country":1.0,"State":1.0,"County":1.0,"City":1.0,"Street":[1.0],"HouseNumber":1.0,"PostalCode":1.0},"MatchType":"interpolated","Location":{"LocationId":"NT_d1ZzeeeTg1IA37V8AcmnKA_yQD","LocationType":"point","DisplayPosition":{"Latitude":40.15602,"Longitude":0.04425},"MapView":{"TopLeft":{"Latitude":40.1571442,"Longitude":0.0427792},"BottomRight":{"Latitude":40.1548958,"Longitude":0.0457208}},"Address":{"Label":"Calle Ramón y Cajal, 24, 12180 Cabanes (Castellón), Espanya","Country":"ESP","State":"Comunidad Valenciana","County":"Castellón","City":"Cabanes","Street":"Calle Ramón y Cajal","HouseNumber":"24","PostalCode":"12180","AdditionalData":[{"value":"Espanya","key":"CountryName"},{"value":"Comunidad Valenciana","key":"StateName"},{"value":"Castellón","key":"CountyName"}]},"MapReference":{"ReferenceId":"553415984","Spot":0.47,"SideOfStreet":"right","CountryId":"20215059","StateId":"20226784","CountyId":"20226786","CityId":"20249514","AddressId":"269454023","RoadLinkId":"421527180"}}},{"Relevance":1.0,"Distance":28.2,"MatchLevel":"houseNumber","MatchQuality":{"Country":1.0,"State":1.0,"County":1.0,"City":1.0,"Street":[1.0],"HouseNumber":1.0,"PostalCode":1.0},"MatchType":"interpolated","Location":{"LocationId":"NT_d1ZzeeeTg1IA37V8AcmnKA_zAD","LocationType":"point","DisplayPosition":{"Latitude":40.15623,"Longitude":0.04422},"MapView":{"TopLeft":{"Latitude":40.1573542,"Longitude":0.0427492},"BottomRight":{"Latitude":40.1551058,"Longitude":0.0456908}},"Address":{"Label":"Calle Ramón y Cajal, 30, 12180 Cabanes (Castellón), Espanya","Country":"ESP","State":"Comunidad Valenciana","County":"Castellón","City":"Cabanes","Street":"Calle Ramón y Cajal","HouseNumber":"30","PostalCode":"12180","AdditionalData":[{"value":"Espanya","key":"CountryName"},{"value":"Comunidad Valenciana","key":"StateName"},{"value":"Castellón","key":"CountyName"}]},"MapReference":{"ReferenceId":"553415985","Spot":0.27,"SideOfStreet":"right","CountryId":"20215059","StateId":"20226784","CountyId":"20226786","CityId":"20249514","AddressId":"383479738","RoadLinkId":"66081065"}}},{"Relevance":1.0,"Distance":30.5,"MatchLevel":"houseNumber","MatchQuality":{"Country":1.0,"State":1.0,"County":1.0,"City":1.0,"Street":[1.0],"HouseNumber":1.0,"PostalCode":1.0},"MatchType":"interpolated","Location":{"LocationId":"NT_D21iHwfY2TqW2GxpHmxItC_0A","LocationType":"point","DisplayPosition":{"Latitude":40.15608,"Longitude":0.0449},"MapView":{"TopLeft":{"Latitude":40.1572042,"Longitude":0.0434292},"BottomRight":{"Latitude":40.1549558,"Longitude":0.0463708}},"Address":{"Label":"Calle del Obispo Gavaldá, 4, 12180 Cabanes (Castellón), Espanya","Country":"ESP","State":"Comunidad Valenciana","County":"Castellón","City":"Cabanes","Street":"Calle del Obispo Gavaldá","HouseNumber":"4","PostalCode":"12180","AdditionalData":[{"value":"Espanya","key":"CountryName"},{"value":"Comunidad Valenciana","key":"StateName"},{"value":"Castellón","key":"CountyName"}]},"MapReference":{"ReferenceId":"553415655","Spot":0.59,"SideOfStreet":"left","CountryId":"20215059","StateId":"20226784","CountyId":"20226786","CityId":"20249514","AddressId":"368039994","RoadLinkId":"65399843"}}},{"Relevance":1.0,"Distance":33.0,"MatchLevel":"houseNumber","MatchQuality":{"Country":1.0,"State":1.0,"County":1.0,"City":1.0,"Street":[1.0],"HouseNumber":1.0,"PostalCode":1.0},"MatchType":"interpolated","Location":{"LocationId":"NT_MjbtPWaNEUyclREDIzmzlA_zID","LocationType":"point","DisplayPosition":{"Latitude":40.15575,"Longitude":0.04457},"MapView":{"TopLeft":{"Latitude":40.1568742,"Longitude":0.0430992},"BottomRight":{"Latitude":40.1546258,"Longitude":0.0460408}},"Address":{"Label":"Calle de San Vicente, 32, 12180 Cabanes (Castellón), Espanya","Country":"ESP","State":"Comunidad Valenciana","County":"Castellón","City":"Cabanes","Street":"Calle de San Vicente","HouseNumber":"32","PostalCode":"12180","AdditionalData":[{"value":"Espanya","key":"CountryName"},{"value":"Comunidad Valenciana","key":"StateName"},{"value":"Castellón","key":"CountyName"}]},"MapReference":{"ReferenceId":"553415695","Spot":0.4,"SideOfStreet":"left","CountryId":"20215059","StateId":"20226784","CountyId":"20226786","CityId":"20249514","AddressId":"269178279","RoadLinkId":"421527306"}}},{"Relevance":1.0,"Distance":34.2,"MatchLevel":"houseNumber","MatchQuality":{"Country":1.0,"State":1.0,"County":1.0,"City":1.0,"Street":[1.0],"HouseNumber":1.0,"PostalCode":1.0},"MatchType":"interpolated","Location":{"LocationId":"NT_d1ZzeeeTg1IA37V8AcmnKA_0A","LocationType":"point","DisplayPosition":{"Latitude":40.15579,"Longitude":0.04431},"MapView":{"TopLeft":{"Latitude":40.1569142,"Longitude":0.0428392},"BottomRight":{"Latitude":40.1546658,"Longitude":0.0457808}},"Address":{"Label":"Calle Ramón y Cajal, 4, 12180 Cabanes (Castellón), Espanya","Country":"ESP","State":"Comunidad Valenciana","County":"Castellón","City":"Cabanes","Street":"Calle Ramón y Cajal","HouseNumber":"4","PostalCode":"12180","AdditionalData":[{"value":"Espanya","key":"CountryName"},{"value":"Comunidad Valenciana","key":"StateName"},{"value":"Castellón","key":"CountyName"}]},"MapReference":{"ReferenceId":"553415714","Spot":0.57,"SideOfStreet":"right","CountryId":"20215059","StateId":"20226784","CountyId":"20226786","CityId":"20249514","AddressId":"269454034","RoadLinkId":"65880495"}}}]}]}}