{"Response":{"MetaInfo":{"Timestamp":"2020-03-28T11:33:37.193+0000","NextPageInformation":"2"},"View":[{"_type":"SearchResultsViewType","ViewId":0,"Result":[{"Relevance":1.0,"Distance":0.0,"Direction":0.0,"MatchLevel":"city","MatchQuality":{"Country":1.0,"County":1.0,"City":1.0,"PostalCode":1.0},"Location":{"LocationId":"NT_3-8H5m.YtM56vc1XS85CQB","LocationType":"point","DisplayPosition":{"Latitude":40.1311067,"Longitude":-8.8623405},"MapView":{"TopLeft":{"Latitude":40.32688,"Longitude":-8.90925},"BottomRight":{"Latitude":40.01253,"Longitude":-8.69988}},"Address":{"Label":"Figueira da Foz, Portugal","Country":"PRT","County":"Coimbra","City":"Figueira da Foz","PostalCode":"3080-016","AdditionalData":[{"value":"Portugal","key":"CountryName"},{"value":"Coimbra","key":"CountyName"}]},"MapReference":{"ReferenceId":"880716646","SideOfStreet":"neither","CountryId":"20317122","CountyId":"20318498","CityId":"20318580"}}},{"Relevance":1.0,"Distance":0.5,"MatchLevel":"street","MatchQuality":{"Country":1.0,"County":1.0,"City":1.0,"Street":[1.0],"PostalCode":1.0},"Location":{"LocationId":"NT_7X.pexqiTYyfNYXOs3lD2A_l_1077575732_L","LocationType":"point","DisplayPosition":{"Latitude":40.1311071,"Longitude":-8.8623466},"MapView":{"TopLeft":{"Latitude":40.13134,"Longitude":-8.86238},"BottomRight":{"Latitude":40.13008,"Longitude":-8.86225}},"Address":{"Label":"Rua Domingos São Marcos Laureano, 3090-879 Figueira da Foz, Portugal","Country":"PRT","County":"Coimbra","City":"Figueira da Foz","Street":"Rua Domingos São Marcos Laureano","PostalCode":"3090-879","AdditionalData":[{"value":"Portugal","key":"CountryName"},{"value":"Coimbra","key":"CountyName"}]},"MapReference":{"ReferenceId":"1077575732","Spot":0.81,"SideOfStreet":"neither","CountryId":"20317122","CountyId":"20318498","CityId":"20318580"}}},{"Relevance":1.0,"Distance":26.2,"MatchLevel":"street","MatchQuality":{"Country":1.0,"County":1.0,"City":1.0,"Street":[1.0],"PostalCode":1.0},"Location":{"LocationId":"NT_j9LAz1dsmONctWrBqyLu8C_l_545935744_R","LocationType":"point","DisplayPosition":{"Latitude":40.13134,"Longitude":-8.86238},"MapView":{"TopLeft":{"Latitude":40.13282,"Longitude":-8.86238},"BottomRight":{"Latitude":40.13134,"Longitude":-8.86095}},"Address":{"Label":"Rua da Praia, 3090-688 Figueira da Foz, Portugal","Country":"PRT","County":"Coimbra","City":"Figueira da Foz","Street":"Rua da Praia","PostalCode":"3090-688","AdditionalData":[{"value":"Portugal","key":"CountryName"},{"value":"Coimbra","key":"CountyName"}]},"MapReference":{"ReferenceId":"545935744","Spot":0.0,"SideOfStreet":"right","CountryId":"20317122","CountyId":"20318498","CityId":"20318580"}}},{"Relevance":1.0,"Distance":51.3,"MatchLevel":"landmark","MatchQuality":{"Country":1.0,"County":1.0,"City":1.0,"District":1.0,"PostalCode":1.0,"Name":1.0},"Location":{"LocationId":"NT_qM9gtsmUs2jZhc1wmGyYzA","LocationType":"hospital","Name":"Hospital Distrital Figueira da Foz","DisplayPosition":{"Latitude":40.13118,"Longitude":-8.86072},"MapView":{"TopLeft":{"Latitude":40.13282,"Longitude":-8.86219},"BottomRight":{"Latitude":40.12953,"Longitude":-8.85844}},"Address":{"Label":"3090-739 Figueira da Foz, Portugal","Country":"PRT","County":"Coimbra","City":"Figueira da Foz","District":"Gala","PostalCode":"3090-739","AdditionalData":[{"value":"Portugal","key":"CountryName"},{"value":"Coimbra","key":"CountyName"}]},"MapReference":{"CountryId":"20317122","CountyId":"20318498","CityId":"20318580","DistrictId":"20580282","PlaceId":"1406800409"}}},{"Relevance":1.0,"Distance":74.5,"MatchLevel":"street","MatchQuality":{"Country":1.0,"County":1.0,"City":1.0,"District":1.0,"PostalCode":1.0},"Location":{"LocationId":"NT_Br6UVejokInTqSxAAohIuB_l_545384801_L","LocationType":"point","DisplayPosition":{"Latitude":40.1310582,"Longitude":-8.8614668},"MapView":{"TopLeft":{"Latitude":40.13121,"Longitude":-8.86147},"BottomRight":{"Latitude":40.131,"Longitude":-8.86141}},"Address":{"Label":"3094-001 Figueira da Foz, Portugal","Country":"PRT","County":"Coimbra","City":"Figueira da Foz","District":"Gala","PostalCode":"3094-001","AdditionalData":[{"value":"Portugal","key":"CountryName"},{"value":"Coimbra","key":"CountyName"}]},"MapReference":{"ReferenceId":"545384801","Spot":0.24,"SideOfStreet":"left","CountryId":"20317122","CountyId":"20318498","CityId":"20318580","DistrictId":"20580282"}}},{"Relevance":1.0,"Distance":75.0,"MatchLevel":"street","MatchQuality":{"Country":1.0,"County":1.0,"City":1.0,"District":1.0,"PostalCode":1.0},"Location":{"LocationId":"NT_Br6UVejokInTqSxAAohIuB_l_1077569040_L","LocationType":"point","DisplayPosition":{"Latitude":40.131,"Longitude":-8.86147},"MapView":{"TopLeft":{"Latitude":40.131,"Longitude":-8.86147},"BottomRight":{"Latitude":40.13067,"Longitude":-8.86147}},"Address":{"Label":"3094-001 Figueira da Foz, Portugal","Country":"PRT","County":"Coimbra","City":"Figueira da Foz","District":"Gala","PostalCode":"3094-001","AdditionalData":[{"value":"Portugal","key":"CountryName"},{"value":"Coimbra","key":"CountyName"}]},"MapReference":{"ReferenceId":"1077569040","Spot":1.0,"SideOfStreet":"left","CountryId":"20317122","CountyId":"20318498","CityId":"20318580","DistrictId":"20580282"}}},{"Relevance":1.0,"Distance":75.0,"MatchLevel":"street","MatchQuality":{"Country":1.0,"County":1.0,"City":1.0,"District":1.0,"PostalCode":1.0},"Location":{"LocationId":"NT_Br6UVejokInTqSxAAohIuB_l_545384793_L","LocationType":"point","DisplayPosition":{"Latitude":40.131,"Longitude":-8.86147},"MapView":{"TopLeft":{"Latitude":40.131,"Longitude":-8.86147},"BottomRight":{"Latitude":40.131,"Longitude":-8.86121}},"Address":{"Label":"3094-001 Figueira da Foz, Portugal","Country":"PRT","County":"Coimbra","City":"Figueira da Foz","District":"Gala","PostalCode":"3094-001","AdditionalData":[{"value":"Portugal","key":"CountryName"},{"value":"Coimbra","key":"CountyName"}]},"MapReference":{"ReferenceId":"545384793","Spot":0.0,"SideOfStreet":"left","CountryId":"20317122","CountyId":"20318498","CityId":"20318580","DistrictId":"20580282"}}},{"Relevance":1.0,"Distance":79.2,"MatchLevel":"street","MatchQuality":{"Country":1.0,"County":1.0,"City":1.0,"District":1.0,"PostalCode":1.0},"Location":{"LocationId":"NT_Br6UVejokInTqSxAAohIuB_l_1077569041_L","LocationType":"point","DisplayPosition":{"Latitude":40.13113,"Longitude":-8.86141},"MapView":{"TopLeft":{"Latitude":40.13121,"Longitude":-8.86141},"BottomRight":{"Latitude":40.13106,"Longitude":-8.86131}},"Address":{"Label":"3094-001 Figueira da Foz, Portugal","Country":"PRT","County":"Coimbra","City":"Figueira da Foz","District":"Gala","PostalCode":"3094-001","AdditionalData":[{"value":"Portugal","key":"CountryName"},{"value":"Coimbra","key":"CountyName"}]},"MapReference":{"ReferenceId":"1077569041","Spot":0.62,"SideOfStreet":"left","CountryId":"20317122","CountyId":"20318498","CityId":"20318580","DistrictId":"20580282"}}},{"Relevance":1.0,"Distance":79.9,"MatchLevel":"street","MatchQuality":{"Country":1.0,"County":1.0,"City":1.0,"District":1.0,"PostalCode":1.0},"Location":{"LocationId":"NT_Br6UVejokInTqSxAAohIuB_l_1077569044_L","LocationType":"point","DisplayPosition":{"Latitude":40.13121,"Longitude":-8.86141},"MapView":{"TopLeft":{"Latitude":40.13134,"Longitude":-8.86141},"BottomRight":{"Latitude":40.13121,"Longitude":-8.86103}},"Address":{"Label":"3094-001 Figueira da Foz, Portugal","Country":"PRT","County":"Coimbra","City":"Figueira da Foz","District":"Gala","PostalCode":"3094-001","AdditionalData":[{"value":"Portugal","key":"CountryName"},{"value":"Coimbra","key":"CountyName"}]},"MapReference":{"ReferenceId":"1077569044","Spot":0.0,"SideOfStreet":"left","CountryId":"20317122","CountyId":"20318498","CityId":"20318580","DistrictId":"20580282"}}},{"Relevance":1.0,"Distance":88.5,"MatchLevel":"street","MatchQuality":{"Country":1.0,"County":1.0,"City":1.0,"District":1.0,"PostalCode":1.0},"Location":{"LocationId":"NT_Br6UVejokInTqSxAAohIuB_l_545384774_L","LocationType":"point","DisplayPosition":{"Latitude":40.13067,"Longitude":-8.86147},"MapView":{"TopLeft":{"Latitude":40.13067,"Longitude":-8.86147},"BottomRight":{"Latitude":40.13007,"Longitude":-8.86145}},"Address":{"Label":"3094-001 Figueira da Foz, Portugal","Country":"PRT","County":"Coimbra","City":"Figueira da Foz","District":"Gala","PostalCode":"3094-001","AdditionalData":[{"value":"Portugal","key":"CountryName"},{"value":"Coimbra","key":"CountyName"}]},"MapReference":{"ReferenceId":"545384774","Spot":1.0,"SideOfStreet":"left","CountryId":"20317122","CountyId":"20318498","CityId":"20318580","DistrictId":"20580282"}}}]}]}}