{"Response":{"MetaInfo":{"Timestamp":"2020-03-28T12:07:04.256+0000","NextPageInformation":"2"},"View":[{"_type":"SearchResultsViewType","ViewId":0,"Result":[{"Relevance":1.0,"Distance":0.0,"Direction":0.0,"MatchLevel":"district","MatchQuality":{"Country":1.0,"County":1.0,"City":1.0,"District":1.0,"PostalCode":1.0},"Location":{"LocationId":"NT_mBON-NV259pzlFIGNCp4AB","LocationType":"point","DisplayPosition":{"Latitude":40.1590608,"Longitude":-7.4301709},"MapView":{"TopLeft":{"Latitude":40.16211,"Longitude":-7.44018},"BottomRight":{"Latitude":40.15291,"Longitude":-7.42425}},"Address":{"Label":"Fatela, Fundão, Portugal","Country":"PRT","County":"Castelo Branco","City":"Fundão","District":"Fatela","PostalCode":"6230-180","AdditionalData":[{"value":"Portugal","key":"CountryName"},{"value":"Castelo Branco","key":"CountyName"}]},"MapReference":{"ReferenceId":"590352573","SideOfStreet":"neither","CountryId":"20317122","CountyId":"20318327","CityId":"20318391","DistrictId":"20318407"}}},{"Relevance":1.0,"Distance":4.3,"MatchLevel":"houseNumber","MatchQuality":{"Country":1.0,"County":1.0,"City":1.0,"District":1.0,"Street":[1.0],"HouseNumber":1.0,"PostalCode":1.0},"MatchType":"interpolated","Location":{"LocationId":"NT_67qxRrSAGy2rGsLYqYoVmD_xAD","LocationType":"point","DisplayPosition":{"Latitude":40.15906,"Longitude":-7.43012},"MapView":{"TopLeft":{"Latitude":40.1601842,"Longitude":-7.4315909},"BottomRight":{"Latitude":40.1579358,"Longitude":-7.4286491}},"Address":{"Label":"Estrada Nacional 10, 6230-180 Fundão, Portugal","Country":"PRT","County":"Castelo Branco","City":"Fundão","District":"Fatela","Street":"Estrada Nacional","HouseNumber":"10","PostalCode":"6230-180","AdditionalData":[{"value":"Portugal","key":"CountryName"},{"value":"Castelo Branco","key":"CountyName"}]},"MapReference":{"ReferenceId":"590370589","Spot":0.36,"SideOfStreet":"left","CountryId":"20317122","CountyId":"20318327","CityId":"20318391","DistrictId":"20318407","AddressId":"343185496","RoadLinkId":"70311005"}}},{"Relevance":1.0,"Distance":15.3,"MatchLevel":"houseNumber","MatchQuality":{"Country":1.0,"County":1.0,"City":1.0,"District":1.0,"Street":[1.0],"HouseNumber":1.0,"PostalCode":1.0},"MatchType":"interpolated","Location":{"LocationId":"NT_WBn5qvQsHU0mWmThsan1jD_1cD","LocationType":"point","DisplayPosition":{"Latitude":40.15898,"Longitude":-7.42998},"MapView":{"TopLeft":{"Latitude":40.1601042,"Longitude":-7.4314509},"BottomRight":{"Latitude":40.1578558,"Longitude":-7.4285091}},"Address":{"Label":"Rua Direita 57, 6230-180 Fundão, Portugal","Country":"PRT","County":"Castelo Branco","City":"Fundão","District":"Fatela","Street":"Rua Direita","HouseNumber":"57","PostalCode":"6230-180","AdditionalData":[{"value":"Portugal","key":"CountryName"},{"value":"Castelo Branco","key":"CountyName"}]},"MapReference":{"ReferenceId":"590370577","Spot":0.01,"SideOfStreet":"left","CountryId":"20317122","CountyId":"20318327","CityId":"20318391","DistrictId":"20318407","AddressId":"343107358","RoadLinkId":"69330633"}}},{"Relevance":1.0,"Distance":17.8,"MatchLevel":"street","MatchQuality":{"Country":1.0,"County":1.0,"City":1.0,"District":1.0,"Street":[1.0],"PostalCode":1.0},"Location":{"LocationId":"NT_hLqo0VVwXTiHY.lxZdXBZD_l_590370627_L","LocationType":"point","DisplayPosition":{"Latitude":40.15898,"Longitude":-7.42999},"MapView":{"TopLeft":{"Latitude":40.15898,"Longitude":-7.42999},"BottomRight":{"Latitude":40.15881,"Longitude":-7.42968}},"Address":{"Label":"Rua Torta, 6230-180 Fundão, Portugal","Country":"PRT","County":"Castelo Branco","City":"Fundão","District":"Fatela","Street":"Rua Torta","PostalCode":"6230-180","AdditionalData":[{"value":"Portugal","key":"CountryName"},{"value":"Castelo Branco","key":"CountyName"}]},"MapReference":{"ReferenceId":"590370627","Spot":1.0,"SideOfStreet":"left","CountryId":"20317122","CountyId":"20318327","CityId":"20318391","DistrictId":"20318407"}}},{"Relevance":1.0,"Distance":17.8,"MatchLevel":"houseNumber","MatchQuality":{"Country":1.0,"County":1.0,"City":1.0,"District":1.0,"Street":[1.0],"HouseNumber":1.0,"PostalCode":1.0},"MatchType":"interpolated","Location":{"LocationId":"NT_WBn5qvQsHU0mWmThsan1jD_1UD","LocationType":"point","DisplayPosition":{"Latitude":40.15889,"Longitude":-7.43007},"MapView":{"TopLeft":{"Latitude":40.1600142,"Longitude":-7.4315409},"BottomRight":{"Latitude":40.1577658,"Longitude":-7.4285991}},"Address":{"Label":"Rua Direita 55, 6230-180 Fundão, Portugal","Country":"PRT","County":"Castelo Branco","City":"Fundão","District":"Fatela","Street":"Rua Direita","HouseNumber":"55","PostalCode":"6230-180","AdditionalData":[{"value":"Portugal","key":"CountryName"},{"value":"Castelo Branco","key":"CountyName"}]},"MapReference":{"ReferenceId":"590370520","Spot":0.66,"SideOfStreet":"left","CountryId":"20317122","CountyId":"20318327","CityId":"20318391","DistrictId":"20318407","AddressId":"343120677","RoadLinkId":"69811821"}}},{"Relevance":1.0,"Distance":21.8,"MatchLevel":"street","MatchQuality":{"Country":1.0,"County":1.0,"City":1.0,"District":1.0,"Street":[1.0],"PostalCode":1.0},"Location":{"LocationId":"NT_ao9SkHp5E8PF6dTbWmKK-C_l_590352572_R","LocationType":"point","DisplayPosition":{"Latitude":40.1592438,"Longitude":-7.4302624},"MapView":{"TopLeft":{"Latitude":40.15929,"Longitude":-7.43036},"BottomRight":{"Latitude":40.15919,"Longitude":-7.43017}},"Address":{"Label":"N343, 6230-180 Fundão, Portugal","Country":"PRT","County":"Castelo Branco","City":"Fundão","District":"Fatela","Street":"N343","PostalCode":"6230-180","AdditionalData":[{"value":"Portugal","key":"CountryName"},{"value":"Castelo Branco","key":"CountyName"}]},"MapReference":{"ReferenceId":"590352572","Spot":0.52,"SideOfStreet":"right","CountryId":"20317122","CountyId":"20318327","CityId":"20318391","DistrictId":"20318407"}}},{"Relevance":1.0,"Distance":28.5,"MatchLevel":"houseNumber","MatchQuality":{"Country":1.0,"County":1.0,"City":1.0,"District":1.0,"Street":[1.0],"HouseNumber":1.0,"PostalCode":1.0},"MatchType":"interpolated","Location":{"LocationId":"NT_ao9SkHp5E8PF6dTbWmKK-C_4UD","LocationType":"point","DisplayPosition":{"Latitude":40.15911,"Longitude":-7.4305},"MapView":{"TopLeft":{"Latitude":40.1602342,"Longitude":-7.4319709},"BottomRight":{"Latitude":40.1579858,"Longitude":-7.4290291}},"Address":{"Label":"N343 85, 6230-180 Fundão, Portugal","Country":"PRT","County":"Castelo Branco","City":"Fundão","District":"Fatela","Street":"N343","HouseNumber":"85","PostalCode":"6230-180","AdditionalData":[{"value":"Portugal","key":"CountryName"},{"value":"Castelo Branco","key":"CountyName"}]},"MapReference":{"ReferenceId":"590352573","Spot":0.75,"SideOfStreet":"left","CountryId":"20317122","CountyId":"20318327","CityId":"20318391","DistrictId":"20318407","AddressId":"342954529","RoadLinkId":"69639574"}}},{"Relevance":1.0,"Distance":33.8,"MatchLevel":"houseNumber","MatchQuality":{"Country":1.0,"County":1.0,"City":1.0,"District":1.0,"Street":[1.0],"HouseNumber":1.0,"PostalCode":1.0},"MatchType":"interpolated","Location":{"LocationId":"NT_ao9SkHp5E8PF6dTbWmKK-C_l_590352566_L_4kD","LocationType":"point","DisplayPosition":{"Latitude":40.1593471,"Longitude":-7.4300367},"MapView":{"TopLeft":{"Latitude":40.1604713,"Longitude":-7.4315076},"BottomRight":{"Latitude":40.158223,"Longitude":-7.4285657}},"Address":{"Label":"N343 89, 6230-180 Fundão, Portugal","Country":"PRT","County":"Castelo Branco","City":"Fundão","District":"Fatela","Street":"N343","HouseNumber":"89","PostalCode":"6230-180","AdditionalData":[{"value":"Portugal","key":"CountryName"},{"value":"Castelo Branco","key":"CountyName"}]},"MapReference":{"ReferenceId":"590352566","Spot":0.54,"SideOfStreet":"left","CountryId":"20317122","CountyId":"20318327","CityId":"20318391","DistrictId":"20318407"}}},{"Relevance":1.0,"Distance":35.2,"MatchLevel":"houseNumber","MatchQuality":{"Country":1.0,"County":1.0,"City":1.0,"District":1.0,"Street":[1.0],"HouseNumber":1.0,"PostalCode":1.0},"MatchType":"interpolated","Location":{"LocationId":"NT_WBn5qvQsHU0mWmThsan1jD_zkD","LocationType":"point","DisplayPosition":{"Latitude":40.15874,"Longitude":-7.43028},"MapView":{"TopLeft":{"Latitude":40.1598642,"Longitude":-7.4317509},"BottomRight":{"Latitude":40.1576158,"Longitude":-7.4288091}},"Address":{"Label":"Rua Direita 39, 6230-180 Fundão, Portugal","Country":"PRT","County":"Castelo Branco","City":"Fundão","District":"Fatela","Street":"Rua Direita","HouseNumber":"39","PostalCode":"6230-180","AdditionalData":[{"value":"Portugal","key":"CountryName"},{"value":"Castelo Branco","key":"CountyName"}]},"MapReference":{"ReferenceId":"590370551","Spot":0.92,"SideOfStreet":"left","CountryId":"20317122","CountyId":"20318327","CityId":"20318391","DistrictId":"20318407","AddressId":"342543432","RoadLinkId":"70738337"}}},{"Relevance":1.0,"Distance":36.5,"MatchLevel":"houseNumber","MatchQuality":{"Country":1.0,"County":1.0,"City":1.0,"District":1.0,"Street":[1.0],"HouseNumber":1.0,"PostalCode":1.0},"MatchType":"interpolated","Location":{"LocationId":"NT_fMCV.vitR5t9yaJ0yBQyhC_0A","LocationType":"point","DisplayPosition":{"Latitude":40.15928,"Longitude":-7.43049},"MapView":{"TopLeft":{"Latitude":40.1604042,"Longitude":-7.4319609},"BottomRight":{"Latitude":40.1581558,"Longitude":-7.4290191}},"Address":{"Label":"Largo do Cavacal 4, 6230-180 Fundão, Portugal","Country":"PRT","County":"Castelo Branco","City":"Fundão","District":"Fatela","Street":"Largo do Cavacal","HouseNumber":"4","PostalCode":"6230-180","AdditionalData":[{"value":"Portugal","key":"CountryName"},{"value":"Castelo Branco","key":"CountyName"}]},"MapReference":{"ReferenceId":"590370543","Spot":0.71,"SideOfStreet":"right","CountryId":"20317122","CountyId":"20318327","CityId":"20318391","DistrictId":"20318407","AddressId":"343290270","RoadLinkId":"70689689"}}}]}]}}