{"Response":{"MetaInfo":{"Timestamp":"2020-03-28T09:46:46.673+0000","NextPageInformation":"2"},"View":[{"_type":"SearchResultsViewType","ViewId":0,"Result":[{"Relevance":1.0,"Distance":0.0,"Direction":0.0,"MatchLevel":"city","MatchQuality":{"Country":1.0,"State":1.0,"County":1.0,"City":1.0,"PostalCode":1.0},"Location":{"LocationId":"NT_Sfx6lI7FWlgAtEjSOBJVQC","LocationType":"point","DisplayPosition":{"Latitude":40.2127043,"Longitude":-4.7940076},"MapView":{"TopLeft":{"Latitude":40.2318,"Longitude":-4.8353},"BottomRight":{"Latitude":40.19114,"Longitude":-4.76792}},"Address":{"Label":"Sartajada, Castilla-La Mancha, España","Country":"ESP","State":"Castilla-La Mancha","County":"Toledo","City":"Sartajada","PostalCode":"45632","AdditionalData":[{"value":"España","key":"CountryName"},{"value":"Castilla-La Mancha","key":"StateName"},{"value":"Toledo","key":"CountyName"}]},"MapReference":{"ReferenceId":"537460783","SideOfStreet":"neither","CountryId":"20215059","StateId":"20221903","CountyId":"20221908","CityId":"20297571"}}},{"Relevance":1.0,"Distance":2.0,"MatchLevel":"houseNumber","MatchQuality":{"Country":1.0,"State":1.0,"County":1.0,"City":1.0,"Street":[1.0],"HouseNumber":1.0,"PostalCode":1.0},"MatchType":"interpolated","Location":{"LocationId":"NT_bGIB2V7IehqdFeTPQoYTiC_xA","LocationType":"point","DisplayPosition":{"Latitude":40.21271,"Longitude":-4.79403},"MapView":{"TopLeft":{"Latitude":40.2138342,"Longitude":-4.7955021},"BottomRight":{"Latitude":40.2115858,"Longitude":-4.7925579}},"Address":{"Label":"Calle Fragua, 1, 45632 Sartajada (Toledo), España","Country":"ESP","State":"Castilla-La Mancha","County":"Toledo","City":"Sartajada","Street":"Calle Fragua","HouseNumber":"1","PostalCode":"45632","AdditionalData":[{"value":"España","key":"CountryName"},{"value":"Castilla-La Mancha","key":"StateName"},{"value":"Toledo","key":"CountyName"}]},"MapReference":{"ReferenceId":"567498586","Spot":0.81,"SideOfStreet":"right","CountryId":"20215059","StateId":"20221903","CountyId":"20221908","CityId":"20297571","AddressId":"404960634","RoadLinkId":"67119380"}}},{"Relevance":1.0,"Distance":7.8,"MatchLevel":"houseNumber","MatchQuality":{"Country":1.0,"State":1.0,"County":1.0,"City":1.0,"Street":[1.0],"HouseNumber":1.0,"PostalCode":1.0},"MatchType":"interpolated","Location":{"LocationId":"NT_PlUTZeFCC4Gob9H.O051AC_1A","LocationType":"point","DisplayPosition":{"Latitude":40.21272,"Longitude":-4.7939},"MapView":{"TopLeft":{"Latitude":40.2138442,"Longitude":-4.7953721},"BottomRight":{"Latitude":40.2115958,"Longitude":-4.7924279}},"Address":{"Label":"Calle de Enmedio, 5, 45632 Sartajada (Toledo), España","Country":"ESP","State":"Castilla-La Mancha","County":"Toledo","City":"Sartajada","Street":"Calle de Enmedio","HouseNumber":"5","PostalCode":"45632","AdditionalData":[{"value":"España","key":"CountryName"},{"value":"Castilla-La Mancha","key":"StateName"},{"value":"Toledo","key":"CountyName"}]},"MapReference":{"ReferenceId":"567498584","Spot":0.8,"SideOfStreet":"left","CountryId":"20215059","StateId":"20221903","CountyId":"20221908","CityId":"20297571","AddressId":"404952392","RoadLinkId":"67590606"}}},{"Relevance":1.0,"Distance":9.1,"MatchLevel":"houseNumber","MatchQuality":{"Country":1.0,"State":1.0,"County":1.0,"City":1.0,"Street":[1.0],"HouseNumber":1.0,"PostalCode":1.0},"MatchType":"interpolated","Location":{"LocationId":"NT_JVNVtK6nnol3IHtoYdp-hA_l_567498578_L_3ED","LocationType":"point","DisplayPosition":{"Latitude":40.2125283,"Longitude":-4.7938486},"MapView":{"TopLeft":{"Latitude":40.2136525,"Longitude":-4.7953206},"BottomRight":{"Latitude":40.2114042,"Longitude":-4.7923765}},"Address":{"Label":"Bajada al Arroyo, 71, 45632 Sartajada (Toledo), España","Country":"ESP","State":"Castilla-La Mancha","County":"Toledo","City":"Sartajada","Street":"Bajada al Arroyo","HouseNumber":"71","PostalCode":"45632","AdditionalData":[{"value":"España","key":"CountryName"},{"value":"Castilla-La Mancha","key":"StateName"},{"value":"Toledo","key":"CountyName"}]},"MapReference":{"ReferenceId":"567498578","Spot":0.57,"SideOfStreet":"left","CountryId":"20215059","StateId":"20221903","CountyId":"20221908","CityId":"20297571"}}},{"Relevance":1.0,"Distance":10.7,"MatchLevel":"houseNumber","MatchQuality":{"Country":1.0,"State":1.0,"County":1.0,"City":1.0,"Street":[1.0],"HouseNumber":1.0,"PostalCode":1.0},"MatchType":"interpolated","Location":{"LocationId":"NT_PlUTZeFCC4Gob9H.O051AC_3A","LocationType":"point","DisplayPosition":{"Latitude":40.2128,"Longitude":-4.79402},"MapView":{"TopLeft":{"Latitude":40.2139242,"Longitude":-4.7954921},"BottomRight":{"Latitude":40.2116758,"Longitude":-4.7925479}},"Address":{"Label":"Calle de Enmedio, 7, 45632 Sartajada (Toledo), España","Country":"ESP","State":"Castilla-La Mancha","County":"Toledo","City":"Sartajada","Street":"Calle de Enmedio","HouseNumber":"7","PostalCode":"45632","AdditionalData":[{"value":"España","key":"CountryName"},{"value":"Castilla-La Mancha","key":"StateName"},{"value":"Toledo","key":"CountyName"}]},"MapReference":{"ReferenceId":"567498582","Spot":0.29,"SideOfStreet":"left","CountryId":"20215059","StateId":"20221903","CountyId":"20221908","CityId":"20297571","AddressId":"404958861","RoadLinkId":"67518367"}}},{"Relevance":1.0,"Distance":12.5,"MatchLevel":"houseNumber","MatchQuality":{"Country":1.0,"State":1.0,"County":1.0,"City":1.0,"Street":[1.0],"HouseNumber":1.0,"PostalCode":1.0},"MatchType":"interpolated","Location":{"LocationId":"NT_WYx3VyTMG.bolBVqDte6XD_xA","LocationType":"point","DisplayPosition":{"Latitude":40.21274,"Longitude":-4.7938},"MapView":{"TopLeft":{"Latitude":40.2138642,"Longitude":-4.7952721},"BottomRight":{"Latitude":40.2116158,"Longitude":-4.7923279}},"Address":{"Label":"Calle Pradillo, 1, 45632 Sartajada (Toledo), España","Country":"ESP","State":"Castilla-La Mancha","County":"Toledo","City":"Sartajada","Street":"Calle Pradillo","HouseNumber":"1","PostalCode":"45632","AdditionalData":[{"value":"España","key":"CountryName"},{"value":"Castilla-La Mancha","key":"StateName"},{"value":"Toledo","key":"CountyName"}]},"MapReference":{"ReferenceId":"567498583","Spot":0.07,"SideOfStreet":"left","CountryId":"20215059","StateId":"20221903","CountyId":"20221908","CityId":"20297571","AddressId":"404951445","RoadLinkId":"67583925"}}},{"Relevance":1.0,"Distance":14.3,"MatchLevel":"houseNumber","MatchQuality":{"Country":1.0,"State":1.0,"County":1.0,"City":1.0,"Street":[1.0],"HouseNumber":1.0,"PostalCode":1.0},"MatchType":"interpolated","Location":{"LocationId":"NT_bGIB2V7IehqdFeTPQoYTiC_l_573459713_R_4A","LocationType":"point","DisplayPosition":{"Latitude":40.2128233,"Longitude":-4.7943067},"MapView":{"TopLeft":{"Latitude":40.2139475,"Longitude":-4.7957787},"BottomRight":{"Latitude":40.2116992,"Longitude":-4.7928346}},"Address":{"Label":"Calle Fragua, 8, 45632 Sartajada (Toledo), España","Country":"ESP","State":"Castilla-La Mancha","County":"Toledo","City":"Sartajada","Street":"Calle Fragua","HouseNumber":"8","PostalCode":"45632","AdditionalData":[{"value":"España","key":"CountryName"},{"value":"Castilla-La Mancha","key":"StateName"},{"value":"Toledo","key":"CountyName"}]},"MapReference":{"ReferenceId":"573459713","Spot":0.67,"SideOfStreet":"right","CountryId":"20215059","StateId":"20221903","CountyId":"20221908","CityId":"20297571"}}},{"Relevance":1.0,"Distance":21.4,"MatchLevel":"houseNumber","MatchQuality":{"Country":1.0,"State":1.0,"County":1.0,"City":1.0,"Street":[1.0],"HouseNumber":1.0,"PostalCode":1.0},"MatchType":"interpolated","Location":{"LocationId":"NT_PlUTZeFCC4Gob9H.O051AC_zA","LocationType":"point","DisplayPosition":{"Latitude":40.21267,"Longitude":-4.79376},"MapView":{"TopLeft":{"Latitude":40.2137942,"Longitude":-4.7952321},"BottomRight":{"Latitude":40.2115458,"Longitude":-4.7922879}},"Address":{"Label":"Calle de Enmedio, 3, 45632 Sartajada (Toledo), España","Country":"ESP","State":"Castilla-La Mancha","County":"Toledo","City":"Sartajada","Street":"Calle de Enmedio","HouseNumber":"3","PostalCode":"45632","AdditionalData":[{"value":"España","key":"CountryName"},{"value":"Castilla-La Mancha","key":"StateName"},{"value":"Toledo","key":"CountyName"}]},"MapReference":{"ReferenceId":"1036757575","Spot":0.85,"SideOfStreet":"right","CountryId":"20215059","StateId":"20221903","CountyId":"20221908","CityId":"20297571","AddressId":"404952391","RoadLinkId":"358625573"}}},{"Relevance":1.0,"Distance":25.6,"MatchLevel":"houseNumber","MatchQuality":{"Country":1.0,"State":1.0,"County":1.0,"City":1.0,"Street":[1.0],"HouseNumber":1.0,"PostalCode":1.0},"MatchType":"interpolated","Location":{"LocationId":"NT_ISocmURJnOQinZJ2YLMoKA_zA","LocationType":"point","DisplayPosition":{"Latitude":40.21259,"Longitude":-4.79367},"MapView":{"TopLeft":{"Latitude":40.2137142,"Longitude":-4.7951421},"BottomRight":{"Latitude":40.2114658,"Longitude":-4.7921979}},"Address":{"Label":"Plaza de la Constitución, 3, 45632 Sartajada (Toledo), España","Country":"ESP","State":"Castilla-La Mancha","County":"Toledo","City":"Sartajada","Street":"Plaza de la Constitución","HouseNumber":"3","PostalCode":"45632","AdditionalData":[{"value":"España","key":"CountryName"},{"value":"Castilla-La Mancha","key":"StateName"},{"value":"Toledo","key":"CountyName"}]},"MapReference":{"ReferenceId":"1036757574","Spot":1.0,"SideOfStreet":"left","CountryId":"20215059","StateId":"20221903","CountyId":"20221908","CityId":"20297571","AddressId":"701252439","RoadLinkId":"358625572"}}},{"Relevance":1.0,"Distance":28.5,"MatchLevel":"houseNumber","MatchQuality":{"Country":1.0,"State":1.0,"County":1.0,"City":1.0,"Street":[1.0],"HouseNumber":1.0,"PostalCode":1.0},"MatchType":"interpolated","Location":{"LocationId":"NT_PlUTZeFCC4Gob9H.O051AC_l_567498596_L_xQD","LocationType":"point","DisplayPosition":{"Latitude":40.21297,"Longitude":-4.79424},"MapView":{"TopLeft":{"Latitude":40.2140942,"Longitude":-4.7957121},"BottomRight":{"Latitude":40.2118459,"Longitude":-4.7927679}},"Address":{"Label":"Calle de Enmedio, 14, 45632 Sartajada (Toledo), España","Country":"ESP","State":"Castilla-La Mancha","County":"Toledo","City":"Sartajada","Street":"Calle de Enmedio","HouseNumber":"14","PostalCode":"45632","AdditionalData":[{"value":"España","key":"CountryName"},{"value":"Castilla-La Mancha","key":"StateName"},{"value":"Toledo","key":"CountyName"}]},"MapReference":{"ReferenceId":"567498596","Spot":0.0,"SideOfStreet":"left","CountryId":"20215059","StateId":"20221903","CountyId":"20221908","CityId":"20297571"}}}]}]}}