{"Response":{"MetaInfo":{"Timestamp":"2020-03-28T09:59:00.786+0000","NextPageInformation":"2"},"View":[{"_type":"SearchResultsViewType","ViewId":0,"Result":[{"Relevance":1.0,"Distance":0.0,"Direction":0.0,"MatchLevel":"district","MatchQuality":{"Country":1.0,"County":1.0,"City":1.0,"District":1.0,"PostalCode":1.0},"Location":{"LocationId":"NT_0p8IybxELNatsC6eSCPYOB","LocationType":"point","DisplayPosition":{"Latitude":40.2022183,"Longitude":-8.4450867},"MapView":{"TopLeft":{"Latitude":40.20385,"Longitude":-8.4507},"BottomRight":{"Latitude":40.19696,"Longitude":-8.44408}},"Address":{"Label":"Vale do Rosal, Coimbra, Portugal","Country":"PRT","County":"Coimbra","City":"Coimbra","District":"Vale do Rosal","PostalCode":"3040-321","AdditionalData":[{"value":"Portugal","key":"CountryName"},{"value":"Coimbra","key":"CountyName"}]},"MapReference":{"ReferenceId":"545362663","SideOfStreet":"neither","CountryId":"20317122","CountyId":"20318498","CityId":"20318537","DistrictId":"23421866"}}},{"Relevance":1.0,"Distance":30.4,"MatchLevel":"street","MatchQuality":{"Country":1.0,"County":1.0,"City":1.0,"District":1.0,"Street":[1.0],"PostalCode":1.0},"Location":{"LocationId":"NT_0apA4-rPzyW1B8RvC7eMlB_l_851071487_L","LocationType":"point","DisplayPosition":{"Latitude":40.20224,"Longitude":-8.44473},"MapView":{"TopLeft":{"Latitude":40.20224,"Longitude":-8.44473},"BottomRight":{"Latitude":40.20222,"Longitude":-8.44427}},"Address":{"Label":"Rua Salgueiro Maia, 3040-006 Coimbra, Portugal","Country":"PRT","County":"Coimbra","City":"Coimbra","District":"Santa Clara","Street":"Rua Salgueiro Maia","PostalCode":"3040-006","AdditionalData":[{"value":"Portugal","key":"CountryName"},{"value":"Coimbra","key":"CountyName"}]},"MapReference":{"ReferenceId":"851071487","Spot":1.0,"SideOfStreet":"left","CountryId":"20317122","CountyId":"20318498","CityId":"20318537","DistrictId":"23421868"}}},{"Relevance":1.0,"Distance":44.7,"MatchLevel":"street","MatchQuality":{"Country":1.0,"County":1.0,"City":1.0,"District":1.0,"PostalCode":1.0},"Location":{"LocationId":"NT_Gz8-uDSSQc7hjd6FTno0WD_l_766811875_L","LocationType":"point","DisplayPosition":{"Latitude":40.2026,"Longitude":-8.44492},"MapView":{"TopLeft":{"Latitude":40.20289,"Longitude":-8.44506},"BottomRight":{"Latitude":40.20257,"Longitude":-8.44441}},"Address":{"Label":"3040 Coimbra, Portugal","Country":"PRT","County":"Coimbra","City":"Coimbra","District":"Vale do Rosal","PostalCode":"3040","AdditionalData":[{"value":"Portugal","key":"CountryName"},{"value":"Coimbra","key":"CountyName"}]},"MapReference":{"ReferenceId":"766811875","Spot":0.59,"SideOfStreet":"left","CountryId":"20317122","CountyId":"20318498","CityId":"20318537","DistrictId":"23421866"}}},{"Relevance":1.0,"Distance":69.4,"MatchLevel":"street","MatchQuality":{"Country":1.0,"County":1.0,"City":1.0,"District":1.0,"Street":[1.0],"PostalCode":1.0},"Location":{"LocationId":"NT_0apA4-rPzyW1B8RvC7eMlB_l_851071485_L","LocationType":"point","DisplayPosition":{"Latitude":40.2022183,"Longitude":-8.44427},"MapView":{"TopLeft":{"Latitude":40.20222,"Longitude":-8.44427},"BottomRight":{"Latitude":40.20215,"Longitude":-8.4442}},"Address":{"Label":"Rua Salgueiro Maia, 3040-006 Coimbra, Portugal","Country":"PRT","County":"Coimbra","City":"Coimbra","District":"Santa Clara","Street":"Rua Salgueiro Maia","PostalCode":"3040-006","AdditionalData":[{"value":"Portugal","key":"CountryName"},{"value":"Coimbra","key":"CountyName"}]},"MapReference":{"ReferenceId":"851071485","Spot":0.99,"SideOfStreet":"left","CountryId":"20317122","CountyId":"20318498","CityId":"20318537","DistrictId":"23421868"}}},{"Relevance":1.0,"Distance":69.4,"MatchLevel":"street","MatchQuality":{"Country":1.0,"County":1.0,"City":1.0,"District":1.0,"Street":[1.0],"PostalCode":1.0},"Location":{"LocationId":"NT_0apA4-rPzyW1B8RvC7eMlB_l_851071486_L","LocationType":"point","DisplayPosition":{"Latitude":40.20222,"Longitude":-8.44427},"MapView":{"TopLeft":{"Latitude":40.20225,"Longitude":-8.44427},"BottomRight":{"Latitude":40.20222,"Longitude":-8.44421}},"Address":{"Label":"Rua Salgueiro Maia, 3040-006 Coimbra, Portugal","Country":"PRT","County":"Coimbra","City":"Coimbra","District":"Santa Clara","Street":"Rua Salgueiro Maia","PostalCode":"3040-006","AdditionalData":[{"value":"Portugal","key":"CountryName"},{"value":"Coimbra","key":"CountyName"}]},"MapReference":{"ReferenceId":"851071486","Spot":0.0,"SideOfStreet":"left","CountryId":"20317122","CountyId":"20318498","CityId":"20318537","DistrictId":"23421868"}}},{"Relevance":1.0,"Distance":70.8,"MatchLevel":"street","MatchQuality":{"Country":1.0,"County":1.0,"City":1.0,"District":1.0,"PostalCode":1.0},"Location":{"LocationId":"NT_Gz8-uDSSQc7hjd6FTno0WD_l_766811876_L","LocationType":"point","DisplayPosition":{"Latitude":40.20259,"Longitude":-8.44441},"MapView":{"TopLeft":{"Latitude":40.20259,"Longitude":-8.44441},"BottomRight":{"Latitude":40.20258,"Longitude":-8.44408}},"Address":{"Label":"3040 Coimbra, Portugal","Country":"PRT","County":"Coimbra","City":"Coimbra","District":"Vale do Rosal","PostalCode":"3040","AdditionalData":[{"value":"Portugal","key":"CountryName"},{"value":"Coimbra","key":"CountyName"}]},"MapReference":{"ReferenceId":"766811876","Spot":1.0,"SideOfStreet":"left","CountryId":"20317122","CountyId":"20318498","CityId":"20318537","DistrictId":"23421866"}}},{"Relevance":1.0,"Distance":70.8,"MatchLevel":"street","MatchQuality":{"Country":1.0,"County":1.0,"City":1.0,"District":1.0,"PostalCode":1.0},"Location":{"LocationId":"NT_8njIK9YGY0wpv9vpK3c9.C_l_766811878_L","LocationType":"point","DisplayPosition":{"Latitude":40.20259,"Longitude":-8.44441},"MapView":{"TopLeft":{"Latitude":40.20277,"Longitude":-8.44441},"BottomRight":{"Latitude":40.20259,"Longitude":-8.44427}},"Address":{"Label":"3040 Coimbra, Portugal","Country":"PRT","County":"Coimbra","City":"Coimbra","District":"Alto da Guarda Inglesa","PostalCode":"3040","AdditionalData":[{"value":"Portugal","key":"CountryName"},{"value":"Coimbra","key":"CountyName"}]},"MapReference":{"ReferenceId":"766811878","Spot":0.0,"SideOfStreet":"left","CountryId":"20317122","CountyId":"20318498","CityId":"20318537","DistrictId":"23421869"}}},{"Relevance":1.0,"Distance":74.5,"MatchLevel":"street","MatchQuality":{"Country":1.0,"County":1.0,"City":1.0,"District":1.0,"Street":[1.0],"PostalCode":1.0},"Location":{"LocationId":"NT_0apA4-rPzyW1B8RvC7eMlB_l_851071476_L","LocationType":"point","DisplayPosition":{"Latitude":40.20225,"Longitude":-8.44421},"MapView":{"TopLeft":{"Latitude":40.20225,"Longitude":-8.44421},"BottomRight":{"Latitude":40.2022,"Longitude":-8.44399}},"Address":{"Label":"Rua Salgueiro Maia, 3040-006 Coimbra, Portugal","Country":"PRT","County":"Coimbra","City":"Coimbra","District":"Santa Clara","Street":"Rua Salgueiro Maia","PostalCode":"3040-006","AdditionalData":[{"value":"Portugal","key":"CountryName"},{"value":"Coimbra","key":"CountyName"}]},"MapReference":{"ReferenceId":"851071476","Spot":1.0,"SideOfStreet":"left","CountryId":"20317122","CountyId":"20318498","CityId":"20318537","DistrictId":"23421868"}}},{"Relevance":1.0,"Distance":74.8,"MatchLevel":"street","MatchQuality":{"Country":1.0,"County":1.0,"City":1.0,"District":1.0,"PostalCode":1.0},"Location":{"LocationId":"NT_Gz8-uDSSQc7hjd6FTno0WD_l_913936151_L","LocationType":"point","DisplayPosition":{"Latitude":40.20289,"Longitude":-8.44503},"MapView":{"TopLeft":{"Latitude":40.20338,"Longitude":-8.44834},"BottomRight":{"Latitude":40.20289,"Longitude":-8.44503}},"Address":{"Label":"3040 Coimbra, Portugal","Country":"PRT","County":"Coimbra","City":"Coimbra","District":"Vale do Rosal","PostalCode":"3040","AdditionalData":[{"value":"Portugal","key":"CountryName"},{"value":"Coimbra","key":"CountyName"}]},"MapReference":{"ReferenceId":"913936151","Spot":0.0,"SideOfStreet":"left","CountryId":"20317122","CountyId":"20318498","CityId":"20318537","DistrictId":"23421866"}}},{"Relevance":1.0,"Distance":74.8,"MatchLevel":"street","MatchQuality":{"Country":1.0,"County":1.0,"City":1.0,"District":1.0,"PostalCode":1.0},"Location":{"LocationId":"NT_8njIK9YGY0wpv9vpK3c9.C_l_766811879_R","LocationType":"point","DisplayPosition":{"Latitude":40.20289,"Longitude":-8.44503},"MapView":{"TopLeft":{"Latitude":40.20298,"Longitude":-8.44503},"BottomRight":{"Latitude":40.20289,"Longitude":-8.44454}},"Address":{"Label":"3040 Coimbra, Portugal","Country":"PRT","County":"Coimbra","City":"Coimbra","District":"Alto da Guarda Inglesa","PostalCode":"3040","AdditionalData":[{"value":"Portugal","key":"CountryName"},{"value":"Coimbra","key":"CountyName"}]},"MapReference":{"ReferenceId":"766811879","Spot":0.0,"SideOfStreet":"right","CountryId":"20317122","CountyId":"20318498","CityId":"20318537","DistrictId":"23421869"}}}]}]}}