{"Response":{"MetaInfo":{"Timestamp":"2020-03-28T09:42:26.281+0000","NextPageInformation":"2"},"View":[{"_type":"SearchResultsViewType","ViewId":0,"Result":[{"Relevance":1.0,"Distance":0.0,"Direction":0.0,"MatchLevel":"city","MatchQuality":{"Country":1.0,"State":1.0,"County":1.0,"City":1.0,"PostalCode":1.0},"Location":{"LocationId":"NT_gkv4zoyDUCjAsu9AkwCmBB","LocationType":"point","DisplayPosition":{"Latitude":40.2786838,"Longitude":-3.798089},"MapView":{"TopLeft":{"Latitude":40.32792,"Longitude":-3.84479},"BottomRight":{"Latitude":40.25061,"Longitude":-3.73935}},"Address":{"Label":"Fuenlabrada, Comunidad de Madrid, España","Country":"ESP","State":"Comunidad de Madrid","County":"Madrid","City":"Fuenlabrada","PostalCode":"28944","AdditionalData":[{"value":"España","key":"CountryName"},{"value":"Comunidad de Madrid","key":"StateName"},{"value":"Madrid","key":"CountyName"}]},"MapReference":{"ReferenceId":"979729389","SideOfStreet":"neither","CountryId":"20215059","StateId":"20226800","CountyId":"20226801","CityId":"20242691"}}},{"Relevance":1.0,"Distance":14.6,"MatchLevel":"houseNumber","MatchQuality":{"Country":1.0,"State":1.0,"County":1.0,"City":1.0,"Street":[1.0],"HouseNumber":1.0,"PostalCode":1.0},"MatchType":"interpolated","Location":{"LocationId":"NT_tsb8v-wfxzreIjIUoldJ.C_3A","LocationType":"point","DisplayPosition":{"Latitude":40.27873,"Longitude":-3.79825},"MapView":{"TopLeft":{"Latitude":40.2798542,"Longitude":-3.7997235},"BottomRight":{"Latitude":40.2776058,"Longitude":-3.7967765}},"Address":{"Label":"Calle Bañuelo, 7, 28944 Fuenlabrada (Madrid), España","Country":"ESP","State":"Comunidad de Madrid","County":"Madrid","City":"Fuenlabrada","Street":"Calle Bañuelo","HouseNumber":"7","PostalCode":"28944","AdditionalData":[{"value":"España","key":"CountryName"},{"value":"Comunidad de Madrid","key":"StateName"},{"value":"Madrid","key":"CountyName"}]},"MapReference":{"ReferenceId":"1001653421","Spot":0.32,"SideOfStreet":"left","CountryId":"20215059","StateId":"20226800","CountyId":"20226801","CityId":"20242691","AddressId":"267402820","RoadLinkId":"327966589"}}},{"Relevance":1.0,"Distance":25.5,"MatchLevel":"houseNumber","MatchQuality":{"Country":1.0,"State":1.0,"County":1.0,"City":1.0,"Street":[1.0],"HouseNumber":1.0,"PostalCode":1.0},"MatchType":"interpolated","Location":{"LocationId":"NT_CHBtn-wVVhFivuN28-cIxC_l_567487804_R_3A","LocationType":"point","DisplayPosition":{"Latitude":40.278722,"Longitude":-3.79852},"MapView":{"TopLeft":{"Latitude":40.2798462,"Longitude":-3.7999935},"BottomRight":{"Latitude":40.2775979,"Longitude":-3.7970465}},"Address":{"Label":"Calle Panaderas, 7, 28944 Fuenlabrada (Madrid), España","Country":"ESP","State":"Comunidad de Madrid","County":"Madrid","City":"Fuenlabrada","Street":"Calle Panaderas","HouseNumber":"7","PostalCode":"28944","AdditionalData":[{"value":"España","key":"CountryName"},{"value":"Comunidad de Madrid","key":"StateName"},{"value":"Madrid","key":"CountyName"}]},"MapReference":{"ReferenceId":"567487804","Spot":0.64,"SideOfStreet":"right","CountryId":"20215059","StateId":"20226800","CountyId":"20226801","CityId":"20242691"}}},{"Relevance":1.0,"Distance":37.1,"MatchLevel":"houseNumber","MatchQuality":{"Country":1.0,"State":1.0,"County":1.0,"City":1.0,"Street":[1.0],"HouseNumber":1.0,"PostalCode":1.0},"MatchType":"interpolated","Location":{"LocationId":"NT_CHBtn-wVVhFivuN28-cIxC_xID","LocationType":"point","DisplayPosition":{"Latitude":40.27857,"Longitude":-3.7985},"MapView":{"TopLeft":{"Latitude":40.2796942,"Longitude":-3.7999735},"BottomRight":{"Latitude":40.2774458,"Longitude":-3.7970265}},"Address":{"Label":"Calle Panaderas, 12, 28944 Fuenlabrada (Madrid), España","Country":"ESP","State":"Comunidad de Madrid","County":"Madrid","City":"Fuenlabrada","Street":"Calle Panaderas","HouseNumber":"12","PostalCode":"28944","AdditionalData":[{"value":"España","key":"CountryName"},{"value":"Comunidad de Madrid","key":"StateName"},{"value":"Madrid","key":"CountyName"}]},"MapReference":{"ReferenceId":"567487816","Spot":0.65,"SideOfStreet":"left","CountryId":"20215059","StateId":"20226800","CountyId":"20226801","CityId":"20242691","AddressId":"267301774","RoadLinkId":"67074095"}}},{"Relevance":1.0,"Distance":37.4,"MatchLevel":"street","MatchQuality":{"Country":1.0,"State":1.0,"County":1.0,"City":1.0,"Street":[1.0],"PostalCode":1.0},"Location":{"LocationId":"NT_tsb8v-wfxzreIjIUoldJ.C_l_1001653422_R","LocationType":"point","DisplayPosition":{"Latitude":40.27881,"Longitude":-3.79768},"MapView":{"TopLeft":{"Latitude":40.27889,"Longitude":-3.79768},"BottomRight":{"Latitude":40.27881,"Longitude":-3.79664}},"Address":{"Label":"Calle Bañuelo, 28944 Fuenlabrada (Madrid), España","Country":"ESP","State":"Comunidad de Madrid","County":"Madrid","City":"Fuenlabrada","Street":"Calle Bañuelo","PostalCode":"28944","AdditionalData":[{"value":"España","key":"CountryName"},{"value":"Comunidad de Madrid","key":"StateName"},{"value":"Madrid","key":"CountyName"}]},"MapReference":{"ReferenceId":"1001653422","Spot":0.0,"SideOfStreet":"right","CountryId":"20215059","StateId":"20226800","CountyId":"20226801","CityId":"20242691"}}},{"Relevance":1.0,"Distance":37.4,"MatchLevel":"street","MatchQuality":{"Country":1.0,"State":1.0,"County":1.0,"City":1.0,"PostalCode":1.0},"Location":{"LocationId":"NT_P4LF8GUmGJFSAydPoDdSvD_l_1001653424_L","LocationType":"point","DisplayPosition":{"Latitude":40.27881,"Longitude":-3.79768},"MapView":{"TopLeft":{"Latitude":40.27917,"Longitude":-3.79768},"BottomRight":{"Latitude":40.27881,"Longitude":-3.79751}},"Address":{"Label":"28944 Fuenlabrada (Madrid), España","Country":"ESP","State":"Comunidad de Madrid","County":"Madrid","City":"Fuenlabrada","PostalCode":"28944","AdditionalData":[{"value":"España","key":"CountryName"},{"value":"Comunidad de Madrid","key":"StateName"},{"value":"Madrid","key":"CountyName"}]},"MapReference":{"ReferenceId":"1001653424","Spot":0.0,"SideOfStreet":"left","CountryId":"20215059","StateId":"20226800","CountyId":"20226801","CityId":"20242691"}}},{"Relevance":1.0,"Distance":43.6,"MatchLevel":"houseNumber","MatchQuality":{"Country":1.0,"State":1.0,"County":1.0,"City":1.0,"Street":[1.0],"HouseNumber":1.0,"PostalCode":1.0},"MatchType":"interpolated","Location":{"LocationId":"NT_CHBtn-wVVhFivuN28-cIxC_5A","LocationType":"point","DisplayPosition":{"Latitude":40.2783,"Longitude":-3.79846},"MapView":{"TopLeft":{"Latitude":40.2794242,"Longitude":-3.7999335},"BottomRight":{"Latitude":40.2771758,"Longitude":-3.7969865}},"Address":{"Label":"Calle Panaderas, 9, 28944 Fuenlabrada (Madrid), España","Country":"ESP","State":"Comunidad de Madrid","County":"Madrid","City":"Fuenlabrada","Street":"Calle Panaderas","HouseNumber":"9","PostalCode":"28944","AdditionalData":[{"value":"España","key":"CountryName"},{"value":"Comunidad de Madrid","key":"StateName"},{"value":"Madrid","key":"CountyName"}]},"MapReference":{"ReferenceId":"1150088457","Spot":0.79,"SideOfStreet":"right","CountryId":"20215059","StateId":"20226800","CountyId":"20226801","CityId":"20242691","AddressId":"266944070","RoadLinkId":"455429285"}}},{"Relevance":1.0,"Distance":43.7,"MatchLevel":"houseNumber","MatchQuality":{"Country":1.0,"State":1.0,"County":1.0,"City":1.0,"Street":[1.0],"HouseNumber":1.0,"PostalCode":1.0},"MatchType":"interpolated","Location":{"LocationId":"NT_CHBtn-wVVhFivuN28-cIxC_xAD","LocationType":"point","DisplayPosition":{"Latitude":40.27886,"Longitude":-3.79855},"MapView":{"TopLeft":{"Latitude":40.2799842,"Longitude":-3.8000235},"BottomRight":{"Latitude":40.2777358,"Longitude":-3.7970765}},"Address":{"Label":"Calle Panaderas, 10, 28944 Fuenlabrada (Madrid), España","Country":"ESP","State":"Comunidad de Madrid","County":"Madrid","City":"Fuenlabrada","Street":"Calle Panaderas","HouseNumber":"10","PostalCode":"28944","AdditionalData":[{"value":"España","key":"CountryName"},{"value":"Comunidad de Madrid","key":"StateName"},{"value":"Madrid","key":"CountyName"}]},"MapReference":{"ReferenceId":"567483620","Spot":0.22,"SideOfStreet":"left","CountryId":"20215059","StateId":"20226800","CountyId":"20226801","CityId":"20242691","AddressId":"266827644","RoadLinkId":"66924891"}}},{"Relevance":1.0,"Distance":49.0,"MatchLevel":"street","MatchQuality":{"Country":1.0,"State":1.0,"County":1.0,"City":1.0,"Street":[1.0],"PostalCode":1.0},"Location":{"LocationId":"NT_CHBtn-wVVhFivuN28-cIxC_l_567483626_R","LocationType":"point","DisplayPosition":{"Latitude":40.27906,"Longitude":-3.79839},"MapView":{"TopLeft":{"Latitude":40.27929,"Longitude":-3.79844},"BottomRight":{"Latitude":40.27906,"Longitude":-3.79839}},"Address":{"Label":"Calle Panaderas, 28944 Fuenlabrada (Madrid), España","Country":"ESP","State":"Comunidad de Madrid","County":"Madrid","City":"Fuenlabrada","Street":"Calle Panaderas","PostalCode":"28944","AdditionalData":[{"value":"España","key":"CountryName"},{"value":"Comunidad de Madrid","key":"StateName"},{"value":"Madrid","key":"CountyName"}]},"MapReference":{"ReferenceId":"567483626","Spot":0.0,"SideOfStreet":"right","CountryId":"20215059","StateId":"20226800","CountyId":"20226801","CityId":"20242691"}}},{"Relevance":1.0,"Distance":49.2,"MatchLevel":"street","MatchQuality":{"Country":1.0,"State":1.0,"County":1.0,"City":1.0,"Street":[1.0],"PostalCode":1.0},"Location":{"LocationId":"NT_2eKlqIKZFn9oXDY.sfPdLC_l_567487799_L","LocationType":"point","DisplayPosition":{"Latitude":40.27835,"Longitude":-3.79847},"MapView":{"TopLeft":{"Latitude":40.27835,"Longitude":-3.79982},"BottomRight":{"Latitude":40.27811,"Longitude":-3.79847}},"Address":{"Label":"Plaza Miraflor, 28944 Fuenlabrada (Madrid), España","Country":"ESP","State":"Comunidad de Madrid","County":"Madrid","City":"Fuenlabrada","Street":"Plaza Miraflor","PostalCode":"28944","AdditionalData":[{"value":"España","key":"CountryName"},{"value":"Comunidad de Madrid","key":"StateName"},{"value":"Madrid","key":"CountyName"}]},"MapReference":{"ReferenceId":"567487799","Spot":1.0,"SideOfStreet":"left","CountryId":"20215059","StateId":"20226800","CountyId":"20226801","CityId":"20242691"}}}]}]}}