{"Response":{"MetaInfo":{"Timestamp":"2020-03-28T09:46:31.670+0000","NextPageInformation":"2"},"View":[{"_type":"SearchResultsViewType","ViewId":0,"Result":[{"Relevance":1.0,"Distance":0.0,"Direction":0.0,"MatchLevel":"district","MatchQuality":{"Country":1.0,"State":1.0,"County":1.0,"City":1.0,"District":1.0,"PostalCode":1.0},"Location":{"LocationId":"NT_RP1zkDmgz4LStCsKsc.OWD","LocationType":"point","DisplayPosition":{"Latitude":40.2892172,"Longitude":-5.9249868},"MapView":{"TopLeft":{"Latitude":40.29187,"Longitude":-5.92742},"BottomRight":{"Latitude":40.28791,"Longitude":-5.92179}},"Address":{"Label":"Valdelamatanza, El Cerro, Castilla y León, España","Country":"ESP","State":"Castilla y León","County":"Salamanca","City":"El Cerro","District":"Valdelamatanza","PostalCode":"37724","AdditionalData":[{"value":"España","key":"CountryName"},{"value":"Castilla y León","key":"StateName"},{"value":"Salamanca","key":"CountyName"}]},"MapReference":{"ReferenceId":"1250946604","SideOfStreet":"neither","CountryId":"20215059","StateId":"20221909","CountyId":"20221914","CityId":"20309219","DistrictId":"20309222"}}},{"Relevance":1.0,"Distance":10.8,"MatchLevel":"houseNumber","MatchQuality":{"Country":1.0,"State":1.0,"County":1.0,"City":1.0,"District":1.0,"Street":[1.0],"HouseNumber":1.0,"PostalCode":1.0},"MatchType":"interpolated","Location":{"LocationId":"NT_S9Fs6llLjMl9dFx1ErizIA_2A","LocationType":"point","DisplayPosition":{"Latitude":40.28909,"Longitude":-5.92497},"MapView":{"TopLeft":{"Latitude":40.2902142,"Longitude":-5.9264437},"BottomRight":{"Latitude":40.2879658,"Longitude":-5.9234963}},"Address":{"Label":"Calle Carretera San Anton, 6, 37724 El Cerro (Salamanca), España","Country":"ESP","State":"Castilla y León","County":"Salamanca","City":"El Cerro","District":"Valdelamatanza","Street":"Calle Carretera San Anton","HouseNumber":"6","PostalCode":"37724","AdditionalData":[{"value":"España","key":"CountryName"},{"value":"Castilla y León","key":"StateName"},{"value":"Salamanca","key":"CountyName"}]},"MapReference":{"ReferenceId":"936686434","Spot":0.04,"SideOfStreet":"left","CountryId":"20215059","StateId":"20221909","CountyId":"20221914","CityId":"20309219","DistrictId":"20309222","AddressId":"349293947","RoadLinkId":"287620438"}}},{"Relevance":1.0,"Distance":22.6,"MatchLevel":"houseNumber","MatchQuality":{"Country":1.0,"State":1.0,"County":1.0,"City":1.0,"District":1.0,"Street":[1.0],"HouseNumber":1.0,"PostalCode":1.0},"MatchType":"interpolated","Location":{"LocationId":"NT_S9Fs6llLjMl9dFx1ErizIA_xA","LocationType":"point","DisplayPosition":{"Latitude":40.28903,"Longitude":-5.92509},"MapView":{"TopLeft":{"Latitude":40.2901542,"Longitude":-5.9265637},"BottomRight":{"Latitude":40.2879058,"Longitude":-5.9236163}},"Address":{"Label":"Calle Carretera San Anton, 1, 37724 El Cerro (Salamanca), España","Country":"ESP","State":"Castilla y León","County":"Salamanca","City":"El Cerro","District":"Valdelamatanza","Street":"Calle Carretera San Anton","HouseNumber":"1","PostalCode":"37724","AdditionalData":[{"value":"España","key":"CountryName"},{"value":"Castilla y León","key":"StateName"},{"value":"Salamanca","key":"CountyName"}]},"MapReference":{"ReferenceId":"1250946604","Spot":0.89,"SideOfStreet":"right","CountryId":"20215059","StateId":"20221909","CountyId":"20221914","CityId":"20309219","DistrictId":"20309222","AddressId":"349171966","RoadLinkId":"573899872"}}},{"Relevance":1.0,"Distance":38.2,"MatchLevel":"houseNumber","MatchQuality":{"Country":1.0,"State":1.0,"County":1.0,"City":1.0,"District":1.0,"Street":[1.0],"HouseNumber":1.0,"PostalCode":1.0},"MatchType":"interpolated","Location":{"LocationId":"NT_S9Fs6llLjMl9dFx1ErizIA_xAD","LocationType":"point","DisplayPosition":{"Latitude":40.28902,"Longitude":-5.92537},"MapView":{"TopLeft":{"Latitude":40.2901442,"Longitude":-5.9268437},"BottomRight":{"Latitude":40.2878958,"Longitude":-5.9238963}},"Address":{"Label":"Calle Carretera San Anton, 10, 37724 El Cerro (Salamanca), España","Country":"ESP","State":"Castilla y León","County":"Salamanca","City":"El Cerro","District":"Valdelamatanza","Street":"Calle Carretera San Anton","HouseNumber":"10","PostalCode":"37724","AdditionalData":[{"value":"España","key":"CountryName"},{"value":"Castilla y León","key":"StateName"},{"value":"Salamanca","key":"CountyName"}]},"MapReference":{"ReferenceId":"573577268","Spot":0.42,"SideOfStreet":"left","CountryId":"20215059","StateId":"20221909","CountyId":"20221914","CityId":"20309219","DistrictId":"20309222","AddressId":"348984898","RoadLinkId":"68168306"}}},{"Relevance":1.0,"Distance":41.3,"MatchLevel":"houseNumber","MatchQuality":{"Country":1.0,"State":1.0,"County":1.0,"City":1.0,"District":1.0,"Street":[1.0],"HouseNumber":1.0,"PostalCode":1.0},"MatchType":"interpolated","Location":{"LocationId":"NT_4nG3Or.I7KiGMgTnEezmrC_xID","LocationType":"point","DisplayPosition":{"Latitude":40.28926,"Longitude":-5.9255},"MapView":{"TopLeft":{"Latitude":40.2903842,"Longitude":-5.9269737},"BottomRight":{"Latitude":40.2881358,"Longitude":-5.9240263}},"Address":{"Label":"Calle Gomez Rodulfo, 12, 37724 El Cerro (Salamanca), España","Country":"ESP","State":"Castilla y León","County":"Salamanca","City":"El Cerro","District":"Valdelamatanza","Street":"Calle Gomez Rodulfo","HouseNumber":"12","PostalCode":"37724","AdditionalData":[{"value":"España","key":"CountryName"},{"value":"Castilla y León","key":"StateName"},{"value":"Salamanca","key":"CountyName"}]},"MapReference":{"ReferenceId":"573577230","Spot":0.23,"SideOfStreet":"right","CountryId":"20215059","StateId":"20221909","CountyId":"20221914","CityId":"20309219","DistrictId":"20309222","AddressId":"348984899","RoadLinkId":"68963209"}}},{"Relevance":1.0,"Distance":62.8,"MatchLevel":"houseNumber","MatchQuality":{"Country":1.0,"State":1.0,"County":1.0,"City":1.0,"District":1.0,"Street":[1.0],"HouseNumber":1.0,"PostalCode":1.0},"MatchType":"interpolated","Location":{"LocationId":"NT_4nG3Or.I7KiGMgTnEezmrC_xED","LocationType":"point","DisplayPosition":{"Latitude":40.28902,"Longitude":-5.92568},"MapView":{"TopLeft":{"Latitude":40.2901442,"Longitude":-5.9271537},"BottomRight":{"Latitude":40.2878958,"Longitude":-5.9242063}},"Address":{"Label":"Calle Gomez Rodulfo, 11, 37724 El Cerro (Salamanca), España","Country":"ESP","State":"Castilla y León","County":"Salamanca","City":"El Cerro","District":"Valdelamatanza","Street":"Calle Gomez Rodulfo","HouseNumber":"11","PostalCode":"37724","AdditionalData":[{"value":"España","key":"CountryName"},{"value":"Castilla y León","key":"StateName"},{"value":"Salamanca","key":"CountyName"}]},"MapReference":{"ReferenceId":"573577262","Spot":0.96,"SideOfStreet":"left","CountryId":"20215059","StateId":"20221909","CountyId":"20221914","CityId":"20309219","DistrictId":"20309222","AddressId":"349005287","RoadLinkId":"67909833"}}},{"Relevance":1.0,"Distance":68.0,"MatchLevel":"houseNumber","MatchQuality":{"Country":1.0,"State":1.0,"County":1.0,"City":1.0,"District":1.0,"Street":[1.0],"HouseNumber":1.0,"PostalCode":1.0},"MatchType":"interpolated","Location":{"LocationId":"NT_R1Mgssrp2ngheYt0oxPh7D_yA","LocationType":"point","DisplayPosition":{"Latitude":40.28954,"Longitude":-5.92412},"MapView":{"TopLeft":{"Latitude":40.2906642,"Longitude":-5.9255937},"BottomRight":{"Latitude":40.2884158,"Longitude":-5.9226463}},"Address":{"Label":"Plaza Mayor, 2, 37724 El Cerro (Salamanca), España","Country":"ESP","State":"Castilla y León","County":"Salamanca","City":"El Cerro","District":"Valdelamatanza","Street":"Plaza Mayor","HouseNumber":"2","PostalCode":"37724","AdditionalData":[{"value":"España","key":"CountryName"},{"value":"Castilla y León","key":"StateName"},{"value":"Salamanca","key":"CountyName"}]},"MapReference":{"ReferenceId":"573577257","Spot":0.0,"SideOfStreet":"right","CountryId":"20215059","StateId":"20221909","CountyId":"20221914","CityId":"20309219","DistrictId":"20309222","AddressId":"349105843","RoadLinkId":"68275914"}}},{"Relevance":1.0,"Distance":68.2,"MatchLevel":"houseNumber","MatchQuality":{"Country":1.0,"State":1.0,"County":1.0,"City":1.0,"District":1.0,"Street":[1.0],"HouseNumber":1.0,"PostalCode":1.0},"MatchType":"interpolated","Location":{"LocationId":"NT_r5lDQpcNfeBGJ.tuJG3poC_1A","LocationType":"point","DisplayPosition":{"Latitude":40.28948,"Longitude":-5.92418},"MapView":{"TopLeft":{"Latitude":40.2906042,"Longitude":-5.9256537},"BottomRight":{"Latitude":40.2883558,"Longitude":-5.9227063}},"Address":{"Label":"Plaza Cáceres, 5, 37724 El Cerro (Salamanca), España","Country":"ESP","State":"Castilla y León","County":"Salamanca","City":"El Cerro","District":"Valdelamatanza","Street":"Plaza Cáceres","HouseNumber":"5","PostalCode":"37724","AdditionalData":[{"value":"España","key":"CountryName"},{"value":"Castilla y León","key":"StateName"},{"value":"Salamanca","key":"CountyName"}]},"MapReference":{"ReferenceId":"936686435","Spot":0.79,"SideOfStreet":"left","CountryId":"20215059","StateId":"20221909","CountyId":"20221914","CityId":"20309219","DistrictId":"20309222","AddressId":"364725697","RoadLinkId":"287620440"}}},{"Relevance":1.0,"Distance":69.4,"MatchLevel":"houseNumber","MatchQuality":{"Country":1.0,"State":1.0,"County":1.0,"City":1.0,"District":1.0,"Street":[1.0],"HouseNumber":1.0,"PostalCode":1.0},"MatchType":"interpolated","Location":{"LocationId":"NT_r5lDQpcNfeBGJ.tuJG3poC_0A","LocationType":"point","DisplayPosition":{"Latitude":40.28978,"Longitude":-5.92451},"MapView":{"TopLeft":{"Latitude":40.2909042,"Longitude":-5.9259837},"BottomRight":{"Latitude":40.2886558,"Longitude":-5.9230363}},"Address":{"Label":"Plaza Cáceres, 4, 37724 El Cerro (Salamanca), España","Country":"ESP","State":"Castilla y León","County":"Salamanca","City":"El Cerro","District":"Valdelamatanza","Street":"Plaza Cáceres","HouseNumber":"4","PostalCode":"37724","AdditionalData":[{"value":"España","key":"CountryName"},{"value":"Castilla y León","key":"StateName"},{"value":"Salamanca","key":"CountyName"}]},"MapReference":{"ReferenceId":"573577227","Spot":0.77,"SideOfStreet":"left","CountryId":"20215059","StateId":"20221909","CountyId":"20221914","CityId":"20309219","DistrictId":"20309222","AddressId":"349008048","RoadLinkId":"68745599"}}},{"Relevance":1.0,"Distance":74.6,"MatchLevel":"houseNumber","MatchQuality":{"Country":1.0,"State":1.0,"County":1.0,"City":1.0,"District":1.0,"Street":[1.0],"HouseNumber":1.0,"PostalCode":1.0},"MatchType":"interpolated","Location":{"LocationId":"NT_v7cSQXkhemPb5yZzKm-rkA_l_573577255_R_yEjN","LocationType":"point","DisplayPosition":{"Latitude":40.28998,"Longitude":-5.92502},"MapView":{"TopLeft":{"Latitude":40.2911042,"Longitude":-5.9264937},"BottomRight":{"Latitude":40.2888559,"Longitude":-5.9235462}},"Address":{"Label":"Calle Eras, 216, 37724 El Cerro (Salamanca), España","Country":"ESP","State":"Castilla y León","County":"Salamanca","City":"El Cerro","District":"Valdelamatanza","Street":"Calle Eras","HouseNumber":"216","PostalCode":"37724","AdditionalData":[{"value":"España","key":"CountryName"},{"value":"Castilla y León","key":"StateName"},{"value":"Salamanca","key":"CountyName"}]},"MapReference":{"ReferenceId":"573577255","Spot":0.0,"SideOfStreet":"right","CountryId":"20215059","StateId":"20221909","CountyId":"20221914","CityId":"20309219","DistrictId":"20309222"}}}]}]}}