{"Response":{"MetaInfo":{"Timestamp":"2020-03-28T09:44:45.923+0000","NextPageInformation":"2"},"View":[{"_type":"SearchResultsViewType","ViewId":0,"Result":[{"Relevance":1.0,"Distance":0.0,"Direction":0.0,"MatchLevel":"city","MatchQuality":{"Country":1.0,"State":1.0,"County":1.0,"City":1.0,"PostalCode":1.0},"Location":{"LocationId":"NT_fDlCNcCx2JJiV8-zE22S2A","LocationType":"point","DisplayPosition":{"Latitude":40.3085244,"Longitude":0.1178526},"MapView":{"TopLeft":{"Latitude":40.4183,"Longitude":0.02747},"BottomRight":{"Latitude":40.23111,"Longitude":0.18055}},"Address":{"Label":"Les Coves de Vinromà, Comunitat Valenciana, Espanya","Country":"ESP","State":"Comunitat Valenciana","County":"Castelló","City":"Les Coves de Vinromà","PostalCode":"12185","AdditionalData":[{"value":"Espanya","key":"CountryName"},{"value":"Comunitat Valenciana","key":"StateName"},{"value":"Castelló","key":"CountyName"}]},"MapReference":{"ReferenceId":"544862996","SideOfStreet":"neither","CountryId":"20215059","StateId":"20226784","CountyId":"20226786","CityId":"20249570"}}},{"Relevance":1.0,"Distance":3.6,"MatchLevel":"houseNumber","MatchQuality":{"Country":1.0,"State":1.0,"County":1.0,"City":1.0,"Street":[1.0],"HouseNumber":1.0,"PostalCode":1.0},"MatchType":"interpolated","Location":{"LocationId":"NT_fRFPPT2t6yMv2hW3UoTNiD_3UD","LocationType":"point","DisplayPosition":{"Latitude":40.30857,"Longitude":0.11778},"MapView":{"TopLeft":{"Latitude":40.3096942,"Longitude":0.1163058},"BottomRight":{"Latitude":40.3074458,"Longitude":0.1192542}},"Address":{"Label":"Calle Blasco de Alagón, 75, 12185 Les Coves de Vinromà (Castellón), Espanya","Country":"ESP","State":"Comunidad Valenciana","County":"Castellón","City":"Les Coves de Vinromà","Street":"Calle Blasco de Alagón","HouseNumber":"75","PostalCode":"12185","AdditionalData":[{"value":"Espanya","key":"CountryName"},{"value":"Comunidad Valenciana","key":"StateName"},{"value":"Castellón","key":"CountyName"}]},"MapReference":{"ReferenceId":"544862964","Spot":0.56,"SideOfStreet":"right","CountryId":"20215059","StateId":"20226784","CountyId":"20226786","CityId":"20249570","AddressId":"368012993","RoadLinkId":"66323755"}}},{"Relevance":1.0,"Distance":29.9,"MatchLevel":"houseNumber","MatchQuality":{"Country":1.0,"State":1.0,"County":1.0,"City":1.0,"Street":[1.0],"HouseNumber":1.0,"PostalCode":1.0},"MatchType":"interpolated","Location":{"LocationId":"NT_EKGjzWKGdeaGGJVN9ojkYD_xA","LocationType":"point","DisplayPosition":{"Latitude":40.3085,"Longitude":0.11825},"MapView":{"TopLeft":{"Latitude":40.3096242,"Longitude":0.1167758},"BottomRight":{"Latitude":40.3073758,"Longitude":0.1197242}},"Address":{"Label":"Calle de la Travessa, 1, 12185 Les Coves de Vinromà (Castellón), Espanya","Country":"ESP","State":"Comunidad Valenciana","County":"Castellón","City":"Les Coves de Vinromà","Street":"Calle de la Travessa","HouseNumber":"1","PostalCode":"12185","AdditionalData":[{"value":"Espanya","key":"CountryName"},{"value":"Comunidad Valenciana","key":"StateName"},{"value":"Castellón","key":"CountyName"}]},"MapReference":{"ReferenceId":"544862963","Spot":0.47,"SideOfStreet":"left","CountryId":"20215059","StateId":"20226784","CountyId":"20226786","CityId":"20249570","AddressId":"269366822","RoadLinkId":"66260661"}}},{"Relevance":1.0,"Distance":32.7,"MatchLevel":"houseNumber","MatchQuality":{"Country":1.0,"State":1.0,"County":1.0,"City":1.0,"Street":[1.0],"HouseNumber":1.0,"PostalCode":1.0},"MatchType":"interpolated","Location":{"LocationId":"NT_zBGJ5aNJD8ztCAf0pX.r2C_xIjN","LocationType":"point","DisplayPosition":{"Latitude":40.3082,"Longitude":0.11797},"MapView":{"TopLeft":{"Latitude":40.3093242,"Longitude":0.1164958},"BottomRight":{"Latitude":40.3070758,"Longitude":0.1194442}},"Address":{"Label":"Avenida del Raval de Valencia, 126, 12185 Les Coves de Vinromà (Castellón), Espanya","Country":"ESP","State":"Comunidad Valenciana","County":"Castellón","City":"Les Coves de Vinromà","Street":"Avenida del Raval de Valencia","HouseNumber":"126","PostalCode":"12185","AdditionalData":[{"value":"Espanya","key":"CountryName"},{"value":"Comunidad Valenciana","key":"StateName"},{"value":"Castellón","key":"CountyName"}]},"MapReference":{"ReferenceId":"957353476","Spot":0.17,"SideOfStreet":"left","CountryId":"20215059","StateId":"20226784","CountyId":"20226786","CityId":"20249570","AddressId":"696178520","RoadLinkId":"300319741"}}},{"Relevance":1.0,"Distance":35.2,"MatchLevel":"houseNumber","MatchQuality":{"Country":1.0,"State":1.0,"County":1.0,"City":1.0,"Street":[1.0],"HouseNumber":1.0,"PostalCode":1.0},"MatchType":"interpolated","Location":{"LocationId":"NT_EKGjzWKGdeaGGJVN9ojkYD_zA","LocationType":"point","DisplayPosition":{"Latitude":40.30884,"Longitude":0.11805},"MapView":{"TopLeft":{"Latitude":40.3099642,"Longitude":0.1165758},"BottomRight":{"Latitude":40.3077158,"Longitude":0.1195242}},"Address":{"Label":"Calle de la Travessa, 3, 12185 Les Coves de Vinromà (Castellón), Espanya","Country":"ESP","State":"Comunidad Valenciana","County":"Castellón","City":"Les Coves de Vinromà","Street":"Calle de la Travessa","HouseNumber":"3","PostalCode":"12185","AdditionalData":[{"value":"Espanya","key":"CountryName"},{"value":"Comunidad Valenciana","key":"StateName"},{"value":"Castellón","key":"CountyName"}]},"MapReference":{"ReferenceId":"544862983","Spot":0.56,"SideOfStreet":"left","CountryId":"20215059","StateId":"20226784","CountyId":"20226786","CityId":"20249570","AddressId":"269496209","RoadLinkId":"65246389"}}},{"Relevance":1.0,"Distance":37.4,"MatchLevel":"houseNumber","MatchQuality":{"Country":1.0,"State":1.0,"County":1.0,"City":1.0,"Street":[1.0],"HouseNumber":1.0,"PostalCode":1.0},"MatchType":"interpolated","Location":{"LocationId":"NT_zBGJ5aNJD8ztCAf0pX.r2C_xIDO","LocationType":"point","DisplayPosition":{"Latitude":40.30815,"Longitude":0.11783},"MapView":{"TopLeft":{"Latitude":40.3092742,"Longitude":0.1163558},"BottomRight":{"Latitude":40.3070258,"Longitude":0.1193042}},"Address":{"Label":"Avenida del Raval de Valencia, 128, 12185 Les Coves de Vinromà (Castellón), Espanya","Country":"ESP","State":"Comunidad Valenciana","County":"Castellón","City":"Les Coves de Vinromà","Street":"Avenida del Raval de Valencia","HouseNumber":"128","PostalCode":"12185","AdditionalData":[{"value":"Espanya","key":"CountryName"},{"value":"Comunidad Valenciana","key":"StateName"},{"value":"Castellón","key":"CountyName"}]},"MapReference":{"ReferenceId":"544863186","Spot":0.77,"SideOfStreet":"left","CountryId":"20215059","StateId":"20226784","CountyId":"20226786","CityId":"20249570","AddressId":"696177233","RoadLinkId":"65419236"}}},{"Relevance":1.0,"Distance":39.3,"MatchLevel":"houseNumber","MatchQuality":{"Country":1.0,"State":1.0,"County":1.0,"City":1.0,"Street":[1.0],"HouseNumber":1.0,"PostalCode":1.0},"MatchType":"interpolated","Location":{"LocationId":"NT_fRFPPT2t6yMv2hW3UoTNiD_3ED","LocationType":"point","DisplayPosition":{"Latitude":40.30873,"Longitude":0.11823},"MapView":{"TopLeft":{"Latitude":40.3098542,"Longitude":0.1167558},"BottomRight":{"Latitude":40.3076058,"Longitude":0.1197042}},"Address":{"Label":"Calle Blasco de Alagón, 71, 12185 Les Coves de Vinromà (Castellón), Espanya","Country":"ESP","State":"Comunidad Valenciana","County":"Castellón","City":"Les Coves de Vinromà","Street":"Calle Blasco de Alagón","HouseNumber":"71","PostalCode":"12185","AdditionalData":[{"value":"Espanya","key":"CountryName"},{"value":"Comunidad Valenciana","key":"StateName"},{"value":"Castellón","key":"CountyName"}]},"MapReference":{"ReferenceId":"544862992","Spot":0.16,"SideOfStreet":"right","CountryId":"20215059","StateId":"20226784","CountyId":"20226786","CityId":"20249570","AddressId":"368003243","RoadLinkId":"66365804"}}},{"Relevance":1.0,"Distance":39.7,"MatchLevel":"houseNumber","MatchQuality":{"Country":1.0,"State":1.0,"County":1.0,"City":1.0,"Street":[1.0],"HouseNumber":1.0,"PostalCode":1.0},"MatchType":"interpolated","Location":{"LocationId":"NT_S7oNq3cl1u-KMIuA.4AB3A_yEE","LocationType":"point","DisplayPosition":{"Latitude":40.30831,"Longitude":0.1174},"MapView":{"TopLeft":{"Latitude":40.3094342,"Longitude":0.1159258},"BottomRight":{"Latitude":40.3071858,"Longitude":0.1188742}},"Address":{"Label":"Calle Francisco Esteve, 2A, 12185 Les Coves de Vinromà (Castellón), Espanya","Country":"ESP","State":"Comunidad Valenciana","County":"Castellón","City":"Les Coves de Vinromà","Street":"Calle Francisco Esteve","HouseNumber":"2A","PostalCode":"12185","AdditionalData":[{"value":"Espanya","key":"CountryName"},{"value":"Comunidad Valenciana","key":"StateName"},{"value":"Castellón","key":"CountyName"}]},"MapReference":{"ReferenceId":"544863188","Spot":0.72,"SideOfStreet":"right","CountryId":"20215059","StateId":"20226784","CountyId":"20226786","CityId":"20249570","AddressId":"696185631","RoadLinkId":"423140670"}}},{"Relevance":1.0,"Distance":41.8,"MatchLevel":"houseNumber","MatchQuality":{"Country":1.0,"State":1.0,"County":1.0,"City":1.0,"Street":[1.0],"HouseNumber":1.0,"PostalCode":1.0},"MatchType":"interpolated","Location":{"LocationId":"NT_S7oNq3cl1u-KMIuA.4AB3A_0A","LocationType":"point","DisplayPosition":{"Latitude":40.30849,"Longitude":0.1173},"MapView":{"TopLeft":{"Latitude":40.3096142,"Longitude":0.1158258},"BottomRight":{"Latitude":40.3073658,"Longitude":0.1187742}},"Address":{"Label":"Calle Francisco Esteve, 4, 12185 Les Coves de Vinromà (Castellón), Espanya","Country":"ESP","State":"Comunidad Valenciana","County":"Castellón","City":"Les Coves de Vinromà","Street":"Calle Francisco Esteve","HouseNumber":"4","PostalCode":"12185","AdditionalData":[{"value":"Espanya","key":"CountryName"},{"value":"Comunidad Valenciana","key":"StateName"},{"value":"Castellón","key":"CountyName"}]},"MapReference":{"ReferenceId":"544863033","Spot":0.24,"SideOfStreet":"right","CountryId":"20215059","StateId":"20226784","CountyId":"20226786","CityId":"20249570","AddressId":"696185586","RoadLinkId":"66511293"}}},{"Relevance":1.0,"Distance":43.3,"MatchLevel":"street","MatchQuality":{"Country":1.0,"State":1.0,"County":1.0,"City":1.0,"Street":[1.0],"PostalCode":1.0},"Location":{"LocationId":"NT_zBGJ5aNJD8ztCAf0pX.r2C_l_957353477_L","LocationType":"point","DisplayPosition":{"Latitude":40.30829,"Longitude":0.11826},"MapView":{"TopLeft":{"Latitude":40.30833,"Longitude":0.11826},"BottomRight":{"Latitude":40.30829,"Longitude":0.11837}},"Address":{"Label":"Avenida del Raval de Valencia, 12185 Les Coves de Vinromà (Castellón), Espanya","Country":"ESP","State":"Comunidad Valenciana","County":"Castellón","City":"Les Coves de Vinromà","Street":"Avenida del Raval de Valencia","PostalCode":"12185","AdditionalData":[{"value":"Espanya","key":"CountryName"},{"value":"Comunidad Valenciana","key":"StateName"},{"value":"Castellón","key":"CountyName"}]},"MapReference":{"ReferenceId":"957353477","Spot":0.0,"SideOfStreet":"left","CountryId":"20215059","StateId":"20226784","CountyId":"20226786","CityId":"20249570"}}}]}]}}