{"Response":{"MetaInfo":{"Timestamp":"2020-03-28T09:42:14.782+0000","NextPageInformation":"2"},"View":[{"_type":"SearchResultsViewType","ViewId":0,"Result":[{"Relevance":1.0,"Distance":0.0,"Direction":0.0,"MatchLevel":"district","MatchQuality":{"Country":1.0,"State":1.0,"County":1.0,"City":1.0,"District":1.0,"PostalCode":1.0},"Location":{"LocationId":"NT_HgTldtmOUVhqmV0no4eKjB","LocationType":"point","DisplayPosition":{"Latitude":40.3603741,"Longitude":-3.7790065},"MapView":{"TopLeft":{"Latitude":40.36186,"Longitude":-3.78841},"BottomRight":{"Latitude":40.35408,"Longitude":-3.7675}},"Address":{"Label":"Fortuna, Leganés, Comunidad de Madrid, España","Country":"ESP","State":"Comunidad de Madrid","County":"Madrid","City":"Leganés","District":"Fortuna","PostalCode":"28917","AdditionalData":[{"value":"España","key":"CountryName"},{"value":"Comunidad de Madrid","key":"StateName"},{"value":"Madrid","key":"CountyName"}]},"MapReference":{"ReferenceId":"549322878","SideOfStreet":"neither","CountryId":"20215059","StateId":"20226800","CountyId":"20226801","CityId":"20242785","DistrictId":"20242786"}}},{"Relevance":1.0,"Distance":25.0,"MatchLevel":"houseNumber","MatchQuality":{"Country":1.0,"State":1.0,"County":1.0,"City":1.0,"District":1.0,"Street":[1.0],"HouseNumber":1.0,"PostalCode":1.0},"MatchType":"interpolated","Location":{"LocationId":"NT_d-23BeJTXhfDk8I-3jI4UC_xMTQ","LocationType":"point","DisplayPosition":{"Latitude":40.36015,"Longitude":-3.77903},"MapView":{"TopLeft":{"Latitude":40.3612742,"Longitude":-3.7805053},"BottomRight":{"Latitude":40.3590258,"Longitude":-3.7775547}},"Address":{"Label":"Calle San Bernardo, 13A, 28917 Leganés (Madrid), España","Country":"ESP","State":"Comunidad de Madrid","County":"Madrid","City":"Leganés","District":"Fortuna","Street":"Calle San Bernardo","HouseNumber":"13A","PostalCode":"28917","AdditionalData":[{"value":"España","key":"CountryName"},{"value":"Comunidad de Madrid","key":"StateName"},{"value":"Madrid","key":"CountyName"}]},"MapReference":{"ReferenceId":"549322757","Spot":0.47,"SideOfStreet":"right","CountryId":"20215059","StateId":"20226800","CountyId":"20226801","CityId":"20242785","DistrictId":"20242786","AddressId":"767317712","RoadLinkId":"67575573"}}},{"Relevance":1.0,"Distance":50.8,"MatchLevel":"houseNumber","MatchQuality":{"Country":1.0,"State":1.0,"County":1.0,"City":1.0,"District":1.0,"Street":[1.0],"HouseNumber":1.0,"PostalCode":1.0},"MatchType":"interpolated","Location":{"LocationId":"NT_d-23BeJTXhfDk8I-3jI4UC_xED","LocationType":"point","DisplayPosition":{"Latitude":40.36042,"Longitude":-3.77962},"MapView":{"TopLeft":{"Latitude":40.3615442,"Longitude":-3.7810953},"BottomRight":{"Latitude":40.3592958,"Longitude":-3.7781447}},"Address":{"Label":"Calle San Bernardo, 11, 28917 Leganés (Madrid), España","Country":"ESP","State":"Comunidad de Madrid","County":"Madrid","City":"Leganés","District":"Fortuna","Street":"Calle San Bernardo","HouseNumber":"11","PostalCode":"28917","AdditionalData":[{"value":"España","key":"CountryName"},{"value":"Comunidad de Madrid","key":"StateName"},{"value":"Madrid","key":"CountyName"}]},"MapReference":{"ReferenceId":"549326463","Spot":0.1,"SideOfStreet":"right","CountryId":"20215059","StateId":"20226800","CountyId":"20226801","CityId":"20242785","DistrictId":"20242786","AddressId":"267178791","RoadLinkId":"67357840"}}},{"Relevance":1.0,"Distance":53.1,"MatchLevel":"houseNumber","MatchQuality":{"Country":1.0,"State":1.0,"County":1.0,"City":1.0,"District":1.0,"Street":[1.0],"HouseNumber":1.0,"PostalCode":1.0},"MatchType":"interpolated","Location":{"LocationId":"NT_Lf0xW.UdJfaNXBXUFYGeHB_xA","LocationType":"point","DisplayPosition":{"Latitude":40.36024,"Longitude":-3.77964},"MapView":{"TopLeft":{"Latitude":40.3613642,"Longitude":-3.7811153},"BottomRight":{"Latitude":40.3591158,"Longitude":-3.7781647}},"Address":{"Label":"Calle Santa Lucía, 1, 28917 Leganés (Madrid), España","Country":"ESP","State":"Comunidad de Madrid","County":"Madrid","City":"Leganés","District":"Fortuna","Street":"Calle Santa Lucía","HouseNumber":"1","PostalCode":"28917","AdditionalData":[{"value":"España","key":"CountryName"},{"value":"Comunidad de Madrid","key":"StateName"},{"value":"Madrid","key":"CountyName"}]},"MapReference":{"ReferenceId":"549322754","Spot":0.67,"SideOfStreet":"right","CountryId":"20215059","StateId":"20226800","CountyId":"20226801","CityId":"20242785","DistrictId":"20242786","AddressId":"267203309","RoadLinkId":"66795117"}}},{"Relevance":1.0,"Distance":54.6,"MatchLevel":"street","MatchQuality":{"Country":1.0,"State":1.0,"County":1.0,"City":1.0,"District":1.0,"Street":[1.0],"PostalCode":1.0},"Location":{"LocationId":"NT_RO678Kj4kSAywzVo5DE7VC_l_1206958173_L","LocationType":"point","DisplayPosition":{"Latitude":40.3604234,"Longitude":-3.7783656},"MapView":{"TopLeft":{"Latitude":40.36048,"Longitude":-3.77837},"BottomRight":{"Latitude":40.36035,"Longitude":-3.77836}},"Address":{"Label":"Carretera del Barrio de la Fortuna, 28917 Leganés (Madrid), España","Country":"ESP","State":"Comunidad de Madrid","County":"Madrid","City":"Leganés","District":"Fortuna","Street":"Carretera del Barrio de la Fortuna","PostalCode":"28917","AdditionalData":[{"value":"España","key":"CountryName"},{"value":"Comunidad de Madrid","key":"StateName"},{"value":"Madrid","key":"CountyName"}]},"MapReference":{"ReferenceId":"1206958173","Spot":0.56,"SideOfStreet":"left","CountryId":"20215059","StateId":"20226800","CountyId":"20226801","CityId":"20242785","DistrictId":"20242786"}}},{"Relevance":1.0,"Distance":54.8,"MatchLevel":"street","MatchQuality":{"Country":1.0,"State":1.0,"County":1.0,"City":1.0,"District":1.0,"Street":[1.0],"PostalCode":1.0},"Location":{"LocationId":"NT_RO678Kj4kSAywzVo5DE7VC_l_1206958172_L","LocationType":"point","DisplayPosition":{"Latitude":40.36035,"Longitude":-3.77836},"MapView":{"TopLeft":{"Latitude":40.36035,"Longitude":-3.77836},"BottomRight":{"Latitude":40.36017,"Longitude":-3.77834}},"Address":{"Label":"Carretera del Barrio de la Fortuna, 28917 Leganés (Madrid), España","Country":"ESP","State":"Comunidad de Madrid","County":"Madrid","City":"Leganés","District":"Fortuna","Street":"Carretera del Barrio de la Fortuna","PostalCode":"28917","AdditionalData":[{"value":"España","key":"CountryName"},{"value":"Comunidad de Madrid","key":"StateName"},{"value":"Madrid","key":"CountyName"}]},"MapReference":{"ReferenceId":"1206958172","Spot":1.0,"SideOfStreet":"left","CountryId":"20215059","StateId":"20226800","CountyId":"20226801","CityId":"20242785","DistrictId":"20242786"}}},{"Relevance":1.0,"Distance":55.2,"MatchLevel":"street","MatchQuality":{"Country":1.0,"State":1.0,"County":1.0,"City":1.0,"District":1.0,"Street":[1.0],"PostalCode":1.0},"Location":{"LocationId":"NT_RO678Kj4kSAywzVo5DE7VC_l_1206959055_L","LocationType":"point","DisplayPosition":{"Latitude":40.36048,"Longitude":-3.77837},"MapView":{"TopLeft":{"Latitude":40.36075,"Longitude":-3.7784},"BottomRight":{"Latitude":40.36048,"Longitude":-3.77837}},"Address":{"Label":"Carretera del Barrio de la Fortuna, 28917 Leganés (Madrid), España","Country":"ESP","State":"Comunidad de Madrid","County":"Madrid","City":"Leganés","District":"Fortuna","Street":"Carretera del Barrio de la Fortuna","PostalCode":"28917","AdditionalData":[{"value":"España","key":"CountryName"},{"value":"Comunidad de Madrid","key":"StateName"},{"value":"Madrid","key":"CountyName"}]},"MapReference":{"ReferenceId":"1206959055","Spot":0.0,"SideOfStreet":"left","CountryId":"20215059","StateId":"20226800","CountyId":"20226801","CityId":"20242785","DistrictId":"20242786"}}},{"Relevance":1.0,"Distance":60.8,"MatchLevel":"street","MatchQuality":{"Country":1.0,"State":1.0,"County":1.0,"City":1.0,"District":1.0,"Street":[1.0],"PostalCode":1.0},"Location":{"LocationId":"NT_vKLTaTaf8LNNtxYMY-DC.D_l_549322762_R","LocationType":"point","DisplayPosition":{"Latitude":40.35994,"Longitude":-3.77857},"MapView":{"TopLeft":{"Latitude":40.35994,"Longitude":-3.77865},"BottomRight":{"Latitude":40.3597,"Longitude":-3.77849}},"Address":{"Label":"Calle Santo Domingo, 28917 Leganés (Madrid), España","Country":"ESP","State":"Comunidad de Madrid","County":"Madrid","City":"Leganés","District":"Fortuna","Street":"Calle Santo Domingo","PostalCode":"28917","AdditionalData":[{"value":"España","key":"CountryName"},{"value":"Comunidad de Madrid","key":"StateName"},{"value":"Madrid","key":"CountyName"}]},"MapReference":{"ReferenceId":"549322762","Spot":1.0,"SideOfStreet":"right","CountryId":"20215059","StateId":"20226800","CountyId":"20226801","CityId":"20242785","DistrictId":"20242786"}}},{"Relevance":1.0,"Distance":60.8,"MatchLevel":"street","MatchQuality":{"Country":1.0,"State":1.0,"County":1.0,"City":1.0,"District":1.0,"PostalCode":1.0},"Location":{"LocationId":"NT_DVDk6kjnp1K3jVbshrIhAC_l_79874638_L","LocationType":"point","DisplayPosition":{"Latitude":40.35994,"Longitude":-3.77857},"MapView":{"TopLeft":{"Latitude":40.36017,"Longitude":-3.77857},"BottomRight":{"Latitude":40.35994,"Longitude":-3.77834}},"Address":{"Label":"28917 Leganés (Madrid), España","Country":"ESP","State":"Comunidad de Madrid","County":"Madrid","City":"Leganés","District":"Fortuna","PostalCode":"28917","AdditionalData":[{"value":"España","key":"CountryName"},{"value":"Comunidad de Madrid","key":"StateName"},{"value":"Madrid","key":"CountyName"}]},"MapReference":{"ReferenceId":"79874638","Spot":0.0,"SideOfStreet":"left","CountryId":"20215059","StateId":"20226800","CountyId":"20226801","CityId":"20242785","DistrictId":"20242786"}}},{"Relevance":1.0,"Distance":60.9,"MatchLevel":"street","MatchQuality":{"Country":1.0,"State":1.0,"County":1.0,"City":1.0,"District":1.0,"Street":[1.0],"PostalCode":1.0},"Location":{"LocationId":"NT_RO678Kj4kSAywzVo5DE7VC_l_763899647_L","LocationType":"point","DisplayPosition":{"Latitude":40.36017,"Longitude":-3.77834},"MapView":{"TopLeft":{"Latitude":40.36017,"Longitude":-3.77834},"BottomRight":{"Latitude":40.35962,"Longitude":-3.77828}},"Address":{"Label":"Carretera del Barrio de la Fortuna, 28917 Leganés (Madrid), España","Country":"ESP","State":"Comunidad de Madrid","County":"Madrid","City":"Leganés","District":"Fortuna","Street":"Carretera del Barrio de la Fortuna","PostalCode":"28917","AdditionalData":[{"value":"España","key":"CountryName"},{"value":"Comunidad de Madrid","key":"StateName"},{"value":"Madrid","key":"CountyName"}]},"MapReference":{"ReferenceId":"763899647","Spot":1.0,"SideOfStreet":"left","CountryId":"20215059","StateId":"20226800","CountyId":"20226801","CityId":"20242785","DistrictId":"20242786"}}}]}]}}