{"Response":{"MetaInfo":{"Timestamp":"2020-03-28T09:41:22.945+0000","NextPageInformation":"2"},"View":[{"_type":"SearchResultsViewType","ViewId":0,"Result":[{"Relevance":1.0,"Distance":0.0,"Direction":0.0,"MatchLevel":"district","MatchQuality":{"Country":1.0,"State":1.0,"County":1.0,"City":1.0,"District":1.0,"PostalCode":1.0},"Location":{"LocationId":"NT_3vYE.ZiEhe3Cvgjqm0SocA","LocationType":"point","DisplayPosition":{"Latitude":40.3826678,"Longitude":-3.7019281},"MapView":{"TopLeft":{"Latitude":40.38896,"Longitude":-3.70573},"BottomRight":{"Latitude":40.37853,"Longitude":-3.69222}},"Address":{"Label":"Almendrales, Madrid, Comunidad de Madrid, España","Country":"ESP","State":"Comunidad de Madrid","County":"Madrid","City":"Madrid","District":"Almendrales","PostalCode":"28026","AdditionalData":[{"value":"España","key":"CountryName"},{"value":"Comunidad de Madrid","key":"StateName"},{"value":"Madrid","key":"CountyName"}]},"MapReference":{"ReferenceId":"68504015","SideOfStreet":"neither","CountryId":"20215059","StateId":"20226800","CountyId":"20226801","CityId":"20242802"}}},{"Relevance":1.0,"Distance":1.0,"MatchLevel":"street","MatchQuality":{"Country":1.0,"State":1.0,"County":1.0,"City":1.0,"District":1.0,"PostalCode":1.0},"Location":{"LocationId":"NT_GxeC2impIXHpai.nO21QKA_l_1035274758_L","LocationType":"point","DisplayPosition":{"Latitude":40.3826768,"Longitude":-3.7019291},"MapView":{"TopLeft":{"Latitude":40.38269,"Longitude":-3.70199},"BottomRight":{"Latitude":40.38267,"Longitude":-3.70181}},"Address":{"Label":"28026 Madrid (Madrid), España","Country":"ESP","State":"Comunidad de Madrid","County":"Madrid","City":"Madrid","District":"Almendrales","PostalCode":"28026","AdditionalData":[{"value":"España","key":"CountryName"},{"value":"Comunidad de Madrid","key":"StateName"},{"value":"Madrid","key":"CountyName"}]},"MapReference":{"ReferenceId":"1035274758","Spot":0.34,"SideOfStreet":"neither","CountryId":"20215059","StateId":"20226800","CountyId":"20226801","CityId":"20242802"}}},{"Relevance":1.0,"Distance":10.3,"MatchLevel":"street","MatchQuality":{"Country":1.0,"State":1.0,"County":1.0,"City":1.0,"District":1.0,"PostalCode":1.0},"Location":{"LocationId":"NT_GxeC2impIXHpai.nO21QKA_l_1035274765_L","LocationType":"point","DisplayPosition":{"Latitude":40.38269,"Longitude":-3.70181},"MapView":{"TopLeft":{"Latitude":40.38285,"Longitude":-3.70183},"BottomRight":{"Latitude":40.38269,"Longitude":-3.70158}},"Address":{"Label":"28026 Madrid (Madrid), España","Country":"ESP","State":"Comunidad de Madrid","County":"Madrid","City":"Madrid","District":"Almendrales","PostalCode":"28026","AdditionalData":[{"value":"España","key":"CountryName"},{"value":"Comunidad de Madrid","key":"StateName"},{"value":"Madrid","key":"CountyName"}]},"MapReference":{"ReferenceId":"1035274765","Spot":0.0,"SideOfStreet":"left","CountryId":"20215059","StateId":"20226800","CountyId":"20226801","CityId":"20242802"}}},{"Relevance":1.0,"Distance":10.3,"MatchLevel":"street","MatchQuality":{"Country":1.0,"State":1.0,"County":1.0,"City":1.0,"District":1.0,"PostalCode":1.0},"Location":{"LocationId":"NT_GxeC2impIXHpai.nO21QKA_l_1035274759_R","LocationType":"point","DisplayPosition":{"Latitude":40.38269,"Longitude":-3.70181},"MapView":{"TopLeft":{"Latitude":40.38272,"Longitude":-3.70181},"BottomRight":{"Latitude":40.38269,"Longitude":-3.70156}},"Address":{"Label":"28026 Madrid (Madrid), España","Country":"ESP","State":"Comunidad de Madrid","County":"Madrid","City":"Madrid","District":"Almendrales","PostalCode":"28026","AdditionalData":[{"value":"España","key":"CountryName"},{"value":"Comunidad de Madrid","key":"StateName"},{"value":"Madrid","key":"CountyName"}]},"MapReference":{"ReferenceId":"1035274759","Spot":0.0,"SideOfStreet":"right","CountryId":"20215059","StateId":"20226800","CountyId":"20226801","CityId":"20242802"}}},{"Relevance":1.0,"Distance":12.5,"MatchLevel":"houseNumber","MatchQuality":{"Country":1.0,"State":1.0,"County":1.0,"City":1.0,"District":1.0,"Street":[1.0],"HouseNumber":1.0,"PostalCode":1.0},"MatchType":"interpolated","Location":{"LocationId":"NT_XZwRKeKhH8LPx2U.xVu4PB_xA","LocationType":"point","DisplayPosition":{"Latitude":40.38277,"Longitude":-3.70201},"MapView":{"TopLeft":{"Latitude":40.3838942,"Longitude":-3.7034858},"BottomRight":{"Latitude":40.3816458,"Longitude":-3.7005342}},"Address":{"Label":"Calle de Visitación, 1, 28026 Madrid (Madrid), España","Country":"ESP","State":"Comunidad de Madrid","County":"Madrid","City":"Madrid","District":"Almendrales","Street":"Calle de Visitación","HouseNumber":"1","PostalCode":"28026","AdditionalData":[{"value":"España","key":"CountryName"},{"value":"Comunidad de Madrid","key":"StateName"},{"value":"Madrid","key":"CountyName"}]},"MapReference":{"ReferenceId":"1035274756","Spot":0.21,"SideOfStreet":"right","CountryId":"20215059","StateId":"20226800","CountyId":"20226801","CityId":"20242802","AddressId":"588600658","RoadLinkId":"357191279"}}},{"Relevance":1.0,"Distance":21.0,"MatchLevel":"houseNumber","MatchQuality":{"Country":1.0,"State":1.0,"County":1.0,"City":1.0,"District":1.0,"Street":[1.0],"HouseNumber":1.0,"PostalCode":1.0},"MatchType":"interpolated","Location":{"LocationId":"NT_2gFcyzOflyHo5.GDjA1T6B_l_68504311_L_yQD","LocationType":"point","DisplayPosition":{"Latitude":40.38239,"Longitude":-3.7017499},"MapView":{"TopLeft":{"Latitude":40.3835142,"Longitude":-3.7032256},"BottomRight":{"Latitude":40.3812659,"Longitude":-3.7002741}},"Address":{"Label":"Calle Ángelus, 24, 28026 Madrid (Madrid), España","Country":"ESP","State":"Comunidad de Madrid","County":"Madrid","City":"Madrid","District":"Almendrales","Street":"Calle Ángelus","HouseNumber":"24","PostalCode":"28026","AdditionalData":[{"value":"España","key":"CountryName"},{"value":"Comunidad de Madrid","key":"StateName"},{"value":"Madrid","key":"CountyName"}]},"MapReference":{"ReferenceId":"68504311","Spot":0.3,"SideOfStreet":"left","CountryId":"20215059","StateId":"20226800","CountyId":"20226801","CityId":"20242802"}}},{"Relevance":1.0,"Distance":22.1,"MatchLevel":"houseNumber","MatchQuality":{"Country":1.0,"State":1.0,"County":1.0,"City":1.0,"District":1.0,"Street":[1.0],"HouseNumber":1.0,"PostalCode":1.0},"MatchType":"interpolated","Location":{"LocationId":"NT_XZwRKeKhH8LPx2U.xVu4PB_zA","LocationType":"point","DisplayPosition":{"Latitude":40.38247,"Longitude":-3.70195},"MapView":{"TopLeft":{"Latitude":40.3835942,"Longitude":-3.7034258},"BottomRight":{"Latitude":40.3813458,"Longitude":-3.7004742}},"Address":{"Label":"Calle de Visitación, 3, 28026 Madrid (Madrid), España","Country":"ESP","State":"Comunidad de Madrid","County":"Madrid","City":"Madrid","District":"Almendrales","Street":"Calle de Visitación","HouseNumber":"3","PostalCode":"28026","AdditionalData":[{"value":"España","key":"CountryName"},{"value":"Comunidad de Madrid","key":"StateName"},{"value":"Madrid","key":"CountyName"}]},"MapReference":{"ReferenceId":"1035274755","Spot":0.31,"SideOfStreet":"right","CountryId":"20215059","StateId":"20226800","CountyId":"20226801","CityId":"20242802","AddressId":"588574448","RoadLinkId":"357191278"}}},{"Relevance":1.0,"Distance":31.7,"MatchLevel":"street","MatchQuality":{"Country":1.0,"State":1.0,"County":1.0,"City":1.0,"District":1.0,"PostalCode":1.0},"Location":{"LocationId":"NT_GxeC2impIXHpai.nO21QKA_l_1035274760_L","LocationType":"point","DisplayPosition":{"Latitude":40.38272,"Longitude":-3.70156},"MapView":{"TopLeft":{"Latitude":40.38273,"Longitude":-3.70156},"BottomRight":{"Latitude":40.38272,"Longitude":-3.70149}},"Address":{"Label":"28026 Madrid (Madrid), España","Country":"ESP","State":"Comunidad de Madrid","County":"Madrid","City":"Madrid","District":"Almendrales","PostalCode":"28026","AdditionalData":[{"value":"España","key":"CountryName"},{"value":"Comunidad de Madrid","key":"StateName"},{"value":"Madrid","key":"CountyName"}]},"MapReference":{"ReferenceId":"1035274760","Spot":0.0,"SideOfStreet":"left","CountryId":"20215059","StateId":"20226800","CountyId":"20226801","CityId":"20242802"}}},{"Relevance":1.0,"Distance":31.8,"MatchLevel":"street","MatchQuality":{"Country":1.0,"State":1.0,"County":1.0,"City":1.0,"District":1.0,"PostalCode":1.0},"Location":{"LocationId":"NT_GxeC2impIXHpai.nO21QKA_l_1035274766_L","LocationType":"point","DisplayPosition":{"Latitude":40.3827243,"Longitude":-3.7015607},"MapView":{"TopLeft":{"Latitude":40.38285,"Longitude":-3.70158},"BottomRight":{"Latitude":40.38272,"Longitude":-3.70156}},"Address":{"Label":"28026 Madrid (Madrid), España","Country":"ESP","State":"Comunidad de Madrid","County":"Madrid","City":"Madrid","District":"Almendrales","PostalCode":"28026","AdditionalData":[{"value":"España","key":"CountryName"},{"value":"Comunidad de Madrid","key":"StateName"},{"value":"Madrid","key":"CountyName"}]},"MapReference":{"ReferenceId":"1035274766","Spot":0.03,"SideOfStreet":"left","CountryId":"20215059","StateId":"20226800","CountyId":"20226801","CityId":"20242802"}}},{"Relevance":1.0,"Distance":34.7,"MatchLevel":"houseNumber","MatchQuality":{"Country":1.0,"State":1.0,"County":1.0,"City":1.0,"District":1.0,"Street":[1.0],"HouseNumber":1.0,"PostalCode":1.0},"MatchType":"interpolated","Location":{"LocationId":"NT_2gFcyzOflyHo5.GDjA1T6B_yYD","LocationType":"point","DisplayPosition":{"Latitude":40.38236,"Longitude":-3.70215},"MapView":{"TopLeft":{"Latitude":40.3834842,"Longitude":-3.7036258},"BottomRight":{"Latitude":40.3812358,"Longitude":-3.7006742}},"Address":{"Label":"Calle Ángelus, 26, 28026 Madrid (Madrid), España","Country":"ESP","State":"Comunidad de Madrid","County":"Madrid","City":"Madrid","District":"Almendrales","Street":"Calle Ángelus","HouseNumber":"26","PostalCode":"28026","AdditionalData":[{"value":"España","key":"CountryName"},{"value":"Comunidad de Madrid","key":"StateName"},{"value":"Madrid","key":"CountyName"}]},"MapReference":{"ReferenceId":"68504318","Spot":0.31,"SideOfStreet":"left","CountryId":"20215059","StateId":"20226800","CountyId":"20226801","CityId":"20242802","AddressId":"588618224","RoadLinkId":"67291693"}}}]}]}}