{"Response":{"MetaInfo":{"Timestamp":"2020-03-28T10:26:50.573+0000","NextPageInformation":"2"},"View":[{"_type":"SearchResultsViewType","ViewId":0,"Result":[{"Relevance":1.0,"Distance":-6864.1,"MatchLevel":"landmark","MatchQuality":{"Country":1.0,"State":1.0,"County":1.0,"City":1.0,"Street":[1.0],"PostalCode":1.0,"Name":1.0},"Location":{"LocationId":"NT_r03GxqxJXFEXMIpYC27-9C_p_FC-0AOG7rrKMDXX5rDYB0C","LocationType":"park","Name":"El Rebollar","DisplayPosition":{"Latitude":40.38482,"Longitude":-6.70488},"MapView":{"TopLeft":{"Latitude":40.50013,"Longitude":-6.86498},"BottomRight":{"Latitude":40.23893,"Longitude":-6.37833}},"Address":{"Label":"CV-199, 37540 Fuenteguinaldo (Salamanca), España","Country":"ESP","State":"Castilla y León","County":"Salamanca","City":"Fuenteguinaldo","Street":"CV-199","PostalCode":"37540","AdditionalData":[{"value":"España","key":"CountryName"},{"value":"Castilla y León","key":"StateName"},{"value":"Salamanca","key":"CountyName"}]},"MapReference":{"CountryId":"20215059","StateId":"20221909","CountyId":"20221914","CityId":"20309371","PlaceId":"1011154851"}}},{"Relevance":1.0,"Distance":0.0,"Direction":0.0,"MatchLevel":"city","MatchQuality":{"Country":1.0,"State":1.0,"County":1.0,"City":1.0,"PostalCode":1.0},"Location":{"LocationId":"NT_GOoQZ5u4UBWwNgwN0n1BrA","LocationType":"point","DisplayPosition":{"Latitude":40.3372768,"Longitude":-6.640679},"MapView":{"TopLeft":{"Latitude":40.36415,"Longitude":-6.66412},"BottomRight":{"Latitude":40.27316,"Longitude":-6.55591}},"Address":{"Label":"Villasrubias, Castilla y León, España","Country":"ESP","State":"Castilla y León","County":"Salamanca","City":"Villasrubias","PostalCode":"37522","AdditionalData":[{"value":"España","key":"CountryName"},{"value":"Castilla y León","key":"StateName"},{"value":"Salamanca","key":"CountyName"}]},"MapReference":{"ReferenceId":"571949477","SideOfStreet":"neither","CountryId":"20215059","StateId":"20221909","CountyId":"20221914","CityId":"20310541"}}},{"Relevance":1.0,"Distance":1.6,"MatchLevel":"houseNumber","MatchQuality":{"Country":1.0,"State":1.0,"County":1.0,"City":1.0,"Street":[1.0],"HouseNumber":1.0,"PostalCode":1.0},"MatchType":"interpolated","Location":{"LocationId":"NT_2ec0wF6ARKeku5YWBkPfFB_l_593026038_R_3cTM","LocationType":"point","DisplayPosition":{"Latitude":40.33718,"Longitude":-6.64079},"MapView":{"TopLeft":{"Latitude":40.3383042,"Longitude":-6.6422648},"BottomRight":{"Latitude":40.3360559,"Longitude":-6.6393152}},"Address":{"Label":"Calle de Calvo Sotelo, 771, 37522 Villasrubias (Salamanca), España","Country":"ESP","State":"Castilla y León","County":"Salamanca","City":"Villasrubias","Street":"Calle de Calvo Sotelo","HouseNumber":"771","PostalCode":"37522","AdditionalData":[{"value":"España","key":"CountryName"},{"value":"Castilla y León","key":"StateName"},{"value":"Salamanca","key":"CountyName"}]},"MapReference":{"ReferenceId":"593026038","Spot":0.5,"SideOfStreet":"right","CountryId":"20215059","StateId":"20221909","CountyId":"20221914","CityId":"20310541"}}},{"Relevance":1.0,"Distance":12.3,"MatchLevel":"houseNumber","MatchQuality":{"Country":1.0,"State":1.0,"County":1.0,"City":1.0,"Street":[1.0],"HouseNumber":1.0,"PostalCode":1.0},"MatchType":"interpolated","Location":{"LocationId":"NT_Rj1mWDv-FJW4tS2XOVIFHC_xED","LocationType":"point","DisplayPosition":{"Latitude":40.33716,"Longitude":-6.64063},"MapView":{"TopLeft":{"Latitude":40.3382842,"Longitude":-6.6421048},"BottomRight":{"Latitude":40.3360358,"Longitude":-6.6391552}},"Address":{"Label":"Calle Pío XII, 11, 37522 Villasrubias (Salamanca), España","Country":"ESP","State":"Castilla y León","County":"Salamanca","City":"Villasrubias","Street":"Calle Pío XII","HouseNumber":"11","PostalCode":"37522","AdditionalData":[{"value":"España","key":"CountryName"},{"value":"Castilla y León","key":"StateName"},{"value":"Salamanca","key":"CountyName"}]},"MapReference":{"ReferenceId":"1235475462","Spot":0.18,"SideOfStreet":"left","CountryId":"20215059","StateId":"20221909","CountyId":"20221914","CityId":"20310541","AddressId":"782270348","RoadLinkId":"555989171"}}},{"Relevance":1.0,"Distance":29.8,"MatchLevel":"houseNumber","MatchQuality":{"Country":1.0,"State":1.0,"County":1.0,"City":1.0,"Street":[1.0],"HouseNumber":1.0,"PostalCode":1.0},"MatchType":"interpolated","Location":{"LocationId":"NT_NSRjFt76HshWVPNK-wQiOB_yA","LocationType":"point","DisplayPosition":{"Latitude":40.33727,"Longitude":-6.64103},"MapView":{"TopLeft":{"Latitude":40.3383942,"Longitude":-6.6425048},"BottomRight":{"Latitude":40.3361458,"Longitude":-6.6395552}},"Address":{"Label":"Calle Larga, 2, 37522 Villasrubias (Salamanca), España","Country":"ESP","State":"Castilla y León","County":"Salamanca","City":"Villasrubias","Street":"Calle Larga","HouseNumber":"2","PostalCode":"37522","AdditionalData":[{"value":"España","key":"CountryName"},{"value":"Castilla y León","key":"StateName"},{"value":"Salamanca","key":"CountyName"}]},"MapReference":{"ReferenceId":"593026036","Spot":0.38,"SideOfStreet":"left","CountryId":"20215059","StateId":"20221909","CountyId":"20221914","CityId":"20310541","AddressId":"785451105","RoadLinkId":"563085349"}}},{"Relevance":1.0,"Distance":32.3,"MatchLevel":"houseNumber","MatchQuality":{"Country":1.0,"State":1.0,"County":1.0,"City":1.0,"Street":[1.0],"HouseNumber":1.0,"PostalCode":1.0},"MatchType":"interpolated","Location":{"LocationId":"NT_r82iIM4mrJ26-nYhcRe.2D_l_574794264_L_5A","LocationType":"point","DisplayPosition":{"Latitude":40.33748,"Longitude":-6.6401933},"MapView":{"TopLeft":{"Latitude":40.3386042,"Longitude":-6.6416681},"BottomRight":{"Latitude":40.3363559,"Longitude":-6.6387186}},"Address":{"Label":"Travesía de Calvo Sotelo, 9, 37522 Villasrubias (Salamanca), España","Country":"ESP","State":"Castilla y León","County":"Salamanca","City":"Villasrubias","Street":"Travesía de Calvo Sotelo","HouseNumber":"9","PostalCode":"37522","AdditionalData":[{"value":"España","key":"CountryName"},{"value":"Castilla y León","key":"StateName"},{"value":"Salamanca","key":"CountyName"}]},"MapReference":{"ReferenceId":"574794264","Spot":0.67,"SideOfStreet":"left","CountryId":"20215059","StateId":"20221909","CountyId":"20221914","CityId":"20310541"}}},{"Relevance":1.0,"Distance":33.8,"MatchLevel":"houseNumber","MatchQuality":{"Country":1.0,"State":1.0,"County":1.0,"City":1.0,"Street":[1.0],"HouseNumber":1.0,"PostalCode":1.0},"MatchType":"interpolated","Location":{"LocationId":"NT_Rj1mWDv-FJW4tS2XOVIFHC_l_574794284_L_xED","LocationType":"point","DisplayPosition":{"Latitude":40.3369847,"Longitude":-6.6409628},"MapView":{"TopLeft":{"Latitude":40.3381089,"Longitude":-6.6424376},"BottomRight":{"Latitude":40.3358606,"Longitude":-6.6394881}},"Address":{"Label":"Calle Pío XII, 11, 37522 Villasrubias (Salamanca), España","Country":"ESP","State":"Castilla y León","County":"Salamanca","City":"Villasrubias","Street":"Calle Pío XII","HouseNumber":"11","PostalCode":"37522","AdditionalData":[{"value":"España","key":"CountryName"},{"value":"Castilla y León","key":"StateName"},{"value":"Salamanca","key":"CountyName"}]},"MapReference":{"ReferenceId":"574794284","Spot":0.68,"SideOfStreet":"left","CountryId":"20215059","StateId":"20221909","CountyId":"20221914","CityId":"20310541"}}},{"Relevance":1.0,"Distance":39.9,"MatchLevel":"houseNumber","MatchQuality":{"Country":1.0,"State":1.0,"County":1.0,"City":1.0,"Street":[1.0],"HouseNumber":1.0,"PostalCode":1.0},"MatchType":"interpolated","Location":{"LocationId":"NT_NSRjFt76HshWVPNK-wQiOB_xgD","LocationType":"point","DisplayPosition":{"Latitude":40.3375,"Longitude":-6.64031},"MapView":{"TopLeft":{"Latitude":40.3386242,"Longitude":-6.6417848},"BottomRight":{"Latitude":40.3363758,"Longitude":-6.6388352}},"Address":{"Label":"Calle Larga, 18, 37522 Villasrubias (Salamanca), España","Country":"ESP","State":"Castilla y León","County":"Salamanca","City":"Villasrubias","Street":"Calle Larga","HouseNumber":"18","PostalCode":"37522","AdditionalData":[{"value":"España","key":"CountryName"},{"value":"Castilla y León","key":"StateName"},{"value":"Salamanca","key":"CountyName"}]},"MapReference":{"ReferenceId":"593026037","Spot":0.87,"SideOfStreet":"right","CountryId":"20215059","StateId":"20221909","CountyId":"20221914","CityId":"20310541","AddressId":"782397835","RoadLinkId":"68391463"}}},{"Relevance":1.0,"Distance":46.9,"MatchLevel":"houseNumber","MatchQuality":{"Country":1.0,"State":1.0,"County":1.0,"City":1.0,"Street":[1.0],"HouseNumber":1.0,"PostalCode":1.0},"MatchType":"interpolated","Location":{"LocationId":"NT_1SKExZl9BviGB3wLkIfQmC_ycD","LocationType":"point","DisplayPosition":{"Latitude":40.33754,"Longitude":-6.64125},"MapView":{"TopLeft":{"Latitude":40.3386642,"Longitude":-6.6427248},"BottomRight":{"Latitude":40.3364158,"Longitude":-6.6397752}},"Address":{"Label":"Avenida Real, 27, 37522 Villasrubias (Salamanca), España","Country":"ESP","State":"Castilla y León","County":"Salamanca","City":"Villasrubias","Street":"Avenida Real","HouseNumber":"27","PostalCode":"37522","AdditionalData":[{"value":"España","key":"CountryName"},{"value":"Castilla y León","key":"StateName"},{"value":"Salamanca","key":"CountyName"}]},"MapReference":{"ReferenceId":"926064277","Spot":0.25,"SideOfStreet":"right","CountryId":"20215059","StateId":"20221909","CountyId":"20221914","CityId":"20310541","AddressId":"791822792","RoadLinkId":"566835780"}}},{"Relevance":1.0,"Distance":48.8,"MatchLevel":"houseNumber","MatchQuality":{"Country":1.0,"State":1.0,"County":1.0,"City":1.0,"Street":[1.0],"HouseNumber":1.0,"PostalCode":1.0},"MatchType":"interpolated","Location":{"LocationId":"NT_NSRjFt76HshWVPNK-wQiOB_xED","LocationType":"point","DisplayPosition":{"Latitude":40.33757,"Longitude":-6.64023},"MapView":{"TopLeft":{"Latitude":40.3386942,"Longitude":-6.6417048},"BottomRight":{"Latitude":40.3364458,"Longitude":-6.6387552}},"Address":{"Label":"Calle Larga, 11, 37522 Villasrubias (Salamanca), España","Country":"ESP","State":"Castilla y León","County":"Salamanca","City":"Villasrubias","Street":"Calle Larga","HouseNumber":"11","PostalCode":"37522","AdditionalData":[{"value":"España","key":"CountryName"},{"value":"Castilla y León","key":"StateName"},{"value":"Salamanca","key":"CountyName"}]},"MapReference":{"ReferenceId":"574794315","Spot":0.05,"SideOfStreet":"left","CountryId":"20215059","StateId":"20221909","CountyId":"20221914","CityId":"20310541","AddressId":"785448296","RoadLinkId":"67826024"}}}]}]}}