{"Response":{"MetaInfo":{"Timestamp":"2020-03-28T11:33:00.914+0000","NextPageInformation":"2"},"View":[{"_type":"SearchResultsViewType","ViewId":0,"Result":[{"Relevance":1.0,"Distance":0.0,"Direction":0.0,"MatchLevel":"district","MatchQuality":{"Country":1.0,"County":1.0,"City":1.0,"District":1.0,"PostalCode":1.0},"Location":{"LocationId":"NT_gPUxll5jJGaMWktdHku0eC","LocationType":"point","DisplayPosition":{"Latitude":40.3801291,"Longitude":-8.4562682},"MapView":{"TopLeft":{"Latitude":40.39585,"Longitude":-8.46297},"BottomRight":{"Latitude":40.36274,"Longitude":-8.43472}},"Address":{"Label":"Mealhada, Portugal","Country":"PRT","County":"Aveiro","City":"Mealhada","District":"Mealhada","PostalCode":"3050-375","AdditionalData":[{"value":"Portugal","key":"CountryName"},{"value":"Aveiro","key":"CountyName"}]},"MapReference":{"ReferenceId":"856026061","SideOfStreet":"neither","CountryId":"20317122","CountyId":"20317149","CityId":"20317293","DistrictId":"20317298"}}},{"Relevance":1.0,"Distance":5.6,"MatchLevel":"street","MatchQuality":{"Country":1.0,"County":1.0,"City":1.0,"District":1.0,"Street":[1.0],"PostalCode":1.0},"Location":{"LocationId":"NT_CVbp..6DBiPJnYiMweDZ.A_l_943852943_R","LocationType":"point","DisplayPosition":{"Latitude":40.3801596,"Longitude":-8.4563212},"MapView":{"TopLeft":{"Latitude":40.38044,"Longitude":-8.45639},"BottomRight":{"Latitude":40.38004,"Longitude":-8.45616}},"Address":{"Label":"Complexo Chafariz, 3050-329 Mealhada, Portugal","Country":"PRT","County":"Aveiro","City":"Mealhada","District":"Mealhada","Street":"Complexo Chafariz","PostalCode":"3050-329","AdditionalData":[{"value":"Portugal","key":"CountryName"},{"value":"Aveiro","key":"CountyName"}]},"MapReference":{"ReferenceId":"943852943","Spot":0.3,"SideOfStreet":"right","CountryId":"20317122","CountyId":"20317149","CityId":"20317293","DistrictId":"20317298"}}},{"Relevance":1.0,"Distance":14.3,"MatchLevel":"street","MatchQuality":{"Country":1.0,"County":1.0,"City":1.0,"District":1.0,"Street":[1.0],"PostalCode":1.0},"Location":{"LocationId":"NT_CVbp..6DBiPJnYiMweDZ.A_l_943852942_R","LocationType":"point","DisplayPosition":{"Latitude":40.38004,"Longitude":-8.45639},"MapView":{"TopLeft":{"Latitude":40.38004,"Longitude":-8.45648},"BottomRight":{"Latitude":40.37988,"Longitude":-8.45639}},"Address":{"Label":"Complexo Chafariz, 3050-329 Mealhada, Portugal","Country":"PRT","County":"Aveiro","City":"Mealhada","District":"Mealhada","Street":"Complexo Chafariz","PostalCode":"3050-329","AdditionalData":[{"value":"Portugal","key":"CountryName"},{"value":"Aveiro","key":"CountyName"}]},"MapReference":{"ReferenceId":"943852942","Spot":1.0,"SideOfStreet":"right","CountryId":"20317122","CountyId":"20317149","CityId":"20317293","DistrictId":"20317298"}}},{"Relevance":1.0,"Distance":29.2,"MatchLevel":"houseNumber","MatchQuality":{"Country":1.0,"County":1.0,"City":1.0,"District":1.0,"Street":[1.0],"HouseNumber":1.0,"PostalCode":1.0},"MatchType":"interpolated","Location":{"LocationId":"NT_FQ.aI5aJesoQmG.w8UckQD_0A","LocationType":"point","DisplayPosition":{"Latitude":40.37987,"Longitude":-8.45621},"MapView":{"TopLeft":{"Latitude":40.3809942,"Longitude":-8.4576857},"BottomRight":{"Latitude":40.3787458,"Longitude":-8.4547343}},"Address":{"Label":"Rua da Misericórdia 4, 3050-387 Mealhada, Portugal","Country":"PRT","County":"Aveiro","City":"Mealhada","District":"Mealhada","Street":"Rua da Misericórdia","HouseNumber":"4","PostalCode":"3050-387","AdditionalData":[{"value":"Portugal","key":"CountryName"},{"value":"Aveiro","key":"CountyName"}]},"MapReference":{"ReferenceId":"588032232","Spot":0.3,"SideOfStreet":"right","CountryId":"20317122","CountyId":"20317149","CityId":"20317293","DistrictId":"20317298","AddressId":"344037331","RoadLinkId":"70751221"}}},{"Relevance":1.0,"Distance":33.0,"MatchLevel":"street","MatchQuality":{"Country":1.0,"County":1.0,"City":1.0,"District":1.0,"Street":[1.0],"PostalCode":1.0},"Location":{"LocationId":"NT_97ie75Gn-Q8Pt27JH96aZD_l_943754868_R","LocationType":"point","DisplayPosition":{"Latitude":40.37988,"Longitude":-8.45648},"MapView":{"TopLeft":{"Latitude":40.37988,"Longitude":-8.4572},"BottomRight":{"Latitude":40.37859,"Longitude":-8.45648}},"Address":{"Label":"Complexo Chafariz, 3050-329 Mealhada, Portugal","Country":"PRT","County":"Aveiro","City":"Mealhada","District":"Mealhada","Street":"Complexo Chafariz","PostalCode":"3050-329","AdditionalData":[{"value":"Portugal","key":"CountryName"},{"value":"Aveiro","key":"CountyName"}]},"MapReference":{"ReferenceId":"943754868","Spot":1.0,"SideOfStreet":"right","CountryId":"20317122","CountyId":"20317149","CityId":"20317293","DistrictId":"20317298"}}},{"Relevance":1.0,"Distance":35.8,"MatchLevel":"street","MatchQuality":{"Country":1.0,"County":1.0,"City":1.0,"District":1.0,"Street":[1.0],"PostalCode":1.0},"Location":{"LocationId":"NT_97ie75Gn-Q8Pt27JH96aZD_l_943835688_R","LocationType":"point","DisplayPosition":{"Latitude":40.38044,"Longitude":-8.45616},"MapView":{"TopLeft":{"Latitude":40.38196,"Longitude":-8.45616},"BottomRight":{"Latitude":40.38044,"Longitude":-8.45414}},"Address":{"Label":"Complexo Chafariz, 3050-329 Mealhada, Portugal","Country":"PRT","County":"Aveiro","City":"Mealhada","District":"Mealhada","Street":"Complexo Chafariz","PostalCode":"3050-329","AdditionalData":[{"value":"Portugal","key":"CountryName"},{"value":"Aveiro","key":"CountyName"}]},"MapReference":{"ReferenceId":"943835688","Spot":0.0,"SideOfStreet":"right","CountryId":"20317122","CountyId":"20317149","CityId":"20317293","DistrictId":"20317298"}}},{"Relevance":1.0,"Distance":63.8,"MatchLevel":"street","MatchQuality":{"Country":1.0,"County":1.0,"City":1.0,"District":1.0,"Street":[1.0],"PostalCode":1.0},"Location":{"LocationId":"NT_5Se1gKJIfy8s663e7zBxqD_l_588032217_L","LocationType":"point","DisplayPosition":{"Latitude":40.37988,"Longitude":-8.45559},"MapView":{"TopLeft":{"Latitude":40.37988,"Longitude":-8.45559},"BottomRight":{"Latitude":40.37947,"Longitude":-8.45559}},"Address":{"Label":"Rua Eça de Queirós, 3050-385 Mealhada, Portugal","Country":"PRT","County":"Aveiro","City":"Mealhada","District":"Mealhada","Street":"Rua Eça de Queirós","PostalCode":"3050-385","AdditionalData":[{"value":"Portugal","key":"CountryName"},{"value":"Aveiro","key":"CountyName"}]},"MapReference":{"ReferenceId":"588032217","Spot":1.0,"SideOfStreet":"left","CountryId":"20317122","CountyId":"20317149","CityId":"20317293","DistrictId":"20317298"}}},{"Relevance":1.0,"Distance":63.8,"MatchLevel":"street","MatchQuality":{"Country":1.0,"County":1.0,"City":1.0,"District":1.0,"Street":[1.0],"PostalCode":1.0},"Location":{"LocationId":"NT_FQ.aI5aJesoQmG.w8UckQD_l_588032230_L","LocationType":"point","DisplayPosition":{"Latitude":40.37988,"Longitude":-8.45559},"MapView":{"TopLeft":{"Latitude":40.37988,"Longitude":-8.45559},"BottomRight":{"Latitude":40.37988,"Longitude":-8.45537}},"Address":{"Label":"Rua da Misericórdia, 3050-387 Mealhada, Portugal","Country":"PRT","County":"Aveiro","City":"Mealhada","District":"Mealhada","Street":"Rua da Misericórdia","PostalCode":"3050-387","AdditionalData":[{"value":"Portugal","key":"CountryName"},{"value":"Aveiro","key":"CountyName"}]},"MapReference":{"ReferenceId":"588032230","Spot":0.0,"SideOfStreet":"left","CountryId":"20317122","CountyId":"20317149","CityId":"20317293","DistrictId":"20317298"}}},{"Relevance":1.0,"Distance":73.3,"MatchLevel":"street","MatchQuality":{"Country":1.0,"County":1.0,"City":1.0,"District":1.0,"Street":[1.0],"PostalCode":1.0},"Location":{"LocationId":"NT_kbX530j8NsltDIqS8h7GCA_l_947212374_L","LocationType":"point","DisplayPosition":{"Latitude":40.37947,"Longitude":-8.4562682},"MapView":{"TopLeft":{"Latitude":40.37947,"Longitude":-8.45645},"BottomRight":{"Latitude":40.37908,"Longitude":-8.45559}},"Address":{"Label":"Rua Alexandre Herculano, 3050-383 Mealhada, Portugal","Country":"PRT","County":"Aveiro","City":"Mealhada","District":"Mealhada","Street":"Rua Alexandre Herculano","PostalCode":"3050-383","AdditionalData":[{"value":"Portugal","key":"CountryName"},{"value":"Aveiro","key":"CountyName"}]},"MapReference":{"ReferenceId":"947212374","Spot":0.39,"SideOfStreet":"left","CountryId":"20317122","CountyId":"20317149","CityId":"20317293","DistrictId":"20317298"}}},{"Relevance":1.0,"Distance":81.0,"MatchLevel":"street","MatchQuality":{"Country":1.0,"County":1.0,"City":1.0,"District":1.0,"Street":[1.0],"PostalCode":1.0},"Location":{"LocationId":"NT_FQ.aI5aJesoQmG.w8UckQD_l_588032228_L","LocationType":"point","DisplayPosition":{"Latitude":40.37988,"Longitude":-8.45537},"MapView":{"TopLeft":{"Latitude":40.37989,"Longitude":-8.45537},"BottomRight":{"Latitude":40.37988,"Longitude":-8.45513}},"Address":{"Label":"Rua da Misericórdia, 3050-387 Mealhada, Portugal","Country":"PRT","County":"Aveiro","City":"Mealhada","District":"Mealhada","Street":"Rua da Misericórdia","PostalCode":"3050-387","AdditionalData":[{"value":"Portugal","key":"CountryName"},{"value":"Aveiro","key":"CountyName"}]},"MapReference":{"ReferenceId":"588032228","Spot":0.0,"SideOfStreet":"left","CountryId":"20317122","CountyId":"20317149","CityId":"20317293","DistrictId":"20317298"}}}]}]}}