{"Response":{"MetaInfo":{"Timestamp":"2020-03-28T09:37:17.715+0000","NextPageInformation":"2"},"View":[{"_type":"SearchResultsViewType","ViewId":0,"Result":[{"Relevance":1.0,"Distance":0.0,"Direction":0.0,"MatchLevel":"city","MatchQuality":{"Country":1.0,"State":1.0,"County":1.0,"City":1.0,"PostalCode":1.0},"Location":{"LocationId":"NT_t8r711YFe0j86GNU1TTGMA","LocationType":"point","DisplayPosition":{"Latitude":40.309877,"Longitude":-3.717532},"MapView":{"TopLeft":{"Latitude":40.33472,"Longitude":-3.76439},"BottomRight":{"Latitude":40.26639,"Longitude":-3.56995}},"Address":{"Label":"Getafe, Comunidad de Madrid, España","Country":"ESP","State":"Comunidad de Madrid","County":"Madrid","City":"Getafe","PostalCode":"28901","AdditionalData":[{"value":"España","key":"CountryName"},{"value":"Comunidad de Madrid","key":"StateName"},{"value":"Madrid","key":"CountyName"}]},"MapReference":{"ReferenceId":"549325445","SideOfStreet":"neither","CountryId":"20215059","StateId":"20226800","CountyId":"20226801","CityId":"20242744"}}},{"Relevance":1.0,"Distance":6.3,"MatchLevel":"street","MatchQuality":{"Country":1.0,"State":1.0,"County":1.0,"City":1.0,"Street":[1.0],"PostalCode":1.0},"Location":{"LocationId":"NT_3a.JRVFQL3C9wihiTukmKC_l_1001889820_R","LocationType":"point","DisplayPosition":{"Latitude":40.3099336,"Longitude":-3.7175341},"MapView":{"TopLeft":{"Latitude":40.30995,"Longitude":-3.71763},"BottomRight":{"Latitude":40.30993,"Longitude":-3.7171}},"Address":{"Label":"Plaza del Doctor Severo Ochoa, 28903 Getafe (Madrid), España","Country":"ESP","State":"Comunidad de Madrid","County":"Madrid","City":"Getafe","Street":"Plaza del Doctor Severo Ochoa","PostalCode":"28903","AdditionalData":[{"value":"España","key":"CountryName"},{"value":"Comunidad de Madrid","key":"StateName"},{"value":"Madrid","key":"CountyName"}]},"MapReference":{"ReferenceId":"1001889820","Spot":0.18,"SideOfStreet":"right","CountryId":"20215059","StateId":"20226800","CountyId":"20226801","CityId":"20242744"}}},{"Relevance":1.0,"Distance":7.4,"MatchLevel":"street","MatchQuality":{"Country":1.0,"State":1.0,"County":1.0,"City":1.0,"Street":[1.0],"PostalCode":1.0},"Location":{"LocationId":"NT_S7aLVwyNhdhP4jvtcKu-qB_l_549325143_R","LocationType":"point","DisplayPosition":{"Latitude":40.3098602,"Longitude":-3.717616},"MapView":{"TopLeft":{"Latitude":40.30993,"Longitude":-3.71763},"BottomRight":{"Latitude":40.30983,"Longitude":-3.71761}},"Address":{"Label":"Calle Granada, 28903 Getafe (Madrid), España","Country":"ESP","State":"Comunidad de Madrid","County":"Madrid","City":"Getafe","Street":"Calle Granada","PostalCode":"28903","AdditionalData":[{"value":"España","key":"CountryName"},{"value":"Comunidad de Madrid","key":"StateName"},{"value":"Madrid","key":"CountyName"}]},"MapReference":{"ReferenceId":"549325143","Spot":0.3,"SideOfStreet":"right","CountryId":"20215059","StateId":"20226800","CountyId":"20226801","CityId":"20242744"}}},{"Relevance":1.0,"Distance":8.4,"MatchLevel":"street","MatchQuality":{"Country":1.0,"State":1.0,"County":1.0,"City":1.0,"Street":[1.0],"PostalCode":1.0},"Location":{"LocationId":"NT_S7aLVwyNhdhP4jvtcKu-qB_l_1024888348_R","LocationType":"point","DisplayPosition":{"Latitude":40.30983,"Longitude":-3.71761},"MapView":{"TopLeft":{"Latitude":40.30983,"Longitude":-3.71761},"BottomRight":{"Latitude":40.3096,"Longitude":-3.71758}},"Address":{"Label":"Calle Granada, 28903 Getafe (Madrid), España","Country":"ESP","State":"Comunidad de Madrid","County":"Madrid","City":"Getafe","Street":"Calle Granada","PostalCode":"28903","AdditionalData":[{"value":"España","key":"CountryName"},{"value":"Comunidad de Madrid","key":"StateName"},{"value":"Madrid","key":"CountyName"}]},"MapReference":{"ReferenceId":"1024888348","Spot":1.0,"SideOfStreet":"right","CountryId":"20215059","StateId":"20226800","CountyId":"20226801","CityId":"20242744"}}},{"Relevance":1.0,"Distance":17.0,"MatchLevel":"houseNumber","MatchQuality":{"Country":1.0,"State":1.0,"County":1.0,"City":1.0,"Street":[1.0],"HouseNumber":1.0,"PostalCode":1.0},"MatchType":"interpolated","Location":{"LocationId":"NT_S7aLVwyNhdhP4jvtcKu-qB_xA","LocationType":"point","DisplayPosition":{"Latitude":40.31001,"Longitude":-3.71763},"MapView":{"TopLeft":{"Latitude":40.3111342,"Longitude":-3.7191042},"BottomRight":{"Latitude":40.3088858,"Longitude":-3.7161558}},"Address":{"Label":"Calle Granada, 1, 28903 Getafe (Madrid), España","Country":"ESP","State":"Comunidad de Madrid","County":"Madrid","City":"Getafe","Street":"Calle Granada","HouseNumber":"1","PostalCode":"28903","AdditionalData":[{"value":"España","key":"CountryName"},{"value":"Comunidad de Madrid","key":"StateName"},{"value":"Madrid","key":"CountyName"}]},"MapReference":{"ReferenceId":"1001889813","Spot":0.35,"SideOfStreet":"left","CountryId":"20215059","StateId":"20226800","CountyId":"20226801","CityId":"20242744","AddressId":"267193821","RoadLinkId":"328183704"}}},{"Relevance":1.0,"Distance":20.3,"MatchLevel":"houseNumber","MatchQuality":{"Country":1.0,"State":1.0,"County":1.0,"City":1.0,"Street":[1.0],"HouseNumber":1.0,"PostalCode":1.0},"MatchType":"interpolated","Location":{"LocationId":"NT_oIeo4Nsp6pwca2Ahqn8L5D_zA","LocationType":"point","DisplayPosition":{"Latitude":40.30982,"Longitude":-3.71776},"MapView":{"TopLeft":{"Latitude":40.3109442,"Longitude":-3.7192342},"BottomRight":{"Latitude":40.3086958,"Longitude":-3.7162858}},"Address":{"Label":"Travesía de Andalucía, 3, 28903 Getafe (Madrid), España","Country":"ESP","State":"Comunidad de Madrid","County":"Madrid","City":"Getafe","Street":"Travesía de Andalucía","HouseNumber":"3","PostalCode":"28903","AdditionalData":[{"value":"España","key":"CountryName"},{"value":"Comunidad de Madrid","key":"StateName"},{"value":"Madrid","key":"CountyName"}]},"MapReference":{"ReferenceId":"1001889830","Spot":0.53,"SideOfStreet":"left","CountryId":"20215059","StateId":"20226800","CountyId":"20226801","CityId":"20242744","AddressId":"267627946","RoadLinkId":"328183721"}}},{"Relevance":1.0,"Distance":30.6,"MatchLevel":"street","MatchQuality":{"Country":1.0,"State":1.0,"County":1.0,"City":1.0,"PostalCode":1.0},"Location":{"LocationId":"NT_D8eNHRJNQVlPMOnw4kJ2gB_l_1024888351_L","LocationType":"point","DisplayPosition":{"Latitude":40.3096018,"Longitude":-3.7175233},"MapView":{"TopLeft":{"Latitude":40.30963,"Longitude":-3.71758},"BottomRight":{"Latitude":40.3096,"Longitude":-3.71663}},"Address":{"Label":"28903 Getafe (Madrid), España","Country":"ESP","State":"Comunidad de Madrid","County":"Madrid","City":"Getafe","PostalCode":"28903","AdditionalData":[{"value":"España","key":"CountryName"},{"value":"Comunidad de Madrid","key":"StateName"},{"value":"Madrid","key":"CountyName"}]},"MapReference":{"ReferenceId":"1024888351","Spot":0.06,"SideOfStreet":"left","CountryId":"20215059","StateId":"20226800","CountyId":"20226801","CityId":"20242744"}}},{"Relevance":1.0,"Distance":31.1,"MatchLevel":"street","MatchQuality":{"Country":1.0,"State":1.0,"County":1.0,"City":1.0,"Street":[1.0],"PostalCode":1.0},"Location":{"LocationId":"NT_S7aLVwyNhdhP4jvtcKu-qB_l_1024888347_R","LocationType":"point","DisplayPosition":{"Latitude":40.3096,"Longitude":-3.71758},"MapView":{"TopLeft":{"Latitude":40.3096,"Longitude":-3.71759},"BottomRight":{"Latitude":40.30949,"Longitude":-3.71758}},"Address":{"Label":"Calle Granada, 28903 Getafe (Madrid), España","Country":"ESP","State":"Comunidad de Madrid","County":"Madrid","City":"Getafe","Street":"Calle Granada","PostalCode":"28903","AdditionalData":[{"value":"España","key":"CountryName"},{"value":"Comunidad de Madrid","key":"StateName"},{"value":"Madrid","key":"CountyName"}]},"MapReference":{"ReferenceId":"1024888347","Spot":1.0,"SideOfStreet":"right","CountryId":"20215059","StateId":"20226800","CountyId":"20226801","CityId":"20242744"}}},{"Relevance":1.0,"Distance":31.9,"MatchLevel":"street","MatchQuality":{"Country":1.0,"State":1.0,"County":1.0,"City":1.0,"PostalCode":1.0},"Location":{"LocationId":"NT_D8eNHRJNQVlPMOnw4kJ2gB_l_1001889815_R","LocationType":"point","DisplayPosition":{"Latitude":40.3101641,"Longitude":-3.717546},"MapView":{"TopLeft":{"Latitude":40.31018,"Longitude":-3.71763},"BottomRight":{"Latitude":40.31016,"Longitude":-3.71722}},"Address":{"Label":"28903 Getafe (Madrid), España","Country":"ESP","State":"Comunidad de Madrid","County":"Madrid","City":"Getafe","PostalCode":"28903","AdditionalData":[{"value":"España","key":"CountryName"},{"value":"Comunidad de Madrid","key":"StateName"},{"value":"Madrid","key":"CountyName"}]},"MapReference":{"ReferenceId":"1001889815","Spot":0.2,"SideOfStreet":"right","CountryId":"20215059","StateId":"20226800","CountyId":"20226801","CityId":"20242744"}}},{"Relevance":1.0,"Distance":32.5,"MatchLevel":"street","MatchQuality":{"Country":1.0,"State":1.0,"County":1.0,"City":1.0,"Street":[1.0],"PostalCode":1.0},"Location":{"LocationId":"NT_S7aLVwyNhdhP4jvtcKu-qB_l_1001889814_R","LocationType":"point","DisplayPosition":{"Latitude":40.31016,"Longitude":-3.71763},"MapView":{"TopLeft":{"Latitude":40.31038,"Longitude":-3.71763},"BottomRight":{"Latitude":40.31016,"Longitude":-3.71763}},"Address":{"Label":"Calle Granada, 28903 Getafe (Madrid), España","Country":"ESP","State":"Comunidad de Madrid","County":"Madrid","City":"Getafe","Street":"Calle Granada","PostalCode":"28903","AdditionalData":[{"value":"España","key":"CountryName"},{"value":"Comunidad de Madrid","key":"StateName"},{"value":"Madrid","key":"CountyName"}]},"MapReference":{"ReferenceId":"1001889814","Spot":0.0,"SideOfStreet":"right","CountryId":"20215059","StateId":"20226800","CountyId":"20226801","CityId":"20242744"}}}]}]}}