{"Response":{"MetaInfo":{"Timestamp":"2020-03-28T11:05:16.977+0000","NextPageInformation":"2"},"View":[{"_type":"SearchResultsViewType","ViewId":0,"Result":[{"Relevance":1.0,"Distance":-43.1,"MatchLevel":"landmark","MatchQuality":{"Country":1.0,"State":1.0,"County":1.0,"City":1.0,"PostalCode":1.0,"Name":1.0},"Location":{"LocationId":"NT_J84EBWvB-ljEEoVbJte4SB","LocationType":"hospital","Name":"Hospital Univ. Infanta Leonor","DisplayPosition":{"Latitude":40.38653,"Longitude":-3.61785},"MapView":{"TopLeft":{"Latitude":40.38896,"Longitude":-3.62132},"BottomRight":{"Latitude":40.3841,"Longitude":-3.61491}},"Address":{"Label":"28014 Madrid (Madrid), España","Country":"ESP","State":"Comunidad de Madrid","County":"Madrid","City":"Madrid","PostalCode":"28014","AdditionalData":[{"value":"España","key":"CountryName"},{"value":"Comunidad de Madrid","key":"StateName"},{"value":"Madrid","key":"CountyName"}]},"MapReference":{"CountryId":"20215059","StateId":"20226800","CountyId":"20226801","CityId":"20242802","PlaceId":"1405271231"}}},{"Relevance":1.0,"Distance":0.0,"Direction":0.0,"MatchLevel":"district","MatchQuality":{"Country":1.0,"State":1.0,"County":1.0,"City":1.0,"District":1.0,"PostalCode":1.0},"Location":{"LocationId":"NT_3fLbnXnIZEkEVOwU8M2DoC","LocationType":"point","DisplayPosition":{"Latitude":40.3875389,"Longitude":-3.6191928},"MapView":{"TopLeft":{"Latitude":40.39075,"Longitude":-3.62551},"BottomRight":{"Latitude":40.37609,"Longitude":-3.59741}},"Address":{"Label":"Santa Eugenia, Madrid, Comunidad de Madrid, España","Country":"ESP","State":"Comunidad de Madrid","County":"Madrid","City":"Madrid","District":"Santa Eugenia","PostalCode":"28031","AdditionalData":[{"value":"España","key":"CountryName"},{"value":"Comunidad de Madrid","key":"StateName"},{"value":"Madrid","key":"CountyName"}]},"MapReference":{"ReferenceId":"924450742","SideOfStreet":"neither","CountryId":"20215059","StateId":"20226800","CountyId":"20226801","CityId":"20242802"}}},{"Relevance":1.0,"Distance":10.4,"MatchLevel":"street","MatchQuality":{"Country":1.0,"State":1.0,"County":1.0,"City":1.0,"District":1.0,"PostalCode":1.0},"Location":{"LocationId":"NT_xuxENkeEMfhABAeku1nDWC_l_754304251_L","LocationType":"point","DisplayPosition":{"Latitude":40.38747,"Longitude":-3.61911},"MapView":{"TopLeft":{"Latitude":40.38747,"Longitude":-3.61936},"BottomRight":{"Latitude":40.38677,"Longitude":-3.61893}},"Address":{"Label":"28031 Madrid (Madrid), España","Country":"ESP","State":"Comunidad de Madrid","County":"Madrid","City":"Madrid","District":"Santa Eugenia","PostalCode":"28031","AdditionalData":[{"value":"España","key":"CountryName"},{"value":"Comunidad de Madrid","key":"StateName"},{"value":"Madrid","key":"CountyName"}]},"MapReference":{"ReferenceId":"754304251","Spot":0.8,"SideOfStreet":"left","CountryId":"20215059","StateId":"20226800","CountyId":"20226801","CityId":"20242802"}}},{"Relevance":1.0,"Distance":11.7,"MatchLevel":"street","MatchQuality":{"Country":1.0,"State":1.0,"County":1.0,"City":1.0,"District":1.0,"Street":[1.0],"PostalCode":1.0},"Location":{"LocationId":"NT_jPlTPd.QH5lxAqrB6cUXAB_l_754304248_L","LocationType":"point","DisplayPosition":{"Latitude":40.3876433,"Longitude":-3.6191745},"MapView":{"TopLeft":{"Latitude":40.38766,"Longitude":-3.61927},"BottomRight":{"Latitude":40.38759,"Longitude":-3.61887}},"Address":{"Label":"Calle Gran Vía del Este, 28031 Madrid (Madrid), España","Country":"ESP","State":"Comunidad de Madrid","County":"Madrid","City":"Madrid","District":"Santa Eugenia","Street":"Calle Gran Vía del Este","PostalCode":"28031","AdditionalData":[{"value":"España","key":"CountryName"},{"value":"Comunidad de Madrid","key":"StateName"},{"value":"Madrid","key":"CountyName"}]},"MapReference":{"ReferenceId":"754304248","Spot":0.76,"SideOfStreet":"left","CountryId":"20215059","StateId":"20226800","CountyId":"20226801","CityId":"20242802"}}},{"Relevance":1.0,"Distance":14.7,"MatchLevel":"street","MatchQuality":{"Country":1.0,"State":1.0,"County":1.0,"City":1.0,"District":1.0,"PostalCode":1.0},"Location":{"LocationId":"NT_xuxENkeEMfhABAeku1nDWC_l_754330606_R","LocationType":"point","DisplayPosition":{"Latitude":40.3876548,"Longitude":-3.6192771},"MapView":{"TopLeft":{"Latitude":40.38766,"Longitude":-3.6197},"BottomRight":{"Latitude":40.38754,"Longitude":-3.61927}},"Address":{"Label":"28031 Madrid (Madrid), España","Country":"ESP","State":"Comunidad de Madrid","County":"Madrid","City":"Madrid","District":"Santa Eugenia","PostalCode":"28031","AdditionalData":[{"value":"España","key":"CountryName"},{"value":"Comunidad de Madrid","key":"StateName"},{"value":"Madrid","key":"CountyName"}]},"MapReference":{"ReferenceId":"754330606","Spot":0.98,"SideOfStreet":"right","CountryId":"20215059","StateId":"20226800","CountyId":"20226801","CityId":"20242802"}}},{"Relevance":1.0,"Distance":15.0,"MatchLevel":"street","MatchQuality":{"Country":1.0,"State":1.0,"County":1.0,"City":1.0,"District":1.0,"PostalCode":1.0},"Location":{"LocationId":"NT_xuxENkeEMfhABAeku1nDWC_l_754304214_R","LocationType":"point","DisplayPosition":{"Latitude":40.38766,"Longitude":-3.61927},"MapView":{"TopLeft":{"Latitude":40.38778,"Longitude":-3.61927},"BottomRight":{"Latitude":40.38766,"Longitude":-3.61923}},"Address":{"Label":"28031 Madrid (Madrid), España","Country":"ESP","State":"Comunidad de Madrid","County":"Madrid","City":"Madrid","District":"Santa Eugenia","PostalCode":"28031","AdditionalData":[{"value":"España","key":"CountryName"},{"value":"Comunidad de Madrid","key":"StateName"},{"value":"Madrid","key":"CountyName"}]},"MapReference":{"ReferenceId":"754304214","Spot":0.0,"SideOfStreet":"right","CountryId":"20215059","StateId":"20226800","CountyId":"20226801","CityId":"20242802"}}},{"Relevance":1.0,"Distance":24.8,"MatchLevel":"street","MatchQuality":{"Country":1.0,"State":1.0,"County":1.0,"City":1.0,"District":1.0,"Street":[1.0],"PostalCode":1.0},"Location":{"LocationId":"NT_jPlTPd.QH5lxAqrB6cUXAB_l_754304250_L","LocationType":"point","DisplayPosition":{"Latitude":40.38744,"Longitude":-3.61893},"MapView":{"TopLeft":{"Latitude":40.38759,"Longitude":-3.61893},"BottomRight":{"Latitude":40.38744,"Longitude":-3.61887}},"Address":{"Label":"Calle Gran Vía del Este, 28031 Madrid (Madrid), España","Country":"ESP","State":"Comunidad de Madrid","County":"Madrid","City":"Madrid","District":"Santa Eugenia","Street":"Calle Gran Vía del Este","PostalCode":"28031","AdditionalData":[{"value":"España","key":"CountryName"},{"value":"Comunidad de Madrid","key":"StateName"},{"value":"Madrid","key":"CountyName"}]},"MapReference":{"ReferenceId":"754304250","Spot":0.0,"SideOfStreet":"left","CountryId":"20215059","StateId":"20226800","CountyId":"20226801","CityId":"20242802"}}},{"Relevance":1.0,"Distance":25.3,"MatchLevel":"street","MatchQuality":{"Country":1.0,"State":1.0,"County":1.0,"City":1.0,"District":1.0,"Street":[1.0],"PostalCode":1.0},"Location":{"LocationId":"NT_jPlTPd.QH5lxAqrB6cUXAB_l_1022838890_L","LocationType":"point","DisplayPosition":{"Latitude":40.387414,"Longitude":-3.618943},"MapView":{"TopLeft":{"Latitude":40.38744,"Longitude":-3.61896},"BottomRight":{"Latitude":40.38738,"Longitude":-3.61893}},"Address":{"Label":"Calle Gran Vía del Este, 28031 Madrid (Madrid), España","Country":"ESP","State":"Comunidad de Madrid","County":"Madrid","City":"Madrid","District":"Santa Eugenia","Street":"Calle Gran Vía del Este","PostalCode":"28031","AdditionalData":[{"value":"España","key":"CountryName"},{"value":"Comunidad de Madrid","key":"StateName"},{"value":"Madrid","key":"CountyName"}]},"MapReference":{"ReferenceId":"1022838890","Spot":0.57,"SideOfStreet":"left","CountryId":"20215059","StateId":"20226800","CountyId":"20226801","CityId":"20242802"}}},{"Relevance":1.0,"Distance":26.5,"MatchLevel":"street","MatchQuality":{"Country":1.0,"State":1.0,"County":1.0,"City":1.0,"District":1.0,"Street":[1.0],"PostalCode":1.0},"Location":{"LocationId":"NT_jPlTPd.QH5lxAqrB6cUXAB_l_1022838889_L","LocationType":"point","DisplayPosition":{"Latitude":40.38738,"Longitude":-3.61896},"MapView":{"TopLeft":{"Latitude":40.38738,"Longitude":-3.61926},"BottomRight":{"Latitude":40.38673,"Longitude":-3.61896}},"Address":{"Label":"Calle Gran Vía del Este, 28031 Madrid (Madrid), España","Country":"ESP","State":"Comunidad de Madrid","County":"Madrid","City":"Madrid","District":"Santa Eugenia","Street":"Calle Gran Vía del Este","PostalCode":"28031","AdditionalData":[{"value":"España","key":"CountryName"},{"value":"Comunidad de Madrid","key":"StateName"},{"value":"Madrid","key":"CountyName"}]},"MapReference":{"ReferenceId":"1022838889","Spot":1.0,"SideOfStreet":"left","CountryId":"20215059","StateId":"20226800","CountyId":"20226801","CityId":"20242802"}}},{"Relevance":1.0,"Distance":26.5,"MatchLevel":"street","MatchQuality":{"Country":1.0,"State":1.0,"County":1.0,"City":1.0,"District":1.0,"PostalCode":1.0},"Location":{"LocationId":"NT_xuxENkeEMfhABAeku1nDWC_l_1022838891_R","LocationType":"point","DisplayPosition":{"Latitude":40.38738,"Longitude":-3.61896},"MapView":{"TopLeft":{"Latitude":40.38738,"Longitude":-3.61896},"BottomRight":{"Latitude":40.38734,"Longitude":-3.61882}},"Address":{"Label":"28031 Madrid (Madrid), España","Country":"ESP","State":"Comunidad de Madrid","County":"Madrid","City":"Madrid","District":"Santa Eugenia","PostalCode":"28031","AdditionalData":[{"value":"España","key":"CountryName"},{"value":"Comunidad de Madrid","key":"StateName"},{"value":"Madrid","key":"CountyName"}]},"MapReference":{"ReferenceId":"1022838891","Spot":1.0,"SideOfStreet":"right","CountryId":"20215059","StateId":"20226800","CountyId":"20226801","CityId":"20242802"}}}]}]}}