{"Response":{"MetaInfo":{"Timestamp":"2020-03-28T11:03:40.709+0000","NextPageInformation":"2"},"View":[{"_type":"SearchResultsViewType","ViewId":0,"Result":[{"Relevance":1.0,"Distance":0.0,"Direction":0.0,"MatchLevel":"city","MatchQuality":{"Country":1.0,"State":1.0,"County":1.0,"City":1.0,"PostalCode":1.0},"Location":{"LocationId":"NT_VDLfTgovDZnk0EPMvGxArD","LocationType":"point","DisplayPosition":{"Latitude":40.3479992,"Longitude":-3.8335006},"MapView":{"TopLeft":{"Latitude":40.40279,"Longitude":-3.87903},"BottomRight":{"Latitude":40.32402,"Longitude":-3.78897}},"Address":{"Label":"Alcorcón, Comunidad de Madrid, España","Country":"ESP","State":"Comunidad de Madrid","County":"Madrid","City":"Alcorcón","PostalCode":"28922","AdditionalData":[{"value":"España","key":"CountryName"},{"value":"Comunidad de Madrid","key":"StateName"},{"value":"Madrid","key":"CountyName"}]},"MapReference":{"ReferenceId":"1169853709","SideOfStreet":"neither","CountryId":"20215059","StateId":"20226800","CountyId":"20226801","CityId":"20242410"}}},{"Relevance":1.0,"Distance":1.6,"MatchLevel":"street","MatchQuality":{"Country":1.0,"State":1.0,"County":1.0,"City":1.0,"PostalCode":1.0},"Location":{"LocationId":"NT_yK1oMu.Q06v0mSCT60oxVB_l_1001490974_L","LocationType":"point","DisplayPosition":{"Latitude":40.3480111,"Longitude":-3.8335112},"MapView":{"TopLeft":{"Latitude":40.34803,"Longitude":-3.83377},"BottomRight":{"Latitude":40.34778,"Longitude":-3.83349}},"Address":{"Label":"28922 Alcorcón (Madrid), España","Country":"ESP","State":"Comunidad de Madrid","County":"Madrid","City":"Alcorcón","PostalCode":"28922","AdditionalData":[{"value":"España","key":"CountryName"},{"value":"Comunidad de Madrid","key":"StateName"},{"value":"Madrid","key":"CountyName"}]},"MapReference":{"ReferenceId":"1001490974","Spot":0.92,"SideOfStreet":"neither","CountryId":"20215059","StateId":"20226800","CountyId":"20226801","CityId":"20242410"}}},{"Relevance":1.0,"Distance":3.4,"MatchLevel":"street","MatchQuality":{"Country":1.0,"State":1.0,"County":1.0,"City":1.0,"Street":[1.0],"PostalCode":1.0},"Location":{"LocationId":"NT_Ykq-zV6mvKnCr3muu.JyvA_l_1001490972_L","LocationType":"point","DisplayPosition":{"Latitude":40.3480275,"Longitude":-3.8334853},"MapView":{"TopLeft":{"Latitude":40.34803,"Longitude":-3.83349},"BottomRight":{"Latitude":40.3479,"Longitude":-3.83325}},"Address":{"Label":"Calle Guindales, 28922 Alcorcón (Madrid), España","Country":"ESP","State":"Comunidad de Madrid","County":"Madrid","City":"Alcorcón","Street":"Calle Guindales","PostalCode":"28922","AdditionalData":[{"value":"España","key":"CountryName"},{"value":"Comunidad de Madrid","key":"StateName"},{"value":"Madrid","key":"CountyName"}]},"MapReference":{"ReferenceId":"1001490972","Spot":0.98,"SideOfStreet":"neither","CountryId":"20215059","StateId":"20226800","CountyId":"20226801","CityId":"20242410"}}},{"Relevance":1.0,"Distance":3.5,"MatchLevel":"street","MatchQuality":{"Country":1.0,"State":1.0,"County":1.0,"City":1.0,"Street":[1.0],"PostalCode":1.0},"Location":{"LocationId":"NT_Ykq-zV6mvKnCr3muu.JyvA_l_1001490973_L","LocationType":"point","DisplayPosition":{"Latitude":40.34803,"Longitude":-3.83349},"MapView":{"TopLeft":{"Latitude":40.34822,"Longitude":-3.83376},"BottomRight":{"Latitude":40.34803,"Longitude":-3.83349}},"Address":{"Label":"Calle Guindales, 28922 Alcorcón (Madrid), España","Country":"ESP","State":"Comunidad de Madrid","County":"Madrid","City":"Alcorcón","Street":"Calle Guindales","PostalCode":"28922","AdditionalData":[{"value":"España","key":"CountryName"},{"value":"Comunidad de Madrid","key":"StateName"},{"value":"Madrid","key":"CountyName"}]},"MapReference":{"ReferenceId":"1001490973","Spot":0.0,"SideOfStreet":"neither","CountryId":"20215059","StateId":"20226800","CountyId":"20226801","CityId":"20242410"}}},{"Relevance":1.0,"Distance":3.5,"MatchLevel":"street","MatchQuality":{"Country":1.0,"State":1.0,"County":1.0,"City":1.0,"PostalCode":1.0},"Location":{"LocationId":"NT_fJZsXV2D-2pc1QG1r.hMIC_l_1001490980_L","LocationType":"point","DisplayPosition":{"Latitude":40.34803,"Longitude":-3.83349},"MapView":{"TopLeft":{"Latitude":40.34836,"Longitude":-3.83349},"BottomRight":{"Latitude":40.34803,"Longitude":-3.83305}},"Address":{"Label":"28921 Alcorcón (Madrid), España","Country":"ESP","State":"Comunidad de Madrid","County":"Madrid","City":"Alcorcón","PostalCode":"28921","AdditionalData":[{"value":"España","key":"CountryName"},{"value":"Comunidad de Madrid","key":"StateName"},{"value":"Madrid","key":"CountyName"}]},"MapReference":{"ReferenceId":"1001490980","Spot":0.0,"SideOfStreet":"neither","CountryId":"20215059","StateId":"20226800","CountyId":"20226801","CityId":"20242410"}}},{"Relevance":1.0,"Distance":26.4,"MatchLevel":"houseNumber","MatchQuality":{"Country":1.0,"State":1.0,"County":1.0,"City":1.0,"Street":[1.0],"HouseNumber":1.0,"PostalCode":1.0},"MatchType":"interpolated","Location":{"LocationId":"NT_Ox0KqCocLvGL.zFdWCvqsA_l_810246839_R_ycD","LocationType":"point","DisplayPosition":{"Latitude":40.34802,"Longitude":-3.83319},"MapView":{"TopLeft":{"Latitude":40.3491442,"Longitude":-3.834665},"BottomRight":{"Latitude":40.3468959,"Longitude":-3.831715}},"Address":{"Label":"Paseo Extremadura, 27, 28921 Alcorcón (Madrid), España","Country":"ESP","State":"Comunidad de Madrid","County":"Madrid","City":"Alcorcón","Street":"Paseo Extremadura","HouseNumber":"27","PostalCode":"28921","AdditionalData":[{"value":"España","key":"CountryName"},{"value":"Comunidad de Madrid","key":"StateName"},{"value":"Madrid","key":"CountyName"}]},"MapReference":{"ReferenceId":"810246839","Spot":0.27,"SideOfStreet":"right","CountryId":"20215059","StateId":"20226800","CountyId":"20226801","CityId":"20242410"}}},{"Relevance":1.0,"Distance":33.0,"MatchLevel":"street","MatchQuality":{"Country":1.0,"State":1.0,"County":1.0,"City":1.0,"Street":[1.0],"PostalCode":1.0},"Location":{"LocationId":"NT_nu0F6TBNCcwjhP.1ahl2tD_l_77124058_R","LocationType":"point","DisplayPosition":{"Latitude":40.34822,"Longitude":-3.83376},"MapView":{"TopLeft":{"Latitude":40.34822,"Longitude":-3.83462},"BottomRight":{"Latitude":40.34752,"Longitude":-3.83376}},"Address":{"Label":"Avenida de Móstoles, 28922 Alcorcón (Madrid), España","Country":"ESP","State":"Comunidad de Madrid","County":"Madrid","City":"Alcorcón","Street":"Avenida de Móstoles","PostalCode":"28922","AdditionalData":[{"value":"España","key":"CountryName"},{"value":"Comunidad de Madrid","key":"StateName"},{"value":"Madrid","key":"CountyName"}]},"MapReference":{"ReferenceId":"77124058","Spot":1.0,"SideOfStreet":"right","CountryId":"20215059","StateId":"20226800","CountyId":"20226801","CityId":"20242410"}}},{"Relevance":1.0,"Distance":33.4,"MatchLevel":"street","MatchQuality":{"Country":1.0,"State":1.0,"County":1.0,"City":1.0,"PostalCode":1.0},"Location":{"LocationId":"NT_yK1oMu.Q06v0mSCT60oxVB_l_1001490975_R","LocationType":"point","DisplayPosition":{"Latitude":40.34778,"Longitude":-3.83377},"MapView":{"TopLeft":{"Latitude":40.34789,"Longitude":-3.83392},"BottomRight":{"Latitude":40.34778,"Longitude":-3.83377}},"Address":{"Label":"28922 Alcorcón (Madrid), España","Country":"ESP","State":"Comunidad de Madrid","County":"Madrid","City":"Alcorcón","PostalCode":"28922","AdditionalData":[{"value":"España","key":"CountryName"},{"value":"Comunidad de Madrid","key":"StateName"},{"value":"Madrid","key":"CountyName"}]},"MapReference":{"ReferenceId":"1001490975","Spot":0.0,"SideOfStreet":"right","CountryId":"20215059","StateId":"20226800","CountyId":"20226801","CityId":"20242410"}}},{"Relevance":1.0,"Distance":33.4,"MatchLevel":"street","MatchQuality":{"Country":1.0,"State":1.0,"County":1.0,"City":1.0,"PostalCode":1.0},"Location":{"LocationId":"NT_yK1oMu.Q06v0mSCT60oxVB_l_1001490977_R","LocationType":"point","DisplayPosition":{"Latitude":40.34778,"Longitude":-3.83377},"MapView":{"TopLeft":{"Latitude":40.34778,"Longitude":-3.83402},"BottomRight":{"Latitude":40.34755,"Longitude":-3.83377}},"Address":{"Label":"28922 Alcorcón (Madrid), España","Country":"ESP","State":"Comunidad de Madrid","County":"Madrid","City":"Alcorcón","PostalCode":"28922","AdditionalData":[{"value":"España","key":"CountryName"},{"value":"Comunidad de Madrid","key":"StateName"},{"value":"Madrid","key":"CountyName"}]},"MapReference":{"ReferenceId":"1001490977","Spot":1.0,"SideOfStreet":"right","CountryId":"20215059","StateId":"20226800","CountyId":"20226801","CityId":"20242410"}}},{"Relevance":1.0,"Distance":33.9,"MatchLevel":"street","MatchQuality":{"Country":1.0,"State":1.0,"County":1.0,"City":1.0,"Street":[1.0],"PostalCode":1.0},"Location":{"LocationId":"NT_nu0F6TBNCcwjhP.1ahl2tD_l_1219190716_R","LocationType":"point","DisplayPosition":{"Latitude":40.3482542,"Longitude":-3.8337202},"MapView":{"TopLeft":{"Latitude":40.34853,"Longitude":-3.83376},"BottomRight":{"Latitude":40.34822,"Longitude":-3.8334}},"Address":{"Label":"Avenida de Móstoles, 28921 Alcorcón (Madrid), España","Country":"ESP","State":"Comunidad de Madrid","County":"Madrid","City":"Alcorcón","Street":"Avenida de Móstoles","PostalCode":"28921","AdditionalData":[{"value":"España","key":"CountryName"},{"value":"Comunidad de Madrid","key":"StateName"},{"value":"Madrid","key":"CountyName"}]},"MapReference":{"ReferenceId":"1219190716","Spot":0.11,"SideOfStreet":"right","CountryId":"20215059","StateId":"20226800","CountyId":"20226801","CityId":"20242410"}}}]}]}}