{"Response":{"MetaInfo":{"Timestamp":"2020-03-28T09:43:39.095+0000","NextPageInformation":"2"},"View":[{"_type":"SearchResultsViewType","ViewId":0,"Result":[{"Relevance":1.0,"Distance":0.0,"Direction":0.0,"MatchLevel":"district","MatchQuality":{"Country":1.0,"State":1.0,"County":1.0,"City":1.0,"District":1.0,"PostalCode":1.0},"Location":{"LocationId":"NT_Lkgs3w.E9BjTrjLRd-xvWC","LocationType":"point","DisplayPosition":{"Latitude":40.382256,"Longitude":-3.6645412},"MapView":{"TopLeft":{"Latitude":40.3947,"Longitude":-3.6669},"BottomRight":{"Latitude":40.37603,"Longitude":-3.65286}},"Address":{"Label":"Palomeras Bajas, Madrid, Comunidad de Madrid, España","Country":"ESP","State":"Comunidad de Madrid","County":"Madrid","City":"Madrid","District":"Palomeras Bajas","PostalCode":"28018","AdditionalData":[{"value":"España","key":"CountryName"},{"value":"Comunidad de Madrid","key":"StateName"},{"value":"Madrid","key":"CountyName"}]},"MapReference":{"ReferenceId":"1214385292","SideOfStreet":"neither","CountryId":"20215059","StateId":"20226800","CountyId":"20226801","CityId":"20242802"}}},{"Relevance":1.0,"Distance":8.4,"MatchLevel":"street","MatchQuality":{"Country":1.0,"State":1.0,"County":1.0,"City":1.0,"District":1.0,"Street":[1.0],"PostalCode":1.0},"Location":{"LocationId":"NT_xZ0wxFmsPDfbgDnGkzMJVC_l_68527983_R","LocationType":"point","DisplayPosition":{"Latitude":40.3821906,"Longitude":-3.6645919},"MapView":{"TopLeft":{"Latitude":40.38229,"Longitude":-3.66472},"BottomRight":{"Latitude":40.38191,"Longitude":-3.66423}},"Address":{"Label":"Calle del Puerto de Morcuera, 28018 Madrid (Madrid), España","Country":"ESP","State":"Comunidad de Madrid","County":"Madrid","City":"Madrid","District":"Palomeras Bajas","Street":"Calle del Puerto de Morcuera","PostalCode":"28018","AdditionalData":[{"value":"España","key":"CountryName"},{"value":"Comunidad de Madrid","key":"StateName"},{"value":"Madrid","key":"CountyName"}]},"MapReference":{"ReferenceId":"68527983","Spot":0.74,"SideOfStreet":"right","CountryId":"20215059","StateId":"20226800","CountyId":"20226801","CityId":"20242802"}}},{"Relevance":1.0,"Distance":14.3,"MatchLevel":"houseNumber","MatchQuality":{"Country":1.0,"State":1.0,"County":1.0,"City":1.0,"District":1.0,"Street":[1.0],"HouseNumber":1.0,"PostalCode":1.0},"MatchType":"interpolated","Location":{"LocationId":"NT_dfMMFN4hGTURxFpI-T-bID_xA","LocationType":"point","DisplayPosition":{"Latitude":40.38237,"Longitude":-3.66462},"MapView":{"TopLeft":{"Latitude":40.3834942,"Longitude":-3.6660958},"BottomRight":{"Latitude":40.3812458,"Longitude":-3.6631442}},"Address":{"Label":"Calle de Manuel Laguna, 1, 28018 Madrid (Madrid), España","Country":"ESP","State":"Comunidad de Madrid","County":"Madrid","City":"Madrid","District":"Palomeras Bajas","Street":"Calle de Manuel Laguna","HouseNumber":"1","PostalCode":"28018","AdditionalData":[{"value":"España","key":"CountryName"},{"value":"Comunidad de Madrid","key":"StateName"},{"value":"Madrid","key":"CountyName"}]},"MapReference":{"ReferenceId":"735558364","Spot":0.2,"SideOfStreet":"right","CountryId":"20215059","StateId":"20226800","CountyId":"20226801","CityId":"20242802","AddressId":"588581105","RoadLinkId":"135466044"}}},{"Relevance":1.0,"Distance":26.1,"MatchLevel":"houseNumber","MatchQuality":{"Country":1.0,"State":1.0,"County":1.0,"City":1.0,"District":1.0,"Street":[1.0],"HouseNumber":1.0,"PostalCode":1.0},"MatchType":"interpolated","Location":{"LocationId":"NT_dfMMFN4hGTURxFpI-T-bID_zA","LocationType":"point","DisplayPosition":{"Latitude":40.38217,"Longitude":-3.66487},"MapView":{"TopLeft":{"Latitude":40.3832942,"Longitude":-3.6663458},"BottomRight":{"Latitude":40.3810458,"Longitude":-3.6633942}},"Address":{"Label":"Calle de Manuel Laguna, 3, 28018 Madrid (Madrid), España","Country":"ESP","State":"Comunidad de Madrid","County":"Madrid","City":"Madrid","District":"Palomeras Bajas","Street":"Calle de Manuel Laguna","HouseNumber":"3","PostalCode":"28018","AdditionalData":[{"value":"España","key":"CountryName"},{"value":"Comunidad de Madrid","key":"StateName"},{"value":"Madrid","key":"CountyName"}]},"MapReference":{"ReferenceId":"717667367","Spot":0.82,"SideOfStreet":"right","CountryId":"20215059","StateId":"20226800","CountyId":"20226801","CityId":"20242802","AddressId":"588554256","RoadLinkId":"122627651"}}},{"Relevance":1.0,"Distance":33.7,"MatchLevel":"houseNumber","MatchQuality":{"Country":1.0,"State":1.0,"County":1.0,"City":1.0,"District":1.0,"Street":[1.0],"HouseNumber":1.0,"PostalCode":1.0},"MatchType":"interpolated","Location":{"LocationId":"NT_NZsKPQhrDzOpek-ewhHSjC_5A","LocationType":"point","DisplayPosition":{"Latitude":40.38252,"Longitude":-3.66488},"MapView":{"TopLeft":{"Latitude":40.3836442,"Longitude":-3.6663558},"BottomRight":{"Latitude":40.3813958,"Longitude":-3.6634042}},"Address":{"Label":"Travesía San Diego, 9, 28018 Madrid (Madrid), España","Country":"ESP","State":"Comunidad de Madrid","County":"Madrid","City":"Madrid","District":"San Diego","Street":"Travesía San Diego","HouseNumber":"9","PostalCode":"28018","AdditionalData":[{"value":"España","key":"CountryName"},{"value":"Comunidad de Madrid","key":"StateName"},{"value":"Madrid","key":"CountyName"}]},"MapReference":{"ReferenceId":"991038527","Spot":0.83,"SideOfStreet":"right","CountryId":"20215059","StateId":"20226800","CountyId":"20226801","CityId":"20242802","AddressId":"588517960","RoadLinkId":"319708526"}}},{"Relevance":1.0,"Distance":34.3,"MatchLevel":"houseNumber","MatchQuality":{"Country":1.0,"State":1.0,"County":1.0,"City":1.0,"District":1.0,"Street":[1.0],"HouseNumber":1.0,"PostalCode":1.0},"MatchType":"interpolated","Location":{"LocationId":"NT_NZsKPQhrDzOpek-ewhHSjC_1A","LocationType":"point","DisplayPosition":{"Latitude":40.38256,"Longitude":-3.66484},"MapView":{"TopLeft":{"Latitude":40.3836842,"Longitude":-3.6663158},"BottomRight":{"Latitude":40.3814358,"Longitude":-3.6633642}},"Address":{"Label":"Travesía San Diego, 5, 28018 Madrid (Madrid), España","Country":"ESP","State":"Comunidad de Madrid","County":"Madrid","City":"Madrid","District":"San Diego","Street":"Travesía San Diego","HouseNumber":"5","PostalCode":"28018","AdditionalData":[{"value":"España","key":"CountryName"},{"value":"Comunidad de Madrid","key":"StateName"},{"value":"Madrid","key":"CountyName"}]},"MapReference":{"ReferenceId":"991038528","Spot":0.06,"SideOfStreet":"right","CountryId":"20215059","StateId":"20226800","CountyId":"20226801","CityId":"20242802","AddressId":"588586731","RoadLinkId":"319708527"}}},{"Relevance":1.0,"Distance":35.0,"MatchLevel":"houseNumber","MatchQuality":{"Country":1.0,"State":1.0,"County":1.0,"City":1.0,"District":1.0,"Street":[1.0],"HouseNumber":1.0,"PostalCode":1.0},"MatchType":"interpolated","Location":{"LocationId":"NT_eNrzt9pjsU.GaVBN2WPD4C_2YD","LocationType":"point","DisplayPosition":{"Latitude":40.38201,"Longitude":-3.66409},"MapView":{"TopLeft":{"Latitude":40.3831342,"Longitude":-3.6655658},"BottomRight":{"Latitude":40.3808858,"Longitude":-3.6626142}},"Address":{"Label":"Calle de Candilejas, 66, 28018 Madrid (Madrid), España","Country":"ESP","State":"Comunidad de Madrid","County":"Madrid","City":"Madrid","District":"Palomeras Bajas","Street":"Calle de Candilejas","HouseNumber":"66","PostalCode":"28018","AdditionalData":[{"value":"España","key":"CountryName"},{"value":"Comunidad de Madrid","key":"StateName"},{"value":"Madrid","key":"CountyName"}]},"MapReference":{"ReferenceId":"786393051","Spot":0.67,"SideOfStreet":"left","CountryId":"20215059","StateId":"20226800","CountyId":"20226801","CityId":"20242802","AddressId":"588565773","RoadLinkId":"179045956"}}},{"Relevance":1.0,"Distance":36.9,"MatchLevel":"houseNumber","MatchQuality":{"Country":1.0,"State":1.0,"County":1.0,"City":1.0,"District":1.0,"Street":[1.0],"HouseNumber":1.0,"PostalCode":1.0},"MatchType":"interpolated","Location":{"LocationId":"NT_znqr5TkzqIcLsmJ5rMXRSA_xMD","LocationType":"point","DisplayPosition":{"Latitude":40.38242,"Longitude":-3.66492},"MapView":{"TopLeft":{"Latitude":40.3835442,"Longitude":-3.6663958},"BottomRight":{"Latitude":40.3812958,"Longitude":-3.6634442}},"Address":{"Label":"Calle del Puerto de Morcuera, 13, 28018 Madrid (Madrid), España","Country":"ESP","State":"Comunidad de Madrid","County":"Madrid","City":"Madrid","District":"San Diego","Street":"Calle del Puerto de Morcuera","HouseNumber":"13","PostalCode":"28018","AdditionalData":[{"value":"España","key":"CountryName"},{"value":"Comunidad de Madrid","key":"StateName"},{"value":"Madrid","key":"CountyName"}]},"MapReference":{"ReferenceId":"991038525","Spot":0.83,"SideOfStreet":"left","CountryId":"20215059","StateId":"20226800","CountyId":"20226801","CityId":"20242802","AddressId":"770403964","RoadLinkId":"319708524"}}},{"Relevance":1.0,"Distance":41.5,"MatchLevel":"street","MatchQuality":{"Country":1.0,"State":1.0,"County":1.0,"City":1.0,"District":1.0,"Street":[1.0],"PostalCode":1.0},"Location":{"LocationId":"NT_znqr5TkzqIcLsmJ5rMXRSA_l_991038526_L","LocationType":"point","DisplayPosition":{"Latitude":40.38245,"Longitude":-3.66496},"MapView":{"TopLeft":{"Latitude":40.38255,"Longitude":-3.66523},"BottomRight":{"Latitude":40.38245,"Longitude":-3.66496}},"Address":{"Label":"Calle del Puerto de Morcuera, 28018 Madrid (Madrid), España","Country":"ESP","State":"Comunidad de Madrid","County":"Madrid","City":"Madrid","District":"San Diego","Street":"Calle del Puerto de Morcuera","PostalCode":"28018","AdditionalData":[{"value":"España","key":"CountryName"},{"value":"Comunidad de Madrid","key":"StateName"},{"value":"Madrid","key":"CountyName"}]},"MapReference":{"ReferenceId":"991038526","Spot":0.0,"SideOfStreet":"left","CountryId":"20215059","StateId":"20226800","CountyId":"20226801","CityId":"20242802"}}},{"Relevance":1.0,"Distance":43.1,"MatchLevel":"houseNumber","MatchQuality":{"Country":1.0,"State":1.0,"County":1.0,"City":1.0,"District":1.0,"Street":[1.0],"HouseNumber":1.0,"PostalCode":1.0},"MatchType":"interpolated","Location":{"LocationId":"NT_eNrzt9pjsU.GaVBN2WPD4C_2gD","LocationType":"point","DisplayPosition":{"Latitude":40.38179,"Longitude":-3.66438},"MapView":{"TopLeft":{"Latitude":40.3829142,"Longitude":-3.6658558},"BottomRight":{"Latitude":40.3806658,"Longitude":-3.6629042}},"Address":{"Label":"Calle de Candilejas, 68, 28018 Madrid (Madrid), España","Country":"ESP","State":"Comunidad de Madrid","County":"Madrid","City":"Madrid","District":"Palomeras Bajas","Street":"Calle de Candilejas","HouseNumber":"68","PostalCode":"28018","AdditionalData":[{"value":"España","key":"CountryName"},{"value":"Comunidad de Madrid","key":"StateName"},{"value":"Madrid","key":"CountyName"}]},"MapReference":{"ReferenceId":"564141357","Spot":0.7,"SideOfStreet":"left","CountryId":"20215059","StateId":"20226800","CountyId":"20226801","CityId":"20242802","AddressId":"588526981","RoadLinkId":"67143324"}}}]}]}}