{"Response":{"MetaInfo":{"Timestamp":"2020-03-28T11:05:57.670+0000","NextPageInformation":"2"},"View":[{"_type":"SearchResultsViewType","ViewId":0,"Result":[{"Relevance":1.0,"Distance":0.0,"Direction":0.0,"MatchLevel":"district","MatchQuality":{"Country":1.0,"State":1.0,"County":1.0,"City":1.0,"District":1.0,"PostalCode":1.0},"Location":{"LocationId":"NT_A6KDLXIzO.D12fdKntq54C","LocationType":"point","DisplayPosition":{"Latitude":40.4330577,"Longitude":-3.672697},"MapView":{"TopLeft":{"Latitude":40.44396,"Longitude":-3.67741},"BottomRight":{"Latitude":40.4279,"Longitude":-3.65876}},"Address":{"Label":"Guindalera, Madrid, Comunidad de Madrid, España","Country":"ESP","State":"Comunidad de Madrid","County":"Madrid","City":"Madrid","District":"Guindalera","PostalCode":"28028","AdditionalData":[{"value":"España","key":"CountryName"},{"value":"Comunidad de Madrid","key":"StateName"},{"value":"Madrid","key":"CountyName"}]},"MapReference":{"ReferenceId":"956215387","SideOfStreet":"neither","CountryId":"20215059","StateId":"20226800","CountyId":"20226801","CityId":"20242802"}}},{"Relevance":1.0,"Distance":4.8,"MatchLevel":"houseNumber","MatchQuality":{"Country":1.0,"State":1.0,"County":1.0,"City":1.0,"District":1.0,"Street":[1.0],"HouseNumber":1.0,"PostalCode":1.0},"MatchType":"interpolated","Location":{"LocationId":"NT_E.K1Cbqx99qRF0HaAthvnD_0AD","LocationType":"point","DisplayPosition":{"Latitude":40.433,"Longitude":-3.67291},"MapView":{"TopLeft":{"Latitude":40.4341242,"Longitude":-3.6743869},"BottomRight":{"Latitude":40.4318758,"Longitude":-3.6714331}},"Address":{"Label":"Calle de Francisco Silvela, 40, 28028 Madrid (Madrid), España","Country":"ESP","State":"Comunidad de Madrid","County":"Madrid","City":"Madrid","District":"Guindalera","Street":"Calle de Francisco Silvela","HouseNumber":"40","PostalCode":"28028","AdditionalData":[{"value":"España","key":"CountryName"},{"value":"Comunidad de Madrid","key":"StateName"},{"value":"Madrid","key":"CountyName"}]},"MapReference":{"ReferenceId":"981338115","Spot":0.47,"SideOfStreet":"right","CountryId":"20215059","StateId":"20226800","CountyId":"20226801","CityId":"20242802","AddressId":"588554986","RoadLinkId":"313270410"}}},{"Relevance":1.0,"Distance":17.8,"MatchLevel":"houseNumber","MatchQuality":{"Country":1.0,"State":1.0,"County":1.0,"City":1.0,"District":1.0,"Street":[1.0],"HouseNumber":1.0,"PostalCode":1.0},"MatchType":"interpolated","Location":{"LocationId":"NT_E.K1Cbqx99qRF0HaAthvnD_zYD","LocationType":"point","DisplayPosition":{"Latitude":40.43283,"Longitude":-3.67276},"MapView":{"TopLeft":{"Latitude":40.4339542,"Longitude":-3.6742369},"BottomRight":{"Latitude":40.4317058,"Longitude":-3.6712831}},"Address":{"Label":"Calle de Francisco Silvela, 36, 28028 Madrid (Madrid), España","Country":"ESP","State":"Comunidad de Madrid","County":"Madrid","City":"Madrid","District":"Guindalera","Street":"Calle de Francisco Silvela","HouseNumber":"36","PostalCode":"28028","AdditionalData":[{"value":"España","key":"CountryName"},{"value":"Comunidad de Madrid","key":"StateName"},{"value":"Madrid","key":"CountyName"}]},"MapReference":{"ReferenceId":"981338114","Spot":0.88,"SideOfStreet":"right","CountryId":"20215059","StateId":"20226800","CountyId":"20226801","CityId":"20242802","AddressId":"588500274","RoadLinkId":"313270409"}}},{"Relevance":1.0,"Distance":36.8,"MatchLevel":"houseNumber","MatchQuality":{"Country":1.0,"State":1.0,"County":1.0,"City":1.0,"District":1.0,"Street":[1.0],"HouseNumber":1.0,"PostalCode":1.0},"MatchType":"interpolated","Location":{"LocationId":"NT_G3YhIVtAtu38hy5C4OPrNC_xA","LocationType":"point","DisplayPosition":{"Latitude":40.43287,"Longitude":-3.67223},"MapView":{"TopLeft":{"Latitude":40.4339942,"Longitude":-3.6737069},"BottomRight":{"Latitude":40.4317458,"Longitude":-3.6707531}},"Address":{"Label":"Calle de Azcona, 1, 28028 Madrid (Madrid), España","Country":"ESP","State":"Comunidad de Madrid","County":"Madrid","City":"Madrid","District":"Guindalera","Street":"Calle de Azcona","HouseNumber":"1","PostalCode":"28028","AdditionalData":[{"value":"España","key":"CountryName"},{"value":"Comunidad de Madrid","key":"StateName"},{"value":"Madrid","key":"CountyName"}]},"MapReference":{"ReferenceId":"925399430","Spot":0.12,"SideOfStreet":"left","CountryId":"20215059","StateId":"20226800","CountyId":"20226801","CityId":"20242802","AddressId":"588538157","RoadLinkId":"280898649"}}},{"Relevance":1.0,"Distance":39.0,"MatchLevel":"houseNumber","MatchQuality":{"Country":1.0,"State":1.0,"County":1.0,"City":1.0,"District":1.0,"Street":[1.0],"HouseNumber":1.0,"PostalCode":1.0},"MatchType":"interpolated","Location":{"LocationId":"NT_G3YhIVtAtu38hy5C4OPrNC_yA","LocationType":"point","DisplayPosition":{"Latitude":40.43279,"Longitude":-3.6724},"MapView":{"TopLeft":{"Latitude":40.4339142,"Longitude":-3.6738769},"BottomRight":{"Latitude":40.4316658,"Longitude":-3.6709231}},"Address":{"Label":"Calle de Azcona, 2, 28028 Madrid (Madrid), España","Country":"ESP","State":"Comunidad de Madrid","County":"Madrid","City":"Madrid","District":"Guindalera","Street":"Calle de Azcona","HouseNumber":"2","PostalCode":"28028","AdditionalData":[{"value":"España","key":"CountryName"},{"value":"Comunidad de Madrid","key":"StateName"},{"value":"Madrid","key":"CountyName"}]},"MapReference":{"ReferenceId":"925399429","Spot":0.85,"SideOfStreet":"right","CountryId":"20215059","StateId":"20226800","CountyId":"20226801","CityId":"20242802","AddressId":"588642836","RoadLinkId":"280898648"}}},{"Relevance":1.0,"Distance":42.4,"MatchLevel":"street","MatchQuality":{"Country":1.0,"State":1.0,"County":1.0,"City":1.0,"District":1.0,"Street":[1.0],"PostalCode":1.0},"Location":{"LocationId":"NT_R3-I8HoMm3dVtTEb7HnBuB_l_732600779_L","LocationType":"point","DisplayPosition":{"Latitude":40.43268,"Longitude":-3.67263},"MapView":{"TopLeft":{"Latitude":40.43268,"Longitude":-3.67266},"BottomRight":{"Latitude":40.43241,"Longitude":-3.67263}},"Address":{"Label":"Calle de Juan Bravo, 28028 Madrid (Madrid), España","Country":"ESP","State":"Comunidad de Madrid","County":"Madrid","City":"Madrid","District":"Lista","Street":"Calle de Juan Bravo","PostalCode":"28028","AdditionalData":[{"value":"España","key":"CountryName"},{"value":"Comunidad de Madrid","key":"StateName"},{"value":"Madrid","key":"CountyName"}]},"MapReference":{"ReferenceId":"732600779","Spot":1.0,"SideOfStreet":"left","CountryId":"20215059","StateId":"20226800","CountyId":"20226801","CityId":"20242802"}}},{"Relevance":1.0,"Distance":44.5,"MatchLevel":"houseNumber","MatchQuality":{"Country":1.0,"State":1.0,"County":1.0,"City":1.0,"District":1.0,"Street":[1.0],"HouseNumber":1.0,"PostalCode":1.0},"MatchType":"interpolated","Location":{"LocationId":"NT_E.K1Cbqx99qRF0HaAthvnD_0ID","LocationType":"point","DisplayPosition":{"Latitude":40.43329,"Longitude":-3.67316},"MapView":{"TopLeft":{"Latitude":40.4344142,"Longitude":-3.6746369},"BottomRight":{"Latitude":40.4321658,"Longitude":-3.6716831}},"Address":{"Label":"Calle de Francisco Silvela, 42, 28028 Madrid (Madrid), España","Country":"ESP","State":"Comunidad de Madrid","County":"Madrid","City":"Madrid","District":"Guindalera","Street":"Calle de Francisco Silvela","HouseNumber":"42","PostalCode":"28028","AdditionalData":[{"value":"España","key":"CountryName"},{"value":"Comunidad de Madrid","key":"StateName"},{"value":"Madrid","key":"CountyName"}]},"MapReference":{"ReferenceId":"68524334","Spot":0.56,"SideOfStreet":"right","CountryId":"20215059","StateId":"20226800","CountyId":"20226801","CityId":"20242802","AddressId":"588534357","RoadLinkId":"66936605"}}},{"Relevance":1.0,"Distance":51.3,"MatchLevel":"houseNumber","MatchQuality":{"Country":1.0,"State":1.0,"County":1.0,"City":1.0,"District":1.0,"Street":[1.0],"HouseNumber":1.0,"PostalCode":1.0},"MatchType":"interpolated","Location":{"LocationId":"NT_1NljVJRba8mEBmIzLYsrSD_yA","LocationType":"point","DisplayPosition":{"Latitude":40.43349,"Longitude":-3.67239},"MapView":{"TopLeft":{"Latitude":40.4346142,"Longitude":-3.6738669},"BottomRight":{"Latitude":40.4323658,"Longitude":-3.6709131}},"Address":{"Label":"Calle de Eraso, 2, 28028 Madrid (Madrid), España","Country":"ESP","State":"Comunidad de Madrid","County":"Madrid","City":"Madrid","District":"Guindalera","Street":"Calle de Eraso","HouseNumber":"2","PostalCode":"28028","AdditionalData":[{"value":"España","key":"CountryName"},{"value":"Comunidad de Madrid","key":"StateName"},{"value":"Madrid","key":"CountyName"}]},"MapReference":{"ReferenceId":"68493559","Spot":0.48,"SideOfStreet":"right","CountryId":"20215059","StateId":"20226800","CountyId":"20226801","CityId":"20242802","AddressId":"588621467","RoadLinkId":"66946352"}}},{"Relevance":1.0,"Distance":53.8,"MatchLevel":"houseNumber","MatchQuality":{"Country":1.0,"State":1.0,"County":1.0,"City":1.0,"District":1.0,"Street":[1.0],"HouseNumber":1.0,"PostalCode":1.0},"MatchType":"interpolated","Location":{"LocationId":"NT_cCoe2KHZcTuXoqnjAdVx2D_4ID","LocationType":"point","DisplayPosition":{"Latitude":40.43293,"Longitude":-3.67341},"MapView":{"TopLeft":{"Latitude":40.4340542,"Longitude":-3.6748869},"BottomRight":{"Latitude":40.4318058,"Longitude":-3.6719331}},"Address":{"Label":"Calle de Alcántara, 82, 28006 Madrid (Madrid), España","Country":"ESP","State":"Comunidad de Madrid","County":"Madrid","City":"Madrid","District":"Lista","Street":"Calle de Alcántara","HouseNumber":"82","PostalCode":"28006","AdditionalData":[{"value":"España","key":"CountryName"},{"value":"Comunidad de Madrid","key":"StateName"},{"value":"Madrid","key":"CountyName"}]},"MapReference":{"ReferenceId":"68524211","Spot":0.5,"SideOfStreet":"right","CountryId":"20215059","StateId":"20226800","CountyId":"20226801","CityId":"20242802","AddressId":"588552577","RoadLinkId":"66651870"}}},{"Relevance":1.0,"Distance":61.5,"MatchLevel":"houseNumber","MatchQuality":{"Country":1.0,"State":1.0,"County":1.0,"City":1.0,"District":1.0,"Street":[1.0],"HouseNumber":1.0,"PostalCode":1.0},"MatchType":"interpolated","Location":{"LocationId":"NT_glOQ5w8X3PLTEVfHB0sgZC_yA","LocationType":"point","DisplayPosition":{"Latitude":40.43359,"Longitude":-3.673},"MapView":{"TopLeft":{"Latitude":40.4347142,"Longitude":-3.6744769},"BottomRight":{"Latitude":40.4324658,"Longitude":-3.6715231}},"Address":{"Label":"Calle de Ferrer del Río, 2, 28028 Madrid (Madrid), España","Country":"ESP","State":"Comunidad de Madrid","County":"Madrid","City":"Madrid","District":"Guindalera","Street":"Calle de Ferrer del Río","HouseNumber":"2","PostalCode":"28028","AdditionalData":[{"value":"España","key":"CountryName"},{"value":"Comunidad de Madrid","key":"StateName"},{"value":"Madrid","key":"CountyName"}]},"MapReference":{"ReferenceId":"68493503","Spot":0.21,"SideOfStreet":"right","CountryId":"20215059","StateId":"20226800","CountyId":"20226801","CityId":"20242802","AddressId":"588596142","RoadLinkId":"67124052"}}}]}]}}