{"Response":{"MetaInfo":{"Timestamp":"2020-03-28T09:45:47.533+0000","NextPageInformation":"2"},"View":[{"_type":"SearchResultsViewType","ViewId":0,"Result":[{"Relevance":1.0,"Distance":0.0,"Direction":0.0,"MatchLevel":"city","MatchQuality":{"Country":1.0,"State":1.0,"County":1.0,"City":1.0,"PostalCode":1.0},"Location":{"LocationId":"NT_BhOwnvcbxRWUkwylO7daGB","LocationType":"point","DisplayPosition":{"Latitude":40.4993579,"Longitude":-6.3588193},"MapView":{"TopLeft":{"Latitude":40.51461,"Longitude":-6.39381},"BottomRight":{"Latitude":40.41908,"Longitude":-6.26468}},"Address":{"Label":"Serradilla del Llano, Castilla y León, España","Country":"ESP","State":"Castilla y León","County":"Salamanca","City":"Serradilla del Llano","PostalCode":"37530","AdditionalData":[{"value":"España","key":"CountryName"},{"value":"Castilla y León","key":"StateName"},{"value":"Salamanca","key":"CountyName"}]},"MapReference":{"ReferenceId":"573585339","SideOfStreet":"neither","CountryId":"20215059","StateId":"20221909","CountyId":"20221914","CityId":"20310189"}}},{"Relevance":1.0,"Distance":4.5,"MatchLevel":"houseNumber","MatchQuality":{"Country":1.0,"State":1.0,"County":1.0,"City":1.0,"Street":[1.0],"HouseNumber":1.0,"PostalCode":1.0},"MatchType":"interpolated","Location":{"LocationId":"NT_b4-Lmcvow5KKnoGaLJxmQC_2gD","LocationType":"point","DisplayPosition":{"Latitude":40.49937,"Longitude":-6.35887},"MapView":{"TopLeft":{"Latitude":40.5004942,"Longitude":-6.3603483},"BottomRight":{"Latitude":40.4982458,"Longitude":-6.3573917}},"Address":{"Label":"Calle Generalísimo Franco, 68, 37530 Serradilla del Llano (Salamanca), España","Country":"ESP","State":"Castilla y León","County":"Salamanca","City":"Serradilla del Llano","Street":"Calle Generalísimo Franco","HouseNumber":"68","PostalCode":"37530","AdditionalData":[{"value":"España","key":"CountryName"},{"value":"Castilla y León","key":"StateName"},{"value":"Salamanca","key":"CountyName"}]},"MapReference":{"ReferenceId":"593022225","Spot":0.05,"SideOfStreet":"right","CountryId":"20215059","StateId":"20221909","CountyId":"20221914","CityId":"20310189","AddressId":"405516866","RoadLinkId":"67755710"}}},{"Relevance":1.0,"Distance":4.7,"MatchLevel":"houseNumber","MatchQuality":{"Country":1.0,"State":1.0,"County":1.0,"City":1.0,"Street":[1.0],"HouseNumber":1.0,"PostalCode":1.0},"MatchType":"interpolated","Location":{"LocationId":"NT_b4-Lmcvow5KKnoGaLJxmQC_3AD","LocationType":"point","DisplayPosition":{"Latitude":40.49934,"Longitude":-6.35887},"MapView":{"TopLeft":{"Latitude":40.5004642,"Longitude":-6.3603483},"BottomRight":{"Latitude":40.4982158,"Longitude":-6.3573917}},"Address":{"Label":"Calle Generalísimo Franco, 70, 37530 Serradilla del Llano (Salamanca), España","Country":"ESP","State":"Castilla y León","County":"Salamanca","City":"Serradilla del Llano","Street":"Calle Generalísimo Franco","HouseNumber":"70","PostalCode":"37530","AdditionalData":[{"value":"España","key":"CountryName"},{"value":"Castilla y León","key":"StateName"},{"value":"Salamanca","key":"CountyName"}]},"MapReference":{"ReferenceId":"593022226","Spot":0.91,"SideOfStreet":"left","CountryId":"20215059","StateId":"20221909","CountyId":"20221914","CityId":"20310189","AddressId":"405516865","RoadLinkId":"68006602"}}},{"Relevance":1.0,"Distance":6.0,"MatchLevel":"houseNumber","MatchQuality":{"Country":1.0,"State":1.0,"County":1.0,"City":1.0,"Street":[1.0],"HouseNumber":1.0,"PostalCode":1.0},"MatchType":"interpolated","Location":{"LocationId":"NT_b4-Lmcvow5KKnoGaLJxmQC_3ID","LocationType":"point","DisplayPosition":{"Latitude":40.49935,"Longitude":-6.35871},"MapView":{"TopLeft":{"Latitude":40.5004742,"Longitude":-6.3601883},"BottomRight":{"Latitude":40.4982258,"Longitude":-6.3572317}},"Address":{"Label":"Calle Generalísimo Franco, 72, 37530 Serradilla del Llano (Salamanca), España","Country":"ESP","State":"Castilla y León","County":"Salamanca","City":"Serradilla del Llano","Street":"Calle Generalísimo Franco","HouseNumber":"72","PostalCode":"37530","AdditionalData":[{"value":"España","key":"CountryName"},{"value":"Castilla y León","key":"StateName"},{"value":"Salamanca","key":"CountyName"}]},"MapReference":{"ReferenceId":"593022220","Spot":0.17,"SideOfStreet":"left","CountryId":"20215059","StateId":"20221909","CountyId":"20221914","CityId":"20310189","AddressId":"405448526","RoadLinkId":"67809788"}}},{"Relevance":1.0,"Distance":14.9,"MatchLevel":"houseNumber","MatchQuality":{"Country":1.0,"State":1.0,"County":1.0,"City":1.0,"Street":[1.0],"HouseNumber":1.0,"PostalCode":1.0},"MatchType":"interpolated","Location":{"LocationId":"NT_b4-Lmcvow5KKnoGaLJxmQC_3gD","LocationType":"point","DisplayPosition":{"Latitude":40.49921,"Longitude":-6.35883},"MapView":{"TopLeft":{"Latitude":40.5003342,"Longitude":-6.3603083},"BottomRight":{"Latitude":40.4980858,"Longitude":-6.3573517}},"Address":{"Label":"Calle Generalísimo Franco, 78, 37530 Serradilla del Llano (Salamanca), España","Country":"ESP","State":"Castilla y León","County":"Salamanca","City":"Serradilla del Llano","Street":"Calle Generalísimo Franco","HouseNumber":"78","PostalCode":"37530","AdditionalData":[{"value":"España","key":"CountryName"},{"value":"Castilla y León","key":"StateName"},{"value":"Salamanca","key":"CountyName"}]},"MapReference":{"ReferenceId":"574794711","Spot":0.44,"SideOfStreet":"left","CountryId":"20215059","StateId":"20221909","CountyId":"20221914","CityId":"20310189","AddressId":"405536798","RoadLinkId":"69077646"}}},{"Relevance":1.0,"Distance":19.5,"MatchLevel":"houseNumber","MatchQuality":{"Country":1.0,"State":1.0,"County":1.0,"City":1.0,"Street":[1.0],"HouseNumber":1.0,"PostalCode":1.0},"MatchType":"interpolated","Location":{"LocationId":"NT_UTMcg2HHD1MKOMXgBmz4cB_0gD","LocationType":"point","DisplayPosition":{"Latitude":40.49927,"Longitude":-6.35862},"MapView":{"TopLeft":{"Latitude":40.5003942,"Longitude":-6.3600983},"BottomRight":{"Latitude":40.4981458,"Longitude":-6.3571417}},"Address":{"Label":"Calle Fuente, 48, 37530 Serradilla del Llano (Salamanca), España","Country":"ESP","State":"Castilla y León","County":"Salamanca","City":"Serradilla del Llano","Street":"Calle Fuente","HouseNumber":"48","PostalCode":"37530","AdditionalData":[{"value":"España","key":"CountryName"},{"value":"Castilla y León","key":"StateName"},{"value":"Salamanca","key":"CountyName"}]},"MapReference":{"ReferenceId":"593021383","Spot":0.3,"SideOfStreet":"right","CountryId":"20215059","StateId":"20221909","CountyId":"20221914","CityId":"20310189","AddressId":"789147468","RoadLinkId":"68072577"}}},{"Relevance":1.0,"Distance":25.5,"MatchLevel":"houseNumber","MatchQuality":{"Country":1.0,"State":1.0,"County":1.0,"City":1.0,"Street":[1.0],"HouseNumber":1.0,"PostalCode":1.0},"MatchType":"interpolated","Location":{"LocationId":"NT_UTMcg2HHD1MKOMXgBmz4cB_2ID","LocationType":"point","DisplayPosition":{"Latitude":40.49929,"Longitude":-6.35849},"MapView":{"TopLeft":{"Latitude":40.5004142,"Longitude":-6.3599683},"BottomRight":{"Latitude":40.4981658,"Longitude":-6.3570117}},"Address":{"Label":"Calle Fuente, 62, 37530 Serradilla del Llano (Salamanca), España","Country":"ESP","State":"Castilla y León","County":"Salamanca","City":"Serradilla del Llano","Street":"Calle Fuente","HouseNumber":"62","PostalCode":"37530","AdditionalData":[{"value":"España","key":"CountryName"},{"value":"Castilla y León","key":"StateName"},{"value":"Salamanca","key":"CountyName"}]},"MapReference":{"ReferenceId":"593021381","Spot":0.19,"SideOfStreet":"left","CountryId":"20215059","StateId":"20221909","CountyId":"20221914","CityId":"20310189","AddressId":"789003628","RoadLinkId":"68182331"}}},{"Relevance":1.0,"Distance":25.6,"MatchLevel":"houseNumber","MatchQuality":{"Country":1.0,"State":1.0,"County":1.0,"City":1.0,"Street":[1.0],"HouseNumber":1.0,"PostalCode":1.0},"MatchType":"interpolated","Location":{"LocationId":"NT_oegVXVYaXb2vCPK90zpgyC_yA","LocationType":"point","DisplayPosition":{"Latitude":40.49916,"Longitude":-6.35909},"MapView":{"TopLeft":{"Latitude":40.5002842,"Longitude":-6.3605683},"BottomRight":{"Latitude":40.4980358,"Longitude":-6.3576117}},"Address":{"Label":"Calle Dr. Fuente, 2, 37530 Serradilla del Llano (Salamanca), España","Country":"ESP","State":"Castilla y León","County":"Salamanca","City":"Serradilla del Llano","Street":"Calle Dr. Fuente","HouseNumber":"2","PostalCode":"37530","AdditionalData":[{"value":"España","key":"CountryName"},{"value":"Castilla y León","key":"StateName"},{"value":"Salamanca","key":"CountyName"}]},"MapReference":{"ReferenceId":"574794719","Spot":0.15,"SideOfStreet":"right","CountryId":"20215059","StateId":"20221909","CountyId":"20221914","CityId":"20310189","AddressId":"701325753","RoadLinkId":"324175671"}}},{"Relevance":1.0,"Distance":34.5,"MatchLevel":"houseNumber","MatchQuality":{"Country":1.0,"State":1.0,"County":1.0,"City":1.0,"Street":[1.0],"HouseNumber":1.0,"PostalCode":1.0},"MatchType":"interpolated","Location":{"LocationId":"NT_b4-Lmcvow5KKnoGaLJxmQC_2AD","LocationType":"point","DisplayPosition":{"Latitude":40.49962,"Longitude":-6.35859},"MapView":{"TopLeft":{"Latitude":40.5007442,"Longitude":-6.3600683},"BottomRight":{"Latitude":40.4984958,"Longitude":-6.3571117}},"Address":{"Label":"Calle Generalísimo Franco, 60, 37530 Serradilla del Llano (Salamanca), España","Country":"ESP","State":"Castilla y León","County":"Salamanca","City":"Serradilla del Llano","Street":"Calle Generalísimo Franco","HouseNumber":"60","PostalCode":"37530","AdditionalData":[{"value":"España","key":"CountryName"},{"value":"Castilla y León","key":"StateName"},{"value":"Salamanca","key":"CountyName"}]},"MapReference":{"ReferenceId":"593022221","Spot":0.29,"SideOfStreet":"left","CountryId":"20215059","StateId":"20221909","CountyId":"20221914","CityId":"20310189","AddressId":"405516869","RoadLinkId":"68011246"}}},{"Relevance":1.0,"Distance":38.8,"MatchLevel":"houseNumber","MatchQuality":{"Country":1.0,"State":1.0,"County":1.0,"City":1.0,"Street":[1.0],"HouseNumber":1.0,"PostalCode":1.0},"MatchType":"interpolated","Location":{"LocationId":"NT_DwJuaY-3E.tGrgfGneky-A_xkD","LocationType":"point","DisplayPosition":{"Latitude":40.49972,"Longitude":-6.35922},"MapView":{"TopLeft":{"Latitude":40.5008442,"Longitude":-6.3606984},"BottomRight":{"Latitude":40.4985958,"Longitude":-6.3577416}},"Address":{"Label":"Calle Correos, 19, 37530 Serradilla del Llano (Salamanca), España","Country":"ESP","State":"Castilla y León","County":"Salamanca","City":"Serradilla del Llano","Street":"Calle Correos","HouseNumber":"19","PostalCode":"37530","AdditionalData":[{"value":"España","key":"CountryName"},{"value":"Castilla y León","key":"StateName"},{"value":"Salamanca","key":"CountyName"}]},"MapReference":{"ReferenceId":"593022222","Spot":0.7,"SideOfStreet":"right","CountryId":"20215059","StateId":"20221909","CountyId":"20221914","CityId":"20310189","AddressId":"405457483","RoadLinkId":"68546831"}}}]}]}}