{"Response":{"MetaInfo":{"Timestamp":"2020-03-28T11:33:41.212+0000","NextPageInformation":"2"},"View":[{"_type":"SearchResultsViewType","ViewId":0,"Result":[{"Relevance":1.0,"Distance":0.0,"Direction":0.0,"MatchLevel":"district","MatchQuality":{"Country":1.0,"County":1.0,"City":1.0,"District":1.0,"PostalCode":1.0},"Location":{"LocationId":"NT_bBwuK.vdcfFLshRfoDHP.B","LocationType":"point","DisplayPosition":{"Latitude":40.4427544,"Longitude":-8.4417217},"MapView":{"TopLeft":{"Latitude":40.44956,"Longitude":-8.45306},"BottomRight":{"Latitude":40.41696,"Longitude":-8.42633}},"Address":{"Label":"Anadia, Portugal","Country":"PRT","County":"Aveiro","City":"Anadia","District":"Anadia","PostalCode":"3780-213","AdditionalData":[{"value":"Portugal","key":"CountryName"},{"value":"Aveiro","key":"CountyName"}]},"MapReference":{"ReferenceId":"948085617","SideOfStreet":"neither","CountryId":"20317122","CountyId":"20317149","CityId":"20317180","DistrictId":"20415381"}}},{"Relevance":1.0,"Distance":3.0,"MatchLevel":"street","MatchQuality":{"Country":1.0,"County":1.0,"City":1.0,"District":1.0,"Street":[1.0],"PostalCode":1.0},"Location":{"LocationId":"NT_U8XpQWnwkjWJxNzaIKRsPB_l_587784906_L","LocationType":"point","DisplayPosition":{"Latitude":40.4427812,"Longitude":-8.4417196},"MapView":{"TopLeft":{"Latitude":40.44349,"Longitude":-8.44183},"BottomRight":{"Latitude":40.44277,"Longitude":-8.44115}},"Address":{"Label":"Rua da Misericórdia, 3780-226 Anadia, Portugal","Country":"PRT","County":"Aveiro","City":"Anadia","District":"Anadia","Street":"Rua da Misericórdia","PostalCode":"3780-226","AdditionalData":[{"value":"Portugal","key":"CountryName"},{"value":"Aveiro","key":"CountyName"}]},"MapReference":{"ReferenceId":"587784906","Spot":0.1,"SideOfStreet":"neither","CountryId":"20317122","CountyId":"20317149","CityId":"20317180","DistrictId":"20415381"}}},{"Relevance":1.0,"Distance":10.0,"MatchLevel":"street","MatchQuality":{"Country":1.0,"County":1.0,"City":1.0,"District":1.0,"Street":[1.0],"PostalCode":1.0},"Location":{"LocationId":"NT_eEfE1eVSyKZSIE1nF7n25A_l_591368189_R","LocationType":"point","DisplayPosition":{"Latitude":40.44279,"Longitude":-8.44183},"MapView":{"TopLeft":{"Latitude":40.44279,"Longitude":-8.44202},"BottomRight":{"Latitude":40.44203,"Longitude":-8.44183}},"Address":{"Label":"Rua Justino Sampaio Alegre, 3780-234 Anadia, Portugal","Country":"PRT","County":"Aveiro","City":"Anadia","District":"Anadia","Street":"Rua Justino Sampaio Alegre","PostalCode":"3780-234","AdditionalData":[{"value":"Portugal","key":"CountryName"},{"value":"Aveiro","key":"CountyName"}]},"MapReference":{"ReferenceId":"591368189","Spot":1.0,"SideOfStreet":"right","CountryId":"20317122","CountyId":"20317149","CityId":"20317180","DistrictId":"20415381"}}},{"Relevance":1.0,"Distance":48.5,"MatchLevel":"street","MatchQuality":{"Country":1.0,"County":1.0,"City":1.0,"District":1.0,"PostalCode":1.0},"Location":{"LocationId":"NT_yWkGrvztDt5Me6tlQ5tGiB_l_591371609_L","LocationType":"point","DisplayPosition":{"Latitude":40.44241,"Longitude":-8.44137},"MapView":{"TopLeft":{"Latitude":40.44241,"Longitude":-8.44165},"BottomRight":{"Latitude":40.44183,"Longitude":-8.44137}},"Address":{"Label":"3780 Anadia, Portugal","Country":"PRT","County":"Aveiro","City":"Anadia","District":"Anadia","PostalCode":"3780","AdditionalData":[{"value":"Portugal","key":"CountryName"},{"value":"Aveiro","key":"CountyName"}]},"MapReference":{"ReferenceId":"591371609","Spot":1.0,"SideOfStreet":"left","CountryId":"20317122","CountyId":"20317149","CityId":"20317180","DistrictId":"20415381"}}},{"Relevance":1.0,"Distance":80.2,"MatchLevel":"street","MatchQuality":{"Country":1.0,"County":1.0,"City":1.0,"District":1.0,"PostalCode":1.0},"Location":{"LocationId":"NT_yWkGrvztDt5Me6tlQ5tGiB_l_988622210_L","LocationType":"point","DisplayPosition":{"Latitude":40.44251,"Longitude":-8.44083},"MapView":{"TopLeft":{"Latitude":40.44262,"Longitude":-8.44083},"BottomRight":{"Latitude":40.44245,"Longitude":-8.44064}},"Address":{"Label":"3780 Anadia, Portugal","Country":"PRT","County":"Aveiro","City":"Anadia","District":"Anadia","PostalCode":"3780","AdditionalData":[{"value":"Portugal","key":"CountryName"},{"value":"Aveiro","key":"CountyName"}]},"MapReference":{"ReferenceId":"988622210","Spot":0.2,"SideOfStreet":"left","CountryId":"20317122","CountyId":"20317149","CityId":"20317180","DistrictId":"20415381"}}},{"Relevance":1.0,"Distance":82.4,"MatchLevel":"street","MatchQuality":{"Country":1.0,"County":1.0,"City":1.0,"District":1.0,"PostalCode":1.0},"Location":{"LocationId":"NT_yWkGrvztDt5Me6tlQ5tGiB_l_591368190_R","LocationType":"point","DisplayPosition":{"Latitude":40.4420138,"Longitude":-8.4417653},"MapView":{"TopLeft":{"Latitude":40.44203,"Longitude":-8.44202},"BottomRight":{"Latitude":40.44193,"Longitude":-8.44167}},"Address":{"Label":"3780 Anadia, Portugal","Country":"PRT","County":"Aveiro","City":"Anadia","District":"Anadia","PostalCode":"3780","AdditionalData":[{"value":"Portugal","key":"CountryName"},{"value":"Aveiro","key":"CountyName"}]},"MapReference":{"ReferenceId":"591368190","Spot":0.38,"SideOfStreet":"right","CountryId":"20317122","CountyId":"20317149","CityId":"20317180","DistrictId":"20415381"}}},{"Relevance":1.0,"Distance":84.3,"MatchLevel":"street","MatchQuality":{"Country":1.0,"County":1.0,"City":1.0,"District":1.0,"PostalCode":1.0},"Location":{"LocationId":"NT_yWkGrvztDt5Me6tlQ5tGiB_l_1180350328_L","LocationType":"point","DisplayPosition":{"Latitude":40.44245,"Longitude":-8.44081},"MapView":{"TopLeft":{"Latitude":40.44245,"Longitude":-8.44081},"BottomRight":{"Latitude":40.4424,"Longitude":-8.44068}},"Address":{"Label":"3780 Anadia, Portugal","Country":"PRT","County":"Aveiro","City":"Anadia","District":"Anadia","PostalCode":"3780","AdditionalData":[{"value":"Portugal","key":"CountryName"},{"value":"Aveiro","key":"CountyName"}]},"MapReference":{"ReferenceId":"1180350328","Spot":1.0,"SideOfStreet":"left","CountryId":"20317122","CountyId":"20317149","CityId":"20317180","DistrictId":"20415381"}}},{"Relevance":1.0,"Distance":84.4,"MatchLevel":"street","MatchQuality":{"Country":1.0,"County":1.0,"City":1.0,"District":1.0,"Street":[1.0],"PostalCode":1.0},"Location":{"LocationId":"NT_eEfE1eVSyKZSIE1nF7n25A_l_1210486990_R","LocationType":"point","DisplayPosition":{"Latitude":40.44203,"Longitude":-8.44202},"MapView":{"TopLeft":{"Latitude":40.44203,"Longitude":-8.44203},"BottomRight":{"Latitude":40.44189,"Longitude":-8.44202}},"Address":{"Label":"Rua Justino Sampaio Alegre, 3780-234 Anadia, Portugal","Country":"PRT","County":"Aveiro","City":"Anadia","District":"Anadia","Street":"Rua Justino Sampaio Alegre","PostalCode":"3780-234","AdditionalData":[{"value":"Portugal","key":"CountryName"},{"value":"Aveiro","key":"CountyName"}]},"MapReference":{"ReferenceId":"1210486990","Spot":1.0,"SideOfStreet":"right","CountryId":"20317122","CountyId":"20317149","CityId":"20317180","DistrictId":"20415381"}}},{"Relevance":1.0,"Distance":91.6,"MatchLevel":"street","MatchQuality":{"Country":1.0,"County":1.0,"City":1.0,"District":1.0,"PostalCode":1.0},"Location":{"LocationId":"NT_yWkGrvztDt5Me6tlQ5tGiB_l_591371608_L","LocationType":"point","DisplayPosition":{"Latitude":40.4419944,"Longitude":-8.4413037},"MapView":{"TopLeft":{"Latitude":40.44245,"Longitude":-8.44165},"BottomRight":{"Latitude":40.44183,"Longitude":-8.44081}},"Address":{"Label":"3780 Anadia, Portugal","Country":"PRT","County":"Aveiro","City":"Anadia","District":"Anadia","PostalCode":"3780","AdditionalData":[{"value":"Portugal","key":"CountryName"},{"value":"Aveiro","key":"CountyName"}]},"MapReference":{"ReferenceId":"591371608","Spot":0.36,"SideOfStreet":"left","CountryId":"20317122","CountyId":"20317149","CityId":"20317180","DistrictId":"20415381"}}},{"Relevance":1.0,"Distance":91.7,"MatchLevel":"street","MatchQuality":{"Country":1.0,"County":1.0,"City":1.0,"District":1.0,"PostalCode":1.0},"Location":{"LocationId":"NT_yWkGrvztDt5Me6tlQ5tGiB_l_587784931_L","LocationType":"point","DisplayPosition":{"Latitude":40.44193,"Longitude":-8.44168},"MapView":{"TopLeft":{"Latitude":40.44193,"Longitude":-8.44203},"BottomRight":{"Latitude":40.44188,"Longitude":-8.44168}},"Address":{"Label":"3780 Anadia, Portugal","Country":"PRT","County":"Aveiro","City":"Anadia","District":"Anadia","PostalCode":"3780","AdditionalData":[{"value":"Portugal","key":"CountryName"},{"value":"Aveiro","key":"CountyName"}]},"MapReference":{"ReferenceId":"587784931","Spot":1.0,"SideOfStreet":"left","CountryId":"20317122","CountyId":"20317149","CityId":"20317180","DistrictId":"20415381"}}}]}]}}