{"Response":{"MetaInfo":{"Timestamp":"2020-03-28T09:41:39.812+0000","NextPageInformation":"2"},"View":[{"_type":"SearchResultsViewType","ViewId":0,"Result":[{"Relevance":1.0,"Distance":0.0,"Direction":0.0,"MatchLevel":"district","MatchQuality":{"Country":1.0,"State":1.0,"County":1.0,"City":1.0,"District":1.0,"PostalCode":1.0},"Location":{"LocationId":"NT_ob4bbd3tC8HY4K2FlG3G0C","LocationType":"point","DisplayPosition":{"Latitude":40.4307291,"Longitude":-3.6589029},"MapView":{"TopLeft":{"Latitude":40.43312,"Longitude":-3.66104},"BottomRight":{"Latitude":40.41448,"Longitude":-3.62684}},"Address":{"Label":"Ventas, Madrid, Comunidad de Madrid, España","Country":"ESP","State":"Comunidad de Madrid","County":"Madrid","City":"Madrid","District":"Ventas","PostalCode":"28017","AdditionalData":[{"value":"España","key":"CountryName"},{"value":"Comunidad de Madrid","key":"StateName"},{"value":"Madrid","key":"CountyName"}]},"MapReference":{"ReferenceId":"1212210241","SideOfStreet":"neither","CountryId":"20215059","StateId":"20226800","CountyId":"20226801","CityId":"20242802"}}},{"Relevance":1.0,"Distance":10.2,"MatchLevel":"street","MatchQuality":{"Country":1.0,"State":1.0,"County":1.0,"City":1.0,"District":1.0,"PostalCode":1.0},"Location":{"LocationId":"NT_-tP..l1-eclUJngqNrDXdD_l_809118315_R","LocationType":"point","DisplayPosition":{"Latitude":40.4307926,"Longitude":-3.658989},"MapView":{"TopLeft":{"Latitude":40.43113,"Longitude":-3.65905},"BottomRight":{"Latitude":40.43071,"Longitude":-3.65874}},"Address":{"Label":"28017 Madrid (Madrid), España","Country":"ESP","State":"Comunidad de Madrid","County":"Madrid","City":"Madrid","District":"Ventas","PostalCode":"28017","AdditionalData":[{"value":"España","key":"CountryName"},{"value":"Comunidad de Madrid","key":"StateName"},{"value":"Madrid","key":"CountyName"}]},"MapReference":{"ReferenceId":"809118315","Spot":0.2,"SideOfStreet":"right","CountryId":"20215059","StateId":"20226800","CountyId":"20226801","CityId":"20242802"}}},{"Relevance":1.0,"Distance":10.9,"MatchLevel":"houseNumber","MatchQuality":{"Country":1.0,"State":1.0,"County":1.0,"City":1.0,"District":1.0,"Street":[1.0],"HouseNumber":1.0,"PostalCode":1.0},"MatchType":"interpolated","Location":{"LocationId":"NT_CEcQ5t-qdVqc.wQn6Qf2ZB_1A","LocationType":"point","DisplayPosition":{"Latitude":40.43064,"Longitude":-3.6588},"MapView":{"TopLeft":{"Latitude":40.4317642,"Longitude":-3.6602768},"BottomRight":{"Latitude":40.4295158,"Longitude":-3.6573232}},"Address":{"Label":"Calle de Santiago Massarnau, 5, 28017 Madrid (Madrid), España","Country":"ESP","State":"Comunidad de Madrid","County":"Madrid","City":"Madrid","District":"Ventas","Street":"Calle de Santiago Massarnau","HouseNumber":"5","PostalCode":"28017","AdditionalData":[{"value":"España","key":"CountryName"},{"value":"Comunidad de Madrid","key":"StateName"},{"value":"Madrid","key":"CountyName"}]},"MapReference":{"ReferenceId":"809118312","Spot":0.78,"SideOfStreet":"right","CountryId":"20215059","StateId":"20226800","CountyId":"20226801","CityId":"20242802","AddressId":"588651680","RoadLinkId":"196460859"}}},{"Relevance":1.0,"Distance":34.5,"MatchLevel":"houseNumber","MatchQuality":{"Country":1.0,"State":1.0,"County":1.0,"City":1.0,"District":1.0,"Street":[1.0],"HouseNumber":1.0,"PostalCode":1.0},"MatchType":"interpolated","Location":{"LocationId":"NT_CEcQ5t-qdVqc.wQn6Qf2ZB_xA","LocationType":"point","DisplayPosition":{"Latitude":40.43073,"Longitude":-3.65931},"MapView":{"TopLeft":{"Latitude":40.4318542,"Longitude":-3.6607868},"BottomRight":{"Latitude":40.4296058,"Longitude":-3.6578332}},"Address":{"Label":"Calle de Santiago Massarnau, 1, 28017 Madrid (Madrid), España","Country":"ESP","State":"Comunidad de Madrid","County":"Madrid","City":"Madrid","District":"Ventas","Street":"Calle de Santiago Massarnau","HouseNumber":"1","PostalCode":"28017","AdditionalData":[{"value":"España","key":"CountryName"},{"value":"Comunidad de Madrid","key":"StateName"},{"value":"Madrid","key":"CountyName"}]},"MapReference":{"ReferenceId":"809118313","Spot":0.53,"SideOfStreet":"right","CountryId":"20215059","StateId":"20226800","CountyId":"20226801","CityId":"20242802","AddressId":"588623875","RoadLinkId":"196460860"}}},{"Relevance":1.0,"Distance":45.8,"MatchLevel":"street","MatchQuality":{"Country":1.0,"State":1.0,"County":1.0,"City":1.0,"District":1.0,"PostalCode":1.0},"Location":{"LocationId":"NT_-tP..l1-eclUJngqNrDXdD_l_956220672_L","LocationType":"point","DisplayPosition":{"Latitude":40.43107,"Longitude":-3.6586},"MapView":{"TopLeft":{"Latitude":40.43137,"Longitude":-3.6586},"BottomRight":{"Latitude":40.43107,"Longitude":-3.65836}},"Address":{"Label":"28017 Madrid (Madrid), España","Country":"ESP","State":"Comunidad de Madrid","County":"Madrid","City":"Madrid","District":"Ventas","PostalCode":"28017","AdditionalData":[{"value":"España","key":"CountryName"},{"value":"Comunidad de Madrid","key":"StateName"},{"value":"Madrid","key":"CountyName"}]},"MapReference":{"ReferenceId":"956220672","Spot":0.0,"SideOfStreet":"left","CountryId":"20215059","StateId":"20226800","CountyId":"20226801","CityId":"20242802"}}},{"Relevance":1.0,"Distance":46.5,"MatchLevel":"street","MatchQuality":{"Country":1.0,"State":1.0,"County":1.0,"City":1.0,"District":1.0,"Street":[1.0],"PostalCode":1.0},"Location":{"LocationId":"NT_Cz6zhA9vzfIDTbeZgKos-C_l_809118319_L","LocationType":"point","DisplayPosition":{"Latitude":40.4311268,"Longitude":-3.6587325},"MapView":{"TopLeft":{"Latitude":40.43113,"Longitude":-3.65874},"BottomRight":{"Latitude":40.43107,"Longitude":-3.6586}},"Address":{"Label":"Avenida de Daroca, 28017 Madrid (Madrid), España","Country":"ESP","State":"Comunidad de Madrid","County":"Madrid","City":"Madrid","District":"Ventas","Street":"Avenida de Daroca","PostalCode":"28017","AdditionalData":[{"value":"España","key":"CountryName"},{"value":"Comunidad de Madrid","key":"StateName"},{"value":"Madrid","key":"CountyName"}]},"MapReference":{"ReferenceId":"809118319","Spot":0.95,"SideOfStreet":"left","CountryId":"20215059","StateId":"20226800","CountyId":"20226801","CityId":"20242802"}}},{"Relevance":1.0,"Distance":46.7,"MatchLevel":"street","MatchQuality":{"Country":1.0,"State":1.0,"County":1.0,"City":1.0,"District":1.0,"PostalCode":1.0},"Location":{"LocationId":"NT_-tP..l1-eclUJngqNrDXdD_l_809118316_R","LocationType":"point","DisplayPosition":{"Latitude":40.43113,"Longitude":-3.65874},"MapView":{"TopLeft":{"Latitude":40.43136,"Longitude":-3.65874},"BottomRight":{"Latitude":40.43113,"Longitude":-3.65856}},"Address":{"Label":"28017 Madrid (Madrid), España","Country":"ESP","State":"Comunidad de Madrid","County":"Madrid","City":"Madrid","District":"Ventas","PostalCode":"28017","AdditionalData":[{"value":"España","key":"CountryName"},{"value":"Comunidad de Madrid","key":"StateName"},{"value":"Madrid","key":"CountyName"}]},"MapReference":{"ReferenceId":"809118316","Spot":0.0,"SideOfStreet":"right","CountryId":"20215059","StateId":"20226800","CountyId":"20226801","CityId":"20242802"}}},{"Relevance":1.0,"Distance":49.1,"MatchLevel":"houseNumber","MatchQuality":{"Country":1.0,"State":1.0,"County":1.0,"City":1.0,"District":1.0,"Street":[1.0],"HouseNumber":1.0,"PostalCode":1.0},"MatchType":"interpolated","Location":{"LocationId":"NT_Cz6zhA9vzfIDTbeZgKos-C_yA","LocationType":"point","DisplayPosition":{"Latitude":40.43125,"Longitude":-3.659},"MapView":{"TopLeft":{"Latitude":40.4323742,"Longitude":-3.6604768},"BottomRight":{"Latitude":40.4301258,"Longitude":-3.6575232}},"Address":{"Label":"Avenida de Daroca, 2, 28017 Madrid (Madrid), España","Country":"ESP","State":"Comunidad de Madrid","County":"Madrid","City":"Madrid","District":"Ventas","Street":"Avenida de Daroca","HouseNumber":"2","PostalCode":"28017","AdditionalData":[{"value":"España","key":"CountryName"},{"value":"Comunidad de Madrid","key":"StateName"},{"value":"Madrid","key":"CountyName"}]},"MapReference":{"ReferenceId":"809118314","Spot":0.52,"SideOfStreet":"left","CountryId":"20215059","StateId":"20226800","CountyId":"20226801","CityId":"20242802","AddressId":"588509168","RoadLinkId":"196460861"}}},{"Relevance":1.0,"Distance":50.4,"MatchLevel":"houseNumber","MatchQuality":{"Country":1.0,"State":1.0,"County":1.0,"City":1.0,"District":1.0,"Street":[1.0],"HouseNumber":1.0,"PostalCode":1.0},"MatchType":"interpolated","Location":{"LocationId":"NT_aRK6qtpbc-Xd5gtyGWRs0C_zA","LocationType":"point","DisplayPosition":{"Latitude":40.43059,"Longitude":-3.65957},"MapView":{"TopLeft":{"Latitude":40.4317142,"Longitude":-3.6610468},"BottomRight":{"Latitude":40.4294658,"Longitude":-3.6580932}},"Address":{"Label":"Calle de Antonio Pirala, 3, 28017 Madrid (Madrid), España","Country":"ESP","State":"Comunidad de Madrid","County":"Madrid","City":"Madrid","District":"Ventas","Street":"Calle de Antonio Pirala","HouseNumber":"3","PostalCode":"28017","AdditionalData":[{"value":"España","key":"CountryName"},{"value":"Comunidad de Madrid","key":"StateName"},{"value":"Madrid","key":"CountyName"}]},"MapReference":{"ReferenceId":"956308304","Spot":0.56,"SideOfStreet":"right","CountryId":"20215059","StateId":"20226800","CountyId":"20226801","CityId":"20242802","AddressId":"588515090","RoadLinkId":"299250385"}}},{"Relevance":1.0,"Distance":50.9,"MatchLevel":"houseNumber","MatchQuality":{"Country":1.0,"State":1.0,"County":1.0,"City":1.0,"District":1.0,"Street":[1.0],"HouseNumber":1.0,"PostalCode":1.0},"MatchType":"interpolated","Location":{"LocationId":"NT_Cz6zhA9vzfIDTbeZgKos-C_3A","LocationType":"point","DisplayPosition":{"Latitude":40.43098,"Longitude":-3.6584},"MapView":{"TopLeft":{"Latitude":40.4321042,"Longitude":-3.6598768},"BottomRight":{"Latitude":40.4298558,"Longitude":-3.6569232}},"Address":{"Label":"Avenida de Daroca, 7, 28017 Madrid (Madrid), España","Country":"ESP","State":"Comunidad de Madrid","County":"Madrid","City":"Madrid","District":"Ventas","Street":"Avenida de Daroca","HouseNumber":"7","PostalCode":"28017","AdditionalData":[{"value":"España","key":"CountryName"},{"value":"Comunidad de Madrid","key":"StateName"},{"value":"Madrid","key":"CountyName"}]},"MapReference":{"ReferenceId":"956220674","Spot":0.16,"SideOfStreet":"right","CountryId":"20215059","StateId":"20226800","CountyId":"20226801","CityId":"20242802","AddressId":"588578953","RoadLinkId":"299172308"}}}]}]}}