{"Response":{"MetaInfo":{"Timestamp":"2020-03-28T11:33:01.615+0000","NextPageInformation":"2"},"View":[{"_type":"SearchResultsViewType","ViewId":0,"Result":[{"Relevance":1.0,"Distance":0.0,"Direction":0.0,"MatchLevel":"district","MatchQuality":{"Country":1.0,"County":1.0,"City":1.0,"District":1.0,"PostalCode":1.0},"Location":{"LocationId":"NT_d2Wi7bd6SFAvhnEJjLs7HA","LocationType":"point","DisplayPosition":{"Latitude":40.4132109,"Longitude":-8.448118},"MapView":{"TopLeft":{"Latitude":40.42023,"Longitude":-8.45379},"BottomRight":{"Latitude":40.40848,"Longitude":-8.44052}},"Address":{"Label":"Aguim, Anadia, Portugal","Country":"PRT","County":"Aveiro","City":"Anadia","District":"Aguim","PostalCode":"3780-632","AdditionalData":[{"value":"Portugal","key":"CountryName"},{"value":"Aveiro","key":"CountyName"}]},"MapReference":{"ReferenceId":"587740573","SideOfStreet":"neither","CountryId":"20317122","CountyId":"20317149","CityId":"20317180","DistrictId":"20570498"}}},{"Relevance":1.0,"Distance":7.5,"MatchLevel":"street","MatchQuality":{"Country":1.0,"County":1.0,"City":1.0,"District":1.0,"Street":[1.0],"PostalCode":1.0},"Location":{"LocationId":"NT_WAMvUad0zEcpQYhTnhkUlA_l_587876062_L","LocationType":"point","DisplayPosition":{"Latitude":40.4132371,"Longitude":-8.4480366},"MapView":{"TopLeft":{"Latitude":40.41439,"Longitude":-8.44875},"BottomRight":{"Latitude":40.41266,"Longitude":-8.44784}},"Address":{"Label":"Rua Doutor Fernando Amaral Gomes, 3780-621 Anadia, Portugal","Country":"PRT","County":"Aveiro","City":"Anadia","District":"Aguim","Street":"Rua Doutor Fernando Amaral Gomes","PostalCode":"3780-621","AdditionalData":[{"value":"Portugal","key":"CountryName"},{"value":"Aveiro","key":"CountyName"}]},"MapReference":{"ReferenceId":"587876062","Spot":0.31,"SideOfStreet":"left","CountryId":"20317122","CountyId":"20317149","CityId":"20317180","DistrictId":"20570498"}}},{"Relevance":1.0,"Distance":21.1,"MatchLevel":"street","MatchQuality":{"Country":1.0,"County":1.0,"City":1.0,"District":1.0,"Street":[1.0],"PostalCode":1.0},"Location":{"LocationId":"NT_qRKjxdDnF8F835cNz-boED_l_587876083_R","LocationType":"point","DisplayPosition":{"Latitude":40.41309,"Longitude":-8.44831},"MapView":{"TopLeft":{"Latitude":40.41309,"Longitude":-8.44837},"BottomRight":{"Latitude":40.41262,"Longitude":-8.44831}},"Address":{"Label":"Travessa dos Casais, 3780-632 Anadia, Portugal","Country":"PRT","County":"Aveiro","City":"Anadia","District":"Aguim","Street":"Travessa dos Casais","PostalCode":"3780-632","AdditionalData":[{"value":"Portugal","key":"CountryName"},{"value":"Aveiro","key":"CountyName"}]},"MapReference":{"ReferenceId":"587876083","Spot":1.0,"SideOfStreet":"right","CountryId":"20317122","CountyId":"20317149","CityId":"20317180","DistrictId":"20570498"}}},{"Relevance":1.0,"Distance":64.1,"MatchLevel":"street","MatchQuality":{"Country":1.0,"County":1.0,"City":1.0,"District":1.0,"Street":[1.0],"PostalCode":1.0},"Location":{"LocationId":"NT_qRKjxdDnF8F835cNz-boED_l_587876075_L","LocationType":"point","DisplayPosition":{"Latitude":40.4126367,"Longitude":-8.4480559},"MapView":{"TopLeft":{"Latitude":40.41266,"Longitude":-8.44831},"BottomRight":{"Latitude":40.41262,"Longitude":-8.44784}},"Address":{"Label":"Travessa dos Casais, 3780-632 Anadia, Portugal","Country":"PRT","County":"Aveiro","City":"Anadia","District":"Aguim","Street":"Travessa dos Casais","PostalCode":"3780-632","AdditionalData":[{"value":"Portugal","key":"CountryName"},{"value":"Aveiro","key":"CountyName"}]},"MapReference":{"ReferenceId":"587876075","Spot":0.54,"SideOfStreet":"left","CountryId":"20317122","CountyId":"20317149","CityId":"20317180","DistrictId":"20570498"}}},{"Relevance":1.0,"Distance":65.6,"MatchLevel":"street","MatchQuality":{"Country":1.0,"County":1.0,"City":1.0,"District":1.0,"Street":[1.0],"PostalCode":1.0},"Location":{"LocationId":"NT_WAMvUad0zEcpQYhTnhkUlA_l_587876116_R","LocationType":"point","DisplayPosition":{"Latitude":40.41266,"Longitude":-8.44784},"MapView":{"TopLeft":{"Latitude":40.41266,"Longitude":-8.44784},"BottomRight":{"Latitude":40.41226,"Longitude":-8.44735}},"Address":{"Label":"Rua Doutor Fernando Amaral Gomes, 3780-621 Anadia, Portugal","Country":"PRT","County":"Aveiro","City":"Anadia","District":"Aguim","Street":"Rua Doutor Fernando Amaral Gomes","PostalCode":"3780-621","AdditionalData":[{"value":"Portugal","key":"CountryName"},{"value":"Aveiro","key":"CountyName"}]},"MapReference":{"ReferenceId":"587876116","Spot":1.0,"SideOfStreet":"right","CountryId":"20317122","CountyId":"20317149","CityId":"20317180","DistrictId":"20570498"}}},{"Relevance":1.0,"Distance":67.7,"MatchLevel":"street","MatchQuality":{"Country":1.0,"County":1.0,"City":1.0,"District":1.0,"Street":[1.0],"PostalCode":1.0},"Location":{"LocationId":"NT_qRKjxdDnF8F835cNz-boED_l_587876031_L","LocationType":"point","DisplayPosition":{"Latitude":40.41262,"Longitude":-8.44831},"MapView":{"TopLeft":{"Latitude":40.41267,"Longitude":-8.44903},"BottomRight":{"Latitude":40.41199,"Longitude":-8.44831}},"Address":{"Label":"Travessa dos Casais, 3780-632 Anadia, Portugal","Country":"PRT","County":"Aveiro","City":"Anadia","District":"Aguim","Street":"Travessa dos Casais","PostalCode":"3780-632","AdditionalData":[{"value":"Portugal","key":"CountryName"},{"value":"Aveiro","key":"CountyName"}]},"MapReference":{"ReferenceId":"587876031","Spot":1.0,"SideOfStreet":"left","CountryId":"20317122","CountyId":"20317149","CityId":"20317180","DistrictId":"20570498"}}},{"Relevance":1.0,"Distance":136.3,"MatchLevel":"houseNumber","MatchQuality":{"Country":1.0,"County":1.0,"City":1.0,"District":1.0,"Street":[1.0],"HouseNumber":1.0,"PostalCode":1.0},"MatchType":"interpolated","Location":{"LocationId":"NT_v-LrdQa4B5kNRkX-tC8UqC_xA","LocationType":"point","DisplayPosition":{"Latitude":40.41445,"Longitude":-8.44859},"MapView":{"TopLeft":{"Latitude":40.4155742,"Longitude":-8.4500665},"BottomRight":{"Latitude":40.4133258,"Longitude":-8.4471135}},"Address":{"Label":"Rua Chãos de São Miguel 1, 3780-621 Anadia, Portugal","Country":"PRT","County":"Aveiro","City":"Anadia","District":"Aguim","Street":"Rua Chãos de São Miguel","HouseNumber":"1","PostalCode":"3780-621","AdditionalData":[{"value":"Portugal","key":"CountryName"},{"value":"Aveiro","key":"CountyName"}]},"MapReference":{"ReferenceId":"587876007","Spot":0.41,"SideOfStreet":"right","CountryId":"20317122","CountyId":"20317149","CityId":"20317180","DistrictId":"20570498","AddressId":"343782108","RoadLinkId":"70745964"}}},{"Relevance":1.0,"Distance":141.6,"MatchLevel":"street","MatchQuality":{"Country":1.0,"County":1.0,"City":1.0,"District":1.0,"Street":[1.0],"PostalCode":1.0},"Location":{"LocationId":"NT_xqumxLOrX.KetmzBznQSWD_l_591361831_R","LocationType":"point","DisplayPosition":{"Latitude":40.41439,"Longitude":-8.44875},"MapView":{"TopLeft":{"Latitude":40.41485,"Longitude":-8.44893},"BottomRight":{"Latitude":40.41439,"Longitude":-8.44875}},"Address":{"Label":"Rua d'Avale, 3780-621 Anadia, Portugal","Country":"PRT","County":"Aveiro","City":"Anadia","District":"Aguim","Street":"Rua d'Avale","PostalCode":"3780-621","AdditionalData":[{"value":"Portugal","key":"CountryName"},{"value":"Aveiro","key":"CountyName"}]},"MapReference":{"ReferenceId":"591361831","Spot":0.0,"SideOfStreet":"right","CountryId":"20317122","CountyId":"20317149","CityId":"20317180","DistrictId":"20570498"}}},{"Relevance":1.0,"Distance":143.3,"MatchLevel":"houseNumber","MatchQuality":{"Country":1.0,"County":1.0,"City":1.0,"District":1.0,"Street":[1.0],"PostalCode":1.0},"MatchType":"interpolated","Location":{"LocationId":"NT_eA6H61R17V5xqmWOOj.XCB","LocationType":"point","DisplayPosition":{"Latitude":40.41281,"Longitude":-8.44651},"MapView":{"TopLeft":{"Latitude":40.4139342,"Longitude":-8.4479864},"BottomRight":{"Latitude":40.4116858,"Longitude":-8.4450336}},"Address":{"Label":"Rua dos Casais, 3780-632 Anadia, Portugal","Country":"PRT","County":"Aveiro","City":"Anadia","District":"Aguim","Street":"Rua dos Casais","PostalCode":"3780-632","AdditionalData":[{"value":"Portugal","key":"CountryName"},{"value":"Aveiro","key":"CountyName"}],"Building":"Vivenda Maria Cândida"},"MapReference":{"ReferenceId":"587740571","Spot":0.99,"SideOfStreet":"right","CountryId":"20317122","CountyId":"20317149","CityId":"20317180","DistrictId":"20570498","AddressId":"296653588","RoadLinkId":"69927373"}}},{"Relevance":1.0,"Distance":143.7,"MatchLevel":"street","MatchQuality":{"Country":1.0,"County":1.0,"City":1.0,"District":1.0,"Street":[1.0],"PostalCode":1.0},"Location":{"LocationId":"NT_eA6H61R17V5xqmWOOj.XCB_l_882244644_L","LocationType":"point","DisplayPosition":{"Latitude":40.41282,"Longitude":-8.4465},"MapView":{"TopLeft":{"Latitude":40.41322,"Longitude":-8.4465},"BottomRight":{"Latitude":40.41282,"Longitude":-8.44619}},"Address":{"Label":"Rua dos Casais, 3780-632 Anadia, Portugal","Country":"PRT","County":"Aveiro","City":"Anadia","District":"Aguim","Street":"Rua dos Casais","PostalCode":"3780-632","AdditionalData":[{"value":"Portugal","key":"CountryName"},{"value":"Aveiro","key":"CountyName"}]},"MapReference":{"ReferenceId":"882244644","Spot":0.0,"SideOfStreet":"left","CountryId":"20317122","CountyId":"20317149","CityId":"20317180","DistrictId":"20570498"}}}]}]}}