{"Response":{"MetaInfo":{"Timestamp":"2020-03-28T09:55:26.256+0000","NextPageInformation":"2"},"View":[{"_type":"SearchResultsViewType","ViewId":0,"Result":[{"Relevance":1.0,"Distance":-5.1,"MatchLevel":"landmark","MatchQuality":{"Country":1.0,"State":1.0,"County":1.0,"City":1.0,"PostalCode":1.0,"Name":1.0},"Location":{"LocationId":"NT_hrvCkToStvNhtwadiPUm6C","LocationType":"hospital","Name":"Padre Pio da Pietrelcina","DisplayPosition":{"Latitude":40.40242,"Longitude":18.01313},"MapView":{"TopLeft":{"Latitude":40.40362,"Longitude":18.01144},"BottomRight":{"Latitude":40.40121,"Longitude":18.01486}},"Address":{"Label":"73012 Campi Salentina LE, Italia","Country":"ITA","State":"Puglia","County":"LE","City":"Campi Salentina","PostalCode":"73012","AdditionalData":[{"value":"Italia","key":"CountryName"},{"value":"Puglia","key":"StateName"},{"value":"Lecce","key":"CountyName"}]},"MapReference":{"CountryId":"20110484","StateId":"20218506","CountyId":"20239198","CityId":"20239231","PlaceId":"557004467"}}},{"Relevance":1.0,"Distance":0.0,"Direction":0.0,"MatchLevel":"city","MatchQuality":{"Country":1.0,"State":1.0,"County":1.0,"City":1.0,"PostalCode":1.0},"Location":{"LocationId":"NT_3KBpT0lj2a3cB9r4kvQoEC","LocationType":"point","DisplayPosition":{"Latitude":40.4030217,"Longitude":18.0146624},"MapView":{"TopLeft":{"Latitude":40.45675,"Longitude":17.95391},"BottomRight":{"Latitude":40.36193,"Longitude":18.06029}},"Address":{"Label":"Campi Salentina, Puglia, Italia","Country":"ITA","State":"Puglia","County":"LE","City":"Campi Salentina","PostalCode":"73012","AdditionalData":[{"value":"Italia","key":"CountryName"},{"value":"Puglia","key":"StateName"},{"value":"Lecce","key":"CountyName"}]},"MapReference":{"ReferenceId":"591883512","SideOfStreet":"neither","CountryId":"20110484","StateId":"20218506","CountyId":"20239198","CityId":"20239231"}}},{"Relevance":1.0,"Distance":38.5,"MatchLevel":"street","MatchQuality":{"Country":1.0,"State":1.0,"County":1.0,"City":1.0,"PostalCode":1.0},"Location":{"LocationId":"NT_x5odwV0dGePp6s9cGsB.mA_l_1046382481_R","LocationType":"point","DisplayPosition":{"Latitude":40.4033624,"Longitude":18.0145788},"MapView":{"TopLeft":{"Latitude":40.40337,"Longitude":18.0136},"BottomRight":{"Latitude":40.40314,"Longitude":18.01461}},"Address":{"Label":"73012 Campi Salentina LE, Italia","Country":"ITA","State":"Puglia","County":"LE","City":"Campi Salentina","PostalCode":"73012","AdditionalData":[{"value":"Italia","key":"CountryName"},{"value":"Puglia","key":"StateName"},{"value":"Lecce","key":"CountyName"}]},"MapReference":{"ReferenceId":"1046382481","Spot":0.97,"SideOfStreet":"right","CountryId":"20110484","StateId":"20218506","CountyId":"20239198","CityId":"20239231"}}},{"Relevance":1.0,"Distance":39.0,"MatchLevel":"street","MatchQuality":{"Country":1.0,"State":1.0,"County":1.0,"City":1.0,"Street":[1.0],"PostalCode":1.0},"Location":{"LocationId":"NT_--.oY-qDDMUdYCXzTJmD1C_l_1046382479_R","LocationType":"point","DisplayPosition":{"Latitude":40.40337,"Longitude":18.01461},"MapView":{"TopLeft":{"Latitude":40.40373,"Longitude":18.01461},"BottomRight":{"Latitude":40.40337,"Longitude":18.01568}},"Address":{"Label":"Via Taranto, 73012 Campi Salentina LE, Italia","Country":"ITA","State":"Puglia","County":"LE","City":"Campi Salentina","Street":"Via Taranto","PostalCode":"73012","AdditionalData":[{"value":"Italia","key":"CountryName"},{"value":"Puglia","key":"StateName"},{"value":"Lecce","key":"CountyName"}]},"MapReference":{"ReferenceId":"1046382479","Spot":0.0,"SideOfStreet":"right","CountryId":"20110484","StateId":"20218506","CountyId":"20239198","CityId":"20239231"}}},{"Relevance":1.0,"Distance":46.7,"MatchLevel":"street","MatchQuality":{"Country":1.0,"State":1.0,"County":1.0,"City":1.0,"Street":[1.0],"PostalCode":1.0},"Location":{"LocationId":"NT_G806Qo-oAnXUAOikAjFABC_l_781466617_L","LocationType":"point","DisplayPosition":{"Latitude":40.4026492,"Longitude":18.0149173},"MapView":{"TopLeft":{"Latitude":40.403,"Longitude":18.01486},"BottomRight":{"Latitude":40.40261,"Longitude":18.01549}},"Address":{"Label":"Viale Medaglia d'Oro di Palma, 73012 Campi Salentina LE, Italia","Country":"ITA","State":"Puglia","County":"LE","City":"Campi Salentina","Street":"Viale Medaglia d'Oro di Palma","PostalCode":"73012","AdditionalData":[{"value":"Italia","key":"CountryName"},{"value":"Puglia","key":"StateName"},{"value":"Lecce","key":"CountyName"}]},"MapReference":{"ReferenceId":"781466617","Spot":0.09,"SideOfStreet":"left","CountryId":"20110484","StateId":"20218506","CountyId":"20239198","CityId":"20239231"}}},{"Relevance":1.0,"Distance":48.7,"MatchLevel":"street","MatchQuality":{"Country":1.0,"State":1.0,"County":1.0,"City":1.0,"Street":[1.0],"PostalCode":1.0},"Location":{"LocationId":"NT_SZ8Yj87BMSh3EcN61sZHXA_l_1185865204_L","LocationType":"point","DisplayPosition":{"Latitude":40.40261,"Longitude":18.01486},"MapView":{"TopLeft":{"Latitude":40.40261,"Longitude":18.01419},"BottomRight":{"Latitude":40.40215,"Longitude":18.01486}},"Address":{"Label":"Viale Medaglia d'Oro di Palma, 73012 Campi Salentina LE, Italia","Country":"ITA","State":"Puglia","County":"LE","City":"Campi Salentina","Street":"Viale Medaglia d'Oro di Palma","PostalCode":"73012","AdditionalData":[{"value":"Italia","key":"CountryName"},{"value":"Puglia","key":"StateName"},{"value":"Lecce","key":"CountyName"}]},"MapReference":{"ReferenceId":"1185865204","Spot":1.0,"SideOfStreet":"left","CountryId":"20110484","StateId":"20218506","CountyId":"20239198","CityId":"20239231"}}},{"Relevance":1.0,"Distance":59.4,"MatchLevel":"street","MatchQuality":{"Country":1.0,"State":1.0,"County":1.0,"City":1.0,"Street":[1.0],"PostalCode":1.0},"Location":{"LocationId":"NT_raIeVbr--OIgGOtg0RIMHD_l_559036625_L","LocationType":"point","DisplayPosition":{"Latitude":40.4028,"Longitude":18.0153},"MapView":{"TopLeft":{"Latitude":40.4028,"Longitude":18.0153},"BottomRight":{"Latitude":40.40232,"Longitude":18.01565}},"Address":{"Label":"Via Capece, 73012 Campi Salentina LE, Italia","Country":"ITA","State":"Puglia","County":"LE","City":"Campi Salentina","Street":"Via Capece","PostalCode":"73012","AdditionalData":[{"value":"Italia","key":"CountryName"},{"value":"Puglia","key":"StateName"},{"value":"Lecce","key":"CountyName"}]},"MapReference":{"ReferenceId":"559036625","Spot":1.0,"SideOfStreet":"left","CountryId":"20110484","StateId":"20218506","CountyId":"20239198","CityId":"20239231"}}},{"Relevance":1.0,"Distance":63.8,"MatchLevel":"street","MatchQuality":{"Country":1.0,"State":1.0,"County":1.0,"City":1.0,"Street":[1.0],"PostalCode":1.0},"Location":{"LocationId":"NT_OklQjXGsAeIpP0t7-NzFWB_l_559036621_R","LocationType":"point","DisplayPosition":{"Latitude":40.40247,"Longitude":18.01487},"MapView":{"TopLeft":{"Latitude":40.40247,"Longitude":18.01487},"BottomRight":{"Latitude":40.4021,"Longitude":18.01517}},"Address":{"Label":"Via de Matteis, 73012 Campi Salentina LE, Italia","Country":"ITA","State":"Puglia","County":"LE","City":"Campi Salentina","Street":"Via de Matteis","PostalCode":"73012","AdditionalData":[{"value":"Italia","key":"CountryName"},{"value":"Puglia","key":"StateName"},{"value":"Lecce","key":"CountyName"}]},"MapReference":{"ReferenceId":"559036621","Spot":1.0,"SideOfStreet":"right","CountryId":"20110484","StateId":"20218506","CountyId":"20239198","CityId":"20239231"}}},{"Relevance":1.0,"Distance":70.1,"MatchLevel":"street","MatchQuality":{"Country":1.0,"State":1.0,"County":1.0,"City":1.0,"Street":[1.0],"PostalCode":1.0},"Location":{"LocationId":"NT_G806Qo-oAnXUAOikAjFABC_l_1221898191_L","LocationType":"point","DisplayPosition":{"Latitude":40.403,"Longitude":18.01549},"MapView":{"TopLeft":{"Latitude":40.40313,"Longitude":18.01549},"BottomRight":{"Latitude":40.403,"Longitude":18.01572}},"Address":{"Label":"Viale Medaglia d'Oro di Palma, 73012 Campi Salentina LE, Italia","Country":"ITA","State":"Puglia","County":"LE","City":"Campi Salentina","Street":"Viale Medaglia d'Oro di Palma","PostalCode":"73012","AdditionalData":[{"value":"Italia","key":"CountryName"},{"value":"Puglia","key":"StateName"},{"value":"Lecce","key":"CountyName"}]},"MapReference":{"ReferenceId":"1221898191","Spot":0.0,"SideOfStreet":"left","CountryId":"20110484","StateId":"20218506","CountyId":"20239198","CityId":"20239231"}}},{"Relevance":1.0,"Distance":80.5,"MatchLevel":"street","MatchQuality":{"Country":1.0,"State":1.0,"County":1.0,"City":1.0,"Street":[1.0],"PostalCode":1.0},"Location":{"LocationId":"NT_v3ll7xhXy6WsSfriDyLRaC_l_559036606_L","LocationType":"point","DisplayPosition":{"Latitude":40.40296,"Longitude":18.01561},"MapView":{"TopLeft":{"Latitude":40.40296,"Longitude":18.01561},"BottomRight":{"Latitude":40.40247,"Longitude":18.016}},"Address":{"Label":"Via Borelli, 73012 Campi Salentina LE, Italia","Country":"ITA","State":"Puglia","County":"LE","City":"Campi Salentina","Street":"Via Borelli","PostalCode":"73012","AdditionalData":[{"value":"Italia","key":"CountryName"},{"value":"Puglia","key":"StateName"},{"value":"Lecce","key":"CountyName"}]},"MapReference":{"ReferenceId":"559036606","Spot":1.0,"SideOfStreet":"left","CountryId":"20110484","StateId":"20218506","CountyId":"20239198","CityId":"20239231"}}}]}]}}