{"Response":{"MetaInfo":{"Timestamp":"2020-03-28T09:41:59.061+0000","NextPageInformation":"2"},"View":[{"_type":"SearchResultsViewType","ViewId":0,"Result":[{"Relevance":1.0,"Distance":0.0,"Direction":0.0,"MatchLevel":"district","MatchQuality":{"Country":1.0,"State":1.0,"County":1.0,"City":1.0,"District":1.0,"PostalCode":1.0},"Location":{"LocationId":"NT_hT5qnbChaJxlk.6vaNhogB","LocationType":"point","DisplayPosition":{"Latitude":40.4245081,"Longitude":-3.6966643},"MapView":{"TopLeft":{"Latitude":40.42914,"Longitude":-3.7024},"BottomRight":{"Latitude":40.4187,"Longitude":-3.6904}},"Address":{"Label":"Justicia, Madrid, Comunidad de Madrid, España","Country":"ESP","State":"Comunidad de Madrid","County":"Madrid","City":"Madrid","District":"Justicia","PostalCode":"28004","AdditionalData":[{"value":"España","key":"CountryName"},{"value":"Comunidad de Madrid","key":"StateName"},{"value":"Madrid","key":"CountyName"}]},"MapReference":{"ReferenceId":"837522008","SideOfStreet":"neither","CountryId":"20215059","StateId":"20226800","CountyId":"20226801","CityId":"20242802"}}},{"Relevance":1.0,"Distance":2.1,"MatchLevel":"houseNumber","MatchQuality":{"Country":1.0,"State":1.0,"County":1.0,"City":1.0,"District":1.0,"Street":[1.0],"HouseNumber":1.0,"PostalCode":1.0},"MatchType":"interpolated","Location":{"LocationId":"NT_B262OeRZROGPp3iAC-6POB_0A","LocationType":"point","DisplayPosition":{"Latitude":40.42451,"Longitude":-3.69664},"MapView":{"TopLeft":{"Latitude":40.4256342,"Longitude":-3.6981167},"BottomRight":{"Latitude":40.4233858,"Longitude":-3.6951633}},"Address":{"Label":"Calle de Regueros, 4, 28004 Madrid (Madrid), España","Country":"ESP","State":"Comunidad de Madrid","County":"Madrid","City":"Madrid","District":"Justicia","Street":"Calle de Regueros","HouseNumber":"4","PostalCode":"28004","AdditionalData":[{"value":"España","key":"CountryName"},{"value":"Comunidad de Madrid","key":"StateName"},{"value":"Madrid","key":"CountyName"}]},"MapReference":{"ReferenceId":"68495864","Spot":0.29,"SideOfStreet":"right","CountryId":"20215059","StateId":"20226800","CountyId":"20226801","CityId":"20242802","AddressId":"588642304","RoadLinkId":"66709995"}}},{"Relevance":1.0,"Distance":24.3,"MatchLevel":"houseNumber","MatchQuality":{"Country":1.0,"State":1.0,"County":1.0,"City":1.0,"District":1.0,"Street":[1.0],"HouseNumber":1.0,"PostalCode":1.0},"MatchType":"interpolated","Location":{"LocationId":"NT_wGzHoMyTQ2C2zWN.61Kv9D_1A","LocationType":"point","DisplayPosition":{"Latitude":40.42424,"Longitude":-3.69671},"MapView":{"TopLeft":{"Latitude":40.4253642,"Longitude":-3.6981867},"BottomRight":{"Latitude":40.4231158,"Longitude":-3.6952333}},"Address":{"Label":"Calle de Belén, 5, 28004 Madrid (Madrid), España","Country":"ESP","State":"Comunidad de Madrid","County":"Madrid","City":"Madrid","District":"Justicia","Street":"Calle de Belén","HouseNumber":"5","PostalCode":"28004","AdditionalData":[{"value":"España","key":"CountryName"},{"value":"Comunidad de Madrid","key":"StateName"},{"value":"Madrid","key":"CountyName"}]},"MapReference":{"ReferenceId":"68495887","Spot":0.56,"SideOfStreet":"right","CountryId":"20215059","StateId":"20226800","CountyId":"20226801","CityId":"20242802","AddressId":"588597820","RoadLinkId":"66943751"}}},{"Relevance":1.0,"Distance":26.0,"MatchLevel":"houseNumber","MatchQuality":{"Country":1.0,"State":1.0,"County":1.0,"City":1.0,"District":1.0,"Street":[1.0],"HouseNumber":1.0,"PostalCode":1.0},"MatchType":"interpolated","Location":{"LocationId":"NT_wGzHoMyTQ2C2zWN.61Kv9D_zA","LocationType":"point","DisplayPosition":{"Latitude":40.42431,"Longitude":-3.69691},"MapView":{"TopLeft":{"Latitude":40.4254342,"Longitude":-3.6983867},"BottomRight":{"Latitude":40.4231858,"Longitude":-3.6954333}},"Address":{"Label":"Calle de Belén, 3, 28004 Madrid (Madrid), España","Country":"ESP","State":"Comunidad de Madrid","County":"Madrid","City":"Madrid","District":"Justicia","Street":"Calle de Belén","HouseNumber":"3","PostalCode":"28004","AdditionalData":[{"value":"España","key":"CountryName"},{"value":"Comunidad de Madrid","key":"StateName"},{"value":"Madrid","key":"CountyName"}]},"MapReference":{"ReferenceId":"68495865","Spot":0.08,"SideOfStreet":"right","CountryId":"20215059","StateId":"20226800","CountyId":"20226801","CityId":"20242802","AddressId":"588495744","RoadLinkId":"67077851"}}},{"Relevance":1.0,"Distance":30.7,"MatchLevel":"houseNumber","MatchQuality":{"Country":1.0,"State":1.0,"County":1.0,"City":1.0,"District":1.0,"Street":[1.0],"HouseNumber":1.0,"PostalCode":1.0},"MatchType":"interpolated","Location":{"LocationId":"NT_Gxfn1y2nVBaolgbFd78gqA_3AD","LocationType":"point","DisplayPosition":{"Latitude":40.42467,"Longitude":-3.69708},"MapView":{"TopLeft":{"Latitude":40.4257942,"Longitude":-3.6985567},"BottomRight":{"Latitude":40.4235458,"Longitude":-3.6956033}},"Address":{"Label":"Calle de Pelayo, 70, 28004 Madrid (Madrid), España","Country":"ESP","State":"Comunidad de Madrid","County":"Madrid","City":"Madrid","District":"Justicia","Street":"Calle de Pelayo","HouseNumber":"70","PostalCode":"28004","AdditionalData":[{"value":"España","key":"CountryName"},{"value":"Comunidad de Madrid","key":"StateName"},{"value":"Madrid","key":"CountyName"}]},"MapReference":{"ReferenceId":"68495821","Spot":0.93,"SideOfStreet":"right","CountryId":"20215059","StateId":"20226800","CountyId":"20226801","CityId":"20242802","AddressId":"588574111","RoadLinkId":"66789810"}}},{"Relevance":1.0,"Distance":31.7,"MatchLevel":"houseNumber","MatchQuality":{"Country":1.0,"State":1.0,"County":1.0,"City":1.0,"District":1.0,"Street":[1.0],"HouseNumber":1.0,"PostalCode":1.0},"MatchType":"interpolated","Location":{"LocationId":"NT_Gxfn1y2nVBaolgbFd78gqA_3ID","LocationType":"point","DisplayPosition":{"Latitude":40.42478,"Longitude":-3.69699},"MapView":{"TopLeft":{"Latitude":40.4259042,"Longitude":-3.6984667},"BottomRight":{"Latitude":40.4236558,"Longitude":-3.6955133}},"Address":{"Label":"Calle de Pelayo, 72, 28004 Madrid (Madrid), España","Country":"ESP","State":"Comunidad de Madrid","County":"Madrid","City":"Madrid","District":"Justicia","Street":"Calle de Pelayo","HouseNumber":"72","PostalCode":"28004","AdditionalData":[{"value":"España","key":"CountryName"},{"value":"Comunidad de Madrid","key":"StateName"},{"value":"Madrid","key":"CountyName"}]},"MapReference":{"ReferenceId":"68495759","Spot":0.13,"SideOfStreet":"right","CountryId":"20215059","StateId":"20226800","CountyId":"20226801","CityId":"20242802","AddressId":"588494915","RoadLinkId":"67450111"}}},{"Relevance":1.0,"Distance":36.8,"MatchLevel":"houseNumber","MatchQuality":{"Country":1.0,"State":1.0,"County":1.0,"City":1.0,"District":1.0,"Street":[1.0],"HouseNumber":1.0,"PostalCode":1.0},"MatchType":"interpolated","Location":{"LocationId":"NT_wGzHoMyTQ2C2zWN.61Kv9D_xA","LocationType":"point","DisplayPosition":{"Latitude":40.42438,"Longitude":-3.69709},"MapView":{"TopLeft":{"Latitude":40.4255042,"Longitude":-3.6985667},"BottomRight":{"Latitude":40.4232558,"Longitude":-3.6956133}},"Address":{"Label":"Calle de Belén, 1, 28004 Madrid (Madrid), España","Country":"ESP","State":"Comunidad de Madrid","County":"Madrid","City":"Madrid","District":"Justicia","Street":"Calle de Belén","HouseNumber":"1","PostalCode":"28004","AdditionalData":[{"value":"España","key":"CountryName"},{"value":"Comunidad de Madrid","key":"StateName"},{"value":"Madrid","key":"CountyName"}]},"MapReference":{"ReferenceId":"68495853","Spot":0.26,"SideOfStreet":"right","CountryId":"20215059","StateId":"20226800","CountyId":"20226801","CityId":"20242802","AddressId":"588529971","RoadLinkId":"67334773"}}},{"Relevance":1.0,"Distance":39.3,"MatchLevel":"houseNumber","MatchQuality":{"Country":1.0,"State":1.0,"County":1.0,"City":1.0,"District":1.0,"Street":[1.0],"HouseNumber":1.0,"PostalCode":1.0},"MatchType":"interpolated","Location":{"LocationId":"NT_K5qJ4NibN5P3XQVp5zVccB_xAD","LocationType":"point","DisplayPosition":{"Latitude":40.42425,"Longitude":-3.69706},"MapView":{"TopLeft":{"Latitude":40.4253742,"Longitude":-3.6985367},"BottomRight":{"Latitude":40.4231258,"Longitude":-3.6955833}},"Address":{"Label":"Calle de San Gregorio, 10, 28004 Madrid (Madrid), España","Country":"ESP","State":"Comunidad de Madrid","County":"Madrid","City":"Madrid","District":"Justicia","Street":"Calle de San Gregorio","HouseNumber":"10","PostalCode":"28004","AdditionalData":[{"value":"España","key":"CountryName"},{"value":"Comunidad de Madrid","key":"StateName"},{"value":"Madrid","key":"CountyName"}]},"MapReference":{"ReferenceId":"1236335752","Spot":0.71,"SideOfStreet":"right","CountryId":"20215059","StateId":"20226800","CountyId":"20226801","CityId":"20242802","AddressId":"588518665","RoadLinkId":"556960447"}}},{"Relevance":1.0,"Distance":41.4,"MatchLevel":"houseNumber","MatchQuality":{"Country":1.0,"State":1.0,"County":1.0,"City":1.0,"District":1.0,"Street":[1.0],"HouseNumber":1.0,"PostalCode":1.0},"MatchType":"interpolated","Location":{"LocationId":"NT_wGzHoMyTQ2C2zWN.61Kv9D_3A","LocationType":"point","DisplayPosition":{"Latitude":40.42419,"Longitude":-3.6964},"MapView":{"TopLeft":{"Latitude":40.4253142,"Longitude":-3.6978767},"BottomRight":{"Latitude":40.4230658,"Longitude":-3.6949233}},"Address":{"Label":"Calle de Belén, 7, 28004 Madrid (Madrid), España","Country":"ESP","State":"Comunidad de Madrid","County":"Madrid","City":"Madrid","District":"Justicia","Street":"Calle de Belén","HouseNumber":"7","PostalCode":"28004","AdditionalData":[{"value":"España","key":"CountryName"},{"value":"Comunidad de Madrid","key":"StateName"},{"value":"Madrid","key":"CountyName"}]},"MapReference":{"ReferenceId":"68495890","Spot":0.07,"SideOfStreet":"left","CountryId":"20215059","StateId":"20226800","CountyId":"20226801","CityId":"20242802","AddressId":"588556178","RoadLinkId":"66638378"}}},{"Relevance":1.0,"Distance":45.0,"MatchLevel":"houseNumber","MatchQuality":{"Country":1.0,"State":1.0,"County":1.0,"City":1.0,"District":1.0,"Street":[1.0],"HouseNumber":1.0,"PostalCode":1.0},"MatchType":"interpolated","Location":{"LocationId":"NT_wAJom-e25dy2MrbDZP07EB_xcD","LocationType":"point","DisplayPosition":{"Latitude":40.42471,"Longitude":-3.69712},"MapView":{"TopLeft":{"Latitude":40.4258342,"Longitude":-3.6985967},"BottomRight":{"Latitude":40.4235858,"Longitude":-3.6956433}},"Address":{"Label":"Travesía de San Mateo, 17, 28004 Madrid (Madrid), España","Country":"ESP","State":"Comunidad de Madrid","County":"Madrid","City":"Madrid","District":"Justicia","Street":"Travesía de San Mateo","HouseNumber":"17","PostalCode":"28004","AdditionalData":[{"value":"España","key":"CountryName"},{"value":"Comunidad de Madrid","key":"StateName"},{"value":"Madrid","key":"CountyName"}]},"MapReference":{"ReferenceId":"68495760","Spot":0.07,"SideOfStreet":"right","CountryId":"20215059","StateId":"20226800","CountyId":"20226801","CityId":"20242802","AddressId":"588669145","RoadLinkId":"67712861"}}}]}]}}