{"Response":{"MetaInfo":{"Timestamp":"2020-03-28T11:33:07.188+0000","NextPageInformation":"2"},"View":[{"_type":"SearchResultsViewType","ViewId":0,"Result":[{"Relevance":1.0,"Distance":0.0,"Direction":0.0,"MatchLevel":"district","MatchQuality":{"Country":1.0,"County":1.0,"City":1.0,"District":1.0,"PostalCode":1.0},"Location":{"LocationId":"NT_J3RnvzzWkfueNAkJrfb7WD","LocationType":"point","DisplayPosition":{"Latitude":40.4012183,"Longitude":-8.6298927},"MapView":{"TopLeft":{"Latitude":40.40568,"Longitude":-8.6339},"BottomRight":{"Latitude":40.39405,"Longitude":-8.62078}},"Address":{"Label":"Febres, Cantanhede, Portugal","Country":"PRT","County":"Coimbra","City":"Cantanhede","District":"Febres","PostalCode":"3060-318","AdditionalData":[{"value":"Portugal","key":"CountryName"},{"value":"Coimbra","key":"CountyName"}]},"MapReference":{"ReferenceId":"588607267","SideOfStreet":"neither","CountryId":"20317122","CountyId":"20318498","CityId":"20318518","DistrictId":"20318525"}}},{"Relevance":1.0,"Distance":32.1,"MatchLevel":"houseNumber","MatchQuality":{"Country":1.0,"County":1.0,"City":1.0,"District":1.0,"Street":[1.0],"HouseNumber":1.0,"PostalCode":1.0},"MatchType":"interpolated","Location":{"LocationId":"NT_JYRqNEpfBEi-YxsJoA--zA_0A","LocationType":"point","DisplayPosition":{"Latitude":40.40093,"Longitude":-8.6299},"MapView":{"TopLeft":{"Latitude":40.4020542,"Longitude":-8.6313762},"BottomRight":{"Latitude":40.3998058,"Longitude":-8.6284238}},"Address":{"Label":"Rua Eng. João Simões Cucio 4, 3060-318 Cantanhede, Portugal","Country":"PRT","County":"Coimbra","City":"Cantanhede","District":"Febres","Street":"Rua Eng. João Simões Cucio","HouseNumber":"4","PostalCode":"3060-318","AdditionalData":[{"value":"Portugal","key":"CountryName"},{"value":"Coimbra","key":"CountyName"}]},"MapReference":{"ReferenceId":"588714133","Spot":0.11,"SideOfStreet":"right","CountryId":"20317122","CountyId":"20318498","CityId":"20318518","DistrictId":"20318525","AddressId":"343741555","RoadLinkId":"70457736"}}},{"Relevance":1.0,"Distance":33.5,"MatchLevel":"houseNumber","MatchQuality":{"Country":1.0,"County":1.0,"City":1.0,"District":1.0,"Street":[1.0],"HouseNumber":1.0,"PostalCode":1.0},"MatchType":"interpolated","Location":{"LocationId":"NT_vKtXfpat3v5wm2.B6YWYtB_l_588611370_L_yUD","LocationType":"point","DisplayPosition":{"Latitude":40.4007974,"Longitude":-8.6299751},"MapView":{"TopLeft":{"Latitude":40.4019215,"Longitude":-8.6314513},"BottomRight":{"Latitude":40.3996732,"Longitude":-8.6284989}},"Address":{"Label":"Praça Florindo José Frota 25, 3060-318 Cantanhede, Portugal","Country":"PRT","County":"Coimbra","City":"Cantanhede","District":"Febres","Street":"Praça Florindo José Frota","HouseNumber":"25","PostalCode":"3060-318","AdditionalData":[{"value":"Portugal","key":"CountryName"},{"value":"Coimbra","key":"CountyName"}]},"MapReference":{"ReferenceId":"588611370","Spot":0.53,"SideOfStreet":"left","CountryId":"20317122","CountyId":"20318498","CityId":"20318518","DistrictId":"20318525"}}},{"Relevance":1.0,"Distance":41.4,"MatchLevel":"street","MatchQuality":{"Country":1.0,"County":1.0,"City":1.0,"District":1.0,"Street":[1.0],"PostalCode":1.0},"Location":{"LocationId":"NT_SN0NEDgwj.PCZHhgHNz4oD_l_588611371_L","LocationType":"point","DisplayPosition":{"Latitude":40.4008605,"Longitude":-8.6297585},"MapView":{"TopLeft":{"Latitude":40.401,"Longitude":-8.62984},"BottomRight":{"Latitude":40.40083,"Longitude":-8.6294}},"Address":{"Label":"Rua Doutor Laura Abrantes Costa Soares, 3060-318 Cantanhede, Portugal","Country":"PRT","County":"Coimbra","City":"Cantanhede","District":"Febres","Street":"Rua Doutor Laura Abrantes Costa Soares","PostalCode":"3060-318","AdditionalData":[{"value":"Portugal","key":"CountryName"},{"value":"Coimbra","key":"CountyName"}]},"MapReference":{"ReferenceId":"588611371","Spot":0.18,"SideOfStreet":"left","CountryId":"20317122","CountyId":"20318498","CityId":"20318518","DistrictId":"20318525"}}},{"Relevance":1.0,"Distance":46.6,"MatchLevel":"houseNumber","MatchQuality":{"Country":1.0,"County":1.0,"City":1.0,"District":1.0,"Street":[1.0],"HouseNumber":1.0,"PostalCode":1.0},"MatchType":"interpolated","Location":{"LocationId":"NT_vKtXfpat3v5wm2.B6YWYtB_yMD","LocationType":"point","DisplayPosition":{"Latitude":40.4008,"Longitude":-8.62987},"MapView":{"TopLeft":{"Latitude":40.4019242,"Longitude":-8.6313462},"BottomRight":{"Latitude":40.3996758,"Longitude":-8.6283938}},"Address":{"Label":"Praça Florindo José Frota 23, 3060-318 Cantanhede, Portugal","Country":"PRT","County":"Coimbra","City":"Cantanhede","District":"Febres","Street":"Praça Florindo José Frota","HouseNumber":"23","PostalCode":"3060-318","AdditionalData":[{"value":"Portugal","key":"CountryName"},{"value":"Coimbra","key":"CountyName"}]},"MapReference":{"ReferenceId":"588714134","Spot":0.73,"SideOfStreet":"right","CountryId":"20317122","CountyId":"20318498","CityId":"20318518","DistrictId":"20318525","AddressId":"343634872","RoadLinkId":"70029814"}}},{"Relevance":1.0,"Distance":48.3,"MatchLevel":"street","MatchQuality":{"Country":1.0,"County":1.0,"City":1.0,"District":1.0,"PostalCode":1.0},"Location":{"LocationId":"NT_bbvfRSgkHPpoTGwSh7TMTB_l_588714131_R","LocationType":"point","DisplayPosition":{"Latitude":40.401,"Longitude":-8.6294},"MapView":{"TopLeft":{"Latitude":40.40111,"Longitude":-8.6294},"BottomRight":{"Latitude":40.40088,"Longitude":-8.62872}},"Address":{"Label":"3060-318 Cantanhede, Portugal","Country":"PRT","County":"Coimbra","City":"Cantanhede","District":"Febres","PostalCode":"3060-318","AdditionalData":[{"value":"Portugal","key":"CountryName"},{"value":"Coimbra","key":"CountyName"}]},"MapReference":{"ReferenceId":"588714131","Spot":0.0,"SideOfStreet":"right","CountryId":"20317122","CountyId":"20318498","CityId":"20318518","DistrictId":"20318525"}}},{"Relevance":1.0,"Distance":50.2,"MatchLevel":"houseNumber","MatchQuality":{"Country":1.0,"County":1.0,"City":1.0,"District":1.0,"Street":[1.0],"HouseNumber":1.0,"PostalCode":1.0},"MatchType":"interpolated","Location":{"LocationId":"NT_vKtXfpat3v5wm2.B6YWYtB_yUD","LocationType":"point","DisplayPosition":{"Latitude":40.40074,"Longitude":-8.63025},"MapView":{"TopLeft":{"Latitude":40.4018642,"Longitude":-8.6317262},"BottomRight":{"Latitude":40.3996158,"Longitude":-8.6287738}},"Address":{"Label":"Praça Florindo José Frota 25, 3060-318 Cantanhede, Portugal","Country":"PRT","County":"Coimbra","City":"Cantanhede","District":"Febres","Street":"Praça Florindo José Frota","HouseNumber":"25","PostalCode":"3060-318","AdditionalData":[{"value":"Portugal","key":"CountryName"},{"value":"Coimbra","key":"CountyName"}]},"MapReference":{"ReferenceId":"553198727","Spot":1.0,"SideOfStreet":"left","CountryId":"20317122","CountyId":"20318498","CityId":"20318518","DistrictId":"20318525","AddressId":"343908525","RoadLinkId":"69457775"}}},{"Relevance":1.0,"Distance":53.5,"MatchLevel":"street","MatchQuality":{"Country":1.0,"County":1.0,"City":1.0,"District":1.0,"PostalCode":1.0},"Location":{"LocationId":"NT_bbvfRSgkHPpoTGwSh7TMTB_l_590546912_R","LocationType":"point","DisplayPosition":{"Latitude":40.4007452,"Longitude":-8.630011},"MapView":{"TopLeft":{"Latitude":40.40076,"Longitude":-8.63013},"BottomRight":{"Latitude":40.40072,"Longitude":-8.62995}},"Address":{"Label":"3060-318 Cantanhede, Portugal","Country":"PRT","County":"Coimbra","City":"Cantanhede","District":"Febres","PostalCode":"3060-318","AdditionalData":[{"value":"Portugal","key":"CountryName"},{"value":"Coimbra","key":"CountyName"}]},"MapReference":{"ReferenceId":"590546912","Spot":0.35,"SideOfStreet":"right","CountryId":"20317122","CountyId":"20318498","CityId":"20318518","DistrictId":"20318525"}}},{"Relevance":1.0,"Distance":54.8,"MatchLevel":"street","MatchQuality":{"Country":1.0,"County":1.0,"City":1.0,"District":1.0,"PostalCode":1.0},"Location":{"LocationId":"NT_bbvfRSgkHPpoTGwSh7TMTB_l_590546914_L","LocationType":"point","DisplayPosition":{"Latitude":40.40076,"Longitude":-8.63013},"MapView":{"TopLeft":{"Latitude":40.40076,"Longitude":-8.63025},"BottomRight":{"Latitude":40.40074,"Longitude":-8.63013}},"Address":{"Label":"3060-318 Cantanhede, Portugal","Country":"PRT","County":"Coimbra","City":"Cantanhede","District":"Febres","PostalCode":"3060-318","AdditionalData":[{"value":"Portugal","key":"CountryName"},{"value":"Coimbra","key":"CountyName"}]},"MapReference":{"ReferenceId":"590546914","Spot":1.0,"SideOfStreet":"left","CountryId":"20317122","CountyId":"20318498","CityId":"20318518","DistrictId":"20318525"}}},{"Relevance":1.0,"Distance":55.6,"MatchLevel":"street","MatchQuality":{"Country":1.0,"County":1.0,"City":1.0,"District":1.0,"PostalCode":1.0},"Location":{"LocationId":"NT_bbvfRSgkHPpoTGwSh7TMTB_l_591351750_R","LocationType":"point","DisplayPosition":{"Latitude":40.40072,"Longitude":-8.62995},"MapView":{"TopLeft":{"Latitude":40.40072,"Longitude":-8.62995},"BottomRight":{"Latitude":40.40069,"Longitude":-8.62992}},"Address":{"Label":"3060-318 Cantanhede, Portugal","Country":"PRT","County":"Coimbra","City":"Cantanhede","District":"Febres","PostalCode":"3060-318","AdditionalData":[{"value":"Portugal","key":"CountryName"},{"value":"Coimbra","key":"CountyName"}]},"MapReference":{"ReferenceId":"591351750","Spot":1.0,"SideOfStreet":"right","CountryId":"20317122","CountyId":"20318498","CityId":"20318518","DistrictId":"20318525"}}}]}]}}