{"Response":{"MetaInfo":{"Timestamp":"2020-03-28T09:41:57.821+0000","NextPageInformation":"2"},"View":[{"_type":"SearchResultsViewType","ViewId":0,"Result":[{"Relevance":1.0,"Distance":0.0,"Direction":0.0,"MatchLevel":"district","MatchQuality":{"Country":1.0,"State":1.0,"County":1.0,"City":1.0,"District":1.0,"PostalCode":1.0},"Location":{"LocationId":"NT_l59WPcWk644zYmJLl5FDsD","LocationType":"point","DisplayPosition":{"Latitude":40.4823924,"Longitude":-3.6638621},"MapView":{"TopLeft":{"Latitude":40.48411,"Longitude":-3.67453},"BottomRight":{"Latitude":40.46678,"Longitude":-3.65965}},"Address":{"Label":"Costillares, Madrid, Comunidad de Madrid, España","Country":"ESP","State":"Comunidad de Madrid","County":"Madrid","City":"Madrid","District":"Costillares","PostalCode":"28033","AdditionalData":[{"value":"España","key":"CountryName"},{"value":"Comunidad de Madrid","key":"StateName"},{"value":"Madrid","key":"CountyName"}]},"MapReference":{"ReferenceId":"995997830","SideOfStreet":"neither","CountryId":"20215059","StateId":"20226800","CountyId":"20226801","CityId":"20242802"}}},{"Relevance":1.0,"Distance":16.6,"MatchLevel":"houseNumber","MatchQuality":{"Country":1.0,"State":1.0,"County":1.0,"City":1.0,"District":1.0,"Street":[1.0],"HouseNumber":1.0,"PostalCode":1.0},"MatchType":"interpolated","Location":{"LocationId":"NT_2SJZDQq-mwb6FpK6kxH22D_0A","LocationType":"point","DisplayPosition":{"Latitude":40.4825,"Longitude":-3.66364},"MapView":{"TopLeft":{"Latitude":40.4836242,"Longitude":-3.665118},"BottomRight":{"Latitude":40.4813758,"Longitude":-3.662162}},"Address":{"Label":"Calle del Laúd, 4, 28033 Madrid (Madrid), España","Country":"ESP","State":"Comunidad de Madrid","County":"Madrid","City":"Madrid","District":"Costillares","Street":"Calle del Laúd","HouseNumber":"4","PostalCode":"28033","AdditionalData":[{"value":"España","key":"CountryName"},{"value":"Comunidad de Madrid","key":"StateName"},{"value":"Madrid","key":"CountyName"}]},"MapReference":{"ReferenceId":"68530401","Spot":0.44,"SideOfStreet":"left","CountryId":"20215059","StateId":"20226800","CountyId":"20226801","CityId":"20242802","AddressId":"588653980","RoadLinkId":"67688609"}}},{"Relevance":1.0,"Distance":23.0,"MatchLevel":"houseNumber","MatchQuality":{"Country":1.0,"State":1.0,"County":1.0,"City":1.0,"District":1.0,"Street":[1.0],"HouseNumber":1.0,"PostalCode":1.0},"MatchType":"interpolated","Location":{"LocationId":"NT_Jksrz71wDJOcU7wkHCFS-C_1A","LocationType":"point","DisplayPosition":{"Latitude":40.48199,"Longitude":-3.66427},"MapView":{"TopLeft":{"Latitude":40.4831142,"Longitude":-3.665748},"BottomRight":{"Latitude":40.4808658,"Longitude":-3.662792}},"Address":{"Label":"Calle del Oboe, 5, 28033 Madrid (Madrid), España","Country":"ESP","State":"Comunidad de Madrid","County":"Madrid","City":"Madrid","District":"Costillares","Street":"Calle del Oboe","HouseNumber":"5","PostalCode":"28033","AdditionalData":[{"value":"España","key":"CountryName"},{"value":"Comunidad de Madrid","key":"StateName"},{"value":"Madrid","key":"CountyName"}]},"MapReference":{"ReferenceId":"1238065903","Spot":1.0,"SideOfStreet":"right","CountryId":"20215059","StateId":"20226800","CountyId":"20226801","CityId":"20242802","AddressId":"588553332","RoadLinkId":"558857424"}}},{"Relevance":1.0,"Distance":27.5,"MatchLevel":"houseNumber","MatchQuality":{"Country":1.0,"State":1.0,"County":1.0,"City":1.0,"District":1.0,"Street":[1.0],"HouseNumber":1.0,"PostalCode":1.0},"MatchType":"interpolated","Location":{"LocationId":"NT_VkEpvmMbC.NJW-VmaNA0WA_zQDN","LocationType":"point","DisplayPosition":{"Latitude":40.48254,"Longitude":-3.66451},"MapView":{"TopLeft":{"Latitude":40.4836642,"Longitude":-3.665988},"BottomRight":{"Latitude":40.4814158,"Longitude":-3.663032}},"Address":{"Label":"Calle de Arturo Soria, 344, 28033 Madrid (Madrid), España","Country":"ESP","State":"Comunidad de Madrid","County":"Madrid","City":"Madrid","District":"Costillares","Street":"Calle de Arturo Soria","HouseNumber":"344","PostalCode":"28033","AdditionalData":[{"value":"España","key":"CountryName"},{"value":"Comunidad de Madrid","key":"StateName"},{"value":"Madrid","key":"CountyName"}]},"MapReference":{"ReferenceId":"68530408","Spot":0.87,"SideOfStreet":"right","CountryId":"20215059","StateId":"20226800","CountyId":"20226801","CityId":"20242802","AddressId":"588643845","RoadLinkId":"67587026"}}},{"Relevance":1.0,"Distance":40.2,"MatchLevel":"houseNumber","MatchQuality":{"Country":1.0,"State":1.0,"County":1.0,"City":1.0,"District":1.0,"Street":[1.0],"HouseNumber":1.0,"PostalCode":1.0},"MatchType":"interpolated","Location":{"LocationId":"NT_VkEpvmMbC.NJW-VmaNA0WA_zQDO","LocationType":"point","DisplayPosition":{"Latitude":40.48279,"Longitude":-3.66421},"MapView":{"TopLeft":{"Latitude":40.4839142,"Longitude":-3.665688},"BottomRight":{"Latitude":40.4816658,"Longitude":-3.662732}},"Address":{"Label":"Calle de Arturo Soria, 348, 28033 Madrid (Madrid), España","Country":"ESP","State":"Comunidad de Madrid","County":"Madrid","City":"Madrid","District":"Costillares","Street":"Calle de Arturo Soria","HouseNumber":"348","PostalCode":"28033","AdditionalData":[{"value":"España","key":"CountryName"},{"value":"Comunidad de Madrid","key":"StateName"},{"value":"Madrid","key":"CountyName"}]},"MapReference":{"ReferenceId":"995583320","Spot":0.21,"SideOfStreet":"right","CountryId":"20215059","StateId":"20226800","CountyId":"20226801","CityId":"20242802","AddressId":"588659630","RoadLinkId":"323301378"}}},{"Relevance":1.0,"Distance":41.5,"MatchLevel":"houseNumber","MatchQuality":{"Country":1.0,"State":1.0,"County":1.0,"City":1.0,"District":1.0,"Street":[1.0],"HouseNumber":1.0,"PostalCode":1.0},"MatchType":"interpolated","Location":{"LocationId":"NT_Jksrz71wDJOcU7wkHCFS-C_3A","LocationType":"point","DisplayPosition":{"Latitude":40.48199,"Longitude":-3.66433},"MapView":{"TopLeft":{"Latitude":40.4831142,"Longitude":-3.665808},"BottomRight":{"Latitude":40.4808658,"Longitude":-3.662852}},"Address":{"Label":"Calle del Oboe, 7, 28033 Madrid (Madrid), España","Country":"ESP","State":"Comunidad de Madrid","County":"Madrid","City":"Madrid","District":"Costillares","Street":"Calle del Oboe","HouseNumber":"7","PostalCode":"28033","AdditionalData":[{"value":"España","key":"CountryName"},{"value":"Comunidad de Madrid","key":"StateName"},{"value":"Madrid","key":"CountyName"}]},"MapReference":{"ReferenceId":"1238065904","Spot":0.08,"SideOfStreet":"right","CountryId":"20215059","StateId":"20226800","CountyId":"20226801","CityId":"20242802","AddressId":"588553330","RoadLinkId":"558857425"}}},{"Relevance":1.0,"Distance":43.4,"MatchLevel":"landmark","MatchQuality":{"Country":1.0,"State":1.0,"County":1.0,"City":1.0,"PostalCode":1.0,"Name":1.0},"Location":{"LocationId":"NT_5yyRk0FuzxHannJXcToTKC","LocationType":"park","Name":"Parque de la Cornisa-Jardín Jazmín","DisplayPosition":{"Latitude":40.48197,"Longitude":-3.65866},"MapView":{"TopLeft":{"Latitude":40.48321,"Longitude":-3.6643},"BottomRight":{"Latitude":40.48072,"Longitude":-3.6553}},"Address":{"Label":"28014 Madrid (Madrid), España","Country":"ESP","State":"Comunidad de Madrid","County":"Madrid","City":"Madrid","PostalCode":"28014","AdditionalData":[{"value":"España","key":"CountryName"},{"value":"Comunidad de Madrid","key":"StateName"},{"value":"Madrid","key":"CountyName"}]},"MapReference":{"CountryId":"20215059","StateId":"20226800","CountyId":"20226801","CityId":"20242802","PlaceId":"1446603265"}}},{"Relevance":1.0,"Distance":48.2,"MatchLevel":"houseNumber","MatchQuality":{"Country":1.0,"State":1.0,"County":1.0,"City":1.0,"District":1.0,"Street":[1.0],"HouseNumber":1.0,"PostalCode":1.0},"MatchType":"interpolated","Location":{"LocationId":"NT_ai2plJqnzzlp8.EosOF-SA_zED","LocationType":"point","DisplayPosition":{"Latitude":40.48177,"Longitude":-3.66361},"MapView":{"TopLeft":{"Latitude":40.4828942,"Longitude":-3.665088},"BottomRight":{"Latitude":40.4806458,"Longitude":-3.662132}},"Address":{"Label":"Calle Jazmín, 31, 28033 Madrid (Madrid), España","Country":"ESP","State":"Comunidad de Madrid","County":"Madrid","City":"Madrid","District":"Costillares","Street":"Calle Jazmín","HouseNumber":"31","PostalCode":"28033","AdditionalData":[{"value":"España","key":"CountryName"},{"value":"Comunidad de Madrid","key":"StateName"},{"value":"Madrid","key":"CountyName"}]},"MapReference":{"ReferenceId":"68530416","Spot":0.15,"SideOfStreet":"left","CountryId":"20215059","StateId":"20226800","CountyId":"20226801","CityId":"20242802","AddressId":"588628171","RoadLinkId":"66765515"}}},{"Relevance":1.0,"Distance":50.2,"MatchLevel":"street","MatchQuality":{"Country":1.0,"State":1.0,"County":1.0,"City":1.0,"District":1.0,"PostalCode":1.0},"Location":{"LocationId":"NT_Nx93lBKWHpXQVrHZu.xAUA_l_1238069106_R","LocationType":"point","DisplayPosition":{"Latitude":40.48197,"Longitude":-3.66407},"MapView":{"TopLeft":{"Latitude":40.48199,"Longitude":-3.66427},"BottomRight":{"Latitude":40.48193,"Longitude":-3.66405}},"Address":{"Label":"28033 Madrid (Madrid), España","Country":"ESP","State":"Comunidad de Madrid","County":"Madrid","City":"Madrid","District":"Costillares","PostalCode":"28033","AdditionalData":[{"value":"España","key":"CountryName"},{"value":"Comunidad de Madrid","key":"StateName"},{"value":"Madrid","key":"CountyName"}]},"MapReference":{"ReferenceId":"1238069106","Spot":0.18,"SideOfStreet":"right","CountryId":"20215059","StateId":"20226800","CountyId":"20226801","CityId":"20242802"}}},{"Relevance":1.0,"Distance":51.9,"MatchLevel":"street","MatchQuality":{"Country":1.0,"State":1.0,"County":1.0,"City":1.0,"District":1.0,"Street":[1.0],"PostalCode":1.0},"Location":{"LocationId":"NT_VkEpvmMbC.NJW-VmaNA0WA_l_68538052_R","LocationType":"point","DisplayPosition":{"Latitude":40.48272,"Longitude":-3.6643},"MapView":{"TopLeft":{"Latitude":40.48272,"Longitude":-3.66443},"BottomRight":{"Latitude":40.48261,"Longitude":-3.6643}},"Address":{"Label":"Calle de Arturo Soria, 28033 Madrid (Madrid), España","Country":"ESP","State":"Comunidad de Madrid","County":"Madrid","City":"Madrid","District":"Costillares","Street":"Calle de Arturo Soria","PostalCode":"28033","AdditionalData":[{"value":"España","key":"CountryName"},{"value":"Comunidad de Madrid","key":"StateName"},{"value":"Madrid","key":"CountyName"}]},"MapReference":{"ReferenceId":"68538052","Spot":1.0,"SideOfStreet":"right","CountryId":"20215059","StateId":"20226800","CountyId":"20226801","CityId":"20242802"}}}]}]}}