{"Response":{"MetaInfo":{"Timestamp":"2020-03-28T11:33:33.133+0000","NextPageInformation":"2"},"View":[{"_type":"SearchResultsViewType","ViewId":0,"Result":[{"Relevance":1.0,"Distance":0.0,"Direction":0.0,"MatchLevel":"district","MatchQuality":{"Country":1.0,"County":1.0,"City":1.0,"District":1.0,"PostalCode":1.0},"Location":{"LocationId":"NT_zzk8XKILWYJOU6xM9MndVB","LocationType":"point","DisplayPosition":{"Latitude":40.4219812,"Longitude":-8.5213172},"MapView":{"TopLeft":{"Latitude":40.43297,"Longitude":-8.53806},"BottomRight":{"Latitude":40.41619,"Longitude":-8.50791}},"Address":{"Label":"Vilarinho do Bairro, Anadia, Portugal","Country":"PRT","County":"Aveiro","City":"Anadia","District":"Vilarinho do Bairro","PostalCode":"3780-599","AdditionalData":[{"value":"Portugal","key":"CountryName"},{"value":"Aveiro","key":"CountyName"}]},"MapReference":{"ReferenceId":"948050839","SideOfStreet":"neither","CountryId":"20317122","CountyId":"20317149","CityId":"20317180","DistrictId":"20570584"}}},{"Relevance":1.0,"Distance":6.4,"MatchLevel":"street","MatchQuality":{"Country":1.0,"County":1.0,"City":1.0,"District":1.0,"Street":[1.0],"PostalCode":1.0},"Location":{"LocationId":"NT_nkdfMd8X6jGVZpVeS6tp8A_l_587753928_R","LocationType":"point","DisplayPosition":{"Latitude":40.4219471,"Longitude":-8.5213776},"MapView":{"TopLeft":{"Latitude":40.42247,"Longitude":-8.52165},"BottomRight":{"Latitude":40.4215,"Longitude":-8.52107}},"Address":{"Label":"Rua do Paço, 3780-599 Anadia, Portugal","Country":"PRT","County":"Aveiro","City":"Anadia","District":"Vilarinho do Bairro","Street":"Rua do Paço","PostalCode":"3780-599","AdditionalData":[{"value":"Portugal","key":"CountryName"},{"value":"Aveiro","key":"CountyName"}]},"MapReference":{"ReferenceId":"587753928","Spot":0.48,"SideOfStreet":"right","CountryId":"20317122","CountyId":"20317149","CityId":"20317180","DistrictId":"20570584"}}},{"Relevance":1.0,"Distance":57.5,"MatchLevel":"street","MatchQuality":{"Country":1.0,"County":1.0,"City":1.0,"District":1.0,"Street":[1.0],"PostalCode":1.0},"Location":{"LocationId":"NT_Vyj2VU0xJvyZP6-7TBJQLA_l_948478165_L","LocationType":"point","DisplayPosition":{"Latitude":40.4215,"Longitude":-8.52107},"MapView":{"TopLeft":{"Latitude":40.42169,"Longitude":-8.52107},"BottomRight":{"Latitude":40.4215,"Longitude":-8.52051}},"Address":{"Label":"Rua da Vila, 3780-599 Anadia, Portugal","Country":"PRT","County":"Aveiro","City":"Anadia","District":"Vilarinho do Bairro","Street":"Rua da Vila","PostalCode":"3780-599","AdditionalData":[{"value":"Portugal","key":"CountryName"},{"value":"Aveiro","key":"CountyName"}]},"MapReference":{"ReferenceId":"948478165","Spot":0.0,"SideOfStreet":"left","CountryId":"20317122","CountyId":"20317149","CityId":"20317180","DistrictId":"20570584"}}},{"Relevance":1.0,"Distance":58.0,"MatchLevel":"street","MatchQuality":{"Country":1.0,"County":1.0,"City":1.0,"District":1.0,"Street":[1.0],"PostalCode":1.0},"Location":{"LocationId":"NT_Vyj2VU0xJvyZP6-7TBJQLA_l_948497390_L","LocationType":"point","DisplayPosition":{"Latitude":40.4214852,"Longitude":-8.5211046},"MapView":{"TopLeft":{"Latitude":40.4215,"Longitude":-8.52121},"BottomRight":{"Latitude":40.42143,"Longitude":-8.52107}},"Address":{"Label":"Rua da Vila, 3780-599 Anadia, Portugal","Country":"PRT","County":"Aveiro","City":"Anadia","District":"Vilarinho do Bairro","Street":"Rua da Vila","PostalCode":"3780-599","AdditionalData":[{"value":"Portugal","key":"CountryName"},{"value":"Aveiro","key":"CountyName"}]},"MapReference":{"ReferenceId":"948497390","Spot":0.76,"SideOfStreet":"left","CountryId":"20317122","CountyId":"20317149","CityId":"20317180","DistrictId":"20570584"}}},{"Relevance":1.0,"Distance":61.2,"MatchLevel":"street","MatchQuality":{"Country":1.0,"County":1.0,"City":1.0,"District":1.0,"Street":[1.0],"PostalCode":1.0},"Location":{"LocationId":"NT_nkdfMd8X6jGVZpVeS6tp8A_l_587753926_L","LocationType":"point","DisplayPosition":{"Latitude":40.42247,"Longitude":-8.52165},"MapView":{"TopLeft":{"Latitude":40.42295,"Longitude":-8.52192},"BottomRight":{"Latitude":40.42247,"Longitude":-8.52165}},"Address":{"Label":"Rua do Paço, 3780-599 Anadia, Portugal","Country":"PRT","County":"Aveiro","City":"Anadia","District":"Vilarinho do Bairro","Street":"Rua do Paço","PostalCode":"3780-599","AdditionalData":[{"value":"Portugal","key":"CountryName"},{"value":"Aveiro","key":"CountyName"}]},"MapReference":{"ReferenceId":"587753926","Spot":0.0,"SideOfStreet":"left","CountryId":"20317122","CountyId":"20317149","CityId":"20317180","DistrictId":"20570584"}}},{"Relevance":1.0,"Distance":62.0,"MatchLevel":"street","MatchQuality":{"Country":1.0,"County":1.0,"City":1.0,"District":1.0,"Street":[1.0],"PostalCode":1.0},"Location":{"LocationId":"NT_Vyj2VU0xJvyZP6-7TBJQLA_l_948497389_L","LocationType":"point","DisplayPosition":{"Latitude":40.42143,"Longitude":-8.52121},"MapView":{"TopLeft":{"Latitude":40.42143,"Longitude":-8.52158},"BottomRight":{"Latitude":40.42114,"Longitude":-8.52121}},"Address":{"Label":"Rua da Vila, 3780-599 Anadia, Portugal","Country":"PRT","County":"Aveiro","City":"Anadia","District":"Vilarinho do Bairro","Street":"Rua da Vila","PostalCode":"3780-599","AdditionalData":[{"value":"Portugal","key":"CountryName"},{"value":"Aveiro","key":"CountyName"}]},"MapReference":{"ReferenceId":"948497389","Spot":1.0,"SideOfStreet":"left","CountryId":"20317122","CountyId":"20317149","CityId":"20317180","DistrictId":"20570584"}}},{"Relevance":1.0,"Distance":62.2,"MatchLevel":"street","MatchQuality":{"Country":1.0,"County":1.0,"City":1.0,"District":1.0,"Street":[1.0],"PostalCode":1.0},"Location":{"LocationId":"NT_o.avnwdvWs9zJef67mc9.A_l_587753925_R","LocationType":"point","DisplayPosition":{"Latitude":40.422496,"Longitude":-8.5216032},"MapView":{"TopLeft":{"Latitude":40.42274,"Longitude":-8.52165},"BottomRight":{"Latitude":40.42247,"Longitude":-8.52124}},"Address":{"Label":"Largo da Escola, 3780-606 Anadia, Portugal","Country":"PRT","County":"Aveiro","City":"Anadia","District":"Vilarinho do Bairro","Street":"Largo da Escola","PostalCode":"3780-606","AdditionalData":[{"value":"Portugal","key":"CountryName"},{"value":"Aveiro","key":"CountyName"}]},"MapReference":{"ReferenceId":"587753925","Spot":0.11,"SideOfStreet":"right","CountryId":"20317122","CountyId":"20317149","CityId":"20317180","DistrictId":"20570584"}}},{"Relevance":1.0,"Distance":75.6,"MatchLevel":"street","MatchQuality":{"Country":1.0,"County":1.0,"City":1.0,"District":1.0,"Street":[1.0],"PostalCode":1.0},"Location":{"LocationId":"NT_Vyj2VU0xJvyZP6-7TBJQLA_l_948478166_L","LocationType":"point","DisplayPosition":{"Latitude":40.42169,"Longitude":-8.52051},"MapView":{"TopLeft":{"Latitude":40.42175,"Longitude":-8.52051},"BottomRight":{"Latitude":40.42169,"Longitude":-8.52031}},"Address":{"Label":"Rua da Vila, 3780-599 Anadia, Portugal","Country":"PRT","County":"Aveiro","City":"Anadia","District":"Vilarinho do Bairro","Street":"Rua da Vila","PostalCode":"3780-599","AdditionalData":[{"value":"Portugal","key":"CountryName"},{"value":"Aveiro","key":"CountyName"}]},"MapReference":{"ReferenceId":"948478166","Spot":0.0,"SideOfStreet":"left","CountryId":"20317122","CountyId":"20317149","CityId":"20317180","DistrictId":"20570584"}}},{"Relevance":1.0,"Distance":81.1,"MatchLevel":"street","MatchQuality":{"Country":1.0,"County":1.0,"City":1.0,"District":1.0,"Street":[1.0],"PostalCode":1.0},"Location":{"LocationId":"NT_BYnq29VXnol7AJQGi0F9fA_l_587735437_L","LocationType":"point","DisplayPosition":{"Latitude":40.422689,"Longitude":-8.5210848},"MapView":{"TopLeft":{"Latitude":40.42274,"Longitude":-8.52124},"BottomRight":{"Latitude":40.42222,"Longitude":-8.5188}},"Address":{"Label":"Rua da Cotovia, 3780-599 Anadia, Portugal","Country":"PRT","County":"Aveiro","City":"Anadia","District":"Vilarinho do Bairro","Street":"Rua da Cotovia","PostalCode":"3780-599","AdditionalData":[{"value":"Portugal","key":"CountryName"},{"value":"Aveiro","key":"CountyName"}]},"MapReference":{"ReferenceId":"587735437","Spot":0.93,"SideOfStreet":"left","CountryId":"20317122","CountyId":"20317149","CityId":"20317180","DistrictId":"20570584"}}},{"Relevance":1.0,"Distance":84.6,"MatchLevel":"street","MatchQuality":{"Country":1.0,"County":1.0,"City":1.0,"District":1.0,"Street":[1.0],"PostalCode":1.0},"Location":{"LocationId":"NT_BYnq29VXnol7AJQGi0F9fA_l_587735438_L","LocationType":"point","DisplayPosition":{"Latitude":40.42274,"Longitude":-8.52124},"MapView":{"TopLeft":{"Latitude":40.42295,"Longitude":-8.52192},"BottomRight":{"Latitude":40.42274,"Longitude":-8.52124}},"Address":{"Label":"Rua da Cotovia, 3780-599 Anadia, Portugal","Country":"PRT","County":"Aveiro","City":"Anadia","District":"Vilarinho do Bairro","Street":"Rua da Cotovia","PostalCode":"3780-599","AdditionalData":[{"value":"Portugal","key":"CountryName"},{"value":"Aveiro","key":"CountyName"}]},"MapReference":{"ReferenceId":"587735438","Spot":0.0,"SideOfStreet":"left","CountryId":"20317122","CountyId":"20317149","CityId":"20317180","DistrictId":"20570584"}}}]}]}}