{"Response":{"MetaInfo":{"Timestamp":"2020-03-28T11:03:56.157+0000","NextPageInformation":"2"},"View":[{"_type":"SearchResultsViewType","ViewId":0,"Result":[{"Relevance":1.0,"Distance":0.0,"Direction":0.0,"MatchLevel":"district","MatchQuality":{"Country":1.0,"State":1.0,"County":1.0,"City":1.0,"District":1.0,"PostalCode":1.0},"Location":{"LocationId":"NT_dgM0ukojlw0W-61L3eJJsC","LocationType":"point","DisplayPosition":{"Latitude":40.4603462,"Longitude":-3.6595047},"MapView":{"TopLeft":{"Latitude":40.46338,"Longitude":-3.66504},"BottomRight":{"Latitude":40.45313,"Longitude":-3.65419}},"Address":{"Label":"Colina, Madrid, Comunidad de Madrid, España","Country":"ESP","State":"Comunidad de Madrid","County":"Madrid","City":"Madrid","District":"Colina","PostalCode":"28043","AdditionalData":[{"value":"España","key":"CountryName"},{"value":"Comunidad de Madrid","key":"StateName"},{"value":"Madrid","key":"CountyName"}]},"MapReference":{"ReferenceId":"1213928755","SideOfStreet":"neither","CountryId":"20215059","StateId":"20226800","CountyId":"20226801","CityId":"20242802"}}},{"Relevance":1.0,"Distance":47.6,"MatchLevel":"houseNumber","MatchQuality":{"Country":1.0,"State":1.0,"County":1.0,"City":1.0,"District":1.0,"Street":[1.0],"HouseNumber":1.0,"PostalCode":1.0},"MatchType":"interpolated","Location":{"LocationId":"NT_3Di8iajZEb-0lpzyiYRaLD_zEzN","LocationType":"point","DisplayPosition":{"Latitude":40.46072,"Longitude":-3.6592},"MapView":{"TopLeft":{"Latitude":40.4618442,"Longitude":-3.6606775},"BottomRight":{"Latitude":40.4595958,"Longitude":-3.6577225}},"Address":{"Label":"Calle de López de Hoyos, 317, 28043 Madrid (Madrid), España","Country":"ESP","State":"Comunidad de Madrid","County":"Madrid","City":"Madrid","District":"Colina","Street":"Calle de López de Hoyos","HouseNumber":"317","PostalCode":"28043","AdditionalData":[{"value":"España","key":"CountryName"},{"value":"Comunidad de Madrid","key":"StateName"},{"value":"Madrid","key":"CountyName"}]},"MapReference":{"ReferenceId":"1214041538","Spot":0.25,"SideOfStreet":"left","CountryId":"20215059","StateId":"20226800","CountyId":"20226801","CityId":"20242802","AddressId":"588630606","RoadLinkId":"529897268"}}},{"Relevance":1.0,"Distance":49.9,"MatchLevel":"houseNumber","MatchQuality":{"Country":1.0,"State":1.0,"County":1.0,"City":1.0,"District":1.0,"Street":[1.0],"HouseNumber":1.0,"PostalCode":1.0},"MatchType":"interpolated","Location":{"LocationId":"NT_3Di8iajZEb-0lpzyiYRaLD_zETN","LocationType":"point","DisplayPosition":{"Latitude":40.45988,"Longitude":-3.65956},"MapView":{"TopLeft":{"Latitude":40.4610042,"Longitude":-3.6610375},"BottomRight":{"Latitude":40.4587558,"Longitude":-3.6580825}},"Address":{"Label":"Calle de López de Hoyos, 315, 28043 Madrid (Madrid), España","Country":"ESP","State":"Comunidad de Madrid","County":"Madrid","City":"Madrid","District":"Colina","Street":"Calle de López de Hoyos","HouseNumber":"315","PostalCode":"28043","AdditionalData":[{"value":"España","key":"CountryName"},{"value":"Comunidad de Madrid","key":"StateName"},{"value":"Madrid","key":"CountyName"}]},"MapReference":{"ReferenceId":"1214041537","Spot":0.47,"SideOfStreet":"left","CountryId":"20215059","StateId":"20226800","CountyId":"20226801","CityId":"20242802","AddressId":"588630607","RoadLinkId":"529897267"}}},{"Relevance":1.0,"Distance":63.7,"MatchLevel":"houseNumber","MatchQuality":{"Country":1.0,"State":1.0,"County":1.0,"City":1.0,"District":1.0,"Street":[1.0],"HouseNumber":1.0,"PostalCode":1.0},"MatchType":"interpolated","Location":{"LocationId":"NT_fgt6DwInQCl0eI.kVaVrLC_yA","LocationType":"point","DisplayPosition":{"Latitude":40.46054,"Longitude":-3.66034},"MapView":{"TopLeft":{"Latitude":40.4616642,"Longitude":-3.6618175},"BottomRight":{"Latitude":40.4594158,"Longitude":-3.6588625}},"Address":{"Label":"Calle de Navarro Amandi, 2, 28033 Madrid (Madrid), España","Country":"ESP","State":"Comunidad de Madrid","County":"Madrid","City":"Madrid","District":"Colina","Street":"Calle de Navarro Amandi","HouseNumber":"2","PostalCode":"28033","AdditionalData":[{"value":"España","key":"CountryName"},{"value":"Comunidad de Madrid","key":"StateName"},{"value":"Madrid","key":"CountyName"}]},"MapReference":{"ReferenceId":"981413622","Spot":0.21,"SideOfStreet":"right","CountryId":"20215059","StateId":"20226800","CountyId":"20226801","CityId":"20242802","AddressId":"588622184","RoadLinkId":"313338696"}}},{"Relevance":1.0,"Distance":97.2,"MatchLevel":"houseNumber","MatchQuality":{"Country":1.0,"State":1.0,"County":1.0,"City":1.0,"District":1.0,"Street":[1.0],"HouseNumber":1.0,"PostalCode":1.0},"MatchType":"interpolated","Location":{"LocationId":"NT_zLniAoUA1VU4DczJgjXVCD_yADN","LocationType":"point","DisplayPosition":{"Latitude":40.45978,"Longitude":-3.66055},"MapView":{"TopLeft":{"Latitude":40.4609042,"Longitude":-3.6620275},"BottomRight":{"Latitude":40.4586558,"Longitude":-3.6590725}},"Address":{"Label":"Calle de Arturo Soria, 204, 28043 Madrid (Madrid), España","Country":"ESP","State":"Comunidad de Madrid","County":"Madrid","City":"Madrid","District":"Colina","Street":"Calle de Arturo Soria","HouseNumber":"204","PostalCode":"28043","AdditionalData":[{"value":"España","key":"CountryName"},{"value":"Comunidad de Madrid","key":"StateName"},{"value":"Madrid","key":"CountyName"}]},"MapReference":{"ReferenceId":"763028092","Spot":0.25,"SideOfStreet":"right","CountryId":"20215059","StateId":"20226800","CountyId":"20226801","CityId":"20242802","AddressId":"588549131","RoadLinkId":"157332929"}}},{"Relevance":1.0,"Distance":103.6,"MatchLevel":"houseNumber","MatchQuality":{"Country":1.0,"State":1.0,"County":1.0,"City":1.0,"District":1.0,"Street":[1.0],"HouseNumber":1.0,"PostalCode":1.0},"MatchType":"interpolated","Location":{"LocationId":"NT_fgt6DwInQCl0eI.kVaVrLC_l_765990833_R_yA","LocationType":"point","DisplayPosition":{"Latitude":40.4601796,"Longitude":-3.6607535},"MapView":{"TopLeft":{"Latitude":40.4613037,"Longitude":-3.662231},"BottomRight":{"Latitude":40.4590554,"Longitude":-3.659276}},"Address":{"Label":"Calle de Navarro Amandi, 2, 28033 Madrid (Madrid), España","Country":"ESP","State":"Comunidad de Madrid","County":"Madrid","City":"Madrid","District":"Colina","Street":"Calle de Navarro Amandi","HouseNumber":"2","PostalCode":"28033","AdditionalData":[{"value":"España","key":"CountryName"},{"value":"Comunidad de Madrid","key":"StateName"},{"value":"Madrid","key":"CountyName"}]},"MapReference":{"ReferenceId":"765990833","Spot":0.52,"SideOfStreet":"right","CountryId":"20215059","StateId":"20226800","CountyId":"20226801","CityId":"20242802"}}},{"Relevance":1.0,"Distance":108.1,"MatchLevel":"street","MatchQuality":{"Country":1.0,"State":1.0,"County":1.0,"City":1.0,"District":1.0,"Street":[1.0],"PostalCode":1.0},"Location":{"LocationId":"NT_gX.bL26i652qwTkTRQm-lD_l_68533287_L","LocationType":"point","DisplayPosition":{"Latitude":40.45949,"Longitude":-3.66011},"MapView":{"TopLeft":{"Latitude":40.45949,"Longitude":-3.66027},"BottomRight":{"Latitude":40.45928,"Longitude":-3.66011}},"Address":{"Label":"Calle de Vicente Muzas, 28043 Madrid (Madrid), España","Country":"ESP","State":"Comunidad de Madrid","County":"Madrid","City":"Madrid","District":"Colina","Street":"Calle de Vicente Muzas","PostalCode":"28043","AdditionalData":[{"value":"España","key":"CountryName"},{"value":"Comunidad de Madrid","key":"StateName"},{"value":"Madrid","key":"CountyName"}]},"MapReference":{"ReferenceId":"68533287","Spot":1.0,"SideOfStreet":"left","CountryId":"20215059","StateId":"20226800","CountyId":"20226801","CityId":"20242802"}}},{"Relevance":1.0,"Distance":108.1,"MatchLevel":"street","MatchQuality":{"Country":1.0,"State":1.0,"County":1.0,"City":1.0,"District":1.0,"Street":[1.0],"PostalCode":1.0},"Location":{"LocationId":"NT_zLniAoUA1VU4DczJgjXVCD_l_763028091_R","LocationType":"point","DisplayPosition":{"Latitude":40.45949,"Longitude":-3.66011},"MapView":{"TopLeft":{"Latitude":40.4597,"Longitude":-3.66042},"BottomRight":{"Latitude":40.45949,"Longitude":-3.66011}},"Address":{"Label":"Calle de Arturo Soria, 28043 Madrid (Madrid), España","Country":"ESP","State":"Comunidad de Madrid","County":"Madrid","City":"Madrid","District":"Colina","Street":"Calle de Arturo Soria","PostalCode":"28043","AdditionalData":[{"value":"España","key":"CountryName"},{"value":"Comunidad de Madrid","key":"StateName"},{"value":"Madrid","key":"CountyName"}]},"MapReference":{"ReferenceId":"763028091","Spot":0.0,"SideOfStreet":"right","CountryId":"20215059","StateId":"20226800","CountyId":"20226801","CityId":"20242802"}}},{"Relevance":1.0,"Distance":108.9,"MatchLevel":"street","MatchQuality":{"Country":1.0,"State":1.0,"County":1.0,"City":1.0,"District":1.0,"Street":[1.0],"PostalCode":1.0},"Location":{"LocationId":"NT_zLniAoUA1VU4DczJgjXVCD_l_76620680_R","LocationType":"point","DisplayPosition":{"Latitude":40.4594697,"Longitude":-3.660079},"MapView":{"TopLeft":{"Latitude":40.45949,"Longitude":-3.66011},"BottomRight":{"Latitude":40.4593,"Longitude":-3.65982}},"Address":{"Label":"Calle de Arturo Soria, 28043 Madrid (Madrid), España","Country":"ESP","State":"Comunidad de Madrid","County":"Madrid","City":"Madrid","District":"Colina","Street":"Calle de Arturo Soria","PostalCode":"28043","AdditionalData":[{"value":"España","key":"CountryName"},{"value":"Comunidad de Madrid","key":"StateName"},{"value":"Madrid","key":"CountyName"}]},"MapReference":{"ReferenceId":"76620680","Spot":0.89,"SideOfStreet":"right","CountryId":"20215059","StateId":"20226800","CountyId":"20226801","CityId":"20242802"}}},{"Relevance":1.0,"Distance":110.3,"MatchLevel":"houseNumber","MatchQuality":{"Country":1.0,"State":1.0,"County":1.0,"City":1.0,"District":1.0,"Street":[1.0],"HouseNumber":1.0,"PostalCode":1.0},"MatchType":"interpolated","Location":{"LocationId":"NT_sxB3lif1.1eWffa4STJGPA_xQDM","LocationType":"point","DisplayPosition":{"Latitude":40.46119,"Longitude":-3.65882},"MapView":{"TopLeft":{"Latitude":40.4623142,"Longitude":-3.6602975},"BottomRight":{"Latitude":40.4600658,"Longitude":-3.6573425}},"Address":{"Label":"Calle de Asura, 140, 28043 Madrid (Madrid), España","Country":"ESP","State":"Comunidad de Madrid","County":"Madrid","City":"Madrid","District":"Canillas","Street":"Calle de Asura","HouseNumber":"140","PostalCode":"28043","AdditionalData":[{"value":"España","key":"CountryName"},{"value":"Comunidad de Madrid","key":"StateName"},{"value":"Madrid","key":"CountyName"}]},"MapReference":{"ReferenceId":"68531945","Spot":0.84,"SideOfStreet":"right","CountryId":"20215059","StateId":"20226800","CountyId":"20226801","CityId":"20242802","AddressId":"588501933","RoadLinkId":"67155661"}}}]}]}}