{"Response":{"MetaInfo":{"Timestamp":"2020-03-28T09:44:38.423+0000","NextPageInformation":"2"},"View":[{"_type":"SearchResultsViewType","ViewId":0,"Result":[{"Relevance":1.0,"Distance":0.0,"Direction":0.0,"MatchLevel":"district","MatchQuality":{"Country":1.0,"State":1.0,"County":1.0,"City":1.0,"District":1.0,"PostalCode":1.0},"Location":{"LocationId":"NT_G8mGa8yWv6a9L0eE7saqJC","LocationType":"point","DisplayPosition":{"Latitude":40.4277296,"Longitude":-3.6036439},"MapView":{"TopLeft":{"Latitude":40.44984,"Longitude":-3.61221},"BottomRight":{"Latitude":40.4081,"Longitude":-3.56331}},"Address":{"Label":"Rosas, Madrid, Comunidad de Madrid, España","Country":"ESP","State":"Comunidad de Madrid","County":"Madrid","City":"Madrid","District":"Rosas","PostalCode":"28022","AdditionalData":[{"value":"España","key":"CountryName"},{"value":"Comunidad de Madrid","key":"StateName"},{"value":"Madrid","key":"CountyName"}]},"MapReference":{"ReferenceId":"68494771","SideOfStreet":"neither","CountryId":"20215059","StateId":"20226800","CountyId":"20226801","CityId":"20242802"}}},{"Relevance":1.0,"Distance":17.2,"MatchLevel":"houseNumber","MatchQuality":{"Country":1.0,"State":1.0,"County":1.0,"City":1.0,"District":1.0,"Street":[1.0],"HouseNumber":1.0,"PostalCode":1.0},"MatchType":"interpolated","Location":{"LocationId":"NT_5RjK9YSFeS1FZpTS-J83yA_xA","LocationType":"point","DisplayPosition":{"Latitude":40.42756,"Longitude":-3.60381},"MapView":{"TopLeft":{"Latitude":40.4286842,"Longitude":-3.6052868},"BottomRight":{"Latitude":40.4264358,"Longitude":-3.6023332}},"Address":{"Label":"Calle de Bretaña, 1, 28022 Madrid (Madrid), España","Country":"ESP","State":"Comunidad de Madrid","County":"Madrid","City":"Madrid","District":"Rosas","Street":"Calle de Bretaña","HouseNumber":"1","PostalCode":"28022","AdditionalData":[{"value":"España","key":"CountryName"},{"value":"Comunidad de Madrid","key":"StateName"},{"value":"Madrid","key":"CountyName"}]},"MapReference":{"ReferenceId":"736193021","Spot":0.67,"SideOfStreet":"left","CountryId":"20215059","StateId":"20226800","CountyId":"20226801","CityId":"20242802","AddressId":"588537042","RoadLinkId":"135882326"}}},{"Relevance":1.0,"Distance":17.5,"MatchLevel":"street","MatchQuality":{"Country":1.0,"State":1.0,"County":1.0,"City":1.0,"District":1.0,"PostalCode":1.0},"Location":{"LocationId":"NT_XmtcLmSLJiNLsDxWW2aCAB_l_1034917393_L","LocationType":"point","DisplayPosition":{"Latitude":40.4277766,"Longitude":-3.6034463},"MapView":{"TopLeft":{"Latitude":40.42901,"Longitude":-3.60374},"BottomRight":{"Latitude":40.42691,"Longitude":-3.60324}},"Address":{"Label":"28022 Madrid (Madrid), España","Country":"ESP","State":"Comunidad de Madrid","County":"Madrid","City":"Madrid","District":"Rosas","PostalCode":"28022","AdditionalData":[{"value":"España","key":"CountryName"},{"value":"Comunidad de Madrid","key":"StateName"},{"value":"Madrid","key":"CountyName"}]},"MapReference":{"ReferenceId":"1034917393","Spot":0.41,"SideOfStreet":"left","CountryId":"20215059","StateId":"20226800","CountyId":"20226801","CityId":"20242802"}}},{"Relevance":1.0,"Distance":32.7,"MatchLevel":"houseNumber","MatchQuality":{"Country":1.0,"State":1.0,"County":1.0,"City":1.0,"District":1.0,"Street":[1.0],"HouseNumber":1.0,"PostalCode":1.0},"MatchType":"interpolated","Location":{"LocationId":"NT_K-WtE230wRQ8efO0tSEtWD_ycjQ","LocationType":"point","DisplayPosition":{"Latitude":40.42746,"Longitude":-3.60349},"MapView":{"TopLeft":{"Latitude":40.4285842,"Longitude":-3.6049668},"BottomRight":{"Latitude":40.4263358,"Longitude":-3.6020132}},"Address":{"Label":"Calle de Helsinki, 27B, 28022 Madrid (Madrid), España","Country":"ESP","State":"Comunidad de Madrid","County":"Madrid","City":"Madrid","District":"Rosas","Street":"Calle de Helsinki","HouseNumber":"27B","PostalCode":"28022","AdditionalData":[{"value":"España","key":"CountryName"},{"value":"Comunidad de Madrid","key":"StateName"},{"value":"Madrid","key":"CountyName"}]},"MapReference":{"ReferenceId":"68495244","Spot":0.79,"SideOfStreet":"left","CountryId":"20215059","StateId":"20226800","CountyId":"20226801","CityId":"20242802","AddressId":"701406188","RoadLinkId":"67577155"}}},{"Relevance":1.0,"Distance":43.4,"MatchLevel":"houseNumber","MatchQuality":{"Country":1.0,"State":1.0,"County":1.0,"City":1.0,"District":1.0,"Street":[1.0],"HouseNumber":1.0,"PostalCode":1.0},"MatchType":"interpolated","Location":{"LocationId":"NT_K-WtE230wRQ8efO0tSEtWD_ykD","LocationType":"point","DisplayPosition":{"Latitude":40.42812,"Longitude":-3.60364},"MapView":{"TopLeft":{"Latitude":40.4292442,"Longitude":-3.6051168},"BottomRight":{"Latitude":40.4269958,"Longitude":-3.6021632}},"Address":{"Label":"Calle de Helsinki, 29, 28022 Madrid (Madrid), España","Country":"ESP","State":"Comunidad de Madrid","County":"Madrid","City":"Madrid","District":"Rosas","Street":"Calle de Helsinki","HouseNumber":"29","PostalCode":"28022","AdditionalData":[{"value":"España","key":"CountryName"},{"value":"Comunidad de Madrid","key":"StateName"},{"value":"Madrid","key":"CountyName"}]},"MapReference":{"ReferenceId":"68495043","Spot":0.73,"SideOfStreet":"left","CountryId":"20215059","StateId":"20226800","CountyId":"20226801","CityId":"20242802","AddressId":"588615972","RoadLinkId":"67423054"}}},{"Relevance":1.0,"Distance":59.8,"MatchLevel":"houseNumber","MatchQuality":{"Country":1.0,"State":1.0,"County":1.0,"City":1.0,"District":1.0,"Street":[1.0],"HouseNumber":1.0,"PostalCode":1.0},"MatchType":"interpolated","Location":{"LocationId":"NT_tjzUEBO-MNerNJWmO.zsVA_2AD","LocationType":"point","DisplayPosition":{"Latitude":40.42731,"Longitude":-3.60459},"MapView":{"TopLeft":{"Latitude":40.4284342,"Longitude":-3.6060668},"BottomRight":{"Latitude":40.4261858,"Longitude":-3.6031132}},"Address":{"Label":"Calle de Suecia, 60, 28022 Madrid (Madrid), España","Country":"ESP","State":"Comunidad de Madrid","County":"Madrid","City":"Madrid","District":"Rosas","Street":"Calle de Suecia","HouseNumber":"60","PostalCode":"28022","AdditionalData":[{"value":"España","key":"CountryName"},{"value":"Comunidad de Madrid","key":"StateName"},{"value":"Madrid","key":"CountyName"}]},"MapReference":{"ReferenceId":"68495283","Spot":0.82,"SideOfStreet":"right","CountryId":"20215059","StateId":"20226800","CountyId":"20226801","CityId":"20242802","AddressId":"588645835","RoadLinkId":"67609072"}}},{"Relevance":1.0,"Distance":64.4,"MatchLevel":"houseNumber","MatchQuality":{"Country":1.0,"State":1.0,"County":1.0,"City":1.0,"District":1.0,"Street":[1.0],"HouseNumber":1.0,"PostalCode":1.0},"MatchType":"interpolated","Location":{"LocationId":"NT_.vIIw0Jxd7AA2cAbFxiTPC_yMD","LocationType":"point","DisplayPosition":{"Latitude":40.42828,"Longitude":-3.60388},"MapView":{"TopLeft":{"Latitude":40.4294042,"Longitude":-3.6053568},"BottomRight":{"Latitude":40.4271558,"Longitude":-3.6024032}},"Address":{"Label":"Calle de los Alpes, 23, 28022 Madrid (Madrid), España","Country":"ESP","State":"Comunidad de Madrid","County":"Madrid","City":"Madrid","District":"Rosas","Street":"Calle de los Alpes","HouseNumber":"23","PostalCode":"28022","AdditionalData":[{"value":"España","key":"CountryName"},{"value":"Comunidad de Madrid","key":"StateName"},{"value":"Madrid","key":"CountyName"}]},"MapReference":{"ReferenceId":"68494878","Spot":0.83,"SideOfStreet":"left","CountryId":"20215059","StateId":"20226800","CountyId":"20226801","CityId":"20242802","AddressId":"588529558","RoadLinkId":"67190358"}}},{"Relevance":1.0,"Distance":71.0,"MatchLevel":"street","MatchQuality":{"Country":1.0,"State":1.0,"County":1.0,"City":1.0,"District":1.0,"Street":[1.0],"PostalCode":1.0},"Location":{"LocationId":"NT_5RjK9YSFeS1FZpTS-J83yA_l_736193020_L","LocationType":"point","DisplayPosition":{"Latitude":40.42747,"Longitude":-3.60441},"MapView":{"TopLeft":{"Latitude":40.42747,"Longitude":-3.60462},"BottomRight":{"Latitude":40.42744,"Longitude":-3.60441}},"Address":{"Label":"Calle de Bretaña, 28022 Madrid (Madrid), España","Country":"ESP","State":"Comunidad de Madrid","County":"Madrid","City":"Madrid","District":"Rosas","Street":"Calle de Bretaña","PostalCode":"28022","AdditionalData":[{"value":"España","key":"CountryName"},{"value":"Comunidad de Madrid","key":"StateName"},{"value":"Madrid","key":"CountyName"}]},"MapReference":{"ReferenceId":"736193020","Spot":1.0,"SideOfStreet":"left","CountryId":"20215059","StateId":"20226800","CountyId":"20226801","CityId":"20242802"}}},{"Relevance":1.0,"Distance":76.0,"MatchLevel":"houseNumber","MatchQuality":{"Country":1.0,"State":1.0,"County":1.0,"City":1.0,"District":1.0,"Street":[1.0],"HouseNumber":1.0,"PostalCode":1.0},"MatchType":"interpolated","Location":{"LocationId":"NT_tjzUEBO-MNerNJWmO.zsVA_2QD","LocationType":"point","DisplayPosition":{"Latitude":40.42782,"Longitude":-3.60471},"MapView":{"TopLeft":{"Latitude":40.4289442,"Longitude":-3.6061868},"BottomRight":{"Latitude":40.4266958,"Longitude":-3.6032332}},"Address":{"Label":"Calle de Suecia, 64, 28022 Madrid (Madrid), España","Country":"ESP","State":"Comunidad de Madrid","County":"Madrid","City":"Madrid","District":"Rosas","Street":"Calle de Suecia","HouseNumber":"64","PostalCode":"28022","AdditionalData":[{"value":"España","key":"CountryName"},{"value":"Comunidad de Madrid","key":"StateName"},{"value":"Madrid","key":"CountyName"}]},"MapReference":{"ReferenceId":"68495077","Spot":0.54,"SideOfStreet":"right","CountryId":"20215059","StateId":"20226800","CountyId":"20226801","CityId":"20242802","AddressId":"588580067","RoadLinkId":"66726369"}}},{"Relevance":1.0,"Distance":82.6,"MatchLevel":"houseNumber","MatchQuality":{"Country":1.0,"State":1.0,"County":1.0,"City":1.0,"District":1.0,"Street":[1.0],"HouseNumber":1.0,"PostalCode":1.0},"MatchType":"interpolated","Location":{"LocationId":"NT_K-WtE230wRQ8efO0tSEtWD_zED","LocationType":"point","DisplayPosition":{"Latitude":40.42847,"Longitude":-3.60372},"MapView":{"TopLeft":{"Latitude":40.4295942,"Longitude":-3.6051968},"BottomRight":{"Latitude":40.4273458,"Longitude":-3.6022432}},"Address":{"Label":"Calle de Helsinki, 31, 28022 Madrid (Madrid), España","Country":"ESP","State":"Comunidad de Madrid","County":"Madrid","City":"Madrid","District":"Rosas","Street":"Calle de Helsinki","HouseNumber":"31","PostalCode":"28022","AdditionalData":[{"value":"España","key":"CountryName"},{"value":"Comunidad de Madrid","key":"StateName"},{"value":"Madrid","key":"CountyName"}]},"MapReference":{"ReferenceId":"68494859","Spot":0.24,"SideOfStreet":"left","CountryId":"20215059","StateId":"20226800","CountyId":"20226801","CityId":"20242802","AddressId":"588602116","RoadLinkId":"67625769"}}}]}]}}