{"Response":{"MetaInfo":{"Timestamp":"2020-03-28T09:42:49.872+0000","NextPageInformation":"2"},"View":[{"_type":"SearchResultsViewType","ViewId":0,"Result":[{"Relevance":1.0,"Distance":0.0,"Direction":0.0,"MatchLevel":"district","MatchQuality":{"Country":1.0,"State":1.0,"County":1.0,"City":1.0,"District":1.0,"PostalCode":1.0},"Location":{"LocationId":"NT_cTIlKisJF9s9a9HPyUlRZB","LocationType":"point","DisplayPosition":{"Latitude":40.46341,"Longitude":-3.7115597},"MapView":{"TopLeft":{"Latitude":40.47304,"Longitude":-3.72867},"BottomRight":{"Latitude":40.4577,"Longitude":-3.70849}},"Address":{"Label":"Valdezarza, Madrid, Comunidad de Madrid, España","Country":"ESP","State":"Comunidad de Madrid","County":"Madrid","City":"Madrid","District":"Valdezarza","PostalCode":"28035","AdditionalData":[{"value":"España","key":"CountryName"},{"value":"Comunidad de Madrid","key":"StateName"},{"value":"Madrid","key":"CountyName"}]},"MapReference":{"ReferenceId":"979974378","SideOfStreet":"neither","CountryId":"20215059","StateId":"20226800","CountyId":"20226801","CityId":"20242802"}}},{"Relevance":1.0,"Distance":8.5,"MatchLevel":"houseNumber","MatchQuality":{"Country":1.0,"State":1.0,"County":1.0,"City":1.0,"District":1.0,"Street":[1.0],"HouseNumber":1.0,"PostalCode":1.0},"MatchType":"interpolated","Location":{"LocationId":"NT_lmq2hK.BDoRkUBFkDvoF7A_xMD","LocationType":"point","DisplayPosition":{"Latitude":40.46344,"Longitude":-3.71135},"MapView":{"TopLeft":{"Latitude":40.4645642,"Longitude":-3.7128276},"BottomRight":{"Latitude":40.4623158,"Longitude":-3.7098724}},"Address":{"Label":"Calle de Azuaga, 13, 28039 Madrid (Madrid), España","Country":"ESP","State":"Comunidad de Madrid","County":"Madrid","City":"Madrid","District":"Valdezarza","Street":"Calle de Azuaga","HouseNumber":"13","PostalCode":"28039","AdditionalData":[{"value":"España","key":"CountryName"},{"value":"Comunidad de Madrid","key":"StateName"},{"value":"Madrid","key":"CountyName"}]},"MapReference":{"ReferenceId":"68488417","Spot":0.87,"SideOfStreet":"left","CountryId":"20215059","StateId":"20226800","CountyId":"20226801","CityId":"20242802","AddressId":"588653396","RoadLinkId":"66783742"}}},{"Relevance":1.0,"Distance":18.2,"MatchLevel":"street","MatchQuality":{"Country":1.0,"State":1.0,"County":1.0,"City":1.0,"District":1.0,"Street":[1.0],"PostalCode":1.0},"Location":{"LocationId":"NT_JBFmuLQmEq5ygKtMwqo12A_l_994441652_R","LocationType":"point","DisplayPosition":{"Latitude":40.46354,"Longitude":-3.71169},"MapView":{"TopLeft":{"Latitude":40.46354,"Longitude":-3.71189},"BottomRight":{"Latitude":40.46353,"Longitude":-3.71169}},"Address":{"Label":"Calle de Almorox, 28039 Madrid (Madrid), España","Country":"ESP","State":"Comunidad de Madrid","County":"Madrid","City":"Madrid","District":"Valdezarza","Street":"Calle de Almorox","PostalCode":"28039","AdditionalData":[{"value":"España","key":"CountryName"},{"value":"Comunidad de Madrid","key":"StateName"},{"value":"Madrid","key":"CountyName"}]},"MapReference":{"ReferenceId":"994441652","Spot":1.0,"SideOfStreet":"right","CountryId":"20215059","StateId":"20226800","CountyId":"20226801","CityId":"20242802"}}},{"Relevance":1.0,"Distance":18.2,"MatchLevel":"street","MatchQuality":{"Country":1.0,"State":1.0,"County":1.0,"City":1.0,"District":1.0,"Street":[1.0],"PostalCode":1.0},"Location":{"LocationId":"NT_lmq2hK.BDoRkUBFkDvoF7A_l_76623166_L","LocationType":"point","DisplayPosition":{"Latitude":40.4633,"Longitude":-3.7114},"MapView":{"TopLeft":{"Latitude":40.4633,"Longitude":-3.71151},"BottomRight":{"Latitude":40.46309,"Longitude":-3.7114}},"Address":{"Label":"Calle de Azuaga, 28039 Madrid (Madrid), España","Country":"ESP","State":"Comunidad de Madrid","County":"Madrid","City":"Madrid","District":"Valdezarza","Street":"Calle de Azuaga","PostalCode":"28039","AdditionalData":[{"value":"España","key":"CountryName"},{"value":"Comunidad de Madrid","key":"StateName"},{"value":"Madrid","key":"CountyName"}]},"MapReference":{"ReferenceId":"76623166","Spot":1.0,"SideOfStreet":"left","CountryId":"20215059","StateId":"20226800","CountyId":"20226801","CityId":"20242802"}}},{"Relevance":1.0,"Distance":19.4,"MatchLevel":"street","MatchQuality":{"Country":1.0,"State":1.0,"County":1.0,"City":1.0,"District":1.0,"Street":[1.0],"PostalCode":1.0},"Location":{"LocationId":"NT_lmq2hK.BDoRkUBFkDvoF7A_l_68488379_L","LocationType":"point","DisplayPosition":{"Latitude":40.46346,"Longitude":-3.71134},"MapView":{"TopLeft":{"Latitude":40.46362,"Longitude":-3.71134},"BottomRight":{"Latitude":40.46346,"Longitude":-3.71124}},"Address":{"Label":"Calle de Azuaga, 28039 Madrid (Madrid), España","Country":"ESP","State":"Comunidad de Madrid","County":"Madrid","City":"Madrid","District":"Valdezarza","Street":"Calle de Azuaga","PostalCode":"28039","AdditionalData":[{"value":"España","key":"CountryName"},{"value":"Comunidad de Madrid","key":"StateName"},{"value":"Madrid","key":"CountyName"}]},"MapReference":{"ReferenceId":"68488379","Spot":0.0,"SideOfStreet":"left","CountryId":"20215059","StateId":"20226800","CountyId":"20226801","CityId":"20242802"}}},{"Relevance":1.0,"Distance":26.6,"MatchLevel":"houseNumber","MatchQuality":{"Country":1.0,"State":1.0,"County":1.0,"City":1.0,"District":1.0,"Street":[1.0],"HouseNumber":1.0,"PostalCode":1.0},"MatchType":"interpolated","Location":{"LocationId":"NT_JBFmuLQmEq5ygKtMwqo12A_xA","LocationType":"point","DisplayPosition":{"Latitude":40.46337,"Longitude":-3.71187},"MapView":{"TopLeft":{"Latitude":40.4644942,"Longitude":-3.7133476},"BottomRight":{"Latitude":40.4622458,"Longitude":-3.7103924}},"Address":{"Label":"Calle de Almorox, 1, 28039 Madrid (Madrid), España","Country":"ESP","State":"Comunidad de Madrid","County":"Madrid","City":"Madrid","District":"Valdezarza","Street":"Calle de Almorox","HouseNumber":"1","PostalCode":"28039","AdditionalData":[{"value":"España","key":"CountryName"},{"value":"Comunidad de Madrid","key":"StateName"},{"value":"Madrid","key":"CountyName"}]},"MapReference":{"ReferenceId":"76623164","Spot":0.54,"SideOfStreet":"left","CountryId":"20215059","StateId":"20226800","CountyId":"20226801","CityId":"20242802","AddressId":"588593588","RoadLinkId":"66604659"}}},{"Relevance":1.0,"Distance":28.5,"MatchLevel":"houseNumber","MatchQuality":{"Country":1.0,"State":1.0,"County":1.0,"City":1.0,"District":1.0,"Street":[1.0],"HouseNumber":1.0,"PostalCode":1.0},"MatchType":"interpolated","Location":{"LocationId":"NT_lmq2hK.BDoRkUBFkDvoF7A_yYD","LocationType":"point","DisplayPosition":{"Latitude":40.46331,"Longitude":-3.71125},"MapView":{"TopLeft":{"Latitude":40.4644342,"Longitude":-3.7127275},"BottomRight":{"Latitude":40.4621858,"Longitude":-3.7097725}},"Address":{"Label":"Calle de Azuaga, 26, 28039 Madrid (Madrid), España","Country":"ESP","State":"Comunidad de Madrid","County":"Madrid","City":"Madrid","District":"Valdezarza","Street":"Calle de Azuaga","HouseNumber":"26","PostalCode":"28039","AdditionalData":[{"value":"España","key":"CountryName"},{"value":"Comunidad de Madrid","key":"StateName"},{"value":"Madrid","key":"CountyName"}]},"MapReference":{"ReferenceId":"68488416","Spot":0.2,"SideOfStreet":"right","CountryId":"20215059","StateId":"20226800","CountyId":"20226801","CityId":"20242802","AddressId":"588524718","RoadLinkId":"67565443"}}},{"Relevance":1.0,"Distance":29.7,"MatchLevel":"houseNumber","MatchQuality":{"Country":1.0,"State":1.0,"County":1.0,"City":1.0,"District":1.0,"Street":[1.0],"HouseNumber":1.0,"PostalCode":1.0},"MatchType":"interpolated","Location":{"LocationId":"NT_JBFmuLQmEq5ygKtMwqo12A_xAD","LocationType":"point","DisplayPosition":{"Latitude":40.46367,"Longitude":-3.71171},"MapView":{"TopLeft":{"Latitude":40.4647942,"Longitude":-3.7131876},"BottomRight":{"Latitude":40.4625458,"Longitude":-3.7102324}},"Address":{"Label":"Calle de Almorox, 10, 28039 Madrid (Madrid), España","Country":"ESP","State":"Comunidad de Madrid","County":"Madrid","City":"Madrid","District":"Valdezarza","Street":"Calle de Almorox","HouseNumber":"10","PostalCode":"28039","AdditionalData":[{"value":"España","key":"CountryName"},{"value":"Comunidad de Madrid","key":"StateName"},{"value":"Madrid","key":"CountyName"}]},"MapReference":{"ReferenceId":"994441653","Spot":0.54,"SideOfStreet":"right","CountryId":"20215059","StateId":"20226800","CountyId":"20226801","CityId":"20242802","AddressId":"588557215","RoadLinkId":"322817873"}}},{"Relevance":1.0,"Distance":31.0,"MatchLevel":"street","MatchQuality":{"Country":1.0,"State":1.0,"County":1.0,"City":1.0,"District":1.0,"Street":[1.0],"PostalCode":1.0},"Location":{"LocationId":"NT_JBFmuLQmEq5ygKtMwqo12A_l_591957700_R","LocationType":"point","DisplayPosition":{"Latitude":40.46353,"Longitude":-3.71189},"MapView":{"TopLeft":{"Latitude":40.46373,"Longitude":-3.71193},"BottomRight":{"Latitude":40.46353,"Longitude":-3.71189}},"Address":{"Label":"Calle de Almorox, 28039 Madrid (Madrid), España","Country":"ESP","State":"Comunidad de Madrid","County":"Madrid","City":"Madrid","District":"Valdezarza","Street":"Calle de Almorox","PostalCode":"28039","AdditionalData":[{"value":"España","key":"CountryName"},{"value":"Comunidad de Madrid","key":"StateName"},{"value":"Madrid","key":"CountyName"}]},"MapReference":{"ReferenceId":"591957700","Spot":0.0,"SideOfStreet":"right","CountryId":"20215059","StateId":"20226800","CountyId":"20226801","CityId":"20242802"}}},{"Relevance":1.0,"Distance":33.6,"MatchLevel":"houseNumber","MatchQuality":{"Country":1.0,"State":1.0,"County":1.0,"City":1.0,"District":1.0,"Street":[1.0],"HouseNumber":1.0,"PostalCode":1.0},"MatchType":"interpolated","Location":{"LocationId":"NT_lmq2hK.BDoRkUBFkDvoF7A_zID","LocationType":"point","DisplayPosition":{"Latitude":40.46347,"Longitude":-3.71117},"MapView":{"TopLeft":{"Latitude":40.4645942,"Longitude":-3.7126476},"BottomRight":{"Latitude":40.4623458,"Longitude":-3.7096924}},"Address":{"Label":"Calle de Azuaga, 32, 28039 Madrid (Madrid), España","Country":"ESP","State":"Comunidad de Madrid","County":"Madrid","City":"Madrid","District":"Valdezarza","Street":"Calle de Azuaga","HouseNumber":"32","PostalCode":"28039","AdditionalData":[{"value":"España","key":"CountryName"},{"value":"Comunidad de Madrid","key":"StateName"},{"value":"Madrid","key":"CountyName"}]},"MapReference":{"ReferenceId":"68488378","Spot":0.23,"SideOfStreet":"right","CountryId":"20215059","StateId":"20226800","CountyId":"20226801","CityId":"20242802","AddressId":"588634406","RoadLinkId":"66657420"}}}]}]}}