{"Response":{"MetaInfo":{"Timestamp":"2020-03-28T09:48:00.730+0000","NextPageInformation":"2"},"View":[{"_type":"SearchResultsViewType","ViewId":0,"Result":[{"Relevance":1.0,"Distance":0.0,"Direction":0.0,"MatchLevel":"district","MatchQuality":{"Country":1.0,"State":1.0,"County":1.0,"City":1.0,"District":1.0,"PostalCode":1.0},"Location":{"LocationId":"NT_1G6wc3rICNzdtY30c7Hd2C","LocationType":"point","DisplayPosition":{"Latitude":40.4081834,"Longitude":-3.6781652},"MapView":{"TopLeft":{"Latitude":40.41657,"Longitude":-3.67861},"BottomRight":{"Latitude":40.40684,"Longitude":-3.66945}},"Address":{"Label":"Niño Jesús, Madrid, Comunidad de Madrid, España","Country":"ESP","State":"Comunidad de Madrid","County":"Madrid","City":"Madrid","District":"Niño Jesús","PostalCode":"28007","AdditionalData":[{"value":"España","key":"CountryName"},{"value":"Comunidad de Madrid","key":"StateName"},{"value":"Madrid","key":"CountyName"}]},"MapReference":{"ReferenceId":"68497999","SideOfStreet":"neither","CountryId":"20215059","StateId":"20226800","CountyId":"20226801","CityId":"20242802"}}},{"Relevance":1.0,"Distance":11.9,"MatchLevel":"houseNumber","MatchQuality":{"Country":1.0,"State":1.0,"County":1.0,"City":1.0,"District":1.0,"Street":[1.0],"HouseNumber":1.0,"PostalCode":1.0},"MatchType":"interpolated","Location":{"LocationId":"NT_do6tDNYzd8EvrU1kT45IxB_5ED","LocationType":"point","DisplayPosition":{"Latitude":40.40815,"Longitude":-3.67838},"MapView":{"TopLeft":{"Latitude":40.4092742,"Longitude":-3.6798563},"BottomRight":{"Latitude":40.4070258,"Longitude":-3.6769037}},"Address":{"Label":"Avenida de Menéndez Pelayo, 91, 28007 Madrid (Madrid), España","Country":"ESP","State":"Comunidad de Madrid","County":"Madrid","City":"Madrid","District":"Niño Jesús","Street":"Avenida de Menéndez Pelayo","HouseNumber":"91","PostalCode":"28007","AdditionalData":[{"value":"España","key":"CountryName"},{"value":"Comunidad de Madrid","key":"StateName"},{"value":"Madrid","key":"CountyName"}]},"MapReference":{"ReferenceId":"981145584","Spot":0.75,"SideOfStreet":"right","CountryId":"20215059","StateId":"20226800","CountyId":"20226801","CityId":"20242802","AddressId":"588563367","RoadLinkId":"313094088"}}},{"Relevance":1.0,"Distance":15.1,"MatchLevel":"landmark","MatchQuality":{"Country":1.0,"State":1.0,"County":1.0,"City":1.0,"District":1.0,"Street":[1.0],"PostalCode":1.0,"Name":1.0},"Location":{"LocationId":"NT_Mkbk-lEk5ZF1h5lVv1jalD_p_Nc19Tg-ClCtGAyD0no1hTC","LocationType":"park","Name":"Parque del Buen Retiro","DisplayPosition":{"Latitude":40.41978,"Longitude":-3.68828},"MapView":{"TopLeft":{"Latitude":40.42165,"Longitude":-3.68891},"BottomRight":{"Latitude":40.40799,"Longitude":-3.67628}},"Address":{"Label":"Avenida de Méjico, 28001 Madrid (Madrid), España","Country":"ESP","State":"Comunidad de Madrid","County":"Madrid","City":"Madrid","District":"Jerónimos","Street":"Avenida de Méjico","PostalCode":"28001","AdditionalData":[{"value":"España","key":"CountryName"},{"value":"Comunidad de Madrid","key":"StateName"},{"value":"Madrid","key":"CountyName"}]},"MapReference":{"CountryId":"20215059","StateId":"20226800","CountyId":"20226801","CityId":"20242802","PlaceId":"58590807"}}},{"Relevance":1.0,"Distance":15.1,"MatchLevel":"street","MatchQuality":{"Country":1.0,"State":1.0,"County":1.0,"City":1.0,"District":1.0,"Street":[1.0],"PostalCode":1.0},"Location":{"LocationId":"NT_JfFVYe2tmKSnO6qRVHG1VD_l_68498561_R","LocationType":"point","DisplayPosition":{"Latitude":40.4082707,"Longitude":-3.6783023},"MapView":{"TopLeft":{"Latitude":40.4084,"Longitude":-3.67836},"BottomRight":{"Latitude":40.40818,"Longitude":-3.67822}},"Address":{"Label":"Avenida de Menéndez Pelayo, 28007 Madrid (Madrid), España","Country":"ESP","State":"Comunidad de Madrid","County":"Madrid","City":"Madrid","District":"Niño Jesús","Street":"Avenida de Menéndez Pelayo","PostalCode":"28007","AdditionalData":[{"value":"España","key":"CountryName"},{"value":"Comunidad de Madrid","key":"StateName"},{"value":"Madrid","key":"CountyName"}]},"MapReference":{"ReferenceId":"68498561","Spot":0.41,"SideOfStreet":"right","CountryId":"20215059","StateId":"20226800","CountyId":"20226801","CityId":"20242802"}}},{"Relevance":1.0,"Distance":16.5,"MatchLevel":"street","MatchQuality":{"Country":1.0,"State":1.0,"County":1.0,"City":1.0,"District":1.0,"Street":[1.0],"PostalCode":1.0},"Location":{"LocationId":"NT_xkxwEwOLCmE4E3VxnnaIeC_l_810092085_R","LocationType":"point","DisplayPosition":{"Latitude":40.40818,"Longitude":-3.67836},"MapView":{"TopLeft":{"Latitude":40.40823,"Longitude":-3.67851},"BottomRight":{"Latitude":40.40818,"Longitude":-3.67836}},"Address":{"Label":"Calle del Poeta Esteban de Villegas, 28007 Madrid (Madrid), España","Country":"ESP","State":"Comunidad de Madrid","County":"Madrid","City":"Madrid","District":"Jerónimos","Street":"Calle del Poeta Esteban de Villegas","PostalCode":"28007","AdditionalData":[{"value":"España","key":"CountryName"},{"value":"Comunidad de Madrid","key":"StateName"},{"value":"Madrid","key":"CountyName"}]},"MapReference":{"ReferenceId":"810092085","Spot":0.0,"SideOfStreet":"right","CountryId":"20215059","StateId":"20226800","CountyId":"20226801","CityId":"20242802"}}},{"Relevance":1.0,"Distance":29.9,"MatchLevel":"street","MatchQuality":{"Country":1.0,"State":1.0,"County":1.0,"City":1.0,"District":1.0,"PostalCode":1.0},"Location":{"LocationId":"NT_Xt.D-sxVx1h7m8BvDRNliA_l_810092087_R","LocationType":"point","DisplayPosition":{"Latitude":40.40829,"Longitude":-3.67849},"MapView":{"TopLeft":{"Latitude":40.40854,"Longitude":-3.67866},"BottomRight":{"Latitude":40.40823,"Longitude":-3.67848}},"Address":{"Label":"28014 Madrid (Madrid), España","Country":"ESP","State":"Comunidad de Madrid","County":"Madrid","City":"Madrid","District":"Jerónimos","PostalCode":"28014","AdditionalData":[{"value":"España","key":"CountryName"},{"value":"Comunidad de Madrid","key":"StateName"},{"value":"Madrid","key":"CountyName"}]},"MapReference":{"ReferenceId":"810092087","Spot":0.16,"SideOfStreet":"right","CountryId":"20215059","StateId":"20226800","CountyId":"20226801","CityId":"20242802"}}},{"Relevance":1.0,"Distance":30.9,"MatchLevel":"houseNumber","MatchQuality":{"Country":1.0,"State":1.0,"County":1.0,"City":1.0,"District":1.0,"Street":[1.0],"HouseNumber":1.0,"PostalCode":1.0},"MatchType":"interpolated","Location":{"LocationId":"NT_JfFVYe2tmKSnO6qRVHG1VD_xQD","LocationType":"point","DisplayPosition":{"Latitude":40.40802,"Longitude":-3.67846},"MapView":{"TopLeft":{"Latitude":40.4091442,"Longitude":-3.6799363},"BottomRight":{"Latitude":40.4068958,"Longitude":-3.6769837}},"Address":{"Label":"Avenida de Menéndez Pelayo, 14, 28007 Madrid (Madrid), España","Country":"ESP","State":"Comunidad de Madrid","County":"Madrid","City":"Madrid","District":"Jerónimos","Street":"Avenida de Menéndez Pelayo","HouseNumber":"14","PostalCode":"28007","AdditionalData":[{"value":"España","key":"CountryName"},{"value":"Comunidad de Madrid","key":"StateName"},{"value":"Madrid","key":"CountyName"}]},"MapReference":{"ReferenceId":"981145583","Spot":0.38,"SideOfStreet":"left","CountryId":"20215059","StateId":"20226800","CountyId":"20226801","CityId":"20242802","AddressId":"588610034","RoadLinkId":"313094087"}}},{"Relevance":1.0,"Distance":33.6,"MatchLevel":"street","MatchQuality":{"Country":1.0,"State":1.0,"County":1.0,"City":1.0,"District":1.0,"Street":[1.0],"PostalCode":1.0},"Location":{"LocationId":"NT_E1QtAfLPzQEJlO83g2bZBB_l_76622691_R","LocationType":"point","DisplayPosition":{"Latitude":40.408,"Longitude":-3.67848},"MapView":{"TopLeft":{"Latitude":40.408,"Longitude":-3.67854},"BottomRight":{"Latitude":40.40792,"Longitude":-3.67848}},"Address":{"Label":"Avenida de Menéndez Pelayo, 28007 Madrid (Madrid), España","Country":"ESP","State":"Comunidad de Madrid","County":"Madrid","City":"Madrid","District":"Niño Jesús","Street":"Avenida de Menéndez Pelayo","PostalCode":"28007","AdditionalData":[{"value":"España","key":"CountryName"},{"value":"Comunidad de Madrid","key":"StateName"},{"value":"Madrid","key":"CountyName"}]},"MapReference":{"ReferenceId":"76622691","Spot":1.0,"SideOfStreet":"right","CountryId":"20215059","StateId":"20226800","CountyId":"20226801","CityId":"20242802"}}},{"Relevance":1.0,"Distance":39.1,"MatchLevel":"houseNumber","MatchQuality":{"Country":1.0,"State":1.0,"County":1.0,"City":1.0,"District":1.0,"Street":[1.0],"HouseNumber":1.0,"PostalCode":1.0},"MatchType":"interpolated","Location":{"LocationId":"NT_TJhcU6HHlbPMNdO9Q6drHC_yA","LocationType":"point","DisplayPosition":{"Latitude":40.40816,"Longitude":-3.67766},"MapView":{"TopLeft":{"Latitude":40.4092842,"Longitude":-3.6791363},"BottomRight":{"Latitude":40.4070358,"Longitude":-3.6761837}},"Address":{"Label":"Calle de Roncesvalles, 2, 28007 Madrid (Madrid), España","Country":"ESP","State":"Comunidad de Madrid","County":"Madrid","City":"Madrid","District":"Niño Jesús","Street":"Calle de Roncesvalles","HouseNumber":"2","PostalCode":"28007","AdditionalData":[{"value":"España","key":"CountryName"},{"value":"Comunidad de Madrid","key":"StateName"},{"value":"Madrid","key":"CountyName"}]},"MapReference":{"ReferenceId":"68498627","Spot":0.47,"SideOfStreet":"left","CountryId":"20215059","StateId":"20226800","CountyId":"20226801","CityId":"20242802","AddressId":"588598485","RoadLinkId":"66971107"}}},{"Relevance":1.0,"Distance":40.9,"MatchLevel":"houseNumber","MatchQuality":{"Country":1.0,"State":1.0,"County":1.0,"City":1.0,"District":1.0,"Street":[1.0],"HouseNumber":1.0,"PostalCode":1.0},"MatchType":"interpolated","Location":{"LocationId":"NT_do6tDNYzd8EvrU1kT45IxB_4kD","LocationType":"point","DisplayPosition":{"Latitude":40.40855,"Longitude":-3.67812},"MapView":{"TopLeft":{"Latitude":40.4096742,"Longitude":-3.6795963},"BottomRight":{"Latitude":40.4074258,"Longitude":-3.6766437}},"Address":{"Label":"Avenida de Menéndez Pelayo, 89, 28007 Madrid (Madrid), España","Country":"ESP","State":"Comunidad de Madrid","County":"Madrid","City":"Madrid","District":"Niño Jesús","Street":"Avenida de Menéndez Pelayo","HouseNumber":"89","PostalCode":"28007","AdditionalData":[{"value":"España","key":"CountryName"},{"value":"Comunidad de Madrid","key":"StateName"},{"value":"Madrid","key":"CountyName"}]},"MapReference":{"ReferenceId":"981145585","Spot":0.18,"SideOfStreet":"right","CountryId":"20215059","StateId":"20226800","CountyId":"20226801","CityId":"20242802","AddressId":"588555217","RoadLinkId":"313094089"}}}]}]}}