{"Response":{"MetaInfo":{"Timestamp":"2020-03-28T11:21:11.716+0000","NextPageInformation":"2"},"View":[{"_type":"SearchResultsViewType","ViewId":0,"Result":[{"Relevance":1.0,"Distance":0.0,"Direction":0.0,"MatchLevel":"district","MatchQuality":{"Country":1.0,"State":1.0,"County":1.0,"City":1.0,"District":1.0,"PostalCode":1.0},"Location":{"LocationId":"NT_CfnThrFg7rBlatBuqKh7eB","LocationType":"point","DisplayPosition":{"Latitude":40.4590944,"Longitude":22.8624764},"MapView":{"TopLeft":{"Latitude":40.4703,"Longitude":22.85279},"BottomRight":{"Latitude":40.45552,"Longitude":22.87085}},"Address":{"Label":"Νέα Μηχανιώνα, Μηχανιώνα, Κεντρική Μακεδονία, Ελληνικη Δημοκρατια","Country":"GRC","State":"Κεντρική Μακεδονία","County":"Θεσσαλονίκη","City":"Μηχανιώνα","District":"Νέα Μηχανιώνα","PostalCode":"570 04","AdditionalData":[{"value":"Ελληνικη Δημοκρατια","key":"CountryName"},{"value":"Κεντρική Μακεδονία","key":"StateName"},{"value":"Θεσσαλονίκη","key":"CountyName"}]},"MapReference":{"ReferenceId":"723521124","SideOfStreet":"neither","CountryId":"20448870","StateId":"20653300","CountyId":"20653331","CityId":"20668183","DistrictId":"22995449"}}},{"Relevance":1.0,"Distance":0.4,"MatchLevel":"street","MatchQuality":{"Country":1.0,"State":1.0,"County":1.0,"City":1.0,"District":1.0,"Street":[1.0],"PostalCode":1.0},"Location":{"LocationId":"NT_o6ETkHY-dZ4OL8lKbasEDB_l_1204750512_L","LocationType":"point","DisplayPosition":{"Latitude":40.459091,"Longitude":22.8624777},"MapView":{"TopLeft":{"Latitude":40.4592,"Longitude":22.86205},"BottomRight":{"Latitude":40.45894,"Longitude":22.86277}},"Address":{"Label":"Πάροδος Πολυτεχνείου, 570 04 Μηχανιώνα, Ελληνικη Δημοκρατια","Country":"GRC","State":"Κεντρική Μακεδονία","County":"Θεσσαλονίκη","City":"Μηχανιώνα","District":"Νέα Μηχανιώνα","Street":"Πάροδος Πολυτεχνείου","PostalCode":"570 04","AdditionalData":[{"value":"Ελληνικη Δημοκρατια","key":"CountryName"},{"value":"Κεντρική Μακεδονία","key":"StateName"},{"value":"Θεσσαλονίκη","key":"CountyName"}]},"MapReference":{"ReferenceId":"1204750512","Spot":0.59,"SideOfStreet":"neither","CountryId":"20448870","StateId":"20653300","CountyId":"20653331","CityId":"20668183","DistrictId":"22995449"}}},{"Relevance":1.0,"Distance":13.2,"MatchLevel":"houseNumber","MatchQuality":{"Country":1.0,"State":1.0,"County":1.0,"City":1.0,"District":1.0,"Street":[1.0],"HouseNumber":1.0,"PostalCode":1.0},"MatchType":"interpolated","Location":{"LocationId":"NT_wnLybA2m34s2-5QUVJWciC_xMDM","LocationType":"point","DisplayPosition":{"Latitude":40.45929,"Longitude":22.86269},"MapView":{"TopLeft":{"Latitude":40.4604142,"Longitude":22.8612125},"BottomRight":{"Latitude":40.4581658,"Longitude":22.8641675}},"Address":{"Label":"130 Αγίου Νικολάου, 570 04 Μηχανιώνα, Ελληνικη Δημοκρατια","Country":"GRC","State":"Κεντρική Μακεδονία","County":"Θεσσαλονίκη","City":"Μηχανιώνα","District":"Νέα Μηχανιώνα","Street":"Αγίου Νικολάου","HouseNumber":"130","PostalCode":"570 04","AdditionalData":[{"value":"Ελληνικη Δημοκρατια","key":"CountryName"},{"value":"Κεντρική Μακεδονία","key":"StateName"},{"value":"Θεσσαλονίκη","key":"CountyName"}]},"MapReference":{"ReferenceId":"778975308","Spot":0.11,"SideOfStreet":"left","CountryId":"20448870","StateId":"20653300","CountyId":"20653331","CityId":"20668183","DistrictId":"22995449","AddressId":"687532286","RoadLinkId":"172460179"}}},{"Relevance":1.0,"Distance":26.1,"MatchLevel":"street","MatchQuality":{"Country":1.0,"State":1.0,"County":1.0,"City":1.0,"District":1.0,"PostalCode":1.0},"Location":{"LocationId":"NT_SlcMjTfU1776M-tajxRfSA_l_1204750515_R","LocationType":"point","DisplayPosition":{"Latitude":40.45886,"Longitude":22.86247},"MapView":{"TopLeft":{"Latitude":40.45886,"Longitude":22.86227},"BottomRight":{"Latitude":40.45863,"Longitude":22.86265}},"Address":{"Label":"570 04 Μηχανιώνα, Ελληνικη Δημοκρατια","Country":"GRC","State":"Κεντρική Μακεδονία","County":"Θεσσαλονίκη","City":"Μηχανιώνα","District":"Νέα Μηχανιώνα","PostalCode":"570 04","AdditionalData":[{"value":"Ελληνικη Δημοκρατια","key":"CountryName"},{"value":"Κεντρική Μακεδονία","key":"StateName"},{"value":"Θεσσαλονίκη","key":"CountyName"}]},"MapReference":{"ReferenceId":"1204750515","Spot":0.61,"SideOfStreet":"right","CountryId":"20448870","StateId":"20653300","CountyId":"20653331","CityId":"20668183","DistrictId":"22995449"}}},{"Relevance":1.0,"Distance":32.3,"MatchLevel":"street","MatchQuality":{"Country":1.0,"State":1.0,"County":1.0,"City":1.0,"District":1.0,"PostalCode":1.0},"Location":{"LocationId":"NT_SlcMjTfU1776M-tajxRfSA_l_1204750516_R","LocationType":"point","DisplayPosition":{"Latitude":40.45885,"Longitude":22.86227},"MapView":{"TopLeft":{"Latitude":40.45889,"Longitude":22.86214},"BottomRight":{"Latitude":40.45885,"Longitude":22.86227}},"Address":{"Label":"570 04 Μηχανιώνα, Ελληνικη Δημοκρατια","Country":"GRC","State":"Κεντρική Μακεδονία","County":"Θεσσαλονίκη","City":"Μηχανιώνα","District":"Νέα Μηχανιώνα","PostalCode":"570 04","AdditionalData":[{"value":"Ελληνικη Δημοκρατια","key":"CountryName"},{"value":"Κεντρική Μακεδονία","key":"StateName"},{"value":"Θεσσαλονίκη","key":"CountyName"}]},"MapReference":{"ReferenceId":"1204750516","Spot":0.0,"SideOfStreet":"right","CountryId":"20448870","StateId":"20653300","CountyId":"20653331","CityId":"20668183","DistrictId":"22995449"}}},{"Relevance":1.0,"Distance":32.3,"MatchLevel":"street","MatchQuality":{"Country":1.0,"State":1.0,"County":1.0,"City":1.0,"District":1.0,"PostalCode":1.0},"Location":{"LocationId":"NT_SlcMjTfU1776M-tajxRfSA_l_1204750517_R","LocationType":"point","DisplayPosition":{"Latitude":40.45885,"Longitude":22.86227},"MapView":{"TopLeft":{"Latitude":40.45885,"Longitude":22.86223},"BottomRight":{"Latitude":40.4588,"Longitude":22.86227}},"Address":{"Label":"570 04 Μηχανιώνα, Ελληνικη Δημοκρατια","Country":"GRC","State":"Κεντρική Μακεδονία","County":"Θεσσαλονίκη","City":"Μηχανιώνα","District":"Νέα Μηχανιώνα","PostalCode":"570 04","AdditionalData":[{"value":"Ελληνικη Δημοκρατια","key":"CountryName"},{"value":"Κεντρική Μακεδονία","key":"StateName"},{"value":"Θεσσαλονίκη","key":"CountyName"}]},"MapReference":{"ReferenceId":"1204750517","Spot":1.0,"SideOfStreet":"right","CountryId":"20448870","StateId":"20653300","CountyId":"20653331","CityId":"20668183","DistrictId":"22995449"}}},{"Relevance":1.0,"Distance":33.6,"MatchLevel":"houseNumber","MatchQuality":{"Country":1.0,"State":1.0,"County":1.0,"City":1.0,"District":1.0,"Street":[1.0],"HouseNumber":1.0,"PostalCode":1.0},"MatchType":"interpolated","Location":{"LocationId":"NT_wnLybA2m34s2-5QUVJWciC_xMjM","LocationType":"point","DisplayPosition":{"Latitude":40.45899,"Longitude":22.86295},"MapView":{"TopLeft":{"Latitude":40.4601142,"Longitude":22.8614725},"BottomRight":{"Latitude":40.4578658,"Longitude":22.8644275}},"Address":{"Label":"132 Αγίου Νικολάου, 570 04 Μηχανιώνα, Ελληνικη Δημοκρατια","Country":"GRC","State":"Κεντρική Μακεδονία","County":"Θεσσαλονίκη","City":"Μηχανιώνα","District":"Νέα Μηχανιώνα","Street":"Αγίου Νικολάου","HouseNumber":"132","PostalCode":"570 04","AdditionalData":[{"value":"Ελληνικη Δημοκρατια","key":"CountryName"},{"value":"Κεντρική Μακεδονία","key":"StateName"},{"value":"Θεσσαλονίκη","key":"CountyName"}]},"MapReference":{"ReferenceId":"723521223","Spot":0.53,"SideOfStreet":"left","CountryId":"20448870","StateId":"20653300","CountyId":"20653331","CityId":"20668183","DistrictId":"22995449","AddressId":"687526220","RoadLinkId":"172460202"}}},{"Relevance":1.0,"Distance":36.4,"MatchLevel":"street","MatchQuality":{"Country":1.0,"State":1.0,"County":1.0,"City":1.0,"District":1.0,"PostalCode":1.0},"Location":{"LocationId":"NT_SlcMjTfU1776M-tajxRfSA_l_1204750513_R","LocationType":"point","DisplayPosition":{"Latitude":40.45889,"Longitude":22.86214},"MapView":{"TopLeft":{"Latitude":40.45894,"Longitude":22.86205},"BottomRight":{"Latitude":40.45889,"Longitude":22.86214}},"Address":{"Label":"570 04 Μηχανιώνα, Ελληνικη Δημοκρατια","Country":"GRC","State":"Κεντρική Μακεδονία","County":"Θεσσαλονίκη","City":"Μηχανιώνα","District":"Νέα Μηχανιώνα","PostalCode":"570 04","AdditionalData":[{"value":"Ελληνικη Δημοκρατια","key":"CountryName"},{"value":"Κεντρική Μακεδονία","key":"StateName"},{"value":"Θεσσαλονίκη","key":"CountyName"}]},"MapReference":{"ReferenceId":"1204750513","Spot":0.0,"SideOfStreet":"right","CountryId":"20448870","StateId":"20653300","CountyId":"20653331","CityId":"20668183","DistrictId":"22995449"}}},{"Relevance":1.0,"Distance":38.8,"MatchLevel":"street","MatchQuality":{"Country":1.0,"State":1.0,"County":1.0,"City":1.0,"District":1.0,"PostalCode":1.0},"Location":{"LocationId":"NT_SlcMjTfU1776M-tajxRfSA_l_1204750514_R","LocationType":"point","DisplayPosition":{"Latitude":40.4588,"Longitude":22.86223},"MapView":{"TopLeft":{"Latitude":40.45889,"Longitude":22.86211},"BottomRight":{"Latitude":40.45878,"Longitude":22.86223}},"Address":{"Label":"570 04 Μηχανιώνα, Ελληνικη Δημοκρατια","Country":"GRC","State":"Κεντρική Μακεδονία","County":"Θεσσαλονίκη","City":"Μηχανιώνα","District":"Νέα Μηχανιώνα","PostalCode":"570 04","AdditionalData":[{"value":"Ελληνικη Δημοκρατια","key":"CountryName"},{"value":"Κεντρική Μακεδονία","key":"StateName"},{"value":"Θεσσαλονίκη","key":"CountyName"}]},"MapReference":{"ReferenceId":"1204750514","Spot":0.0,"SideOfStreet":"right","CountryId":"20448870","StateId":"20653300","CountyId":"20653331","CityId":"20668183","DistrictId":"22995449"}}},{"Relevance":1.0,"Distance":40.0,"MatchLevel":"street","MatchQuality":{"Country":1.0,"State":1.0,"County":1.0,"City":1.0,"District":1.0,"Street":[1.0],"PostalCode":1.0},"Location":{"LocationId":"NT_o6ETkHY-dZ4OL8lKbasEDB_l_1204750511_L","LocationType":"point","DisplayPosition":{"Latitude":40.45894,"Longitude":22.86205},"MapView":{"TopLeft":{"Latitude":40.45894,"Longitude":22.86197},"BottomRight":{"Latitude":40.45893,"Longitude":22.86205}},"Address":{"Label":"Πάροδος Πολυτεχνείου, 570 04 Μηχανιώνα, Ελληνικη Δημοκρατια","Country":"GRC","State":"Κεντρική Μακεδονία","County":"Θεσσαλονίκη","City":"Μηχανιώνα","District":"Νέα Μηχανιώνα","Street":"Πάροδος Πολυτεχνείου","PostalCode":"570 04","AdditionalData":[{"value":"Ελληνικη Δημοκρατια","key":"CountryName"},{"value":"Κεντρική Μακεδονία","key":"StateName"},{"value":"Θεσσαλονίκη","key":"CountyName"}]},"MapReference":{"ReferenceId":"1204750511","Spot":1.0,"SideOfStreet":"left","CountryId":"20448870","StateId":"20653300","CountyId":"20653331","CityId":"20668183","DistrictId":"22995449"}}}]}]}}