{"Response":{"MetaInfo":{"Timestamp":"2020-03-28T09:44:41.741+0000","NextPageInformation":"2"},"View":[{"_type":"SearchResultsViewType","ViewId":0,"Result":[{"Relevance":1.0,"Distance":0.0,"Direction":0.0,"MatchLevel":"city","MatchQuality":{"Country":1.0,"State":1.0,"County":1.0,"City":1.0,"PostalCode":1.0},"Location":{"LocationId":"NT_VU4-pGh2E7chZ-RZgXvDxB","LocationType":"point","DisplayPosition":{"Latitude":40.427188,"Longitude":-3.5339227},"MapView":{"TopLeft":{"Latitude":40.47231,"Longitude":-3.5382},"BottomRight":{"Latitude":40.40656,"Longitude":-3.4106}},"Address":{"Label":"San Fernando de Henares, Comunidad de Madrid, España","Country":"ESP","State":"Comunidad de Madrid","County":"Madrid","City":"San Fernando de Henares","PostalCode":"28830","AdditionalData":[{"value":"España","key":"CountryName"},{"value":"Comunidad de Madrid","key":"StateName"},{"value":"Madrid","key":"CountyName"}]},"MapReference":{"ReferenceId":"981142605","SideOfStreet":"neither","CountryId":"20215059","StateId":"20226800","CountyId":"20226801","CityId":"20243042"}}},{"Relevance":1.0,"Distance":17.2,"MatchLevel":"houseNumber","MatchQuality":{"Country":1.0,"State":1.0,"County":1.0,"City":1.0,"Street":[1.0],"HouseNumber":1.0,"PostalCode":1.0},"MatchType":"interpolated","Location":{"LocationId":"NT_okXlmjN3lzwkXxJu35EqiD_xA","LocationType":"point","DisplayPosition":{"Latitude":40.42731,"Longitude":-3.53373},"MapView":{"TopLeft":{"Latitude":40.4284342,"Longitude":-3.5352068},"BottomRight":{"Latitude":40.4261858,"Longitude":-3.5322532}},"Address":{"Label":"Calle Cáceres, 1, 28830 San Fernando de Henares (Madrid), España","Country":"ESP","State":"Comunidad de Madrid","County":"Madrid","City":"San Fernando de Henares","Street":"Calle Cáceres","HouseNumber":"1","PostalCode":"28830","AdditionalData":[{"value":"España","key":"CountryName"},{"value":"Comunidad de Madrid","key":"StateName"},{"value":"Madrid","key":"CountyName"}]},"MapReference":{"ReferenceId":"545850664","Spot":0.53,"SideOfStreet":"right","CountryId":"20215059","StateId":"20226800","CountyId":"20226801","CityId":"20243042","AddressId":"267372943","RoadLinkId":"67418710"}}},{"Relevance":1.0,"Distance":31.8,"MatchLevel":"houseNumber","MatchQuality":{"Country":1.0,"State":1.0,"County":1.0,"City":1.0,"Street":[1.0],"HouseNumber":1.0,"PostalCode":1.0},"MatchType":"interpolated","Location":{"LocationId":"NT_cFAXKTdloQYm627bSMtHjA_0A","LocationType":"point","DisplayPosition":{"Latitude":40.42695,"Longitude":-3.53423},"MapView":{"TopLeft":{"Latitude":40.4280742,"Longitude":-3.5357068},"BottomRight":{"Latitude":40.4258258,"Longitude":-3.5327532}},"Address":{"Label":"Calle Córdoba, 4, 28830 San Fernando de Henares (Madrid), España","Country":"ESP","State":"Comunidad de Madrid","County":"Madrid","City":"San Fernando de Henares","Street":"Calle Córdoba","HouseNumber":"4","PostalCode":"28830","AdditionalData":[{"value":"España","key":"CountryName"},{"value":"Comunidad de Madrid","key":"StateName"},{"value":"Madrid","key":"CountyName"}]},"MapReference":{"ReferenceId":"1176491439","Spot":0.66,"SideOfStreet":"right","CountryId":"20215059","StateId":"20226800","CountyId":"20226801","CityId":"20243042","AddressId":"767314750","RoadLinkId":"484137713"}}},{"Relevance":1.0,"Distance":33.7,"MatchLevel":"houseNumber","MatchQuality":{"Country":1.0,"State":1.0,"County":1.0,"City":1.0,"Street":[1.0],"HouseNumber":1.0,"PostalCode":1.0},"MatchType":"interpolated","Location":{"LocationId":"NT_okXlmjN3lzwkXxJu35EqiD_1A","LocationType":"point","DisplayPosition":{"Latitude":40.42728,"Longitude":-3.53432},"MapView":{"TopLeft":{"Latitude":40.4284042,"Longitude":-3.5357968},"BottomRight":{"Latitude":40.4261558,"Longitude":-3.5328432}},"Address":{"Label":"Calle Cáceres, 5, 28830 San Fernando de Henares (Madrid), España","Country":"ESP","State":"Comunidad de Madrid","County":"Madrid","City":"San Fernando de Henares","Street":"Calle Cáceres","HouseNumber":"5","PostalCode":"28830","AdditionalData":[{"value":"España","key":"CountryName"},{"value":"Comunidad de Madrid","key":"StateName"},{"value":"Madrid","key":"CountyName"}]},"MapReference":{"ReferenceId":"545850667","Spot":0.6,"SideOfStreet":"right","CountryId":"20215059","StateId":"20226800","CountyId":"20226801","CityId":"20243042","AddressId":"267207306","RoadLinkId":"67101057"}}},{"Relevance":1.0,"Distance":46.5,"MatchLevel":"houseNumber","MatchQuality":{"Country":1.0,"State":1.0,"County":1.0,"City":1.0,"Street":[1.0],"HouseNumber":1.0,"PostalCode":1.0},"MatchType":"interpolated","Location":{"LocationId":"NT_K8AtdCsOrSO3b-i6LprNwD_yYD","LocationType":"point","DisplayPosition":{"Latitude":40.42707,"Longitude":-3.53451},"MapView":{"TopLeft":{"Latitude":40.4281942,"Longitude":-3.5359868},"BottomRight":{"Latitude":40.4259458,"Longitude":-3.5330332}},"Address":{"Label":"Calle de los Alpechines, 26, 28830 San Fernando de Henares (Madrid), España","Country":"ESP","State":"Comunidad de Madrid","County":"Madrid","City":"San Fernando de Henares","Street":"Calle de los Alpechines","HouseNumber":"26","PostalCode":"28830","AdditionalData":[{"value":"España","key":"CountryName"},{"value":"Comunidad de Madrid","key":"StateName"},{"value":"Madrid","key":"CountyName"}]},"MapReference":{"ReferenceId":"545850723","Spot":0.7,"SideOfStreet":"right","CountryId":"20215059","StateId":"20226800","CountyId":"20226801","CityId":"20243042","AddressId":"267388779","RoadLinkId":"66627426"}}},{"Relevance":1.0,"Distance":46.6,"MatchLevel":"houseNumber","MatchQuality":{"Country":1.0,"State":1.0,"County":1.0,"City":1.0,"Street":[1.0],"HouseNumber":1.0,"PostalCode":1.0},"MatchType":"interpolated","Location":{"LocationId":"NT_cFAXKTdloQYm627bSMtHjA_yQE","LocationType":"point","DisplayPosition":{"Latitude":40.4269,"Longitude":-3.53347},"MapView":{"TopLeft":{"Latitude":40.4280242,"Longitude":-3.5349467},"BottomRight":{"Latitude":40.4257758,"Longitude":-3.5319933}},"Address":{"Label":"Calle Córdoba, 2D, 28830 San Fernando de Henares (Madrid), España","Country":"ESP","State":"Comunidad de Madrid","County":"Madrid","City":"San Fernando de Henares","Street":"Calle Córdoba","HouseNumber":"2D","PostalCode":"28830","AdditionalData":[{"value":"España","key":"CountryName"},{"value":"Comunidad de Madrid","key":"StateName"},{"value":"Madrid","key":"CountyName"}]},"MapReference":{"ReferenceId":"545851864","Spot":0.33,"SideOfStreet":"left","CountryId":"20215059","StateId":"20226800","CountyId":"20226801","CityId":"20243042","AddressId":"767333962","RoadLinkId":"67509625"}}},{"Relevance":1.0,"Distance":49.9,"MatchLevel":"houseNumber","MatchQuality":{"Country":1.0,"State":1.0,"County":1.0,"City":1.0,"Street":[1.0],"HouseNumber":1.0,"PostalCode":1.0},"MatchType":"interpolated","Location":{"LocationId":"NT_K8AtdCsOrSO3b-i6LprNwD_ycD","LocationType":"point","DisplayPosition":{"Latitude":40.42731,"Longitude":-3.53449},"MapView":{"TopLeft":{"Latitude":40.4284342,"Longitude":-3.5359668},"BottomRight":{"Latitude":40.4261858,"Longitude":-3.5330132}},"Address":{"Label":"Calle de los Alpechines, 27, 28830 San Fernando de Henares (Madrid), España","Country":"ESP","State":"Comunidad de Madrid","County":"Madrid","City":"San Fernando de Henares","Street":"Calle de los Alpechines","HouseNumber":"27","PostalCode":"28830","AdditionalData":[{"value":"España","key":"CountryName"},{"value":"Comunidad de Madrid","key":"StateName"},{"value":"Madrid","key":"CountyName"}]},"MapReference":{"ReferenceId":"545850668","Spot":0.21,"SideOfStreet":"left","CountryId":"20215059","StateId":"20226800","CountyId":"20226801","CityId":"20243042","AddressId":"267397864","RoadLinkId":"67279920"}}},{"Relevance":1.0,"Distance":54.1,"MatchLevel":"houseNumber","MatchQuality":{"Country":1.0,"State":1.0,"County":1.0,"City":1.0,"Street":[1.0],"HouseNumber":1.0,"PostalCode":1.0},"MatchType":"interpolated","Location":{"LocationId":"NT_cFAXKTdloQYm627bSMtHjA_zA","LocationType":"point","DisplayPosition":{"Latitude":40.42735,"Longitude":-3.53332},"MapView":{"TopLeft":{"Latitude":40.4284742,"Longitude":-3.5347968},"BottomRight":{"Latitude":40.4262258,"Longitude":-3.5318432}},"Address":{"Label":"Calle Córdoba, 3, 28830 San Fernando de Henares (Madrid), España","Country":"ESP","State":"Comunidad de Madrid","County":"Madrid","City":"San Fernando de Henares","Street":"Calle Córdoba","HouseNumber":"3","PostalCode":"28830","AdditionalData":[{"value":"España","key":"CountryName"},{"value":"Comunidad de Madrid","key":"StateName"},{"value":"Madrid","key":"CountyName"}]},"MapReference":{"ReferenceId":"545851828","Spot":0.04,"SideOfStreet":"right","CountryId":"20215059","StateId":"20226800","CountyId":"20226801","CityId":"20243042","AddressId":"266944749","RoadLinkId":"67285106"}}},{"Relevance":1.0,"Distance":54.3,"MatchLevel":"street","MatchQuality":{"Country":1.0,"State":1.0,"County":1.0,"City":1.0,"Street":[1.0],"PostalCode":1.0},"Location":{"LocationId":"NT_K8AtdCsOrSO3b-i6LprNwD_l_545851843_R","LocationType":"point","DisplayPosition":{"Latitude":40.42743,"Longitude":-3.53448},"MapView":{"TopLeft":{"Latitude":40.42778,"Longitude":-3.53448},"BottomRight":{"Latitude":40.42743,"Longitude":-3.53445}},"Address":{"Label":"Calle de los Alpechines, 28830 San Fernando de Henares (Madrid), España","Country":"ESP","State":"Comunidad de Madrid","County":"Madrid","City":"San Fernando de Henares","Street":"Calle de los Alpechines","PostalCode":"28830","AdditionalData":[{"value":"España","key":"CountryName"},{"value":"Comunidad de Madrid","key":"StateName"},{"value":"Madrid","key":"CountyName"}]},"MapReference":{"ReferenceId":"545851843","Spot":0.0,"SideOfStreet":"right","CountryId":"20215059","StateId":"20226800","CountyId":"20226801","CityId":"20243042"}}},{"Relevance":1.0,"Distance":60.7,"MatchLevel":"houseNumber","MatchQuality":{"Country":1.0,"State":1.0,"County":1.0,"City":1.0,"Street":[1.0],"HouseNumber":1.0,"PostalCode":1.0},"MatchType":"interpolated","Location":{"LocationId":"NT_yrNGbbgeB5Qmm8gQaOXYoA_3A","LocationType":"point","DisplayPosition":{"Latitude":40.42782,"Longitude":-3.53402},"MapView":{"TopLeft":{"Latitude":40.4289442,"Longitude":-3.5354968},"BottomRight":{"Latitude":40.4266958,"Longitude":-3.5325432}},"Address":{"Label":"Avenida de Madrid, 7, 28830 San Fernando de Henares (Madrid), España","Country":"ESP","State":"Comunidad de Madrid","County":"Madrid","City":"San Fernando de Henares","Street":"Avenida de Madrid","HouseNumber":"7","PostalCode":"28830","AdditionalData":[{"value":"España","key":"CountryName"},{"value":"Comunidad de Madrid","key":"StateName"},{"value":"Madrid","key":"CountyName"}]},"MapReference":{"ReferenceId":"545852820","Spot":0.23,"SideOfStreet":"right","CountryId":"20215059","StateId":"20226800","CountyId":"20226801","CityId":"20243042","AddressId":"267292579","RoadLinkId":"67402215"}}}]}]}}