{"Response":{"MetaInfo":{"Timestamp":"2020-03-28T09:46:45.205+0000","NextPageInformation":"2"},"View":[{"_type":"SearchResultsViewType","ViewId":0,"Result":[{"Relevance":1.0,"Distance":0.0,"Direction":0.0,"MatchLevel":"city","MatchQuality":{"Country":1.0,"State":1.0,"County":1.0,"City":1.0,"PostalCode":1.0},"Location":{"LocationId":"NT_gic8zQsg6MmxfGdXuZnijA","LocationType":"point","DisplayPosition":{"Latitude":40.5153886,"Longitude":-5.9950161},"MapView":{"TopLeft":{"Latitude":40.53386,"Longitude":-6.01107},"BottomRight":{"Latitude":40.47899,"Longitude":-5.94261}},"Address":{"Label":"Garcibuey, Castilla y León, España","Country":"ESP","State":"Castilla y León","County":"Salamanca","City":"Garcibuey","PostalCode":"37658","AdditionalData":[{"value":"España","key":"CountryName"},{"value":"Castilla y León","key":"StateName"},{"value":"Salamanca","key":"CountyName"}]},"MapReference":{"ReferenceId":"592996036","SideOfStreet":"neither","CountryId":"20215059","StateId":"20221909","CountyId":"20221914","CityId":"20309450"}}},{"Relevance":1.0,"Distance":6.8,"MatchLevel":"houseNumber","MatchQuality":{"Country":1.0,"State":1.0,"County":1.0,"City":1.0,"Street":[1.0],"HouseNumber":1.0,"PostalCode":1.0},"MatchType":"interpolated","Location":{"LocationId":"NT_jiOePr5mHgEAm6ljMHOIhB_l_573599745_L_yAD","LocationType":"point","DisplayPosition":{"Latitude":40.5152,"Longitude":-5.99495},"MapView":{"TopLeft":{"Latitude":40.5163242,"Longitude":-5.9964287},"BottomRight":{"Latitude":40.5140759,"Longitude":-5.9934713}},"Address":{"Label":"Calle Las Eras, 20, 37658 Garcibuey (Salamanca), España","Country":"ESP","State":"Castilla y León","County":"Salamanca","City":"Garcibuey","Street":"Calle Las Eras","HouseNumber":"20","PostalCode":"37658","AdditionalData":[{"value":"España","key":"CountryName"},{"value":"Castilla y León","key":"StateName"},{"value":"Salamanca","key":"CountyName"}]},"MapReference":{"ReferenceId":"573599745","Spot":0.0,"SideOfStreet":"left","CountryId":"20215059","StateId":"20221909","CountyId":"20221914","CityId":"20309450"}}},{"Relevance":1.0,"Distance":11.7,"MatchLevel":"houseNumber","MatchQuality":{"Country":1.0,"State":1.0,"County":1.0,"City":1.0,"Street":[1.0],"HouseNumber":1.0,"PostalCode":1.0},"MatchType":"interpolated","Location":{"LocationId":"NT_1-eOQSCWUEId4ab2VLZtyC_l_573599767_R_xYD","LocationType":"point","DisplayPosition":{"Latitude":40.5153491,"Longitude":-5.9948876},"MapView":{"TopLeft":{"Latitude":40.5164732,"Longitude":-5.9963663},"BottomRight":{"Latitude":40.5142249,"Longitude":-5.9934089}},"Address":{"Label":"Calle Cañada, 16, 37658 Garcibuey (Salamanca), España","Country":"ESP","State":"Castilla y León","County":"Salamanca","City":"Garcibuey","Street":"Calle Cañada","HouseNumber":"16","PostalCode":"37658","AdditionalData":[{"value":"España","key":"CountryName"},{"value":"Castilla y León","key":"StateName"},{"value":"Salamanca","key":"CountyName"}]},"MapReference":{"ReferenceId":"573599767","Spot":0.49,"SideOfStreet":"right","CountryId":"20215059","StateId":"20221909","CountyId":"20221914","CityId":"20309450"}}},{"Relevance":1.0,"Distance":11.9,"MatchLevel":"houseNumber","MatchQuality":{"Country":1.0,"State":1.0,"County":1.0,"City":1.0,"Street":[1.0],"HouseNumber":1.0,"PostalCode":1.0},"MatchType":"interpolated","Location":{"LocationId":"NT_1-eOQSCWUEId4ab2VLZtyC_0AD","LocationType":"point","DisplayPosition":{"Latitude":40.51549,"Longitude":-5.99497},"MapView":{"TopLeft":{"Latitude":40.5166142,"Longitude":-5.9964487},"BottomRight":{"Latitude":40.5143658,"Longitude":-5.9934913}},"Address":{"Label":"Calle Cañada, 40, 37658 Garcibuey (Salamanca), España","Country":"ESP","State":"Castilla y León","County":"Salamanca","City":"Garcibuey","Street":"Calle Cañada","HouseNumber":"40","PostalCode":"37658","AdditionalData":[{"value":"España","key":"CountryName"},{"value":"Castilla y León","key":"StateName"},{"value":"Salamanca","key":"CountyName"}]},"MapReference":{"ReferenceId":"573599764","Spot":0.08,"SideOfStreet":"left","CountryId":"20215059","StateId":"20221909","CountyId":"20221914","CityId":"20309450","AddressId":"405399617","RoadLinkId":"68652000"}}},{"Relevance":1.0,"Distance":20.1,"MatchLevel":"houseNumber","MatchQuality":{"Country":1.0,"State":1.0,"County":1.0,"City":1.0,"Street":[1.0],"HouseNumber":1.0,"PostalCode":1.0},"MatchType":"interpolated","Location":{"LocationId":"NT_jiOePr5mHgEAm6ljMHOIhB_0ID","LocationType":"point","DisplayPosition":{"Latitude":40.51515,"Longitude":-5.99499},"MapView":{"TopLeft":{"Latitude":40.5162742,"Longitude":-5.9964687},"BottomRight":{"Latitude":40.5140258,"Longitude":-5.9935113}},"Address":{"Label":"Calle Las Eras, 42, 37658 Garcibuey (Salamanca), España","Country":"ESP","State":"Castilla y León","County":"Salamanca","City":"Garcibuey","Street":"Calle Las Eras","HouseNumber":"42","PostalCode":"37658","AdditionalData":[{"value":"España","key":"CountryName"},{"value":"Castilla y León","key":"StateName"},{"value":"Salamanca","key":"CountyName"}]},"MapReference":{"ReferenceId":"573599762","Spot":0.68,"SideOfStreet":"left","CountryId":"20215059","StateId":"20221909","CountyId":"20221914","CityId":"20309450","AddressId":"701323358","RoadLinkId":"68941322"}}},{"Relevance":1.0,"Distance":21.9,"MatchLevel":"houseNumber","MatchQuality":{"Country":1.0,"State":1.0,"County":1.0,"City":1.0,"Street":[1.0],"HouseNumber":1.0,"PostalCode":1.0},"MatchType":"interpolated","Location":{"LocationId":"NT_1-eOQSCWUEId4ab2VLZtyC_l_573599756_L_xID","LocationType":"point","DisplayPosition":{"Latitude":40.51523,"Longitude":-5.9947591},"MapView":{"TopLeft":{"Latitude":40.5163542,"Longitude":-5.9962378},"BottomRight":{"Latitude":40.5141058,"Longitude":-5.9932805}},"Address":{"Label":"Calle Cañada, 12, 37658 Garcibuey (Salamanca), España","Country":"ESP","State":"Castilla y León","County":"Salamanca","City":"Garcibuey","Street":"Calle Cañada","HouseNumber":"12","PostalCode":"37658","AdditionalData":[{"value":"España","key":"CountryName"},{"value":"Castilla y León","key":"StateName"},{"value":"Salamanca","key":"CountyName"}]},"MapReference":{"ReferenceId":"573599756","Spot":0.58,"SideOfStreet":"left","CountryId":"20215059","StateId":"20221909","CountyId":"20221914","CityId":"20309450"}}},{"Relevance":1.0,"Distance":43.2,"MatchLevel":"houseNumber","MatchQuality":{"Country":1.0,"State":1.0,"County":1.0,"City":1.0,"Street":[1.0],"HouseNumber":1.0,"PostalCode":1.0},"MatchType":"interpolated","Location":{"LocationId":"NT_wMXGyHpmqoOK9jmcRDGK9A_zA","LocationType":"point","DisplayPosition":{"Latitude":40.515,"Longitude":-5.99501},"MapView":{"TopLeft":{"Latitude":40.5161242,"Longitude":-5.9964887},"BottomRight":{"Latitude":40.5138758,"Longitude":-5.9935313}},"Address":{"Label":"Camino Cañada, 3, 37658 Garcibuey (Salamanca), España","Country":"ESP","State":"Castilla y León","County":"Salamanca","City":"Garcibuey","Street":"Camino Cañada","HouseNumber":"3","PostalCode":"37658","AdditionalData":[{"value":"España","key":"CountryName"},{"value":"Castilla y León","key":"StateName"},{"value":"Salamanca","key":"CountyName"}]},"MapReference":{"ReferenceId":"573599741","Spot":0.99,"SideOfStreet":"right","CountryId":"20215059","StateId":"20221909","CountyId":"20221914","CityId":"20309450","AddressId":"405391587","RoadLinkId":"68724951"}}},{"Relevance":1.0,"Distance":43.6,"MatchLevel":"houseNumber","MatchQuality":{"Country":1.0,"State":1.0,"County":1.0,"City":1.0,"Street":[1.0],"HouseNumber":1.0,"PostalCode":1.0},"MatchType":"interpolated","Location":{"LocationId":"NT_1-eOQSCWUEId4ab2VLZtyC_l_573599749_R_xQD","LocationType":"point","DisplayPosition":{"Latitude":40.51583,"Longitude":-5.99506},"MapView":{"TopLeft":{"Latitude":40.5169542,"Longitude":-5.9965387},"BottomRight":{"Latitude":40.5147059,"Longitude":-5.9935813}},"Address":{"Label":"Calle Cañada, 14, 37658 Garcibuey (Salamanca), España","Country":"ESP","State":"Castilla y León","County":"Salamanca","City":"Garcibuey","Street":"Calle Cañada","HouseNumber":"14","PostalCode":"37658","AdditionalData":[{"value":"España","key":"CountryName"},{"value":"Castilla y León","key":"StateName"},{"value":"Salamanca","key":"CountyName"}]},"MapReference":{"ReferenceId":"573599749","Spot":0.0,"SideOfStreet":"right","CountryId":"20215059","StateId":"20221909","CountyId":"20221914","CityId":"20309450"}}},{"Relevance":1.0,"Distance":44.5,"MatchLevel":"houseNumber","MatchQuality":{"Country":1.0,"State":1.0,"County":1.0,"City":1.0,"Street":[1.0],"HouseNumber":1.0,"PostalCode":1.0},"MatchType":"interpolated","Location":{"LocationId":"NT_1-eOQSCWUEId4ab2VLZtyC_xcD","LocationType":"point","DisplayPosition":{"Latitude":40.5155,"Longitude":-5.99451},"MapView":{"TopLeft":{"Latitude":40.5166242,"Longitude":-5.9959887},"BottomRight":{"Latitude":40.5143758,"Longitude":-5.9930313}},"Address":{"Label":"Calle Cañada, 17, 37658 Garcibuey (Salamanca), España","Country":"ESP","State":"Castilla y León","County":"Salamanca","City":"Garcibuey","Street":"Calle Cañada","HouseNumber":"17","PostalCode":"37658","AdditionalData":[{"value":"España","key":"CountryName"},{"value":"Castilla y León","key":"StateName"},{"value":"Salamanca","key":"CountyName"}]},"MapReference":{"ReferenceId":"573599760","Spot":0.56,"SideOfStreet":"left","CountryId":"20215059","StateId":"20221909","CountyId":"20221914","CityId":"20309450","AddressId":"405468881","RoadLinkId":"68007854"}}},{"Relevance":1.0,"Distance":49.9,"MatchLevel":"houseNumber","MatchQuality":{"Country":1.0,"State":1.0,"County":1.0,"City":1.0,"Street":[1.0],"HouseNumber":1.0,"PostalCode":1.0},"MatchType":"interpolated","Location":{"LocationId":"NT_9B9gYK67eSM8-5dYDjhWRC_zcD","LocationType":"point","DisplayPosition":{"Latitude":40.51504,"Longitude":-5.99459},"MapView":{"TopLeft":{"Latitude":40.5161642,"Longitude":-5.9960687},"BottomRight":{"Latitude":40.5139158,"Longitude":-5.9931113}},"Address":{"Label":"Calle de la Iglesia, 37, 37658 Garcibuey (Salamanca), España","Country":"ESP","State":"Castilla y León","County":"Salamanca","City":"Garcibuey","Street":"Calle de la Iglesia","HouseNumber":"37","PostalCode":"37658","AdditionalData":[{"value":"España","key":"CountryName"},{"value":"Castilla y León","key":"StateName"},{"value":"Salamanca","key":"CountyName"}]},"MapReference":{"ReferenceId":"573599755","Spot":0.68,"SideOfStreet":"left","CountryId":"20215059","StateId":"20221909","CountyId":"20221914","CityId":"20309450","AddressId":"405371837","RoadLinkId":"68216555"}}}]}]}}