{"Response":{"MetaInfo":{"Timestamp":"2020-03-28T10:26:59.057+0000","NextPageInformation":"2"},"View":[{"_type":"SearchResultsViewType","ViewId":0,"Result":[{"Relevance":1.0,"Distance":0.0,"Direction":0.0,"MatchLevel":"city","MatchQuality":{"Country":1.0,"State":1.0,"County":1.0,"City":1.0,"PostalCode":1.0},"Location":{"LocationId":"NT_grJ4ES1ozyW6KCOUvjJwHD","LocationType":"point","DisplayPosition":{"Latitude":40.5218879,"Longitude":-6.3598867},"MapView":{"TopLeft":{"Latitude":40.60859,"Longitude":-6.41462},"BottomRight":{"Latitude":40.50551,"Longitude":-6.24228}},"Address":{"Label":"Serradilla del Arroyo, Castilla y León, España","Country":"ESP","State":"Castilla y León","County":"Salamanca","City":"Serradilla del Arroyo","PostalCode":"37531","AdditionalData":[{"value":"España","key":"CountryName"},{"value":"Castilla y León","key":"StateName"},{"value":"Salamanca","key":"CountyName"}]},"MapReference":{"ReferenceId":"573585539","SideOfStreet":"neither","CountryId":"20215059","StateId":"20221909","CountyId":"20221914","CityId":"20310184"}}},{"Relevance":1.0,"Distance":4.3,"MatchLevel":"houseNumber","MatchQuality":{"Country":1.0,"State":1.0,"County":1.0,"City":1.0,"Street":[1.0],"HouseNumber":1.0,"PostalCode":1.0},"MatchType":"interpolated","Location":{"LocationId":"NT_yAEdDutjFJgn8cAL2iWr0C_xED","LocationType":"point","DisplayPosition":{"Latitude":40.52185,"Longitude":-6.35988},"MapView":{"TopLeft":{"Latitude":40.5229742,"Longitude":-6.3613588},"BottomRight":{"Latitude":40.5207258,"Longitude":-6.3584012}},"Address":{"Label":"Calle de la Ermita, 11, 37531 Serradilla del Arroyo (Salamanca), España","Country":"ESP","State":"Castilla y León","County":"Salamanca","City":"Serradilla del Arroyo","Street":"Calle de la Ermita","HouseNumber":"11","PostalCode":"37531","AdditionalData":[{"value":"España","key":"CountryName"},{"value":"Castilla y León","key":"StateName"},{"value":"Salamanca","key":"CountyName"}]},"MapReference":{"ReferenceId":"574794467","Spot":0.49,"SideOfStreet":"left","CountryId":"20215059","StateId":"20221909","CountyId":"20221914","CityId":"20310184","AddressId":"405432583","RoadLinkId":"68673700"}}},{"Relevance":1.0,"Distance":4.4,"MatchLevel":"houseNumber","MatchQuality":{"Country":1.0,"State":1.0,"County":1.0,"City":1.0,"Street":[1.0],"HouseNumber":1.0,"PostalCode":1.0},"MatchType":"interpolated","Location":{"LocationId":"NT_1TRnnTdZof1ZmAG.n7JpLB_2A","LocationType":"point","DisplayPosition":{"Latitude":40.52191,"Longitude":-6.35993},"MapView":{"TopLeft":{"Latitude":40.5230342,"Longitude":-6.3614088},"BottomRight":{"Latitude":40.5207858,"Longitude":-6.3584512}},"Address":{"Label":"Plaza de Don Cipriano Sánchez, 6, 37531 Serradilla del Arroyo (Salamanca), España","Country":"ESP","State":"Castilla y León","County":"Salamanca","City":"Serradilla del Arroyo","Street":"Plaza de Don Cipriano Sánchez","HouseNumber":"6","PostalCode":"37531","AdditionalData":[{"value":"España","key":"CountryName"},{"value":"Castilla y León","key":"StateName"},{"value":"Salamanca","key":"CountyName"}]},"MapReference":{"ReferenceId":"574794497","Spot":0.0,"SideOfStreet":"right","CountryId":"20215059","StateId":"20221909","CountyId":"20221914","CityId":"20310184","AddressId":"405400394","RoadLinkId":"68385777"}}},{"Relevance":1.0,"Distance":7.2,"MatchLevel":"houseNumber","MatchQuality":{"Country":1.0,"State":1.0,"County":1.0,"City":1.0,"Street":[1.0],"HouseNumber":1.0,"PostalCode":1.0},"MatchType":"interpolated","Location":{"LocationId":"NT_1TRnnTdZof1ZmAG.n7JpLB_3A","LocationType":"point","DisplayPosition":{"Latitude":40.52192,"Longitude":-6.35996},"MapView":{"TopLeft":{"Latitude":40.5230442,"Longitude":-6.3614388},"BottomRight":{"Latitude":40.5207958,"Longitude":-6.3584812}},"Address":{"Label":"Plaza de Don Cipriano Sánchez, 7, 37531 Serradilla del Arroyo (Salamanca), España","Country":"ESP","State":"Castilla y León","County":"Salamanca","City":"Serradilla del Arroyo","Street":"Plaza de Don Cipriano Sánchez","HouseNumber":"7","PostalCode":"37531","AdditionalData":[{"value":"España","key":"CountryName"},{"value":"Castilla y León","key":"StateName"},{"value":"Salamanca","key":"CountyName"}]},"MapReference":{"ReferenceId":"574794522","Spot":0.11,"SideOfStreet":"left","CountryId":"20215059","StateId":"20221909","CountyId":"20221914","CityId":"20310184","AddressId":"405452926","RoadLinkId":"68286228"}}},{"Relevance":1.0,"Distance":7.2,"MatchLevel":"houseNumber","MatchQuality":{"Country":1.0,"State":1.0,"County":1.0,"City":1.0,"Street":[1.0],"HouseNumber":1.0,"PostalCode":1.0},"MatchType":"interpolated","Location":{"LocationId":"NT_c5cWplmD-L0pD5GKAYEuTC_l_574794438_R_zETM","LocationType":"point","DisplayPosition":{"Latitude":40.5220789,"Longitude":-6.3599602},"MapView":{"TopLeft":{"Latitude":40.5232031,"Longitude":-6.3614391},"BottomRight":{"Latitude":40.5209548,"Longitude":-6.3584814}},"Address":{"Label":"Calle Gonzalo Garrido, 311, 37531 Serradilla del Arroyo (Salamanca), España","Country":"ESP","State":"Castilla y León","County":"Salamanca","City":"Serradilla del Arroyo","Street":"Calle Gonzalo Garrido","HouseNumber":"311","PostalCode":"37531","AdditionalData":[{"value":"España","key":"CountryName"},{"value":"Castilla y León","key":"StateName"},{"value":"Salamanca","key":"CountyName"}]},"MapReference":{"ReferenceId":"574794438","Spot":0.75,"SideOfStreet":"right","CountryId":"20215059","StateId":"20221909","CountyId":"20221914","CityId":"20310184"}}},{"Relevance":1.0,"Distance":17.4,"MatchLevel":"houseNumber","MatchQuality":{"Country":1.0,"State":1.0,"County":1.0,"City":1.0,"Street":[1.0],"HouseNumber":1.0,"PostalCode":1.0},"MatchType":"interpolated","Location":{"LocationId":"NT_yAEdDutjFJgn8cAL2iWr0C_xAD","LocationType":"point","DisplayPosition":{"Latitude":40.52174,"Longitude":-6.35982},"MapView":{"TopLeft":{"Latitude":40.5228642,"Longitude":-6.3612988},"BottomRight":{"Latitude":40.5206158,"Longitude":-6.3583412}},"Address":{"Label":"Calle de la Ermita, 10, 37531 Serradilla del Arroyo (Salamanca), España","Country":"ESP","State":"Castilla y León","County":"Salamanca","City":"Serradilla del Arroyo","Street":"Calle de la Ermita","HouseNumber":"10","PostalCode":"37531","AdditionalData":[{"value":"España","key":"CountryName"},{"value":"Castilla y León","key":"StateName"},{"value":"Salamanca","key":"CountyName"}]},"MapReference":{"ReferenceId":"574794523","Spot":0.84,"SideOfStreet":"right","CountryId":"20215059","StateId":"20221909","CountyId":"20221914","CityId":"20310184","AddressId":"405422928","RoadLinkId":"68833388"}}},{"Relevance":1.0,"Distance":18.6,"MatchLevel":"houseNumber","MatchQuality":{"Country":1.0,"State":1.0,"County":1.0,"City":1.0,"Street":[1.0],"HouseNumber":1.0,"PostalCode":1.0},"MatchType":"interpolated","Location":{"LocationId":"NT_yAEdDutjFJgn8cAL2iWr0C_5A","LocationType":"point","DisplayPosition":{"Latitude":40.52171,"Longitude":-6.35986},"MapView":{"TopLeft":{"Latitude":40.5228342,"Longitude":-6.3613388},"BottomRight":{"Latitude":40.5205858,"Longitude":-6.3583812}},"Address":{"Label":"Calle de la Ermita, 9, 37531 Serradilla del Arroyo (Salamanca), España","Country":"ESP","State":"Castilla y León","County":"Salamanca","City":"Serradilla del Arroyo","Street":"Calle de la Ermita","HouseNumber":"9","PostalCode":"37531","AdditionalData":[{"value":"España","key":"CountryName"},{"value":"Castilla y León","key":"StateName"},{"value":"Salamanca","key":"CountyName"}]},"MapReference":{"ReferenceId":"574794505","Spot":0.81,"SideOfStreet":"left","CountryId":"20215059","StateId":"20221909","CountyId":"20221914","CityId":"20310184","AddressId":"405442565","RoadLinkId":"69279340"}}},{"Relevance":1.0,"Distance":28.3,"MatchLevel":"houseNumber","MatchQuality":{"Country":1.0,"State":1.0,"County":1.0,"City":1.0,"Street":[1.0],"HouseNumber":1.0,"PostalCode":1.0},"MatchType":"interpolated","Location":{"LocationId":"NT_KGqdR.MWeVOOTYyYpG4egA_yA","LocationType":"point","DisplayPosition":{"Latitude":40.52217,"Longitude":-6.35971},"MapView":{"TopLeft":{"Latitude":40.5232942,"Longitude":-6.3611888},"BottomRight":{"Latitude":40.5210458,"Longitude":-6.3582312}},"Address":{"Label":"Calle Iglesia, 2, 37531 Serradilla del Arroyo (Salamanca), España","Country":"ESP","State":"Castilla y León","County":"Salamanca","City":"Serradilla del Arroyo","Street":"Calle Iglesia","HouseNumber":"2","PostalCode":"37531","AdditionalData":[{"value":"España","key":"CountryName"},{"value":"Castilla y León","key":"StateName"},{"value":"Salamanca","key":"CountyName"}]},"MapReference":{"ReferenceId":"593021187","Spot":0.17,"SideOfStreet":"right","CountryId":"20215059","StateId":"20221909","CountyId":"20221914","CityId":"20310184","AddressId":"405514984","RoadLinkId":"68075680"}}},{"Relevance":1.0,"Distance":28.6,"MatchLevel":"houseNumber","MatchQuality":{"Country":1.0,"State":1.0,"County":1.0,"City":1.0,"Street":[1.0],"HouseNumber":1.0,"PostalCode":1.0},"MatchType":"interpolated","Location":{"LocationId":"NT_0asZlS.ogaFxcCsm6DN0YB_1A","LocationType":"point","DisplayPosition":{"Latitude":40.52158,"Longitude":-6.35951},"MapView":{"TopLeft":{"Latitude":40.5227042,"Longitude":-6.3609888},"BottomRight":{"Latitude":40.5204558,"Longitude":-6.3580312}},"Address":{"Label":"Calle de los Prados, 5, 37531 Serradilla del Arroyo (Salamanca), España","Country":"ESP","State":"Castilla y León","County":"Salamanca","City":"Serradilla del Arroyo","Street":"Calle de los Prados","HouseNumber":"5","PostalCode":"37531","AdditionalData":[{"value":"España","key":"CountryName"},{"value":"Castilla y León","key":"StateName"},{"value":"Salamanca","key":"CountyName"}]},"MapReference":{"ReferenceId":"593021149","Spot":0.19,"SideOfStreet":"left","CountryId":"20215059","StateId":"20221909","CountyId":"20221914","CityId":"20310184","AddressId":"788991587","RoadLinkId":"68204896"}}},{"Relevance":1.0,"Distance":30.8,"MatchLevel":"houseNumber","MatchQuality":{"Country":1.0,"State":1.0,"County":1.0,"City":1.0,"Street":[1.0],"HouseNumber":1.0,"PostalCode":1.0},"MatchType":"interpolated","Location":{"LocationId":"NT_Ti9aWMDRwRC4lyLnOLq3JD_xAD","LocationType":"point","DisplayPosition":{"Latitude":40.52203,"Longitude":-6.36024},"MapView":{"TopLeft":{"Latitude":40.5231542,"Longitude":-6.3617188},"BottomRight":{"Latitude":40.5209058,"Longitude":-6.3587612}},"Address":{"Label":"Calle Gonzalo Garrido, 10, 37531 Serradilla del Arroyo (Salamanca), España","Country":"ESP","State":"Castilla y León","County":"Salamanca","City":"Serradilla del Arroyo","Street":"Calle Gonzalo Garrido","HouseNumber":"10","PostalCode":"37531","AdditionalData":[{"value":"España","key":"CountryName"},{"value":"Castilla y León","key":"StateName"},{"value":"Salamanca","key":"CountyName"}]},"MapReference":{"ReferenceId":"574794437","Spot":0.79,"SideOfStreet":"right","CountryId":"20215059","StateId":"20221909","CountyId":"20221914","CityId":"20310184","AddressId":"799706162","RoadLinkId":"68226043"}}}]}]}}