{"Response":{"MetaInfo":{"Timestamp":"2020-03-28T09:41:44.651+0000","NextPageInformation":"2"},"View":[{"_type":"SearchResultsViewType","ViewId":0,"Result":[{"Relevance":1.0,"Distance":0.0,"Direction":0.0,"MatchLevel":"city","MatchQuality":{"Country":1.0,"State":1.0,"County":1.0,"City":1.0,"PostalCode":1.0},"Location":{"LocationId":"NT_raovT-TqL-nOoJOPECUdkA","LocationType":"point","DisplayPosition":{"Latitude":40.6983647,"Longitude":-3.4372854},"MapView":{"TopLeft":{"Latitude":40.79232,"Longitude":-3.46832},"BottomRight":{"Latitude":40.66969,"Longitude":-3.38685}},"Address":{"Label":"El Casar, Castilla-La Mancha, España","Country":"ESP","State":"Castilla-La Mancha","County":"Guadalajara","City":"El Casar","PostalCode":"19170","AdditionalData":[{"value":"España","key":"CountryName"},{"value":"Castilla-La Mancha","key":"StateName"},{"value":"Guadalajara","key":"CountyName"}]},"MapReference":{"ReferenceId":"842476583","SideOfStreet":"neither","CountryId":"20215059","StateId":"20221903","CountyId":"20221907","CityId":"20295467"}}},{"Relevance":1.0,"Distance":9.7,"MatchLevel":"street","MatchQuality":{"Country":1.0,"State":1.0,"County":1.0,"City":1.0,"Street":[1.0],"PostalCode":1.0},"Location":{"LocationId":"NT_jYGmfS0K.JAEocZWWYbuvC_l_570746496_R","LocationType":"point","DisplayPosition":{"Latitude":40.6984,"Longitude":-3.43739},"MapView":{"TopLeft":{"Latitude":40.69866,"Longitude":-3.43788},"BottomRight":{"Latitude":40.6969,"Longitude":-3.43732}},"Address":{"Label":"Calle Llanomonte, 19170 El Casar (Guadalajara), España","Country":"ESP","State":"Castilla-La Mancha","County":"Guadalajara","City":"El Casar","Street":"Calle Llanomonte","PostalCode":"19170","AdditionalData":[{"value":"España","key":"CountryName"},{"value":"Castilla-La Mancha","key":"StateName"},{"value":"Guadalajara","key":"CountyName"}]},"MapReference":{"ReferenceId":"570746496","Spot":0.86,"SideOfStreet":"right","CountryId":"20215059","StateId":"20221903","CountyId":"20221907","CityId":"20295467"}}},{"Relevance":1.0,"Distance":26.9,"MatchLevel":"houseNumber","MatchQuality":{"Country":1.0,"State":1.0,"County":1.0,"City":1.0,"Street":[1.0],"HouseNumber":1.0,"PostalCode":1.0},"MatchType":"interpolated","Location":{"LocationId":"NT_Dsqa8EEbEq8f1EoEOzDakD_1ID","LocationType":"point","DisplayPosition":{"Latitude":40.69861,"Longitude":-3.43713},"MapView":{"TopLeft":{"Latitude":40.6997342,"Longitude":-3.4386128},"BottomRight":{"Latitude":40.6974858,"Longitude":-3.4356472}},"Address":{"Label":"Calle Cedro Ayjón, 52, 19170 El Casar (Guadalajara), España","Country":"ESP","State":"Castilla-La Mancha","County":"Guadalajara","City":"El Casar","Street":"Calle Cedro Ayjón","HouseNumber":"52","PostalCode":"19170","AdditionalData":[{"value":"España","key":"CountryName"},{"value":"Castilla-La Mancha","key":"StateName"},{"value":"Guadalajara","key":"CountyName"}]},"MapReference":{"ReferenceId":"570746499","Spot":0.41,"SideOfStreet":"left","CountryId":"20215059","StateId":"20221903","CountyId":"20221907","CityId":"20295467","AddressId":"348385125","RoadLinkId":"65341603"}}},{"Relevance":1.0,"Distance":31.3,"MatchLevel":"houseNumber","MatchQuality":{"Country":1.0,"State":1.0,"County":1.0,"City":1.0,"Street":[1.0],"HouseNumber":1.0,"PostalCode":1.0},"MatchType":"interpolated","Location":{"LocationId":"NT_Dsqa8EEbEq8f1EoEOzDakD_1QD","LocationType":"point","DisplayPosition":{"Latitude":40.69855,"Longitude":-3.43694},"MapView":{"TopLeft":{"Latitude":40.6996742,"Longitude":-3.4384228},"BottomRight":{"Latitude":40.6974258,"Longitude":-3.4354572}},"Address":{"Label":"Calle Cedro Ayjón, 54, 19170 El Casar (Guadalajara), España","Country":"ESP","State":"Castilla-La Mancha","County":"Guadalajara","City":"El Casar","Street":"Calle Cedro Ayjón","HouseNumber":"54","PostalCode":"19170","AdditionalData":[{"value":"España","key":"CountryName"},{"value":"Castilla-La Mancha","key":"StateName"},{"value":"Guadalajara","key":"CountyName"}]},"MapReference":{"ReferenceId":"570746497","Spot":0.04,"SideOfStreet":"right","CountryId":"20215059","StateId":"20221903","CountyId":"20221907","CityId":"20295467","AddressId":"348295806","RoadLinkId":"65671559"}}},{"Relevance":1.0,"Distance":43.9,"MatchLevel":"houseNumber","MatchQuality":{"Country":1.0,"State":1.0,"County":1.0,"City":1.0,"Street":[1.0],"HouseNumber":1.0,"PostalCode":1.0},"MatchType":"interpolated","Location":{"LocationId":"NT_taQLXZK0oryf0PLZQIKNWA_4MD","LocationType":"point","DisplayPosition":{"Latitude":40.6987,"Longitude":-3.43696},"MapView":{"TopLeft":{"Latitude":40.6998242,"Longitude":-3.4384428},"BottomRight":{"Latitude":40.6975758,"Longitude":-3.4354772}},"Address":{"Label":"Calle Emeterio Atienza, 83, 19170 El Casar (Guadalajara), España","Country":"ESP","State":"Castilla-La Mancha","County":"Guadalajara","City":"El Casar","Street":"Calle Emeterio Atienza","HouseNumber":"83","PostalCode":"19170","AdditionalData":[{"value":"España","key":"CountryName"},{"value":"Castilla-La Mancha","key":"StateName"},{"value":"Guadalajara","key":"CountyName"}]},"MapReference":{"ReferenceId":"570746500","Spot":0.09,"SideOfStreet":"left","CountryId":"20215059","StateId":"20221903","CountyId":"20221907","CityId":"20295467","AddressId":"348435354","RoadLinkId":"66341237"}}},{"Relevance":1.0,"Distance":71.5,"MatchLevel":"houseNumber","MatchQuality":{"Country":1.0,"State":1.0,"County":1.0,"City":1.0,"Street":[1.0],"HouseNumber":1.0,"PostalCode":1.0},"MatchType":"interpolated","Location":{"LocationId":"NT_LbK5W039w2GYWaxGIZdPUB_1kDM","LocationType":"point","DisplayPosition":{"Latitude":40.69775,"Longitude":-3.43675},"MapView":{"TopLeft":{"Latitude":40.6988742,"Longitude":-3.4382327},"BottomRight":{"Latitude":40.6966258,"Longitude":-3.4352673}},"Address":{"Label":"Carretera Fuente El Saz, 590, 19170 El Casar (Guadalajara), España","Country":"ESP","State":"Castilla-La Mancha","County":"Guadalajara","City":"El Casar","Street":"Carretera Fuente El Saz","HouseNumber":"590","PostalCode":"19170","AdditionalData":[{"value":"España","key":"CountryName"},{"value":"Castilla-La Mancha","key":"StateName"},{"value":"Guadalajara","key":"CountyName"}]},"MapReference":{"ReferenceId":"842479416","Spot":1.0,"SideOfStreet":"left","CountryId":"20215059","StateId":"20221903","CountyId":"20221907","CityId":"20295467","AddressId":"348271471","RoadLinkId":"224460602"}}},{"Relevance":1.0,"Distance":85.7,"MatchLevel":"houseNumber","MatchQuality":{"Country":1.0,"State":1.0,"County":1.0,"City":1.0,"Street":[1.0],"HouseNumber":1.0,"PostalCode":1.0},"MatchType":"interpolated","Location":{"LocationId":"NT_LbK5W039w2GYWaxGIZdPUB_1kDN","LocationType":"point","DisplayPosition":{"Latitude":40.69833,"Longitude":-3.43627},"MapView":{"TopLeft":{"Latitude":40.6994542,"Longitude":-3.4377528},"BottomRight":{"Latitude":40.6972058,"Longitude":-3.4347872}},"Address":{"Label":"Carretera Fuente El Saz, 594, 19170 El Casar (Guadalajara), España","Country":"ESP","State":"Castilla-La Mancha","County":"Guadalajara","City":"El Casar","Street":"Carretera Fuente El Saz","HouseNumber":"594","PostalCode":"19170","AdditionalData":[{"value":"España","key":"CountryName"},{"value":"Castilla-La Mancha","key":"StateName"},{"value":"Guadalajara","key":"CountyName"}]},"MapReference":{"ReferenceId":"842479417","Spot":0.81,"SideOfStreet":"right","CountryId":"20215059","StateId":"20221903","CountyId":"20221907","CityId":"20295467","AddressId":"348182665","RoadLinkId":"224460604"}}},{"Relevance":1.0,"Distance":125.7,"MatchLevel":"houseNumber","MatchQuality":{"Country":1.0,"State":1.0,"County":1.0,"City":1.0,"Street":[1.0],"HouseNumber":1.0,"PostalCode":1.0},"MatchType":"interpolated","Location":{"LocationId":"NT_ti.7Lee0zWKZvSQekzLB0D_xgD","LocationType":"point","DisplayPosition":{"Latitude":40.6975,"Longitude":-3.43623},"MapView":{"TopLeft":{"Latitude":40.6986242,"Longitude":-3.4377127},"BottomRight":{"Latitude":40.6963758,"Longitude":-3.4347473}},"Address":{"Label":"Calle Juan Pablo II, 18, 19170 El Casar (Guadalajara), España","Country":"ESP","State":"Castilla-La Mancha","County":"Guadalajara","City":"El Casar","Street":"Calle Juan Pablo II","HouseNumber":"18","PostalCode":"19170","AdditionalData":[{"value":"España","key":"CountryName"},{"value":"Castilla-La Mancha","key":"StateName"},{"value":"Guadalajara","key":"CountyName"}]},"MapReference":{"ReferenceId":"715290365","Spot":0.62,"SideOfStreet":"left","CountryId":"20215059","StateId":"20221903","CountyId":"20221907","CityId":"20295467","AddressId":"782276780","RoadLinkId":"120159024"}}},{"Relevance":1.0,"Distance":127.6,"MatchLevel":"houseNumber","MatchQuality":{"Country":1.0,"State":1.0,"County":1.0,"City":1.0,"Street":[1.0],"HouseNumber":1.0,"PostalCode":1.0},"MatchType":"interpolated","Location":{"LocationId":"NT_LbK5W039w2GYWaxGIZdPUB_1kzN","LocationType":"point","DisplayPosition":{"Latitude":40.69881,"Longitude":-3.43589},"MapView":{"TopLeft":{"Latitude":40.6999342,"Longitude":-3.4373728},"BottomRight":{"Latitude":40.6976858,"Longitude":-3.4344072}},"Address":{"Label":"Carretera Fuente El Saz, 597, 19170 El Casar (Guadalajara), España","Country":"ESP","State":"Castilla-La Mancha","County":"Guadalajara","City":"El Casar","Street":"Carretera Fuente El Saz","HouseNumber":"597","PostalCode":"19170","AdditionalData":[{"value":"España","key":"CountryName"},{"value":"Castilla-La Mancha","key":"StateName"},{"value":"Guadalajara","key":"CountyName"}]},"MapReference":{"ReferenceId":"842479418","Spot":0.45,"SideOfStreet":"right","CountryId":"20215059","StateId":"20221903","CountyId":"20221907","CityId":"20295467","AddressId":"348179387","RoadLinkId":"224460605"}}},{"Relevance":1.0,"Distance":127.9,"MatchLevel":"houseNumber","MatchQuality":{"Country":1.0,"State":1.0,"County":1.0,"City":1.0,"Street":[1.0],"HouseNumber":1.0,"PostalCode":1.0},"MatchType":"interpolated","Location":{"LocationId":"NT_jYGmfS0K.JAEocZWWYbuvC_4gD","LocationType":"point","DisplayPosition":{"Latitude":40.69952,"Longitude":-3.43726},"MapView":{"TopLeft":{"Latitude":40.7006442,"Longitude":-3.4387428},"BottomRight":{"Latitude":40.6983958,"Longitude":-3.4357772}},"Address":{"Label":"Calle Llanomonte, 88, 19170 El Casar (Guadalajara), España","Country":"ESP","State":"Castilla-La Mancha","County":"Guadalajara","City":"El Casar","Street":"Calle Llanomonte","HouseNumber":"88","PostalCode":"19170","AdditionalData":[{"value":"España","key":"CountryName"},{"value":"Castilla-La Mancha","key":"StateName"},{"value":"Guadalajara","key":"CountyName"}]},"MapReference":{"ReferenceId":"570746495","Spot":0.54,"SideOfStreet":"right","CountryId":"20215059","StateId":"20221903","CountyId":"20221907","CityId":"20295467","AddressId":"348385584","RoadLinkId":"66220009"}}}]}]}}