{"Response":{"MetaInfo":{"Timestamp":"2020-03-28T09:59:16.335+0000","NextPageInformation":"2"},"View":[{"_type":"SearchResultsViewType","ViewId":0,"Result":[{"Relevance":1.0,"Distance":0.0,"Direction":0.0,"MatchLevel":"district","MatchQuality":{"Country":1.0,"County":1.0,"City":1.0,"District":1.0,"PostalCode":1.0},"Location":{"LocationId":"NT_LbsgnRHJyBFQVHO7AIlVwA","LocationType":"point","DisplayPosition":{"Latitude":40.6551033,"Longitude":-8.4488915},"MapView":{"TopLeft":{"Latitude":40.66184,"Longitude":-8.46183},"BottomRight":{"Latitude":40.64399,"Longitude":-8.43807}},"Address":{"Label":"Macinhata do Vouga, Águeda, Portugal","Country":"PRT","County":"Aveiro","City":"Águeda","District":"Macinhata do Vouga","PostalCode":"3750-593","AdditionalData":[{"value":"Portugal","key":"CountryName"},{"value":"Aveiro","key":"CountyName"}]},"MapReference":{"ReferenceId":"882234509","SideOfStreet":"neither","CountryId":"20317122","CountyId":"20317149","CityId":"20317150","DistrictId":"20570308"}}},{"Relevance":1.0,"Distance":20.8,"MatchLevel":"street","MatchQuality":{"Country":1.0,"County":1.0,"City":1.0,"District":1.0,"Street":[1.0],"PostalCode":1.0},"Location":{"LocationId":"NT_8PpIgt6bTGFmbJ0keBf2JA_l_587902505_R","LocationType":"point","DisplayPosition":{"Latitude":40.6552836,"Longitude":-8.4488254},"MapView":{"TopLeft":{"Latitude":40.6553,"Longitude":-8.45312},"BottomRight":{"Latitude":40.65455,"Longitude":-8.44845}},"Address":{"Label":"Rua da Carvoeira, 3750-593 Águeda, Portugal","Country":"PRT","County":"Aveiro","City":"Águeda","District":"Macinhata do Vouga","Street":"Rua da Carvoeira","PostalCode":"3750-593","AdditionalData":[{"value":"Portugal","key":"CountryName"},{"value":"Aveiro","key":"CountyName"}]},"MapReference":{"ReferenceId":"587902505","Spot":0.92,"SideOfStreet":"right","CountryId":"20317122","CountyId":"20317149","CityId":"20317150","DistrictId":"20570308"}}},{"Relevance":1.0,"Distance":36.4,"MatchLevel":"street","MatchQuality":{"Country":1.0,"County":1.0,"City":1.0,"District":1.0,"PostalCode":1.0},"Location":{"LocationId":"NT_ITSgXsMhz.-mzazh60xUYA_l_1212722826_L","LocationType":"point","DisplayPosition":{"Latitude":40.65509,"Longitude":-8.44846},"MapView":{"TopLeft":{"Latitude":40.65513,"Longitude":-8.44846},"BottomRight":{"Latitude":40.65502,"Longitude":-8.44841}},"Address":{"Label":"3750-593 Águeda, Portugal","Country":"PRT","County":"Aveiro","City":"Águeda","District":"Macinhata do Vouga","PostalCode":"3750-593","AdditionalData":[{"value":"Portugal","key":"CountryName"},{"value":"Aveiro","key":"CountyName"}]},"MapReference":{"ReferenceId":"1212722826","Spot":0.69,"SideOfStreet":"left","CountryId":"20317122","CountyId":"20317149","CityId":"20317150","DistrictId":"20570308"}}},{"Relevance":1.0,"Distance":37.4,"MatchLevel":"street","MatchQuality":{"Country":1.0,"County":1.0,"City":1.0,"District":1.0,"PostalCode":1.0},"Location":{"LocationId":"NT_ITSgXsMhz.-mzazh60xUYA_l_1212722828_L","LocationType":"point","DisplayPosition":{"Latitude":40.65513,"Longitude":-8.44845},"MapView":{"TopLeft":{"Latitude":40.65517,"Longitude":-8.44845},"BottomRight":{"Latitude":40.65513,"Longitude":-8.44836}},"Address":{"Label":"3750-593 Águeda, Portugal","Country":"PRT","County":"Aveiro","City":"Águeda","District":"Macinhata do Vouga","PostalCode":"3750-593","AdditionalData":[{"value":"Portugal","key":"CountryName"},{"value":"Aveiro","key":"CountyName"}]},"MapReference":{"ReferenceId":"1212722828","Spot":0.0,"SideOfStreet":"left","CountryId":"20317122","CountyId":"20317149","CityId":"20317150","DistrictId":"20570308"}}},{"Relevance":1.0,"Distance":41.7,"MatchLevel":"street","MatchQuality":{"Country":1.0,"County":1.0,"City":1.0,"District":1.0,"PostalCode":1.0},"Location":{"LocationId":"NT_ITSgXsMhz.-mzazh60xUYA_l_1212722825_R","LocationType":"point","DisplayPosition":{"Latitude":40.65502,"Longitude":-8.44841},"MapView":{"TopLeft":{"Latitude":40.65505,"Longitude":-8.44841},"BottomRight":{"Latitude":40.65501,"Longitude":-8.44827}},"Address":{"Label":"3750-593 Águeda, Portugal","Country":"PRT","County":"Aveiro","City":"Águeda","District":"Macinhata do Vouga","PostalCode":"3750-593","AdditionalData":[{"value":"Portugal","key":"CountryName"},{"value":"Aveiro","key":"CountyName"}]},"MapReference":{"ReferenceId":"1212722825","Spot":0.0,"SideOfStreet":"right","CountryId":"20317122","CountyId":"20317149","CityId":"20317150","DistrictId":"20570308"}}},{"Relevance":1.0,"Distance":45.4,"MatchLevel":"street","MatchQuality":{"Country":1.0,"County":1.0,"City":1.0,"District":1.0,"PostalCode":1.0},"Location":{"LocationId":"NT_ITSgXsMhz.-mzazh60xUYA_l_1212722829_L","LocationType":"point","DisplayPosition":{"Latitude":40.65517,"Longitude":-8.44836},"MapView":{"TopLeft":{"Latitude":40.65517,"Longitude":-8.44836},"BottomRight":{"Latitude":40.65513,"Longitude":-8.44827}},"Address":{"Label":"3750-593 Águeda, Portugal","Country":"PRT","County":"Aveiro","City":"Águeda","District":"Macinhata do Vouga","PostalCode":"3750-593","AdditionalData":[{"value":"Portugal","key":"CountryName"},{"value":"Aveiro","key":"CountyName"}]},"MapReference":{"ReferenceId":"1212722829","Spot":1.0,"SideOfStreet":"left","CountryId":"20317122","CountyId":"20317149","CityId":"20317150","DistrictId":"20570308"}}},{"Relevance":1.0,"Distance":45.6,"MatchLevel":"houseNumber","MatchQuality":{"Country":1.0,"County":1.0,"City":1.0,"District":1.0,"Street":[1.0],"HouseNumber":1.0,"PostalCode":1.0},"MatchType":"interpolated","Location":{"LocationId":"NT_-zsorcyYiyjKoQg-fWmz1A_l_587902678_R_yA","LocationType":"point","DisplayPosition":{"Latitude":40.65529,"Longitude":-8.44841},"MapView":{"TopLeft":{"Latitude":40.6564142,"Longitude":-8.4498918},"BottomRight":{"Latitude":40.6541659,"Longitude":-8.4469282}},"Address":{"Label":"Rua Manuel Nogueira 2, 3750-593 Águeda, Portugal","Country":"PRT","County":"Aveiro","City":"Águeda","District":"Macinhata do Vouga","Street":"Rua Manuel Nogueira","HouseNumber":"2","PostalCode":"3750-593","AdditionalData":[{"value":"Portugal","key":"CountryName"},{"value":"Aveiro","key":"CountyName"}]},"MapReference":{"ReferenceId":"587902678","Spot":0.26,"SideOfStreet":"right","CountryId":"20317122","CountyId":"20317149","CityId":"20317150","DistrictId":"20570308"}}},{"Relevance":1.0,"Distance":50.4,"MatchLevel":"houseNumber","MatchQuality":{"Country":1.0,"County":1.0,"City":1.0,"District":1.0,"Street":[1.0],"HouseNumber":1.0,"PostalCode":1.0},"MatchType":"interpolated","Location":{"LocationId":"NT_lVxHi4bwkt-IU6.KWwowJD_l_587742310_R_zID","LocationType":"point","DisplayPosition":{"Latitude":40.654679,"Longitude":-8.4486812},"MapView":{"TopLeft":{"Latitude":40.6558032,"Longitude":-8.450163},"BottomRight":{"Latitude":40.6535549,"Longitude":-8.4471994}},"Address":{"Label":"Rua Nossa Senhora da Piedade 32, 3750-593 Águeda, Portugal","Country":"PRT","County":"Aveiro","City":"Águeda","District":"Macinhata do Vouga","Street":"Rua Nossa Senhora da Piedade","HouseNumber":"32","PostalCode":"3750-593","AdditionalData":[{"value":"Portugal","key":"CountryName"},{"value":"Aveiro","key":"CountyName"}]},"MapReference":{"ReferenceId":"587742310","Spot":0.5,"SideOfStreet":"right","CountryId":"20317122","CountyId":"20317149","CityId":"20317150","DistrictId":"20570308"}}},{"Relevance":1.0,"Distance":52.5,"MatchLevel":"street","MatchQuality":{"Country":1.0,"County":1.0,"City":1.0,"District":1.0,"PostalCode":1.0},"Location":{"LocationId":"NT_ITSgXsMhz.-mzazh60xUYA_l_1212722827_L","LocationType":"point","DisplayPosition":{"Latitude":40.65513,"Longitude":-8.44827},"MapView":{"TopLeft":{"Latitude":40.65513,"Longitude":-8.44827},"BottomRight":{"Latitude":40.65505,"Longitude":-8.44826}},"Address":{"Label":"3750-593 Águeda, Portugal","Country":"PRT","County":"Aveiro","City":"Águeda","District":"Macinhata do Vouga","PostalCode":"3750-593","AdditionalData":[{"value":"Portugal","key":"CountryName"},{"value":"Aveiro","key":"CountyName"}]},"MapReference":{"ReferenceId":"1212722827","Spot":1.0,"SideOfStreet":"left","CountryId":"20317122","CountyId":"20317149","CityId":"20317150","DistrictId":"20570308"}}},{"Relevance":1.0,"Distance":52.8,"MatchLevel":"street","MatchQuality":{"Country":1.0,"County":1.0,"City":1.0,"District":1.0,"Street":[1.0],"PostalCode":1.0},"Location":{"LocationId":"NT_YiJVifsgfT5OWa6tDepcfD_l_587902533_L","LocationType":"point","DisplayPosition":{"Latitude":40.65505,"Longitude":-8.44827},"MapView":{"TopLeft":{"Latitude":40.65505,"Longitude":-8.44827},"BottomRight":{"Latitude":40.65438,"Longitude":-8.44787}},"Address":{"Label":"Travessa do Bairro, 3750-593 Águeda, Portugal","Country":"PRT","County":"Aveiro","City":"Águeda","District":"Macinhata do Vouga","Street":"Travessa do Bairro","PostalCode":"3750-593","AdditionalData":[{"value":"Portugal","key":"CountryName"},{"value":"Aveiro","key":"CountyName"}]},"MapReference":{"ReferenceId":"587902533","Spot":1.0,"SideOfStreet":"left","CountryId":"20317122","CountyId":"20317149","CityId":"20317150","DistrictId":"20570308"}}}]}]}}