{"Response":{"MetaInfo":{"Timestamp":"2020-03-28T11:34:03.130+0000","NextPageInformation":"2"},"View":[{"_type":"SearchResultsViewType","ViewId":0,"Result":[{"Relevance":1.0,"Distance":-11.0,"MatchLevel":"landmark","MatchQuality":{"Country":1.0,"County":1.0,"City":1.0,"District":1.0,"PostalCode":1.0,"Name":1.0},"Location":{"LocationId":"NT_F6GTL1tAgjyy-gR4i-buBD_p_LBJ5B1F4FxRo-FpwD5H-pD","LocationType":"hospital","Name":"Hospital São Teotónio","DisplayPosition":{"Latitude":40.65034,"Longitude":-7.90652},"MapView":{"TopLeft":{"Latitude":40.65234,"Longitude":-7.90985},"BottomRight":{"Latitude":40.64834,"Longitude":-7.90328}},"Address":{"Label":"3500 Viseu, Portugal","Country":"PRT","County":"Viseu","City":"Viseu","District":"Viseu","PostalCode":"3500","AdditionalData":[{"value":"Portugal","key":"CountryName"},{"value":"Viseu","key":"CountyName"}]},"MapReference":{"CountryId":"20317122","CountyId":"20321048","CityId":"20321397","DistrictId":"20417731","PlaceId":"67192825"}}},{"Relevance":1.0,"Distance":0.0,"Direction":0.0,"MatchLevel":"district","MatchQuality":{"Country":1.0,"County":1.0,"City":1.0,"District":1.0,"PostalCode":1.0},"Location":{"LocationId":"NT_X018lGPVUGU99EAZdaDcKC","LocationType":"point","DisplayPosition":{"Latitude":40.6501994,"Longitude":-7.9094341},"MapView":{"TopLeft":{"Latitude":40.67645,"Longitude":-7.92956},"BottomRight":{"Latitude":40.63953,"Longitude":-7.88768}},"Address":{"Label":"Viseu, Portugal","Country":"PRT","County":"Viseu","City":"Viseu","District":"Viseu","PostalCode":"3510-105","AdditionalData":[{"value":"Portugal","key":"CountryName"},{"value":"Viseu","key":"CountyName"}]},"MapReference":{"ReferenceId":"1000241189","SideOfStreet":"neither","CountryId":"20317122","CountyId":"20321048","CityId":"20321397","DistrictId":"20417731"}}},{"Relevance":1.0,"Distance":21.7,"MatchLevel":"street","MatchQuality":{"Country":1.0,"County":1.0,"City":1.0,"District":1.0,"Street":[1.0],"PostalCode":1.0},"Location":{"LocationId":"NT_Byz6OP988E8-NpjqKnzseB_l_999578322_R","LocationType":"point","DisplayPosition":{"Latitude":40.6503822,"Longitude":-7.9095255},"MapView":{"TopLeft":{"Latitude":40.65237,"Longitude":-7.91049},"BottomRight":{"Latitude":40.64998,"Longitude":-7.90739}},"Address":{"Label":"Estrada da Circunvalação, 3500-108 Viseu, Portugal","Country":"PRT","County":"Viseu","City":"Viseu","District":"Viseu","Street":"Estrada da Circunvalação","PostalCode":"3500-108","AdditionalData":[{"value":"Portugal","key":"CountryName"},{"value":"Viseu","key":"CountyName"}]},"MapReference":{"ReferenceId":"999578322","Spot":0.26,"SideOfStreet":"right","CountryId":"20317122","CountyId":"20321048","CityId":"20321397","DistrictId":"20417731"}}},{"Relevance":1.0,"Distance":26.6,"MatchLevel":"houseNumber","MatchQuality":{"Country":1.0,"County":1.0,"City":1.0,"District":1.0,"Street":[1.0],"HouseNumber":1.0,"PostalCode":1.0},"MatchType":"interpolated","Location":{"LocationId":"NT_PNJpgv3YvtHnaa1RxwYEWD_l_1037929048_R_xED","LocationType":"point","DisplayPosition":{"Latitude":40.6499698,"Longitude":-7.909806},"MapView":{"TopLeft":{"Latitude":40.6510939,"Longitude":-7.9112877},"BottomRight":{"Latitude":40.6488456,"Longitude":-7.9083243}},"Address":{"Label":"Avenida Rei Dom Duarte 11, 3500-643 Viseu, Portugal","Country":"PRT","County":"Viseu","City":"Viseu","District":"Viseu","Street":"Avenida Rei Dom Duarte","HouseNumber":"11","PostalCode":"3500-643","AdditionalData":[{"value":"Portugal","key":"CountryName"},{"value":"Viseu","key":"CountyName"}]},"MapReference":{"ReferenceId":"1037929048","Spot":0.45,"SideOfStreet":"right","CountryId":"20317122","CountyId":"20321048","CityId":"20321397","DistrictId":"20417731"}}},{"Relevance":1.0,"Distance":51.3,"MatchLevel":"street","MatchQuality":{"Country":1.0,"County":1.0,"City":1.0,"District":1.0,"Street":[1.0],"PostalCode":1.0},"Location":{"LocationId":"NT_PNJpgv3YvtHnaa1RxwYEWD_l_941028089_R","LocationType":"point","DisplayPosition":{"Latitude":40.6498192,"Longitude":-7.9097778},"MapView":{"TopLeft":{"Latitude":40.65089,"Longitude":-7.91039},"BottomRight":{"Latitude":40.64934,"Longitude":-7.90925}},"Address":{"Label":"Avenida Rei Dom Duarte, 3500-643 Viseu, Portugal","Country":"PRT","County":"Viseu","City":"Viseu","District":"Viseu","Street":"Avenida Rei Dom Duarte","PostalCode":"3500-643","AdditionalData":[{"value":"Portugal","key":"CountryName"},{"value":"Viseu","key":"CountyName"}]},"MapReference":{"ReferenceId":"941028089","Spot":0.35,"SideOfStreet":"right","CountryId":"20317122","CountyId":"20321048","CityId":"20321397","DistrictId":"20417731"}}},{"Relevance":1.0,"Distance":62.9,"MatchLevel":"street","MatchQuality":{"Country":1.0,"County":1.0,"City":1.0,"District":1.0,"Street":[1.0],"PostalCode":1.0},"Location":{"LocationId":"NT_yCAOrf0L5JNDJNRytdqgOA_l_549840536_L","LocationType":"point","DisplayPosition":{"Latitude":40.64988,"Longitude":-7.91005},"MapView":{"TopLeft":{"Latitude":40.64988,"Longitude":-7.91049},"BottomRight":{"Latitude":40.64968,"Longitude":-7.91005}},"Address":{"Label":"Rua dos Almeida Furtado, 3500-602 Viseu, Portugal","Country":"PRT","County":"Viseu","City":"Viseu","District":"Viseu","Street":"Rua dos Almeida Furtado","PostalCode":"3500-602","AdditionalData":[{"value":"Portugal","key":"CountryName"},{"value":"Viseu","key":"CountyName"}]},"MapReference":{"ReferenceId":"549840536","Spot":1.0,"SideOfStreet":"left","CountryId":"20317122","CountyId":"20321048","CityId":"20321397","DistrictId":"20417731"}}},{"Relevance":1.0,"Distance":77.5,"MatchLevel":"houseNumber","MatchQuality":{"Country":1.0,"County":1.0,"City":1.0,"District":1.0,"Street":[1.0],"HouseNumber":1.0,"PostalCode":1.0},"MatchType":"interpolated","Location":{"LocationId":"NT_XrI1US86nVqAbIcVNdKngC_l_941028094_L_xMD","LocationType":"point","DisplayPosition":{"Latitude":40.65088,"Longitude":-7.91},"MapView":{"TopLeft":{"Latitude":40.6520042,"Longitude":-7.9114817},"BottomRight":{"Latitude":40.6497558,"Longitude":-7.9085183}},"Address":{"Label":"Rua Eca de Queiros 13, 3500-643 Viseu, Portugal","Country":"PRT","County":"Viseu","City":"Viseu","District":"Viseu","Street":"Rua Eca de Queiros","HouseNumber":"13","PostalCode":"3500-643","AdditionalData":[{"value":"Portugal","key":"CountryName"},{"value":"Viseu","key":"CountyName"}]},"MapReference":{"ReferenceId":"941028094","Spot":0.0,"SideOfStreet":"left","CountryId":"20317122","CountyId":"20321048","CityId":"20321397","DistrictId":"20417731"}}},{"Relevance":1.0,"Distance":82.3,"MatchLevel":"street","MatchQuality":{"Country":1.0,"County":1.0,"City":1.0,"District":1.0,"PostalCode":1.0},"Location":{"LocationId":"NT_ii5Rz81HKg8B5KOEXeTmqB_l_549840540_L","LocationType":"point","DisplayPosition":{"Latitude":40.64963,"Longitude":-7.90881},"MapView":{"TopLeft":{"Latitude":40.64982,"Longitude":-7.90881},"BottomRight":{"Latitude":40.64947,"Longitude":-7.90787}},"Address":{"Label":"3500 Viseu, Portugal","Country":"PRT","County":"Viseu","City":"Viseu","District":"Viseu","PostalCode":"3500","AdditionalData":[{"value":"Portugal","key":"CountryName"},{"value":"Viseu","key":"CountyName"}]},"MapReference":{"ReferenceId":"549840540","Spot":0.14,"SideOfStreet":"left","CountryId":"20317122","CountyId":"20321048","CityId":"20321397","DistrictId":"20417731"}}},{"Relevance":1.0,"Distance":90.3,"MatchLevel":"street","MatchQuality":{"Country":1.0,"County":1.0,"City":1.0,"District":1.0,"PostalCode":1.0},"Location":{"LocationId":"NT_ii5Rz81HKg8B5KOEXeTmqB_l_549844773_R","LocationType":"point","DisplayPosition":{"Latitude":40.64943,"Longitude":-7.90909},"MapView":{"TopLeft":{"Latitude":40.64943,"Longitude":-7.90909},"BottomRight":{"Latitude":40.64941,"Longitude":-7.90899}},"Address":{"Label":"3500 Viseu, Portugal","Country":"PRT","County":"Viseu","City":"Viseu","District":"Viseu","PostalCode":"3500","AdditionalData":[{"value":"Portugal","key":"CountryName"},{"value":"Viseu","key":"CountyName"}]},"MapReference":{"ReferenceId":"549844773","Spot":1.0,"SideOfStreet":"right","CountryId":"20317122","CountyId":"20321048","CityId":"20321397","DistrictId":"20417731"}}},{"Relevance":1.0,"Distance":90.9,"MatchLevel":"street","MatchQuality":{"Country":1.0,"County":1.0,"City":1.0,"District":1.0,"PostalCode":1.0},"Location":{"LocationId":"NT_ii5Rz81HKg8B5KOEXeTmqB_l_549844781_L","LocationType":"point","DisplayPosition":{"Latitude":40.6494067,"Longitude":-7.9091699},"MapView":{"TopLeft":{"Latitude":40.64943,"Longitude":-7.90925},"BottomRight":{"Latitude":40.64934,"Longitude":-7.90909}},"Address":{"Label":"3500 Viseu, Portugal","Country":"PRT","County":"Viseu","City":"Viseu","District":"Viseu","PostalCode":"3500","AdditionalData":[{"value":"Portugal","key":"CountryName"},{"value":"Viseu","key":"CountyName"}]},"MapReference":{"ReferenceId":"549844781","Spot":0.56,"SideOfStreet":"left","CountryId":"20317122","CountyId":"20321048","CityId":"20321397","DistrictId":"20417731"}}}]}]}}