{"Response":{"MetaInfo":{"Timestamp":"2020-03-28T12:07:01.922+0000","NextPageInformation":"2"},"View":[{"_type":"SearchResultsViewType","ViewId":0,"Result":[{"Relevance":1.0,"Distance":-7.7,"MatchLevel":"landmark","MatchQuality":{"Country":1.0,"County":1.0,"City":1.0,"District":1.0,"Street":[1.0],"PostalCode":1.0,"Name":1.0},"Location":{"LocationId":"NT_9OFpmwZ6b.VrxMHhXv88PC_p_9tORVWd6JQKpRGC-fjw5RC","LocationType":"cemetery","Name":"Cemitério de Coração de Jesus","DisplayPosition":{"Latitude":40.6529,"Longitude":-7.91159},"MapView":{"TopLeft":{"Latitude":40.65302,"Longitude":-7.91306},"BottomRight":{"Latitude":40.65206,"Longitude":-7.91034}},"Address":{"Label":"Avenida 10 de Junho, 3500-202 Viseu, Portugal","Country":"PRT","County":"Viseu","City":"Viseu","District":"Viseu","Street":"Avenida 10 de Junho","PostalCode":"3500-202","AdditionalData":[{"value":"Portugal","key":"CountryName"},{"value":"Viseu","key":"CountyName"}]},"MapReference":{"CountryId":"20317122","CountyId":"20321048","CityId":"20321397","DistrictId":"20417731","PlaceId":"889932532"}}},{"Relevance":1.0,"Distance":0.0,"Direction":0.0,"MatchLevel":"district","MatchQuality":{"Country":1.0,"County":1.0,"City":1.0,"District":1.0,"PostalCode":1.0},"Location":{"LocationId":"NT_X018lGPVUGU99EAZdaDcKC","LocationType":"point","DisplayPosition":{"Latitude":40.6528631,"Longitude":-7.9127927},"MapView":{"TopLeft":{"Latitude":40.67645,"Longitude":-7.92956},"BottomRight":{"Latitude":40.63953,"Longitude":-7.88768}},"Address":{"Label":"Viseu, Portugal","Country":"PRT","County":"Viseu","City":"Viseu","District":"Viseu","PostalCode":"3510-105","AdditionalData":[{"value":"Portugal","key":"CountryName"},{"value":"Viseu","key":"CountyName"}]},"MapReference":{"ReferenceId":"1000241189","SideOfStreet":"neither","CountryId":"20317122","CountyId":"20321048","CityId":"20321397","DistrictId":"20417731"}}},{"Relevance":1.0,"Distance":7.8,"MatchLevel":"street","MatchQuality":{"Country":1.0,"County":1.0,"City":1.0,"District":1.0,"PostalCode":1.0},"Location":{"LocationId":"NT_0QmZmpG1QiTO2T9WOnmRxB_l_549845258_R","LocationType":"point","DisplayPosition":{"Latitude":40.6529175,"Longitude":-7.912851},"MapView":{"TopLeft":{"Latitude":40.65302,"Longitude":-7.91297},"BottomRight":{"Latitude":40.65279,"Longitude":-7.91242}},"Address":{"Label":"3500-202 Viseu, Portugal","Country":"PRT","County":"Viseu","City":"Viseu","District":"Viseu","PostalCode":"3500-202","AdditionalData":[{"value":"Portugal","key":"CountryName"},{"value":"Viseu","key":"CountyName"}]},"MapReference":{"ReferenceId":"549845258","Spot":0.28,"SideOfStreet":"right","CountryId":"20317122","CountyId":"20321048","CityId":"20321397","DistrictId":"20417731"}}},{"Relevance":1.0,"Distance":14.3,"MatchLevel":"street","MatchQuality":{"Country":1.0,"County":1.0,"City":1.0,"District":1.0,"Street":[1.0],"PostalCode":1.0},"Location":{"LocationId":"NT_QlCGUNsP2b1Tl6S6QWChND_l_549845184_R","LocationType":"point","DisplayPosition":{"Latitude":40.6528811,"Longitude":-7.9129602},"MapView":{"TopLeft":{"Latitude":40.65307,"Longitude":-7.91297},"BottomRight":{"Latitude":40.65279,"Longitude":-7.91294}},"Address":{"Label":"Rua do Hospital, 3500-161 Viseu, Portugal","Country":"PRT","County":"Viseu","City":"Viseu","District":"Viseu","Street":"Rua do Hospital","PostalCode":"3500-161","AdditionalData":[{"value":"Portugal","key":"CountryName"},{"value":"Viseu","key":"CountyName"}]},"MapReference":{"ReferenceId":"549845184","Spot":0.33,"SideOfStreet":"right","CountryId":"20317122","CountyId":"20321048","CityId":"20321397","DistrictId":"20417731"}}},{"Relevance":1.0,"Distance":16.4,"MatchLevel":"street","MatchQuality":{"Country":1.0,"County":1.0,"City":1.0,"District":1.0,"PostalCode":1.0},"Location":{"LocationId":"NT_0QmZmpG1QiTO2T9WOnmRxB_l_999910412_L","LocationType":"point","DisplayPosition":{"Latitude":40.6527169,"Longitude":-7.9127718},"MapView":{"TopLeft":{"Latitude":40.65272,"Longitude":-7.91285},"BottomRight":{"Latitude":40.65258,"Longitude":-7.91223}},"Address":{"Label":"3500-202 Viseu, Portugal","Country":"PRT","County":"Viseu","City":"Viseu","District":"Viseu","PostalCode":"3500-202","AdditionalData":[{"value":"Portugal","key":"CountryName"},{"value":"Viseu","key":"CountyName"}]},"MapReference":{"ReferenceId":"999910412","Spot":0.26,"SideOfStreet":"left","CountryId":"20317122","CountyId":"20321048","CityId":"20321397","DistrictId":"20417731"}}},{"Relevance":1.0,"Distance":22.7,"MatchLevel":"houseNumber","MatchQuality":{"Country":1.0,"County":1.0,"City":1.0,"District":1.0,"Street":[1.0],"HouseNumber":1.0,"PostalCode":1.0},"MatchType":"interpolated","Location":{"LocationId":"NT_QlCGUNsP2b1Tl6S6QWChND_2A","LocationType":"point","DisplayPosition":{"Latitude":40.65271,"Longitude":-7.91297},"MapView":{"TopLeft":{"Latitude":40.6538342,"Longitude":-7.9144517},"BottomRight":{"Latitude":40.6515858,"Longitude":-7.9114883}},"Address":{"Label":"Rua do Hospital 6, 3500-161 Viseu, Portugal","Country":"PRT","County":"Viseu","City":"Viseu","District":"Viseu","Street":"Rua do Hospital","HouseNumber":"6","PostalCode":"3500-161","AdditionalData":[{"value":"Portugal","key":"CountryName"},{"value":"Viseu","key":"CountyName"}]},"MapReference":{"ReferenceId":"1133964264","Spot":0.73,"SideOfStreet":"left","CountryId":"20317122","CountyId":"20321048","CityId":"20321397","DistrictId":"20417731","AddressId":"343886323","RoadLinkId":"443876234"}}},{"Relevance":1.0,"Distance":25.2,"MatchLevel":"street","MatchQuality":{"Country":1.0,"County":1.0,"City":1.0,"District":1.0,"PostalCode":1.0},"Location":{"LocationId":"NT_ii5Rz81HKg8B5KOEXeTmqB_l_591372416_R","LocationType":"point","DisplayPosition":{"Latitude":40.65308,"Longitude":-7.91288},"MapView":{"TopLeft":{"Latitude":40.65313,"Longitude":-7.91294},"BottomRight":{"Latitude":40.65307,"Longitude":-7.91281}},"Address":{"Label":"3500 Viseu, Portugal","Country":"PRT","County":"Viseu","City":"Viseu","District":"Viseu","PostalCode":"3500","AdditionalData":[{"value":"Portugal","key":"CountryName"},{"value":"Viseu","key":"CountyName"}]},"MapReference":{"ReferenceId":"591372416","Spot":0.41,"SideOfStreet":"right","CountryId":"20317122","CountyId":"20321048","CityId":"20321397","DistrictId":"20417731"}}},{"Relevance":1.0,"Distance":26.1,"MatchLevel":"street","MatchQuality":{"Country":1.0,"County":1.0,"City":1.0,"District":1.0,"PostalCode":1.0},"Location":{"LocationId":"NT_ii5Rz81HKg8B5KOEXeTmqB_l_1133173772_L","LocationType":"point","DisplayPosition":{"Latitude":40.65307,"Longitude":-7.91294},"MapView":{"TopLeft":{"Latitude":40.65308,"Longitude":-7.91298},"BottomRight":{"Latitude":40.65307,"Longitude":-7.91294}},"Address":{"Label":"3500 Viseu, Portugal","Country":"PRT","County":"Viseu","City":"Viseu","District":"Viseu","PostalCode":"3500","AdditionalData":[{"value":"Portugal","key":"CountryName"},{"value":"Viseu","key":"CountyName"}]},"MapReference":{"ReferenceId":"1133173772","Spot":0.0,"SideOfStreet":"left","CountryId":"20317122","CountyId":"20321048","CityId":"20321397","DistrictId":"20417731"}}},{"Relevance":1.0,"Distance":27.6,"MatchLevel":"street","MatchQuality":{"Country":1.0,"County":1.0,"City":1.0,"District":1.0,"Street":[1.0],"PostalCode":1.0},"Location":{"LocationId":"NT_jK9lyY2mZs3---4A2XfiwA_l_591372415_L","LocationType":"point","DisplayPosition":{"Latitude":40.6531058,"Longitude":-7.9127242},"MapView":{"TopLeft":{"Latitude":40.65313,"Longitude":-7.91281},"BottomRight":{"Latitude":40.65302,"Longitude":-7.91242}},"Address":{"Label":"Avenida 10 de Junho, 3500-202 Viseu, Portugal","Country":"PRT","County":"Viseu","City":"Viseu","District":"Viseu","Street":"Avenida 10 de Junho","PostalCode":"3500-202","AdditionalData":[{"value":"Portugal","key":"CountryName"},{"value":"Viseu","key":"CountyName"}]},"MapReference":{"ReferenceId":"591372415","Spot":0.78,"SideOfStreet":"left","CountryId":"20317122","CountyId":"20321048","CityId":"20321397","DistrictId":"20417731"}}},{"Relevance":1.0,"Distance":28.8,"MatchLevel":"street","MatchQuality":{"Country":1.0,"County":1.0,"City":1.0,"District":1.0,"PostalCode":1.0},"Location":{"LocationId":"NT_ii5Rz81HKg8B5KOEXeTmqB_l_1133173773_L","LocationType":"point","DisplayPosition":{"Latitude":40.65308,"Longitude":-7.91298},"MapView":{"TopLeft":{"Latitude":40.65315,"Longitude":-7.91306},"BottomRight":{"Latitude":40.65308,"Longitude":-7.91298}},"Address":{"Label":"3500 Viseu, Portugal","Country":"PRT","County":"Viseu","City":"Viseu","District":"Viseu","PostalCode":"3500","AdditionalData":[{"value":"Portugal","key":"CountryName"},{"value":"Viseu","key":"CountyName"}]},"MapReference":{"ReferenceId":"1133173773","Spot":0.0,"SideOfStreet":"left","CountryId":"20317122","CountyId":"20321048","CityId":"20321397","DistrictId":"20417731"}}}]}]}}