{"Response":{"MetaInfo":{"Timestamp":"2020-03-28T12:06:51.476+0000","NextPageInformation":"2"},"View":[{"_type":"SearchResultsViewType","ViewId":0,"Result":[{"Relevance":1.0,"Distance":0.0,"Direction":0.0,"MatchLevel":"district","MatchQuality":{"Country":1.0,"County":1.0,"City":1.0,"District":1.0,"PostalCode":1.0},"Location":{"LocationId":"NT_hi2jQsLMG8NhbrmNPl26OA","LocationType":"point","DisplayPosition":{"Latitude":40.6214566,"Longitude":-8.5085209},"MapView":{"TopLeft":{"Latitude":40.6299,"Longitude":-8.51333},"BottomRight":{"Latitude":40.61351,"Longitude":-8.49336}},"Address":{"Label":"Alquerubim, Albergaria-a-Velha, Portugal","Country":"PRT","County":"Aveiro","City":"Albergaria-a-Velha","District":"Alquerubim","PostalCode":"3850-361","AdditionalData":[{"value":"Portugal","key":"CountryName"},{"value":"Aveiro","key":"CountyName"}]},"MapReference":{"ReferenceId":"588034108","SideOfStreet":"neither","CountryId":"20317122","CountyId":"20317149","CityId":"20317171","DistrictId":"20317173"}}},{"Relevance":1.0,"Distance":17.0,"MatchLevel":"street","MatchQuality":{"Country":1.0,"County":1.0,"City":1.0,"District":1.0,"Street":[1.0],"PostalCode":1.0},"Location":{"LocationId":"NT_ifYpIVsAPW9jGlW8VmLddD_l_588034206_L","LocationType":"point","DisplayPosition":{"Latitude":40.6213096,"Longitude":-8.5084649},"MapView":{"TopLeft":{"Latitude":40.62138,"Longitude":-8.50865},"BottomRight":{"Latitude":40.62125,"Longitude":-8.50828}},"Address":{"Label":"Largo Doutor José Pereira Lemos, 3850-996 Albergaria-a-Velha, Portugal","Country":"PRT","County":"Aveiro","City":"Albergaria-a-Velha","District":"Alquerubim","Street":"Largo Doutor José Pereira Lemos","PostalCode":"3850-996","AdditionalData":[{"value":"Portugal","key":"CountryName"},{"value":"Aveiro","key":"CountyName"}]},"MapReference":{"ReferenceId":"588034206","Spot":0.5,"SideOfStreet":"left","CountryId":"20317122","CountyId":"20317149","CityId":"20317171","DistrictId":"20317173"}}},{"Relevance":1.0,"Distance":22.0,"MatchLevel":"street","MatchQuality":{"Country":1.0,"County":1.0,"City":1.0,"District":1.0,"Street":[1.0],"PostalCode":1.0},"Location":{"LocationId":"NT_Q9q9xATm6N46nk2HFnxS5C_l_588034207_L","LocationType":"point","DisplayPosition":{"Latitude":40.62138,"Longitude":-8.50828},"MapView":{"TopLeft":{"Latitude":40.62153,"Longitude":-8.50828},"BottomRight":{"Latitude":40.62138,"Longitude":-8.50717}},"Address":{"Label":"Rua de Major Geraldo, 3850-360 Albergaria-a-Velha, Portugal","Country":"PRT","County":"Aveiro","City":"Albergaria-a-Velha","District":"Alquerubim","Street":"Rua de Major Geraldo","PostalCode":"3850-360","AdditionalData":[{"value":"Portugal","key":"CountryName"},{"value":"Aveiro","key":"CountyName"}]},"MapReference":{"ReferenceId":"588034207","Spot":0.0,"SideOfStreet":"left","CountryId":"20317122","CountyId":"20317149","CityId":"20317171","DistrictId":"20317173"}}},{"Relevance":1.0,"Distance":25.4,"MatchLevel":"street","MatchQuality":{"Country":1.0,"County":1.0,"City":1.0,"District":1.0,"Street":[1.0],"PostalCode":1.0},"Location":{"LocationId":"NT_ifYpIVsAPW9jGlW8VmLddD_l_588044021_L","LocationType":"point","DisplayPosition":{"Latitude":40.62125,"Longitude":-8.50865},"MapView":{"TopLeft":{"Latitude":40.62125,"Longitude":-8.50886},"BottomRight":{"Latitude":40.62122,"Longitude":-8.50865}},"Address":{"Label":"Largo Doutor José Pereira Lemos, 3850-996 Albergaria-a-Velha, Portugal","Country":"PRT","County":"Aveiro","City":"Albergaria-a-Velha","District":"Alquerubim","Street":"Largo Doutor José Pereira Lemos","PostalCode":"3850-996","AdditionalData":[{"value":"Portugal","key":"CountryName"},{"value":"Aveiro","key":"CountyName"}]},"MapReference":{"ReferenceId":"588044021","Spot":1.0,"SideOfStreet":"left","CountryId":"20317122","CountyId":"20317149","CityId":"20317171","DistrictId":"20317173"}}},{"Relevance":1.0,"Distance":38.9,"MatchLevel":"street","MatchQuality":{"Country":1.0,"County":1.0,"City":1.0,"District":1.0,"Street":[1.0],"PostalCode":1.0},"Location":{"LocationId":"NT_ifYpIVsAPW9jGlW8VmLddD_l_588044036_R","LocationType":"point","DisplayPosition":{"Latitude":40.62122,"Longitude":-8.50886},"MapView":{"TopLeft":{"Latitude":40.62122,"Longitude":-8.50886},"BottomRight":{"Latitude":40.62096,"Longitude":-8.5081}},"Address":{"Label":"Largo Doutor José Pereira Lemos, 3850-996 Albergaria-a-Velha, Portugal","Country":"PRT","County":"Aveiro","City":"Albergaria-a-Velha","District":"Alquerubim","Street":"Largo Doutor José Pereira Lemos","PostalCode":"3850-996","AdditionalData":[{"value":"Portugal","key":"CountryName"},{"value":"Aveiro","key":"CountyName"}]},"MapReference":{"ReferenceId":"588044036","Spot":1.0,"SideOfStreet":"right","CountryId":"20317122","CountyId":"20317149","CityId":"20317171","DistrictId":"20317173"}}},{"Relevance":1.0,"Distance":38.9,"MatchLevel":"street","MatchQuality":{"Country":1.0,"County":1.0,"City":1.0,"District":1.0,"Street":[1.0],"PostalCode":1.0},"Location":{"LocationId":"NT_ifYpIVsAPW9jGlW8VmLddD_l_588044034_L","LocationType":"point","DisplayPosition":{"Latitude":40.62122,"Longitude":-8.50886},"MapView":{"TopLeft":{"Latitude":40.62122,"Longitude":-8.50915},"BottomRight":{"Latitude":40.6212,"Longitude":-8.50886}},"Address":{"Label":"Largo Doutor José Pereira Lemos, 3850-996 Albergaria-a-Velha, Portugal","Country":"PRT","County":"Aveiro","City":"Albergaria-a-Velha","District":"Alquerubim","Street":"Largo Doutor José Pereira Lemos","PostalCode":"3850-996","AdditionalData":[{"value":"Portugal","key":"CountryName"},{"value":"Aveiro","key":"CountyName"}]},"MapReference":{"ReferenceId":"588044034","Spot":1.0,"SideOfStreet":"left","CountryId":"20317122","CountyId":"20317149","CityId":"20317171","DistrictId":"20317173"}}},{"Relevance":1.0,"Distance":53.1,"MatchLevel":"street","MatchQuality":{"Country":1.0,"County":1.0,"City":1.0,"District":1.0,"Street":[1.0],"PostalCode":1.0},"Location":{"LocationId":"NT_OKpDS9Jrz2RZEjhKYVt1lB_l_591372636_R","LocationType":"point","DisplayPosition":{"Latitude":40.6214566,"Longitude":-8.50915},"MapView":{"TopLeft":{"Latitude":40.62161,"Longitude":-8.50915},"BottomRight":{"Latitude":40.6212,"Longitude":-8.50915}},"Address":{"Label":"Rua de Santa Marinha, 3850-361 Albergaria-a-Velha, Portugal","Country":"PRT","County":"Aveiro","City":"Albergaria-a-Velha","District":"Alquerubim","Street":"Rua de Santa Marinha","PostalCode":"3850-361","AdditionalData":[{"value":"Portugal","key":"CountryName"},{"value":"Aveiro","key":"CountyName"}]},"MapReference":{"ReferenceId":"591372636","Spot":0.63,"SideOfStreet":"right","CountryId":"20317122","CountyId":"20317149","CityId":"20317171","DistrictId":"20317173"}}},{"Relevance":1.0,"Distance":55.8,"MatchLevel":"street","MatchQuality":{"Country":1.0,"County":1.0,"City":1.0,"District":1.0,"Street":[1.0],"PostalCode":1.0},"Location":{"LocationId":"NT_0flEAyTwMAb7s5ntx4miwA_l_588034106_R","LocationType":"point","DisplayPosition":{"Latitude":40.62161,"Longitude":-8.50915},"MapView":{"TopLeft":{"Latitude":40.62214,"Longitude":-8.50917},"BottomRight":{"Latitude":40.62161,"Longitude":-8.50915}},"Address":{"Label":"Rua de Santa Marinha, 3850-361 Albergaria-a-Velha, Portugal","Country":"PRT","County":"Aveiro","City":"Albergaria-a-Velha","District":"Alquerubim","Street":"Rua de Santa Marinha","PostalCode":"3850-361","AdditionalData":[{"value":"Portugal","key":"CountryName"},{"value":"Aveiro","key":"CountyName"}]},"MapReference":{"ReferenceId":"588034106","Spot":0.0,"SideOfStreet":"right","CountryId":"20317122","CountyId":"20317149","CityId":"20317171","DistrictId":"20317173"}}},{"Relevance":1.0,"Distance":55.8,"MatchLevel":"street","MatchQuality":{"Country":1.0,"County":1.0,"City":1.0,"District":1.0,"PostalCode":1.0},"Location":{"LocationId":"NT_0qzV1uQ9qTCkqZnM6ts3nB_l_588045833_L","LocationType":"point","DisplayPosition":{"Latitude":40.62161,"Longitude":-8.50915},"MapView":{"TopLeft":{"Latitude":40.6217,"Longitude":-8.50947},"BottomRight":{"Latitude":40.62161,"Longitude":-8.50915}},"Address":{"Label":"3850-360 Albergaria-a-Velha, Portugal","Country":"PRT","County":"Aveiro","City":"Albergaria-a-Velha","District":"Alquerubim","PostalCode":"3850-360","AdditionalData":[{"value":"Portugal","key":"CountryName"},{"value":"Aveiro","key":"CountyName"}]},"MapReference":{"ReferenceId":"588045833","Spot":0.0,"SideOfStreet":"left","CountryId":"20317122","CountyId":"20317149","CityId":"20317171","DistrictId":"20317173"}}},{"Relevance":1.0,"Distance":60.3,"MatchLevel":"street","MatchQuality":{"Country":1.0,"County":1.0,"City":1.0,"District":1.0,"Street":[1.0],"PostalCode":1.0},"Location":{"LocationId":"NT_OKpDS9Jrz2RZEjhKYVt1lB_l_588034108_R","LocationType":"point","DisplayPosition":{"Latitude":40.6212,"Longitude":-8.50915},"MapView":{"TopLeft":{"Latitude":40.6212,"Longitude":-8.50925},"BottomRight":{"Latitude":40.6196,"Longitude":-8.5091}},"Address":{"Label":"Rua de Santa Marinha, 3850-361 Albergaria-a-Velha, Portugal","Country":"PRT","County":"Aveiro","City":"Albergaria-a-Velha","District":"Alquerubim","Street":"Rua de Santa Marinha","PostalCode":"3850-361","AdditionalData":[{"value":"Portugal","key":"CountryName"},{"value":"Aveiro","key":"CountyName"}]},"MapReference":{"ReferenceId":"588034108","Spot":1.0,"SideOfStreet":"right","CountryId":"20317122","CountyId":"20317149","CityId":"20317171","DistrictId":"20317173"}}}]}]}}