{"Response":{"MetaInfo":{"Timestamp":"2020-03-28T11:23:18.645+0000","NextPageInformation":"2"},"View":[{"_type":"SearchResultsViewType","ViewId":0,"Result":[{"Relevance":1.0,"Distance":-9.4,"MatchLevel":"landmark","MatchQuality":{"Country":1.0,"State":1.0,"County":1.0,"City":1.0,"Street":[1.0],"PostalCode":1.0,"Name":1.0},"Location":{"LocationId":"NT_tcrgciWYkuHTFNFuCqlt3C_p_twRSKvSKn8gmw1XeUn-JWA","LocationType":"hospital","Name":"Andrea Tortora","DisplayPosition":{"Latitude":40.74796,"Longitude":14.62041},"MapView":{"TopLeft":{"Latitude":40.74879,"Longitude":14.61936},"BottomRight":{"Latitude":40.74708,"Longitude":14.623}},"Address":{"Label":"Via Alcide De Gasperi, 84016 Pagani SA, Italia","Country":"ITA","State":"Campania","County":"SA","City":"Pagani","Street":"Via Alcide De Gasperi","PostalCode":"84016","AdditionalData":[{"value":"Italia","key":"CountryName"},{"value":"Campania","key":"StateName"},{"value":"Salerno","key":"CountyName"}]},"MapReference":{"CountryId":"20110484","StateId":"20127654","CountyId":"20221061","CityId":"20238478","PlaceId":"555549251"}}},{"Relevance":1.0,"Distance":0.0,"Direction":0.0,"MatchLevel":"city","MatchQuality":{"Country":1.0,"State":1.0,"County":1.0,"City":1.0,"PostalCode":1.0},"Location":{"LocationId":"NT_tixCUyxkL3XyMkSv7z4CxC","LocationType":"point","DisplayPosition":{"Latitude":40.7472555,"Longitude":14.621024},"MapView":{"TopLeft":{"Latitude":40.78254,"Longitude":14.57775},"BottomRight":{"Latitude":40.72197,"Longitude":14.62939}},"Address":{"Label":"Pagani, Campania, Italia","Country":"ITA","State":"Campania","County":"SA","City":"Pagani","PostalCode":"84016","AdditionalData":[{"value":"Italia","key":"CountryName"},{"value":"Campania","key":"StateName"},{"value":"Salerno","key":"CountyName"}]},"MapReference":{"ReferenceId":"912906789","SideOfStreet":"neither","CountryId":"20110484","StateId":"20127654","CountyId":"20221061","CityId":"20238478"}}},{"Relevance":1.0,"Distance":30.8,"MatchLevel":"houseNumber","MatchQuality":{"Country":1.0,"State":1.0,"County":1.0,"City":1.0,"Street":[1.0],"HouseNumber":1.0,"PostalCode":1.0},"MatchType":"interpolated","Location":{"LocationId":"NT_jzmrkfv.JNBk.C4Hhv6BcB_4EE","LocationType":"point","DisplayPosition":{"Latitude":40.74698,"Longitude":14.62089},"MapView":{"TopLeft":{"Latitude":40.7481042,"Longitude":14.6194062},"BottomRight":{"Latitude":40.7458558,"Longitude":14.6223738}},"Address":{"Label":"Via Alcide De Gasperi, 8A, 84016 Pagani SA, Italia","Country":"ITA","State":"Campania","County":"SA","City":"Pagani","Street":"Via Alcide De Gasperi","HouseNumber":"8A","PostalCode":"84016","AdditionalData":[{"value":"Italia","key":"CountryName"},{"value":"Campania","key":"StateName"},{"value":"Salerno","key":"CountyName"}]},"MapReference":{"ReferenceId":"585519236","Spot":0.67,"SideOfStreet":"right","CountryId":"20110484","StateId":"20127654","CountyId":"20221061","CityId":"20238478","AddressId":"777697605","RoadLinkId":"57719208"}}},{"Relevance":1.0,"Distance":35.7,"MatchLevel":"houseNumber","MatchQuality":{"Country":1.0,"State":1.0,"County":1.0,"City":1.0,"Street":[1.0],"HouseNumber":1.0,"PostalCode":1.0},"MatchType":"interpolated","Location":{"LocationId":"NT_sTP0aBdl--ejEHc4nVp9BD_yA","LocationType":"point","DisplayPosition":{"Latitude":40.74714,"Longitude":14.62142},"MapView":{"TopLeft":{"Latitude":40.7482642,"Longitude":14.6199362},"BottomRight":{"Latitude":40.7460158,"Longitude":14.6229038}},"Address":{"Label":"Via Olivella, 2, 84016 Pagani SA, Italia","Country":"ITA","State":"Campania","County":"SA","City":"Pagani","Street":"Via Olivella","HouseNumber":"2","PostalCode":"84016","AdditionalData":[{"value":"Italia","key":"CountryName"},{"value":"Campania","key":"StateName"},{"value":"Salerno","key":"CountyName"}]},"MapReference":{"ReferenceId":"585519102","Spot":0.58,"SideOfStreet":"left","CountryId":"20110484","StateId":"20127654","CountyId":"20221061","CityId":"20238478","AddressId":"728402675","RoadLinkId":"58188285"}}},{"Relevance":1.0,"Distance":43.0,"MatchLevel":"houseNumber","MatchQuality":{"Country":1.0,"State":1.0,"County":1.0,"City":1.0,"Street":[1.0],"HouseNumber":1.0,"PostalCode":1.0},"MatchType":"interpolated","Location":{"LocationId":"NT_jzmrkfv.JNBk.C4Hhv6BcB_xAjR","LocationType":"point","DisplayPosition":{"Latitude":40.74753,"Longitude":14.62065},"MapView":{"TopLeft":{"Latitude":40.7486542,"Longitude":14.6191662},"BottomRight":{"Latitude":40.7464058,"Longitude":14.6221338}},"Address":{"Label":"Via Alcide De Gasperi, 10F, 84016 Pagani SA, Italia","Country":"ITA","State":"Campania","County":"SA","City":"Pagani","Street":"Via Alcide De Gasperi","HouseNumber":"10F","PostalCode":"84016","AdditionalData":[{"value":"Italia","key":"CountryName"},{"value":"Campania","key":"StateName"},{"value":"Salerno","key":"CountyName"}]},"MapReference":{"ReferenceId":"1227111721","Spot":0.68,"SideOfStreet":"right","CountryId":"20110484","StateId":"20127654","CountyId":"20221061","CityId":"20238478","AddressId":"777987205","RoadLinkId":"545697105"}}},{"Relevance":1.0,"Distance":50.9,"MatchLevel":"houseNumber","MatchQuality":{"Country":1.0,"State":1.0,"County":1.0,"City":1.0,"Street":[1.0],"HouseNumber":1.0,"PostalCode":1.0},"MatchType":"interpolated","Location":{"LocationId":"NT_OQqYQuCaWldo4EaDZ8v-nA_xATMBB","LocationType":"point","DisplayPosition":{"Latitude":40.74723,"Longitude":14.62042},"MapView":{"TopLeft":{"Latitude":40.7483542,"Longitude":14.6189362},"BottomRight":{"Latitude":40.7461058,"Longitude":14.6219038}},"Address":{"Label":"Via Tommaso Fusco, 101A, 84016 Pagani SA, Italia","Country":"ITA","State":"Campania","County":"SA","City":"Pagani","Street":"Via Tommaso Fusco","HouseNumber":"101A","PostalCode":"84016","AdditionalData":[{"value":"Italia","key":"CountryName"},{"value":"Campania","key":"StateName"},{"value":"Salerno","key":"CountyName"}]},"MapReference":{"ReferenceId":"585519103","Spot":0.34,"SideOfStreet":"right","CountryId":"20110484","StateId":"20127654","CountyId":"20221061","CityId":"20238478","AddressId":"728404503","RoadLinkId":"58127866"}}},{"Relevance":1.0,"Distance":58.6,"MatchLevel":"houseNumber","MatchQuality":{"Country":1.0,"State":1.0,"County":1.0,"City":1.0,"Street":[1.0],"HouseNumber":1.0,"PostalCode":1.0},"MatchType":"interpolated","Location":{"LocationId":"NT_jzmrkfv.JNBk.C4Hhv6BcB_l_1227111722_L_xkD","LocationType":"point","DisplayPosition":{"Latitude":40.747675,"Longitude":14.6205099},"MapView":{"TopLeft":{"Latitude":40.7487992,"Longitude":14.6190261},"BottomRight":{"Latitude":40.7465509,"Longitude":14.6219938}},"Address":{"Label":"Via Alcide De Gasperi, 19, 84016 Pagani SA, Italia","Country":"ITA","State":"Campania","County":"SA","City":"Pagani","Street":"Via Alcide De Gasperi","HouseNumber":"19","PostalCode":"84016","AdditionalData":[{"value":"Italia","key":"CountryName"},{"value":"Campania","key":"StateName"},{"value":"Salerno","key":"CountyName"}]},"MapReference":{"ReferenceId":"1227111722","Spot":0.5,"SideOfStreet":"left","CountryId":"20110484","StateId":"20127654","CountyId":"20221061","CityId":"20238478"}}},{"Relevance":1.0,"Distance":73.9,"MatchLevel":"houseNumber","MatchQuality":{"Country":1.0,"State":1.0,"County":1.0,"City":1.0,"Street":[1.0],"HouseNumber":1.0,"PostalCode":1.0},"MatchType":"interpolated","Location":{"LocationId":"NT_jzmrkfv.JNBk.C4Hhv6BcB_xAzQ","LocationType":"point","DisplayPosition":{"Latitude":40.74782,"Longitude":14.62051},"MapView":{"TopLeft":{"Latitude":40.7489442,"Longitude":14.6190261},"BottomRight":{"Latitude":40.7466958,"Longitude":14.6219939}},"Address":{"Label":"Via Alcide De Gasperi, 10C, 84016 Pagani SA, Italia","Country":"ITA","State":"Campania","County":"SA","City":"Pagani","Street":"Via Alcide De Gasperi","HouseNumber":"10C","PostalCode":"84016","AdditionalData":[{"value":"Italia","key":"CountryName"},{"value":"Campania","key":"StateName"},{"value":"Salerno","key":"CountyName"}]},"MapReference":{"ReferenceId":"967750423","Spot":0.36,"SideOfStreet":"right","CountryId":"20110484","StateId":"20127654","CountyId":"20221061","CityId":"20238478","AddressId":"777772668","RoadLinkId":"306045758"}}},{"Relevance":1.0,"Distance":75.5,"MatchLevel":"houseNumber","MatchQuality":{"Country":1.0,"State":1.0,"County":1.0,"City":1.0,"Street":[1.0],"HouseNumber":1.0,"PostalCode":1.0},"MatchType":"interpolated","Location":{"LocationId":"NT_jzmrkfv.JNBk.C4Hhv6BcB_yMD","LocationType":"point","DisplayPosition":{"Latitude":40.74775,"Longitude":14.62041},"MapView":{"TopLeft":{"Latitude":40.7488742,"Longitude":14.6189261},"BottomRight":{"Latitude":40.7466258,"Longitude":14.6218939}},"Address":{"Label":"Via Alcide De Gasperi, 23, 84016 Pagani SA, Italia","Country":"ITA","State":"Campania","County":"SA","City":"Pagani","Street":"Via Alcide De Gasperi","HouseNumber":"23","PostalCode":"84016","AdditionalData":[{"value":"Italia","key":"CountryName"},{"value":"Campania","key":"StateName"},{"value":"Salerno","key":"CountyName"}]},"MapReference":{"ReferenceId":"967750422","Spot":0.21,"SideOfStreet":"left","CountryId":"20110484","StateId":"20127654","CountyId":"20221061","CityId":"20238478","AddressId":"728405155","RoadLinkId":"306045756"}}},{"Relevance":1.0,"Distance":93.1,"MatchLevel":"houseNumber","MatchQuality":{"Country":1.0,"State":1.0,"County":1.0,"City":1.0,"Street":[1.0],"HouseNumber":1.0,"PostalCode":1.0},"MatchType":"interpolated","Location":{"LocationId":"NT_8kElRP3FsbDohCMQlyBN1A_xMTO","LocationType":"point","DisplayPosition":{"Latitude":40.74701,"Longitude":14.62215},"MapView":{"TopLeft":{"Latitude":40.7481342,"Longitude":14.6206662},"BottomRight":{"Latitude":40.7458858,"Longitude":14.6236338}},"Address":{"Label":"Via Andrea Tortora, 139, 84016 Pagani SA, Italia","Country":"ITA","State":"Campania","County":"SA","City":"Pagani","Street":"Via Andrea Tortora","HouseNumber":"139","PostalCode":"84016","AdditionalData":[{"value":"Italia","key":"CountryName"},{"value":"Campania","key":"StateName"},{"value":"Salerno","key":"CountyName"}]},"MapReference":{"ReferenceId":"585519094","Spot":0.87,"SideOfStreet":"left","CountryId":"20110484","StateId":"20127654","CountyId":"20221061","CityId":"20238478","AddressId":"777392869","RoadLinkId":"57489537"}}}]}]}}