{"Response":{"MetaInfo":{"Timestamp":"2020-03-28T09:58:59.610+0000","NextPageInformation":"2"},"View":[{"_type":"SearchResultsViewType","ViewId":0,"Result":[{"Relevance":1.0,"Distance":0.0,"Direction":0.0,"MatchLevel":"district","MatchQuality":{"Country":1.0,"County":1.0,"City":1.0,"District":1.0,"PostalCode":1.0},"Location":{"LocationId":"NT_Dks6hJKbkOwiN4JW-4HQED","LocationType":"point","DisplayPosition":{"Latitude":40.7710966,"Longitude":-7.0691174},"MapView":{"TopLeft":{"Latitude":40.78107,"Longitude":-7.08738},"BottomRight":{"Latitude":40.76691,"Longitude":-7.05396}},"Address":{"Label":"Pinhel, Portugal","Country":"PRT","County":"Guarda","City":"Pinhel","District":"Pinhel","PostalCode":"6400-554","AdditionalData":[{"value":"Portugal","key":"CountryName"},{"value":"Guarda","key":"CountyName"}]},"MapReference":{"ReferenceId":"590058905","SideOfStreet":"neither","CountryId":"20317122","CountyId":"20318919","CityId":"20319123","DistrictId":"20319140"}}},{"Relevance":1.0,"Distance":34.9,"MatchLevel":"street","MatchQuality":{"Country":1.0,"County":1.0,"City":1.0,"District":1.0,"Street":[1.0],"PostalCode":1.0},"Location":{"LocationId":"NT_r9.kiem7CIFHWPLI9tNJ-D_l_1056089094_R","LocationType":"point","DisplayPosition":{"Latitude":40.7708086,"Longitude":-7.0692811},"MapView":{"TopLeft":{"Latitude":40.77105,"Longitude":-7.06972},"BottomRight":{"Latitude":40.77045,"Longitude":-7.06865}},"Address":{"Label":"Rua Irmãs da Santa Trindade, 6400-489 Pinhel, Portugal","Country":"PRT","County":"Guarda","City":"Pinhel","District":"Pinhel","Street":"Rua Irmãs da Santa Trindade","PostalCode":"6400-489","AdditionalData":[{"value":"Portugal","key":"CountryName"},{"value":"Guarda","key":"CountyName"}]},"MapReference":{"ReferenceId":"1056089094","Spot":0.59,"SideOfStreet":"right","CountryId":"20317122","CountyId":"20318919","CityId":"20319123","DistrictId":"20319140"}}},{"Relevance":1.0,"Distance":37.8,"MatchLevel":"houseNumber","MatchQuality":{"Country":1.0,"County":1.0,"City":1.0,"District":1.0,"Street":[1.0],"HouseNumber":1.0,"PostalCode":1.0},"MatchType":"interpolated","Location":{"LocationId":"NT_Ah0ScDmAILdJjIOWKiPzEA_l_590061943_L_xID","LocationType":"point","DisplayPosition":{"Latitude":40.77133,"Longitude":-7.0694433},"MapView":{"TopLeft":{"Latitude":40.7724542,"Longitude":-7.0709277},"BottomRight":{"Latitude":40.7702059,"Longitude":-7.0679589}},"Address":{"Label":"Rua Dr. António Seixas 12, 6400-323 Pinhel, Portugal","Country":"PRT","County":"Guarda","City":"Pinhel","District":"Pinhel","Street":"Rua Dr. António Seixas","HouseNumber":"12","PostalCode":"6400-323","AdditionalData":[{"value":"Portugal","key":"CountryName"},{"value":"Guarda","key":"CountyName"}]},"MapReference":{"ReferenceId":"590061943","Spot":0.59,"SideOfStreet":"left","CountryId":"20317122","CountyId":"20318919","CityId":"20319123","DistrictId":"20319140"}}},{"Relevance":1.0,"Distance":49.7,"MatchLevel":"street","MatchQuality":{"Country":1.0,"County":1.0,"City":1.0,"District":1.0,"Street":[1.0],"PostalCode":1.0},"Location":{"LocationId":"NT_ZAEdhmcMcKsjFT246RuyaB_l_590061963_L","LocationType":"point","DisplayPosition":{"Latitude":40.77153,"Longitude":-7.06926},"MapView":{"TopLeft":{"Latitude":40.77224,"Longitude":-7.07034},"BottomRight":{"Latitude":40.77153,"Longitude":-7.06926}},"Address":{"Label":"Rua Professor Doutor Pinto Peixoto, 6400-486 Pinhel, Portugal","Country":"PRT","County":"Guarda","City":"Pinhel","District":"Pinhel","Street":"Rua Professor Doutor Pinto Peixoto","PostalCode":"6400-486","AdditionalData":[{"value":"Portugal","key":"CountryName"},{"value":"Guarda","key":"CountyName"}]},"MapReference":{"ReferenceId":"590061963","Spot":0.0,"SideOfStreet":"left","CountryId":"20317122","CountyId":"20318919","CityId":"20319123","DistrictId":"20319140"}}},{"Relevance":1.0,"Distance":51.0,"MatchLevel":"street","MatchQuality":{"Country":1.0,"County":1.0,"City":1.0,"District":1.0,"Street":[1.0],"PostalCode":1.0},"Location":{"LocationId":"NT_Ah0ScDmAILdJjIOWKiPzEA_l_590061916_R","LocationType":"point","DisplayPosition":{"Latitude":40.77105,"Longitude":-7.06972},"MapView":{"TopLeft":{"Latitude":40.77105,"Longitude":-7.07011},"BottomRight":{"Latitude":40.77062,"Longitude":-7.06972}},"Address":{"Label":"Rua Dr. António Seixas, 6400-323 Pinhel, Portugal","Country":"PRT","County":"Guarda","City":"Pinhel","District":"Pinhel","Street":"Rua Dr. António Seixas","PostalCode":"6400-323","AdditionalData":[{"value":"Portugal","key":"CountryName"},{"value":"Guarda","key":"CountyName"}]},"MapReference":{"ReferenceId":"590061916","Spot":1.0,"SideOfStreet":"right","CountryId":"20317122","CountyId":"20318919","CityId":"20319123","DistrictId":"20319140"}}},{"Relevance":1.0,"Distance":71.0,"MatchLevel":"street","MatchQuality":{"Country":1.0,"County":1.0,"City":1.0,"District":1.0,"Street":[1.0],"PostalCode":1.0},"Location":{"LocationId":"NT_O-0rsr9NLHmTsJI5bak4gA_l_1056089109_L","LocationType":"point","DisplayPosition":{"Latitude":40.7706592,"Longitude":-7.0685023},"MapView":{"TopLeft":{"Latitude":40.771,"Longitude":-7.06858},"BottomRight":{"Latitude":40.77055,"Longitude":-7.06826}},"Address":{"Label":"Avenida Frederico Ulrich, 6400-378 Pinhel, Portugal","Country":"PRT","County":"Guarda","City":"Pinhel","District":"Pinhel","Street":"Avenida Frederico Ulrich","PostalCode":"6400-378","AdditionalData":[{"value":"Portugal","key":"CountryName"},{"value":"Guarda","key":"CountyName"}]},"MapReference":{"ReferenceId":"1056089109","Spot":0.24,"SideOfStreet":"left","CountryId":"20317122","CountyId":"20318919","CityId":"20319123","DistrictId":"20319140"}}},{"Relevance":1.0,"Distance":73.0,"MatchLevel":"street","MatchQuality":{"Country":1.0,"County":1.0,"City":1.0,"District":1.0,"Street":[1.0],"PostalCode":1.0},"Location":{"LocationId":"NT_O-0rsr9NLHmTsJI5bak4gA_l_1056089104_L","LocationType":"point","DisplayPosition":{"Latitude":40.771,"Longitude":-7.06826},"MapView":{"TopLeft":{"Latitude":40.7713,"Longitude":-7.06826},"BottomRight":{"Latitude":40.771,"Longitude":-7.06804}},"Address":{"Label":"Avenida Frederico Ulrich, 6400-378 Pinhel, Portugal","Country":"PRT","County":"Guarda","City":"Pinhel","District":"Pinhel","Street":"Avenida Frederico Ulrich","PostalCode":"6400-378","AdditionalData":[{"value":"Portugal","key":"CountryName"},{"value":"Guarda","key":"CountyName"}]},"MapReference":{"ReferenceId":"1056089104","Spot":0.0,"SideOfStreet":"left","CountryId":"20317122","CountyId":"20318919","CityId":"20319123","DistrictId":"20319140"}}},{"Relevance":1.0,"Distance":75.8,"MatchLevel":"street","MatchQuality":{"Country":1.0,"County":1.0,"City":1.0,"District":1.0,"Street":[1.0],"PostalCode":1.0},"Location":{"LocationId":"NT_O-0rsr9NLHmTsJI5bak4gA_l_1056089108_L","LocationType":"point","DisplayPosition":{"Latitude":40.77055,"Longitude":-7.06858},"MapView":{"TopLeft":{"Latitude":40.77055,"Longitude":-7.06865},"BottomRight":{"Latitude":40.77045,"Longitude":-7.06858}},"Address":{"Label":"Avenida Frederico Ulrich, 6400-378 Pinhel, Portugal","Country":"PRT","County":"Guarda","City":"Pinhel","District":"Pinhel","Street":"Avenida Frederico Ulrich","PostalCode":"6400-378","AdditionalData":[{"value":"Portugal","key":"CountryName"},{"value":"Guarda","key":"CountyName"}]},"MapReference":{"ReferenceId":"1056089108","Spot":1.0,"SideOfStreet":"left","CountryId":"20317122","CountyId":"20318919","CityId":"20319123","DistrictId":"20319140"}}},{"Relevance":1.0,"Distance":80.4,"MatchLevel":"houseNumber","MatchQuality":{"Country":1.0,"County":1.0,"City":1.0,"District":1.0,"Street":[1.0],"HouseNumber":1.0,"PostalCode":1.0},"MatchType":"interpolated","Location":{"LocationId":"NT_LEeAO1ZVJkkfCVrNyUOW5D_xID","LocationType":"point","DisplayPosition":{"Latitude":40.77121,"Longitude":-7.07006},"MapView":{"TopLeft":{"Latitude":40.7723342,"Longitude":-7.0715444},"BottomRight":{"Latitude":40.7700858,"Longitude":-7.0685756}},"Address":{"Label":"Rua de Angola 12, 6400-320 Pinhel, Portugal","Country":"PRT","County":"Guarda","City":"Pinhel","District":"Pinhel","Street":"Rua de Angola","HouseNumber":"12","PostalCode":"6400-320","AdditionalData":[{"value":"Portugal","key":"CountryName"},{"value":"Guarda","key":"CountyName"}]},"MapReference":{"ReferenceId":"590061946","Spot":0.84,"SideOfStreet":"right","CountryId":"20317122","CountyId":"20318919","CityId":"20319123","DistrictId":"20319140","AddressId":"377346454","RoadLinkId":"317814669"}}},{"Relevance":1.0,"Distance":81.3,"MatchLevel":"houseNumber","MatchQuality":{"Country":1.0,"County":1.0,"City":1.0,"District":1.0,"Street":[1.0],"HouseNumber":1.0,"PostalCode":1.0},"MatchType":"interpolated","Location":{"LocationId":"NT_O-0rsr9NLHmTsJI5bak4gA_MJjN","LocationType":"point","DisplayPosition":{"Latitude":40.77072,"Longitude":-7.06829},"MapView":{"TopLeft":{"Latitude":40.7718442,"Longitude":-7.0697744},"BottomRight":{"Latitude":40.7695958,"Longitude":-7.0668056}},"Address":{"Label":"Avenida Frederico Ulrich L26, 6400-378 Pinhel, Portugal","Country":"PRT","County":"Guarda","City":"Pinhel","District":"Pinhel","Street":"Avenida Frederico Ulrich","HouseNumber":"L26","PostalCode":"6400-378","AdditionalData":[{"value":"Portugal","key":"CountryName"},{"value":"Guarda","key":"CountyName"}]},"MapReference":{"ReferenceId":"1050558990","Spot":0.52,"SideOfStreet":"right","CountryId":"20317122","CountyId":"20318919","CityId":"20319123","DistrictId":"20319140","AddressId":"343547035","RoadLinkId":"370742926"}}}]}]}}