{"Response":{"MetaInfo":{"Timestamp":"2020-03-28T11:33:32.208+0000","NextPageInformation":"2"},"View":[{"_type":"SearchResultsViewType","ViewId":0,"Result":[{"Relevance":1.0,"Distance":0.0,"Direction":0.0,"MatchLevel":"district","MatchQuality":{"Country":1.0,"County":1.0,"City":1.0,"District":1.0,"PostalCode":1.0},"Location":{"LocationId":"NT_giYiYVECxdi1WOcd0ZjakA","LocationType":"point","DisplayPosition":{"Latitude":40.7387758,"Longitude":-8.5577989},"MapView":{"TopLeft":{"Latitude":40.75192,"Longitude":-8.57485},"BottomRight":{"Latitude":40.72546,"Longitude":-8.55381}},"Address":{"Label":"Salreu, Estarreja, Portugal","Country":"PRT","County":"Aveiro","City":"Estarreja","District":"Salreu","PostalCode":"3865-284","AdditionalData":[{"value":"Portugal","key":"CountryName"},{"value":"Aveiro","key":"CountyName"}]},"MapReference":{"ReferenceId":"588632370","SideOfStreet":"neither","CountryId":"20317122","CountyId":"20317149","CityId":"20317248","DistrictId":"20317254"}}},{"Relevance":1.0,"Distance":5.4,"MatchLevel":"houseNumber","MatchQuality":{"Country":1.0,"County":1.0,"City":1.0,"District":1.0,"Street":[1.0],"HouseNumber":1.0,"PostalCode":1.0},"MatchType":"interpolated","Location":{"LocationId":"NT_6Iu040lBWlWE.8aGbBG0vA_l_591385776_L_xgD","LocationType":"point","DisplayPosition":{"Latitude":40.738775,"Longitude":-8.557735},"MapView":{"TopLeft":{"Latitude":40.7398992,"Longitude":-8.5592187},"BottomRight":{"Latitude":40.7376509,"Longitude":-8.5562514}},"Address":{"Label":"Avenida Visconde de Salreu 18, 3865-254 Estarreja, Portugal","Country":"PRT","County":"Aveiro","City":"Estarreja","District":"Salreu","Street":"Avenida Visconde de Salreu","HouseNumber":"18","PostalCode":"3865-254","AdditionalData":[{"value":"Portugal","key":"CountryName"},{"value":"Aveiro","key":"CountyName"}]},"MapReference":{"ReferenceId":"591385776","Spot":0.63,"SideOfStreet":"left","CountryId":"20317122","CountyId":"20317149","CityId":"20317248","DistrictId":"20317254"}}},{"Relevance":1.0,"Distance":12.2,"MatchLevel":"street","MatchQuality":{"Country":1.0,"County":1.0,"City":1.0,"District":1.0,"PostalCode":1.0},"Location":{"LocationId":"NT_g3MBBJsvVwz5jLDUe0P4bC_l_591385777_R","LocationType":"point","DisplayPosition":{"Latitude":40.7387378,"Longitude":-8.5579346},"MapView":{"TopLeft":{"Latitude":40.739,"Longitude":-8.55798},"BottomRight":{"Latitude":40.7384,"Longitude":-8.55781}},"Address":{"Label":"3865 Estarreja, Portugal","Country":"PRT","County":"Aveiro","City":"Estarreja","District":"Salreu","PostalCode":"3865","AdditionalData":[{"value":"Portugal","key":"CountryName"},{"value":"Aveiro","key":"CountyName"}]},"MapReference":{"ReferenceId":"591385777","Spot":0.49,"SideOfStreet":"right","CountryId":"20317122","CountyId":"20317149","CityId":"20317248","DistrictId":"20317254"}}},{"Relevance":1.0,"Distance":41.9,"MatchLevel":"street","MatchQuality":{"Country":1.0,"County":1.0,"City":1.0,"District":1.0,"PostalCode":1.0},"Location":{"LocationId":"NT_g3MBBJsvVwz5jLDUe0P4bC_l_591385778_R","LocationType":"point","DisplayPosition":{"Latitude":40.7384,"Longitude":-8.55784},"MapView":{"TopLeft":{"Latitude":40.7384,"Longitude":-8.55784},"BottomRight":{"Latitude":40.73838,"Longitude":-8.55762}},"Address":{"Label":"3865 Estarreja, Portugal","Country":"PRT","County":"Aveiro","City":"Estarreja","District":"Salreu","PostalCode":"3865","AdditionalData":[{"value":"Portugal","key":"CountryName"},{"value":"Aveiro","key":"CountyName"}]},"MapReference":{"ReferenceId":"591385778","Spot":1.0,"SideOfStreet":"right","CountryId":"20317122","CountyId":"20317149","CityId":"20317248","DistrictId":"20317254"}}},{"Relevance":1.0,"Distance":49.8,"MatchLevel":"houseNumber","MatchQuality":{"Country":1.0,"County":1.0,"City":1.0,"District":1.0,"Street":[1.0],"HouseNumber":1.0,"PostalCode":1.0},"MatchType":"interpolated","Location":{"LocationId":"NT_6Iu040lBWlWE.8aGbBG0vA_xQD","LocationType":"point","DisplayPosition":{"Latitude":40.73922,"Longitude":-8.55787},"MapView":{"TopLeft":{"Latitude":40.7403442,"Longitude":-8.5593537},"BottomRight":{"Latitude":40.7380958,"Longitude":-8.5563863}},"Address":{"Label":"Avenida Visconde de Salreu 14, 3865-254 Estarreja, Portugal","Country":"PRT","County":"Aveiro","City":"Estarreja","District":"Salreu","Street":"Avenida Visconde de Salreu","HouseNumber":"14","PostalCode":"3865-254","AdditionalData":[{"value":"Portugal","key":"CountryName"},{"value":"Aveiro","key":"CountyName"}]},"MapReference":{"ReferenceId":"591385774","Spot":0.31,"SideOfStreet":"left","CountryId":"20317122","CountyId":"20317149","CityId":"20317248","DistrictId":"20317254","AddressId":"343539989","RoadLinkId":"70755451"}}},{"Relevance":1.0,"Distance":71.2,"MatchLevel":"houseNumber","MatchQuality":{"Country":1.0,"County":1.0,"City":1.0,"District":1.0,"Street":[1.0],"HouseNumber":1.0,"PostalCode":1.0},"MatchType":"interpolated","Location":{"LocationId":"NT_6Iu040lBWlWE.8aGbBG0vA_l_591385775_L_yYD","LocationType":"point","DisplayPosition":{"Latitude":40.738165,"Longitude":-8.5575433},"MapView":{"TopLeft":{"Latitude":40.7392892,"Longitude":-8.559027},"BottomRight":{"Latitude":40.7370409,"Longitude":-8.5560597}},"Address":{"Label":"Avenida Visconde de Salreu 26, 3865-254 Estarreja, Portugal","Country":"PRT","County":"Aveiro","City":"Estarreja","District":"Salreu","Street":"Avenida Visconde de Salreu","HouseNumber":"26","PostalCode":"3865-254","AdditionalData":[{"value":"Portugal","key":"CountryName"},{"value":"Aveiro","key":"CountyName"}]},"MapReference":{"ReferenceId":"591385775","Spot":0.71,"SideOfStreet":"left","CountryId":"20317122","CountyId":"20317149","CityId":"20317248","DistrictId":"20317254"}}},{"Relevance":1.0,"Distance":79.2,"MatchLevel":"street","MatchQuality":{"Country":1.0,"County":1.0,"City":1.0,"District":1.0,"Street":[1.0],"PostalCode":1.0},"Location":{"LocationId":"NT_YQznYGPE7jgvRJwbswtqgB_l_588632507_L","LocationType":"point","DisplayPosition":{"Latitude":40.7392111,"Longitude":-8.5570553},"MapView":{"TopLeft":{"Latitude":40.73958,"Longitude":-8.55718},"BottomRight":{"Latitude":40.73898,"Longitude":-8.55692}},"Address":{"Label":"Travessa Visconde de Salreu, 3865-257 Estarreja, Portugal","Country":"PRT","County":"Aveiro","City":"Estarreja","District":"Salreu","Street":"Travessa Visconde de Salreu","PostalCode":"3865-257","AdditionalData":[{"value":"Portugal","key":"CountryName"},{"value":"Aveiro","key":"CountyName"}]},"MapReference":{"ReferenceId":"588632507","Spot":0.4,"SideOfStreet":"left","CountryId":"20317122","CountyId":"20317149","CityId":"20317248","DistrictId":"20317254"}}},{"Relevance":1.0,"Distance":99.1,"MatchLevel":"houseNumber","MatchQuality":{"Country":1.0,"County":1.0,"City":1.0,"District":1.0,"Street":[1.0],"HouseNumber":1.0,"PostalCode":1.0},"MatchType":"interpolated","Location":{"LocationId":"NT_YQznYGPE7jgvRJwbswtqgB_zA","LocationType":"point","DisplayPosition":{"Latitude":40.73958,"Longitude":-8.55724},"MapView":{"TopLeft":{"Latitude":40.7407042,"Longitude":-8.5587237},"BottomRight":{"Latitude":40.7384558,"Longitude":-8.5557563}},"Address":{"Label":"Travessa Visconde de Salreu 3, 3865-257 Estarreja, Portugal","Country":"PRT","County":"Aveiro","City":"Estarreja","District":"Salreu","Street":"Travessa Visconde de Salreu","HouseNumber":"3","PostalCode":"3865-257","AdditionalData":[{"value":"Portugal","key":"CountryName"},{"value":"Aveiro","key":"CountyName"}]},"MapReference":{"ReferenceId":"588632504","Spot":0.07,"SideOfStreet":"left","CountryId":"20317122","CountyId":"20317149","CityId":"20317248","DistrictId":"20317254","AddressId":"377220835","RoadLinkId":"69835124"}}},{"Relevance":1.0,"Distance":105.3,"MatchLevel":"houseNumber","MatchQuality":{"Country":1.0,"County":1.0,"City":1.0,"District":1.0,"Street":[1.0],"HouseNumber":1.0,"PostalCode":1.0},"MatchType":"interpolated","Location":{"LocationId":"NT_YQznYGPE7jgvRJwbswtqgB_zQD","LocationType":"point","DisplayPosition":{"Latitude":40.73958,"Longitude":-8.55714},"MapView":{"TopLeft":{"Latitude":40.7407042,"Longitude":-8.5586237},"BottomRight":{"Latitude":40.7384558,"Longitude":-8.5556563}},"Address":{"Label":"Travessa Visconde de Salreu 34, 3865-257 Estarreja, Portugal","Country":"PRT","County":"Aveiro","City":"Estarreja","District":"Salreu","Street":"Travessa Visconde de Salreu","HouseNumber":"34","PostalCode":"3865-257","AdditionalData":[{"value":"Portugal","key":"CountryName"},{"value":"Aveiro","key":"CountyName"}]},"MapReference":{"ReferenceId":"588632503","Spot":0.08,"SideOfStreet":"left","CountryId":"20317122","CountyId":"20317149","CityId":"20317248","DistrictId":"20317254","AddressId":"377234239","RoadLinkId":"69791256"}}},{"Relevance":1.0,"Distance":110.0,"MatchLevel":"houseNumber","MatchQuality":{"Country":1.0,"County":1.0,"City":1.0,"District":1.0,"Street":[1.0],"HouseNumber":1.0,"PostalCode":1.0},"MatchType":"interpolated","Location":{"LocationId":"NT_Jo4HT2Mjfl9b6lXzXVPuhC_xEE","LocationType":"point","DisplayPosition":{"Latitude":40.73982,"Longitude":-8.55833},"MapView":{"TopLeft":{"Latitude":40.7409442,"Longitude":-8.5598137},"BottomRight":{"Latitude":40.7386958,"Longitude":-8.5568463}},"Address":{"Label":"Rua do Mato 1A, 3865-255 Estarreja, Portugal","Country":"PRT","County":"Aveiro","City":"Estarreja","District":"Salreu","Street":"Rua do Mato","HouseNumber":"1A","PostalCode":"3865-255","AdditionalData":[{"value":"Portugal","key":"CountryName"},{"value":"Aveiro","key":"CountyName"}]},"MapReference":{"ReferenceId":"588632498","Spot":0.18,"SideOfStreet":"left","CountryId":"20317122","CountyId":"20317149","CityId":"20317248","DistrictId":"20317254","AddressId":"343858713","RoadLinkId":"70984173"}}}]}]}}