{"Response":{"MetaInfo":{"Timestamp":"2020-03-28T11:23:24.285+0000","NextPageInformation":"2"},"View":[{"_type":"SearchResultsViewType","ViewId":0,"Result":[{"Relevance":1.0,"Distance":-11767.9,"MatchLevel":"landmark","MatchQuality":{"Country":1.0,"State":1.0,"Name":1.0},"Location":{"LocationId":"NT_5HPOzDeRDZVM2ZcDmsdktD","LocationType":"island","Name":"Sardegna","DisplayPosition":{"Latitude":40.06161,"Longitude":9.09799},"MapView":{"TopLeft":{"Latitude":41.25915,"Longitude":8.13115},"BottomRight":{"Latitude":38.86407,"Longitude":9.82883}},"Address":{"Label":"Italia","Country":"ITA","State":"Sardegna","AdditionalData":[{"value":"Italia","key":"CountryName"},{"value":"Sardegna","key":"StateName"}]},"MapReference":{"CountryId":"20110484","StateId":"20220774","PlaceId":"60827885"}}},{"Relevance":1.0,"Distance":0.0,"Direction":0.0,"MatchLevel":"city","MatchQuality":{"Country":1.0,"State":1.0,"County":1.0,"City":1.0,"PostalCode":1.0},"Location":{"LocationId":"NT_Wldnofz9YHgxazN9DL-VvD","LocationType":"point","DisplayPosition":{"Latitude":40.7208265,"Longitude":8.5553419},"MapView":{"TopLeft":{"Latitude":40.8692,"Longitude":8.13115},"BottomRight":{"Latitude":40.65177,"Longitude":8.64323}},"Address":{"Label":"Sassari, Sardegna, Italia","Country":"ITA","State":"Sardegna","County":"SS","City":"Sassari","PostalCode":"07100","AdditionalData":[{"value":"Italia","key":"CountryName"},{"value":"Sardegna","key":"StateName"},{"value":"Sassari","key":"CountyName"}]},"MapReference":{"ReferenceId":"1226137078","SideOfStreet":"neither","CountryId":"20110484","StateId":"20220774","CountyId":"20240521","CityId":"20240714"}}},{"Relevance":1.0,"Distance":2.4,"MatchLevel":"houseNumber","MatchQuality":{"Country":1.0,"State":1.0,"County":1.0,"City":1.0,"Street":[1.0],"HouseNumber":1.0,"PostalCode":1.0},"MatchType":"interpolated","Location":{"LocationId":"NT_007XvCl.eV71JR9TgAz3LC_1gD","LocationType":"point","DisplayPosition":{"Latitude":40.72081,"Longitude":8.55536},"MapView":{"TopLeft":{"Latitude":40.7219342,"Longitude":8.5538767},"BottomRight":{"Latitude":40.7196858,"Longitude":8.5568433}},"Address":{"Label":"Via Padre Manzella, 58, 07100 Sassari SS, Italia","Country":"ITA","State":"Sardegna","County":"SS","City":"Sassari","Street":"Via Padre Manzella","HouseNumber":"58","PostalCode":"07100","AdditionalData":[{"value":"Italia","key":"CountryName"},{"value":"Sardegna","key":"StateName"},{"value":"Sassari","key":"CountyName"}]},"MapReference":{"ReferenceId":"67526751","Spot":0.87,"SideOfStreet":"right","CountryId":"20110484","StateId":"20220774","CountyId":"20240521","CityId":"20240714","AddressId":"717348580","RoadLinkId":"60042113"}}},{"Relevance":1.0,"Distance":8.2,"MatchLevel":"houseNumber","MatchQuality":{"Country":1.0,"State":1.0,"County":1.0,"City":1.0,"Street":[1.0],"HouseNumber":1.0,"PostalCode":1.0},"MatchType":"interpolated","Location":{"LocationId":"NT_9W5wr9oCfnrLYxM9vVrCvB_1YD","LocationType":"point","DisplayPosition":{"Latitude":40.72087,"Longitude":8.55542},"MapView":{"TopLeft":{"Latitude":40.7219942,"Longitude":8.5539367},"BottomRight":{"Latitude":40.7197458,"Longitude":8.5569033}},"Address":{"Label":"Via Giacomo Matteotti, 56, 07100 Sassari SS, Italia","Country":"ITA","State":"Sardegna","County":"SS","City":"Sassari","Street":"Via Giacomo Matteotti","HouseNumber":"56","PostalCode":"07100","AdditionalData":[{"value":"Italia","key":"CountryName"},{"value":"Sardegna","key":"StateName"},{"value":"Sassari","key":"CountyName"}]},"MapReference":{"ReferenceId":"67519664","Spot":1.0,"SideOfStreet":"left","CountryId":"20110484","StateId":"20220774","CountyId":"20240521","CityId":"20240714","AddressId":"717291040","RoadLinkId":"59801759"}}},{"Relevance":1.0,"Distance":8.2,"MatchLevel":"houseNumber","MatchQuality":{"Country":1.0,"State":1.0,"County":1.0,"City":1.0,"Street":[1.0],"HouseNumber":1.0,"PostalCode":1.0},"MatchType":"interpolated","Location":{"LocationId":"NT_007XvCl.eV71JR9TgAz3LC_yA","LocationType":"point","DisplayPosition":{"Latitude":40.72087,"Longitude":8.55542},"MapView":{"TopLeft":{"Latitude":40.7219942,"Longitude":8.5539367},"BottomRight":{"Latitude":40.7197458,"Longitude":8.5569033}},"Address":{"Label":"Via Padre Manzella, 2, 07100 Sassari SS, Italia","Country":"ITA","State":"Sardegna","County":"SS","City":"Sassari","Street":"Via Padre Manzella","HouseNumber":"2","PostalCode":"07100","AdditionalData":[{"value":"Italia","key":"CountryName"},{"value":"Sardegna","key":"StateName"},{"value":"Sassari","key":"CountyName"}]},"MapReference":{"ReferenceId":"67525573","Spot":0.0,"SideOfStreet":"left","CountryId":"20110484","StateId":"20220774","CountyId":"20240521","CityId":"20240714","AddressId":"574508401","RoadLinkId":"60205616"}}},{"Relevance":1.0,"Distance":9.5,"MatchLevel":"houseNumber","MatchQuality":{"Country":1.0,"State":1.0,"County":1.0,"City":1.0,"Street":[1.0],"HouseNumber":1.0,"PostalCode":1.0},"MatchType":"interpolated","Location":{"LocationId":"NT_9W5wr9oCfnrLYxM9vVrCvB_1gD","LocationType":"point","DisplayPosition":{"Latitude":40.72169,"Longitude":8.5537},"MapView":{"TopLeft":{"Latitude":40.7228142,"Longitude":8.5522167},"BottomRight":{"Latitude":40.7205658,"Longitude":8.5551833}},"Address":{"Label":"Via Giacomo Matteotti, 58, 07100 Sassari SS, Italia","Country":"ITA","State":"Sardegna","County":"SS","City":"Sassari","Street":"Via Giacomo Matteotti","HouseNumber":"58","PostalCode":"07100","AdditionalData":[{"value":"Italia","key":"CountryName"},{"value":"Sardegna","key":"StateName"},{"value":"Sassari","key":"CountyName"}]},"MapReference":{"ReferenceId":"67522420","Spot":1.0,"SideOfStreet":"left","CountryId":"20110484","StateId":"20220774","CountyId":"20240521","CityId":"20240714","AddressId":"574478062","RoadLinkId":"59857246"}}},{"Relevance":1.0,"Distance":62.0,"MatchLevel":"houseNumber","MatchQuality":{"Country":1.0,"State":1.0,"County":1.0,"City":1.0,"Street":[1.0],"HouseNumber":1.0,"PostalCode":1.0},"MatchType":"interpolated","Location":{"LocationId":"NT_m.DNJcxJ6y02a74i1QbKZD_3cD","LocationType":"point","DisplayPosition":{"Latitude":40.72041,"Longitude":8.55495},"MapView":{"TopLeft":{"Latitude":40.7215342,"Longitude":8.5534668},"BottomRight":{"Latitude":40.7192858,"Longitude":8.5564332}},"Address":{"Label":"Via Principessa Maria, 77, 07100 Sassari SS, Italia","Country":"ITA","State":"Sardegna","County":"SS","City":"Sassari","Street":"Via Principessa Maria","HouseNumber":"77","PostalCode":"07100","AdditionalData":[{"value":"Italia","key":"CountryName"},{"value":"Sardegna","key":"StateName"},{"value":"Sassari","key":"CountyName"}]},"MapReference":{"ReferenceId":"67526069","Spot":1.0,"SideOfStreet":"right","CountryId":"20110484","StateId":"20220774","CountyId":"20240521","CityId":"20240714","AddressId":"752581608","RoadLinkId":"59879452"}}},{"Relevance":1.0,"Distance":62.5,"MatchLevel":"houseNumber","MatchQuality":{"Country":1.0,"State":1.0,"County":1.0,"City":1.0,"Street":[1.0],"HouseNumber":1.0,"PostalCode":1.0},"MatchType":"interpolated","Location":{"LocationId":"NT_cHLv8avCvh49H7RpUuGQND_1YD","LocationType":"point","DisplayPosition":{"Latitude":40.72142,"Longitude":8.55578},"MapView":{"TopLeft":{"Latitude":40.7225442,"Longitude":8.5542967},"BottomRight":{"Latitude":40.7202958,"Longitude":8.5572633}},"Address":{"Label":"Via Giovanni Amendola, 56, 07100 Sassari SS, Italia","Country":"ITA","State":"Sardegna","County":"SS","City":"Sassari","Street":"Via Giovanni Amendola","HouseNumber":"56","PostalCode":"07100","AdditionalData":[{"value":"Italia","key":"CountryName"},{"value":"Sardegna","key":"StateName"},{"value":"Sassari","key":"CountyName"}]},"MapReference":{"ReferenceId":"67526174","Spot":1.0,"SideOfStreet":"left","CountryId":"20110484","StateId":"20220774","CountyId":"20240521","CityId":"20240714","AddressId":"752547473","RoadLinkId":"59841568"}}},{"Relevance":1.0,"Distance":66.6,"MatchLevel":"houseNumber","MatchQuality":{"Country":1.0,"State":1.0,"County":1.0,"City":1.0,"Street":[1.0],"HouseNumber":1.0,"PostalCode":1.0},"MatchType":"interpolated","Location":{"LocationId":"NT_cHLv8avCvh49H7RpUuGQND_1QD","LocationType":"point","DisplayPosition":{"Latitude":40.72127,"Longitude":8.55604},"MapView":{"TopLeft":{"Latitude":40.7223942,"Longitude":8.5545567},"BottomRight":{"Latitude":40.7201458,"Longitude":8.5575233}},"Address":{"Label":"Via Giovanni Amendola, 54, 07100 Sassari SS, Italia","Country":"ITA","State":"Sardegna","County":"SS","City":"Sassari","Street":"Via Giovanni Amendola","HouseNumber":"54","PostalCode":"07100","AdditionalData":[{"value":"Italia","key":"CountryName"},{"value":"Sardegna","key":"StateName"},{"value":"Sassari","key":"CountyName"}]},"MapReference":{"ReferenceId":"67526173","Spot":0.86,"SideOfStreet":"left","CountryId":"20110484","StateId":"20220774","CountyId":"20240521","CityId":"20240714","AddressId":"574521204","RoadLinkId":"59917318"}}},{"Relevance":1.0,"Distance":73.1,"MatchLevel":"houseNumber","MatchQuality":{"Country":1.0,"State":1.0,"County":1.0,"City":1.0,"Street":[1.0],"HouseNumber":1.0,"PostalCode":1.0},"MatchType":"interpolated","Location":{"LocationId":"NT_cHLv8avCvh49H7RpUuGQND_1gD","LocationType":"point","DisplayPosition":{"Latitude":40.72239,"Longitude":8.55416},"MapView":{"TopLeft":{"Latitude":40.7235142,"Longitude":8.5526767},"BottomRight":{"Latitude":40.7212658,"Longitude":8.5556433}},"Address":{"Label":"Via Giovanni Amendola, 58, 07100 Sassari SS, Italia","Country":"ITA","State":"Sardegna","County":"SS","City":"Sassari","Street":"Via Giovanni Amendola","HouseNumber":"58","PostalCode":"07100","AdditionalData":[{"value":"Italia","key":"CountryName"},{"value":"Sardegna","key":"StateName"},{"value":"Sassari","key":"CountyName"}]},"MapReference":{"ReferenceId":"67526175","Spot":1.0,"SideOfStreet":"left","CountryId":"20110484","StateId":"20220774","CountyId":"20240521","CityId":"20240714","AddressId":"574493034","RoadLinkId":"60164638"}}}]}]}}