{"Response":{"MetaInfo":{"Timestamp":"2020-03-28T10:44:18.208+0000","NextPageInformation":"2"},"View":[{"_type":"SearchResultsViewType","ViewId":0,"Result":[{"Relevance":1.0,"Distance":-35223.0,"MatchLevel":"landmark","MatchQuality":{"Country":1.0,"State":1.0,"Name":1.0},"Location":{"LocationId":"NT_5HPOzDeRDZVM2ZcDmsdktD","LocationType":"island","Name":"Sardegna","DisplayPosition":{"Latitude":40.06161,"Longitude":9.09799},"MapView":{"TopLeft":{"Latitude":41.25915,"Longitude":8.13115},"BottomRight":{"Latitude":38.86407,"Longitude":9.82883}},"Address":{"Label":"Italia","Country":"ITA","State":"Sardegna","AdditionalData":[{"value":"Italia","key":"CountryName"},{"value":"Sardegna","key":"StateName"}]},"MapReference":{"CountryId":"20110484","StateId":"20220774","PlaceId":"60827885"}}},{"Relevance":1.0,"Distance":0.0,"Direction":0.0,"MatchLevel":"city","MatchQuality":{"Country":1.0,"State":1.0,"County":1.0,"City":1.0,"PostalCode":1.0},"Location":{"LocationId":"NT_GjCYPIPYw0OIzMWQ3jsPZB","LocationType":"point","DisplayPosition":{"Latitude":40.7205495,"Longitude":9.1051384},"MapView":{"TopLeft":{"Latitude":40.83349,"Longitude":9.00214},"BottomRight":{"Latitude":40.64648,"Longitude":9.23046}},"Address":{"Label":"Oschiri, Sardegna, Italia","Country":"ITA","State":"Sardegna","County":"SS","City":"Oschiri","PostalCode":"07027","AdditionalData":[{"value":"Italia","key":"CountryName"},{"value":"Sardegna","key":"StateName"},{"value":"Sassari","key":"CountyName"}]},"MapReference":{"ReferenceId":"547834037","SideOfStreet":"neither","CountryId":"20110484","StateId":"20220774","CountyId":"20240521","CityId":"28038859"}}},{"Relevance":1.0,"Distance":12.6,"MatchLevel":"street","MatchQuality":{"Country":1.0,"State":1.0,"County":1.0,"City":1.0,"Street":[1.0],"PostalCode":1.0},"Location":{"LocationId":"NT_sotsh70UwJ.c.vaJ0TgjGB_l_547834947_R","LocationType":"point","DisplayPosition":{"Latitude":40.7206318,"Longitude":9.1050355},"MapView":{"TopLeft":{"Latitude":40.72077,"Longitude":9.10467},"BottomRight":{"Latitude":40.72025,"Longitude":9.1051}},"Address":{"Label":"Via Antonio Segni, 07027 Oschiri SS, Italia","Country":"ITA","State":"Sardegna","County":"SS","City":"Oschiri","Street":"Via Antonio Segni","PostalCode":"07027","AdditionalData":[{"value":"Italia","key":"CountryName"},{"value":"Sardegna","key":"StateName"},{"value":"Sassari","key":"CountyName"}]},"MapReference":{"ReferenceId":"547834947","Spot":0.78,"SideOfStreet":"right","CountryId":"20110484","StateId":"20220774","CountyId":"20240521","CityId":"28038859"}}},{"Relevance":1.0,"Distance":37.3,"MatchLevel":"houseNumber","MatchQuality":{"Country":1.0,"State":1.0,"County":1.0,"City":1.0,"Street":[1.0],"HouseNumber":1.0,"PostalCode":1.0},"MatchType":"interpolated","Location":{"LocationId":"NT_sotsh70UwJ.c.vaJ0TgjGB_zA","LocationType":"point","DisplayPosition":{"Latitude":40.72088,"Longitude":9.105},"MapView":{"TopLeft":{"Latitude":40.7220042,"Longitude":9.1035167},"BottomRight":{"Latitude":40.7197558,"Longitude":9.1064833}},"Address":{"Label":"Via Antonio Segni, 3, 07027 Oschiri SS, Italia","Country":"ITA","State":"Sardegna","County":"SS","City":"Oschiri","Street":"Via Antonio Segni","HouseNumber":"3","PostalCode":"07027","AdditionalData":[{"value":"Italia","key":"CountryName"},{"value":"Sardegna","key":"StateName"},{"value":"Sassari","key":"CountyName"}]},"MapReference":{"ReferenceId":"547834948","Spot":0.11,"SideOfStreet":"left","CountryId":"20110484","StateId":"20220774","CountyId":"20240521","CityId":"28038859","AddressId":"765336205","RoadLinkId":"60089374"}}},{"Relevance":1.0,"Distance":48.7,"MatchLevel":"houseNumber","MatchQuality":{"Country":1.0,"State":1.0,"County":1.0,"City":1.0,"Street":[1.0],"HouseNumber":1.0,"PostalCode":1.0},"MatchType":"interpolated","Location":{"LocationId":"NT_5pDst8oQTOdCZYzrYPBNIB_xkD","LocationType":"point","DisplayPosition":{"Latitude":40.72033,"Longitude":9.10455},"MapView":{"TopLeft":{"Latitude":40.7214542,"Longitude":9.1030668},"BottomRight":{"Latitude":40.7192058,"Longitude":9.1060332}},"Address":{"Label":"Via Antonio Migheli, 19, 07027 Oschiri SS, Italia","Country":"ITA","State":"Sardegna","County":"SS","City":"Oschiri","Street":"Via Antonio Migheli","HouseNumber":"19","PostalCode":"07027","AdditionalData":[{"value":"Italia","key":"CountryName"},{"value":"Sardegna","key":"StateName"},{"value":"Sassari","key":"CountyName"}]},"MapReference":{"ReferenceId":"587004755","Spot":0.17,"SideOfStreet":"right","CountryId":"20110484","StateId":"20220774","CountyId":"20240521","CityId":"28038859","AddressId":"764306434","RoadLinkId":"60097940"}}},{"Relevance":1.0,"Distance":52.9,"MatchLevel":"street","MatchQuality":{"Country":1.0,"State":1.0,"County":1.0,"City":1.0,"Street":[1.0],"PostalCode":1.0},"Location":{"LocationId":"NT_ZuxQIlRC5fELDsW9LmcDuB_l_547834386_R","LocationType":"point","DisplayPosition":{"Latitude":40.7202041,"Longitude":9.1047067},"MapView":{"TopLeft":{"Latitude":40.72025,"Longitude":9.10467},"BottomRight":{"Latitude":40.71993,"Longitude":9.10478}},"Address":{"Label":"SS199, 07027 Oschiri SS, Italia","Country":"ITA","State":"Sardegna","County":"SS","City":"Oschiri","Street":"SS199","PostalCode":"07027","AdditionalData":[{"value":"Italia","key":"CountryName"},{"value":"Sardegna","key":"StateName"},{"value":"Sassari","key":"CountyName"}]},"MapReference":{"ReferenceId":"547834386","Spot":0.83,"SideOfStreet":"right","CountryId":"20110484","StateId":"20220774","CountyId":"20240521","CityId":"28038859"}}},{"Relevance":1.0,"Distance":55.9,"MatchLevel":"houseNumber","MatchQuality":{"Country":1.0,"State":1.0,"County":1.0,"City":1.0,"Street":[1.0],"HouseNumber":1.0,"PostalCode":1.0},"MatchType":"interpolated","Location":{"LocationId":"NT_J23fZ20Y3TSr4RxqNbi9VD_yA","LocationType":"point","DisplayPosition":{"Latitude":40.72089,"Longitude":9.10566},"MapView":{"TopLeft":{"Latitude":40.7220142,"Longitude":9.1041767},"BottomRight":{"Latitude":40.7197658,"Longitude":9.1071433}},"Address":{"Label":"Traversa Antonio Segni, 2, 07027 Oschiri SS, Italia","Country":"ITA","State":"Sardegna","County":"SS","City":"Oschiri","Street":"Traversa Antonio Segni","HouseNumber":"2","PostalCode":"07027","AdditionalData":[{"value":"Italia","key":"CountryName"},{"value":"Sardegna","key":"StateName"},{"value":"Sassari","key":"CountyName"}]},"MapReference":{"ReferenceId":"547834949","Spot":0.64,"SideOfStreet":"right","CountryId":"20110484","StateId":"20220774","CountyId":"20240521","CityId":"28038859","AddressId":"765476962","RoadLinkId":"59894497"}}},{"Relevance":1.0,"Distance":72.4,"MatchLevel":"houseNumber","MatchQuality":{"Country":1.0,"State":1.0,"County":1.0,"City":1.0,"Street":[1.0],"HouseNumber":1.0,"PostalCode":1.0},"MatchType":"interpolated","Location":{"LocationId":"NT_ld9AOuXzrmYr4CaICB0DNB_l_547834346_L_yMD","LocationType":"point","DisplayPosition":{"Latitude":40.7200001,"Longitude":9.1058338},"MapView":{"TopLeft":{"Latitude":40.7211243,"Longitude":9.1043506},"BottomRight":{"Latitude":40.718876,"Longitude":9.1073171}},"Address":{"Label":"Viale Italia, 23, 07027 Oschiri SS, Italia","Country":"ITA","State":"Sardegna","County":"SS","City":"Oschiri","Street":"Viale Italia","HouseNumber":"23","PostalCode":"07027","AdditionalData":[{"value":"Italia","key":"CountryName"},{"value":"Sardegna","key":"StateName"},{"value":"Sassari","key":"CountyName"}]},"MapReference":{"ReferenceId":"547834346","Spot":0.49,"SideOfStreet":"left","CountryId":"20110484","StateId":"20220774","CountyId":"20240521","CityId":"28038859"}}},{"Relevance":1.0,"Distance":75.2,"MatchLevel":"street","MatchQuality":{"Country":1.0,"State":1.0,"County":1.0,"City":1.0,"Street":[1.0],"PostalCode":1.0},"Location":{"LocationId":"NT_WmTj9ni80RxMuroX921evD_l_547835934_L","LocationType":"point","DisplayPosition":{"Latitude":40.71993,"Longitude":9.10478},"MapView":{"TopLeft":{"Latitude":40.71993,"Longitude":9.10436},"BottomRight":{"Latitude":40.7199,"Longitude":9.10478}},"Address":{"Label":"Via Trieste, 07027 Oschiri SS, Italia","Country":"ITA","State":"Sardegna","County":"SS","City":"Oschiri","Street":"Via Trieste","PostalCode":"07027","AdditionalData":[{"value":"Italia","key":"CountryName"},{"value":"Sardegna","key":"StateName"},{"value":"Sassari","key":"CountyName"}]},"MapReference":{"ReferenceId":"547835934","Spot":1.0,"SideOfStreet":"left","CountryId":"20110484","StateId":"20220774","CountyId":"20240521","CityId":"28038859"}}},{"Relevance":1.0,"Distance":75.2,"MatchLevel":"street","MatchQuality":{"Country":1.0,"State":1.0,"County":1.0,"City":1.0,"Street":[1.0],"PostalCode":1.0},"Location":{"LocationId":"NT_ZuxQIlRC5fELDsW9LmcDuB_l_547834385_R","LocationType":"point","DisplayPosition":{"Latitude":40.71993,"Longitude":9.10478},"MapView":{"TopLeft":{"Latitude":40.71993,"Longitude":9.10478},"BottomRight":{"Latitude":40.71976,"Longitude":9.10496}},"Address":{"Label":"SS199, 07027 Oschiri SS, Italia","Country":"ITA","State":"Sardegna","County":"SS","City":"Oschiri","Street":"SS199","PostalCode":"07027","AdditionalData":[{"value":"Italia","key":"CountryName"},{"value":"Sardegna","key":"StateName"},{"value":"Sassari","key":"CountyName"}]},"MapReference":{"ReferenceId":"547834385","Spot":1.0,"SideOfStreet":"right","CountryId":"20110484","StateId":"20220774","CountyId":"20240521","CityId":"28038859"}}}]}]}}