{"Response":{"MetaInfo":{"Timestamp":"2020-03-28T11:27:34.875+0000","NextPageInformation":"2"},"View":[{"_type":"SearchResultsViewType","ViewId":0,"Result":[{"Relevance":1.0,"Distance":0.0,"Direction":0.0,"MatchLevel":"district","MatchQuality":{"Country":1.0,"State":1.0,"County":1.0,"City":1.0,"District":1.0,"PostalCode":1.0},"Location":{"LocationId":"NT_niviLovzfPs6YZBd-0p0FC","LocationType":"point","DisplayPosition":{"Latitude":40.8515927,"Longitude":14.2533399},"MapView":{"TopLeft":{"Latitude":40.86499,"Longitude":14.24976},"BottomRight":{"Latitude":40.84869,"Longitude":14.27159}},"Address":{"Label":"San Lorenzo, Napoli, Campania, Italia","Country":"ITA","State":"Campania","County":"NA","City":"Napoli","District":"San Lorenzo","PostalCode":"80139","AdditionalData":[{"value":"Italia","key":"CountryName"},{"value":"Campania","key":"StateName"},{"value":"Napoli","key":"CountyName"}]},"MapReference":{"ReferenceId":"64061566","SideOfStreet":"neither","CountryId":"20110484","StateId":"20127654","CountyId":"20216051","CityId":"20216052"}}},{"Relevance":1.0,"Distance":2.5,"MatchLevel":"houseNumber","MatchQuality":{"Country":1.0,"State":1.0,"County":1.0,"City":1.0,"District":1.0,"Street":[1.0],"HouseNumber":1.0,"PostalCode":1.0},"MatchType":"interpolated","Location":{"LocationId":"NT_IH71Tv6k.4P57Ky3BJB4lA_yID","LocationType":"point","DisplayPosition":{"Latitude":40.85159,"Longitude":14.25337},"MapView":{"TopLeft":{"Latitude":40.8527142,"Longitude":14.2518838},"BottomRight":{"Latitude":40.8504658,"Longitude":14.2548562}},"Address":{"Label":"Via della Sapienza, 22, 80138 Napoli NA, Italia","Country":"ITA","State":"Campania","County":"NA","City":"Napoli","District":"San Lorenzo","Street":"Via della Sapienza","HouseNumber":"22","PostalCode":"80138","AdditionalData":[{"value":"Italia","key":"CountryName"},{"value":"Campania","key":"StateName"},{"value":"Napoli","key":"CountyName"}]},"MapReference":{"ReferenceId":"64061946","Spot":0.95,"SideOfStreet":"right","CountryId":"20110484","StateId":"20127654","CountyId":"20216051","CityId":"20216052","AddressId":"716481969","RoadLinkId":"57943333"}}},{"Relevance":1.0,"Distance":8.9,"MatchLevel":"street","MatchQuality":{"Country":1.0,"State":1.0,"County":1.0,"City":1.0,"District":1.0,"PostalCode":1.0},"Location":{"LocationId":"NT_rWd2CMdMs9uRtkQ3RYxXXB_l_64071186_L","LocationType":"point","DisplayPosition":{"Latitude":40.8515149,"Longitude":14.2533628},"MapView":{"TopLeft":{"Latitude":40.85152,"Longitude":14.25259},"BottomRight":{"Latitude":40.8511,"Longitude":14.25351}},"Address":{"Label":"80138 Napoli NA, Italia","Country":"ITA","State":"Campania","County":"NA","City":"Napoli","District":"San Lorenzo","PostalCode":"80138","AdditionalData":[{"value":"Italia","key":"CountryName"},{"value":"Campania","key":"StateName"},{"value":"Napoli","key":"CountyName"}]},"MapReference":{"ReferenceId":"64071186","Spot":0.81,"SideOfStreet":"left","CountryId":"20110484","StateId":"20127654","CountyId":"20216051","CityId":"20216052"}}},{"Relevance":1.0,"Distance":10.7,"MatchLevel":"houseNumber","MatchQuality":{"Country":1.0,"State":1.0,"County":1.0,"City":1.0,"District":1.0,"Street":[1.0],"HouseNumber":1.0,"PostalCode":1.0},"MatchType":"interpolated","Location":{"LocationId":"NT_7-D13c5zPvzvaTr6-Xr.CD_xAD","LocationType":"point","DisplayPosition":{"Latitude":40.85166,"Longitude":14.25343},"MapView":{"TopLeft":{"Latitude":40.8527842,"Longitude":14.2519438},"BottomRight":{"Latitude":40.8505358,"Longitude":14.2549162}},"Address":{"Label":"Vico Luigi De Crecchio, 10, 80138 Napoli NA, Italia","Country":"ITA","State":"Campania","County":"NA","City":"Napoli","District":"San Lorenzo","Street":"Vico Luigi De Crecchio","HouseNumber":"10","PostalCode":"80138","AdditionalData":[{"value":"Italia","key":"CountryName"},{"value":"Campania","key":"StateName"},{"value":"Napoli","key":"CountyName"}]},"MapReference":{"ReferenceId":"64073083","Spot":0.04,"SideOfStreet":"right","CountryId":"20110484","StateId":"20127654","CountyId":"20216051","CityId":"20216052","AddressId":"716505568","RoadLinkId":"58163599"}}},{"Relevance":1.0,"Distance":12.1,"MatchLevel":"houseNumber","MatchQuality":{"Country":1.0,"State":1.0,"County":1.0,"City":1.0,"District":1.0,"Street":[1.0],"HouseNumber":1.0,"PostalCode":1.0},"MatchType":"interpolated","Location":{"LocationId":"NT_jnU1uKGkS8-9n0Wi.YH78B_xA","LocationType":"point","DisplayPosition":{"Latitude":40.85157,"Longitude":14.25348},"MapView":{"TopLeft":{"Latitude":40.8526942,"Longitude":14.2519938},"BottomRight":{"Latitude":40.8504458,"Longitude":14.2549662}},"Address":{"Label":"Via del Sole, 1, 80138 Napoli NA, Italia","Country":"ITA","State":"Campania","County":"NA","City":"Napoli","District":"San Lorenzo","Street":"Via del Sole","HouseNumber":"1","PostalCode":"80138","AdditionalData":[{"value":"Italia","key":"CountryName"},{"value":"Campania","key":"StateName"},{"value":"Napoli","key":"CountyName"}]},"MapReference":{"ReferenceId":"64061893","Spot":0.76,"SideOfStreet":"right","CountryId":"20110484","StateId":"20127654","CountyId":"20216051","CityId":"20216052","AddressId":"372913826","RoadLinkId":"57542900"}}},{"Relevance":1.0,"Distance":19.7,"MatchLevel":"houseNumber","MatchQuality":{"Country":1.0,"State":1.0,"County":1.0,"City":1.0,"District":1.0,"Street":[1.0],"HouseNumber":1.0,"PostalCode":1.0},"MatchType":"interpolated","Location":{"LocationId":"NT_IH71Tv6k.4P57Ky3BJB4lA_zMD","LocationType":"point","DisplayPosition":{"Latitude":40.85165,"Longitude":14.25356},"MapView":{"TopLeft":{"Latitude":40.8527742,"Longitude":14.2520738},"BottomRight":{"Latitude":40.8505258,"Longitude":14.2550462}},"Address":{"Label":"Via della Sapienza, 33, 80138 Napoli NA, Italia","Country":"ITA","State":"Campania","County":"NA","City":"Napoli","District":"San Lorenzo","Street":"Via della Sapienza","HouseNumber":"33","PostalCode":"80138","AdditionalData":[{"value":"Italia","key":"CountryName"},{"value":"Campania","key":"StateName"},{"value":"Napoli","key":"CountyName"}]},"MapReference":{"ReferenceId":"64061820","Spot":0.25,"SideOfStreet":"left","CountryId":"20110484","StateId":"20127654","CountyId":"20216051","CityId":"20216052","AddressId":"716487375","RoadLinkId":"57516456"}}},{"Relevance":1.0,"Distance":25.8,"MatchLevel":"street","MatchQuality":{"Country":1.0,"State":1.0,"County":1.0,"City":1.0,"District":1.0,"PostalCode":1.0},"Location":{"LocationId":"NT_rWd2CMdMs9uRtkQ3RYxXXB_l_64071187_L","LocationType":"point","DisplayPosition":{"Latitude":40.8514,"Longitude":14.25351},"MapView":{"TopLeft":{"Latitude":40.85142,"Longitude":14.25351},"BottomRight":{"Latitude":40.8514,"Longitude":14.25358}},"Address":{"Label":"80138 Napoli NA, Italia","Country":"ITA","State":"Campania","County":"NA","City":"Napoli","District":"San Lorenzo","PostalCode":"80138","AdditionalData":[{"value":"Italia","key":"CountryName"},{"value":"Campania","key":"StateName"},{"value":"Napoli","key":"CountyName"}]},"MapReference":{"ReferenceId":"64071187","Spot":0.0,"SideOfStreet":"left","CountryId":"20110484","StateId":"20127654","CountyId":"20216051","CityId":"20216052"}}},{"Relevance":1.0,"Distance":33.7,"MatchLevel":"houseNumber","MatchQuality":{"Country":1.0,"State":1.0,"County":1.0,"City":1.0,"District":1.0,"Street":[1.0],"HouseNumber":1.0,"PostalCode":1.0},"MatchType":"interpolated","Location":{"LocationId":"NT_jnU1uKGkS8-9n0Wi.YH78B_zUD","LocationType":"point","DisplayPosition":{"Latitude":40.85136,"Longitude":14.25361},"MapView":{"TopLeft":{"Latitude":40.8524842,"Longitude":14.2521238},"BottomRight":{"Latitude":40.8502358,"Longitude":14.2550962}},"Address":{"Label":"Via del Sole, 35, 80138 Napoli NA, Italia","Country":"ITA","State":"Campania","County":"NA","City":"Napoli","District":"San Lorenzo","Street":"Via del Sole","HouseNumber":"35","PostalCode":"80138","AdditionalData":[{"value":"Italia","key":"CountryName"},{"value":"Campania","key":"StateName"},{"value":"Napoli","key":"CountyName"}]},"MapReference":{"ReferenceId":"64062196","Spot":0.94,"SideOfStreet":"left","CountryId":"20110484","StateId":"20127654","CountyId":"20216051","CityId":"20216052","AddressId":"716602303","RoadLinkId":"57743073"}}},{"Relevance":1.0,"Distance":38.1,"MatchLevel":"houseNumber","MatchQuality":{"Country":1.0,"State":1.0,"County":1.0,"City":1.0,"District":1.0,"Street":[1.0],"HouseNumber":1.0,"PostalCode":1.0},"MatchType":"interpolated","Location":{"LocationId":"NT_udP.I9.bzMmj2AD2A.7DfC_zUD","LocationType":"point","DisplayPosition":{"Latitude":40.85176,"Longitude":14.25388},"MapView":{"TopLeft":{"Latitude":40.8528842,"Longitude":14.2523938},"BottomRight":{"Latitude":40.8506358,"Longitude":14.2553662}},"Address":{"Label":"Via Francesco del Giudice, 35, 80138 Napoli NA, Italia","Country":"ITA","State":"Campania","County":"NA","City":"Napoli","District":"San Lorenzo","Street":"Via Francesco del Giudice","HouseNumber":"35","PostalCode":"80138","AdditionalData":[{"value":"Italia","key":"CountryName"},{"value":"Campania","key":"StateName"},{"value":"Napoli","key":"CountyName"}]},"MapReference":{"ReferenceId":"554114245","Spot":1.0,"SideOfStreet":"left","CountryId":"20110484","StateId":"20127654","CountyId":"20216051","CityId":"20216052","AddressId":"372918455","RoadLinkId":"57353560"}}},{"Relevance":1.0,"Distance":60.0,"MatchLevel":"street","MatchQuality":{"Country":1.0,"State":1.0,"County":1.0,"City":1.0,"District":1.0,"PostalCode":1.0},"Location":{"LocationId":"NT_rWd2CMdMs9uRtkQ3RYxXXB_l_64062142_R","LocationType":"point","DisplayPosition":{"Latitude":40.8510663,"Longitude":14.2534978},"MapView":{"TopLeft":{"Latitude":40.8511,"Longitude":14.25281},"BottomRight":{"Latitude":40.85063,"Longitude":14.25386}},"Address":{"Label":"80138 Napoli NA, Italia","Country":"ITA","State":"Campania","County":"NA","City":"Napoli","District":"San Lorenzo","PostalCode":"80138","AdditionalData":[{"value":"Italia","key":"CountryName"},{"value":"Campania","key":"StateName"},{"value":"Napoli","key":"CountyName"}]},"MapReference":{"ReferenceId":"64062142","Spot":0.48,"SideOfStreet":"right","CountryId":"20110484","StateId":"20127654","CountyId":"20216051","CityId":"20216052"}}}]}]}}