{"Response":{"MetaInfo":{"Timestamp":"2020-03-28T10:43:48.676+0000","NextPageInformation":"2"},"View":[{"_type":"SearchResultsViewType","ViewId":0,"Result":[{"Relevance":1.0,"Distance":0.0,"Direction":0.0,"MatchLevel":"city","MatchQuality":{"Country":1.0,"State":1.0,"County":1.0,"City":1.0,"PostalCode":1.0},"Location":{"LocationId":"NT_I8c4zzujpjQRTY03lEedtC","LocationType":"point","DisplayPosition":{"Latitude":40.8188389,"Longitude":16.5593175},"MapView":{"TopLeft":{"Latitude":40.9792,"Longitude":16.34382},"BottomRight":{"Latitude":40.72529,"Longitude":16.69834}},"Address":{"Label":"Altamura, Puglia, Italia","Country":"ITA","State":"Puglia","County":"BA","City":"Altamura","PostalCode":"70022","AdditionalData":[{"value":"Italia","key":"CountryName"},{"value":"Puglia","key":"StateName"},{"value":"Bari","key":"CountyName"}]},"MapReference":{"ReferenceId":"550242714","SideOfStreet":"neither","CountryId":"20110484","StateId":"20218506","CountyId":"20221098","CityId":"20221099"}}},{"Relevance":1.0,"Distance":19.6,"MatchLevel":"street","MatchQuality":{"Country":1.0,"State":1.0,"County":1.0,"City":1.0,"Street":[1.0],"PostalCode":1.0},"Location":{"LocationId":"NT_fQt.93eqpjhDVj-qvaYl7D_l_929256427_L","LocationType":"point","DisplayPosition":{"Latitude":40.81891,"Longitude":16.55953},"MapView":{"TopLeft":{"Latitude":40.81891,"Longitude":16.55953},"BottomRight":{"Latitude":40.81881,"Longitude":16.55958}},"Address":{"Label":"Piazza Giuseppe De Napoli, 70022 Altamura BA, Italia","Country":"ITA","State":"Puglia","County":"BA","City":"Altamura","Street":"Piazza Giuseppe De Napoli","PostalCode":"70022","AdditionalData":[{"value":"Italia","key":"CountryName"},{"value":"Puglia","key":"StateName"},{"value":"Bari","key":"CountyName"}]},"MapReference":{"ReferenceId":"929256427","Spot":1.0,"SideOfStreet":"left","CountryId":"20110484","StateId":"20218506","CountyId":"20221098","CityId":"20221099"}}},{"Relevance":1.0,"Distance":22.3,"MatchLevel":"houseNumber","MatchQuality":{"Country":1.0,"State":1.0,"County":1.0,"City":1.0,"Street":[1.0],"HouseNumber":1.0,"PostalCode":1.0},"MatchType":"interpolated","Location":{"LocationId":"NT_t2gClbowXHJFCxq5etlueC_xITQ","LocationType":"point","DisplayPosition":{"Latitude":40.81881,"Longitude":16.55958},"MapView":{"TopLeft":{"Latitude":40.8199342,"Longitude":16.5580946},"BottomRight":{"Latitude":40.8176858,"Longitude":16.5610654}},"Address":{"Label":"Via Alessandro Manzoni, 12A, 70022 Altamura BA, Italia","Country":"ITA","State":"Puglia","County":"BA","City":"Altamura","Street":"Via Alessandro Manzoni","HouseNumber":"12A","PostalCode":"70022","AdditionalData":[{"value":"Italia","key":"CountryName"},{"value":"Puglia","key":"StateName"},{"value":"Bari","key":"CountyName"}]},"MapReference":{"ReferenceId":"1218134177","Spot":1.0,"SideOfStreet":"right","CountryId":"20110484","StateId":"20218506","CountyId":"20221098","CityId":"20221099","AddressId":"603693147","RoadLinkId":"534715597"}}},{"Relevance":1.0,"Distance":25.4,"MatchLevel":"houseNumber","MatchQuality":{"Country":1.0,"State":1.0,"County":1.0,"City":1.0,"Street":[1.0],"HouseNumber":1.0,"PostalCode":1.0},"MatchType":"interpolated","Location":{"LocationId":"NT_fQt.93eqpjhDVj-qvaYl7D_2A","LocationType":"point","DisplayPosition":{"Latitude":40.81904,"Longitude":16.55946},"MapView":{"TopLeft":{"Latitude":40.8201642,"Longitude":16.5579746},"BottomRight":{"Latitude":40.8179158,"Longitude":16.5609454}},"Address":{"Label":"Piazza Giuseppe De Napoli, 6, 70022 Altamura BA, Italia","Country":"ITA","State":"Puglia","County":"BA","City":"Altamura","Street":"Piazza Giuseppe De Napoli","HouseNumber":"6","PostalCode":"70022","AdditionalData":[{"value":"Italia","key":"CountryName"},{"value":"Puglia","key":"StateName"},{"value":"Bari","key":"CountyName"}]},"MapReference":{"ReferenceId":"1218133875","Spot":0.56,"SideOfStreet":"right","CountryId":"20110484","StateId":"20218506","CountyId":"20221098","CityId":"20221099","AddressId":"603768425","RoadLinkId":"534715192"}}},{"Relevance":1.0,"Distance":27.7,"MatchLevel":"street","MatchQuality":{"Country":1.0,"State":1.0,"County":1.0,"City":1.0,"Street":[1.0],"PostalCode":1.0},"Location":{"LocationId":"NT_d8KHwTtGLt2ZOHt7X9jL5C_l_1218133812_L","LocationType":"point","DisplayPosition":{"Latitude":40.81859,"Longitude":16.5593175},"MapView":{"TopLeft":{"Latitude":40.81859,"Longitude":16.55876},"BottomRight":{"Latitude":40.81859,"Longitude":16.55964}},"Address":{"Label":"Via Treviso, 70022 Altamura BA, Italia","Country":"ITA","State":"Puglia","County":"BA","City":"Altamura","Street":"Via Treviso","PostalCode":"70022","AdditionalData":[{"value":"Italia","key":"CountryName"},{"value":"Puglia","key":"StateName"},{"value":"Bari","key":"CountyName"}]},"MapReference":{"ReferenceId":"1218133812","Spot":0.63,"SideOfStreet":"left","CountryId":"20110484","StateId":"20218506","CountyId":"20221098","CityId":"20221099"}}},{"Relevance":1.0,"Distance":34.7,"MatchLevel":"houseNumber","MatchQuality":{"Country":1.0,"State":1.0,"County":1.0,"City":1.0,"Street":[1.0],"HouseNumber":1.0,"PostalCode":1.0},"MatchType":"interpolated","Location":{"LocationId":"NT_fQt.93eqpjhDVj-qvaYl7D_l_554083846_L_4QD","LocationType":"point","DisplayPosition":{"Latitude":40.818995,"Longitude":16.55896},"MapView":{"TopLeft":{"Latitude":40.8201192,"Longitude":16.5574746},"BottomRight":{"Latitude":40.8178709,"Longitude":16.5604454}},"Address":{"Label":"Piazza Giuseppe De Napoli, 84, 70022 Altamura BA, Italia","Country":"ITA","State":"Puglia","County":"BA","City":"Altamura","Street":"Piazza Giuseppe De Napoli","HouseNumber":"84","PostalCode":"70022","AdditionalData":[{"value":"Italia","key":"CountryName"},{"value":"Puglia","key":"StateName"},{"value":"Bari","key":"CountyName"}]},"MapReference":{"ReferenceId":"554083846","Spot":0.49,"SideOfStreet":"left","CountryId":"20110484","StateId":"20218506","CountyId":"20221098","CityId":"20221099"}}},{"Relevance":1.0,"Distance":38.8,"MatchLevel":"street","MatchQuality":{"Country":1.0,"State":1.0,"County":1.0,"City":1.0,"Street":[1.0],"PostalCode":1.0},"Location":{"LocationId":"NT_d8KHwTtGLt2ZOHt7X9jL5C_l_1218133813_L","LocationType":"point","DisplayPosition":{"Latitude":40.81859,"Longitude":16.55964},"MapView":{"TopLeft":{"Latitude":40.81859,"Longitude":16.55964},"BottomRight":{"Latitude":40.81859,"Longitude":16.55969}},"Address":{"Label":"Via Treviso, 70022 Altamura BA, Italia","Country":"ITA","State":"Puglia","County":"BA","City":"Altamura","Street":"Via Treviso","PostalCode":"70022","AdditionalData":[{"value":"Italia","key":"CountryName"},{"value":"Puglia","key":"StateName"},{"value":"Bari","key":"CountyName"}]},"MapReference":{"ReferenceId":"1218133813","Spot":0.0,"SideOfStreet":"left","CountryId":"20110484","StateId":"20218506","CountyId":"20221098","CityId":"20221099"}}},{"Relevance":1.0,"Distance":39.7,"MatchLevel":"houseNumber","MatchQuality":{"Country":1.0,"State":1.0,"County":1.0,"City":1.0,"Street":[1.0],"HouseNumber":1.0,"PostalCode":1.0},"MatchType":"interpolated","Location":{"LocationId":"NT_t2gClbowXHJFCxq5etlueC_xUDM","LocationType":"point","DisplayPosition":{"Latitude":40.81861,"Longitude":16.55968},"MapView":{"TopLeft":{"Latitude":40.8197342,"Longitude":16.5581946},"BottomRight":{"Latitude":40.8174858,"Longitude":16.5611654}},"Address":{"Label":"Via Alessandro Manzoni, 150, 70022 Altamura BA, Italia","Country":"ITA","State":"Puglia","County":"BA","City":"Altamura","Street":"Via Alessandro Manzoni","HouseNumber":"150","PostalCode":"70022","AdditionalData":[{"value":"Italia","key":"CountryName"},{"value":"Puglia","key":"StateName"},{"value":"Bari","key":"CountyName"}]},"MapReference":{"ReferenceId":"1218134176","Spot":1.0,"SideOfStreet":"right","CountryId":"20110484","StateId":"20218506","CountyId":"20221098","CityId":"20221099","AddressId":"752572182","RoadLinkId":"534715596"}}},{"Relevance":1.0,"Distance":40.4,"MatchLevel":"houseNumber","MatchQuality":{"Country":1.0,"State":1.0,"County":1.0,"City":1.0,"Street":[1.0],"HouseNumber":1.0,"PostalCode":1.0},"MatchType":"interpolated","Location":{"LocationId":"NT_fQt.93eqpjhDVj-qvaYl7D_5A","LocationType":"point","DisplayPosition":{"Latitude":40.8192,"Longitude":16.55937},"MapView":{"TopLeft":{"Latitude":40.8203242,"Longitude":16.5578846},"BottomRight":{"Latitude":40.8180758,"Longitude":16.5608554}},"Address":{"Label":"Piazza Giuseppe De Napoli, 9, 70022 Altamura BA, Italia","Country":"ITA","State":"Puglia","County":"BA","City":"Altamura","Street":"Piazza Giuseppe De Napoli","HouseNumber":"9","PostalCode":"70022","AdditionalData":[{"value":"Italia","key":"CountryName"},{"value":"Puglia","key":"StateName"},{"value":"Bari","key":"CountyName"}]},"MapReference":{"ReferenceId":"1218133876","Spot":0.28,"SideOfStreet":"right","CountryId":"20110484","StateId":"20218506","CountyId":"20221098","CityId":"20221099","AddressId":"603768420","RoadLinkId":"534715193"}}},{"Relevance":1.0,"Distance":45.4,"MatchLevel":"houseNumber","MatchQuality":{"Country":1.0,"State":1.0,"County":1.0,"City":1.0,"Street":[1.0],"HouseNumber":1.0,"PostalCode":1.0},"MatchType":"interpolated","Location":{"LocationId":"NT_.tUR4NChsgV3fcgOFAzYlA_3cD","LocationType":"point","DisplayPosition":{"Latitude":40.81915,"Longitude":16.55967},"MapView":{"TopLeft":{"Latitude":40.8202742,"Longitude":16.5581846},"BottomRight":{"Latitude":40.8180258,"Longitude":16.5611554}},"Address":{"Label":"Via Cufra, 77, 70022 Altamura BA, Italia","Country":"ITA","State":"Puglia","County":"BA","City":"Altamura","Street":"Via Cufra","HouseNumber":"77","PostalCode":"70022","AdditionalData":[{"value":"Italia","key":"CountryName"},{"value":"Puglia","key":"StateName"},{"value":"Bari","key":"CountyName"}]},"MapReference":{"ReferenceId":"550242077","Spot":0.65,"SideOfStreet":"left","CountryId":"20110484","StateId":"20218506","CountyId":"20221098","CityId":"20221099","AddressId":"603781194","RoadLinkId":"57431776"}}}]}]}}