{"Response":{"MetaInfo":{"Timestamp":"2020-03-28T11:23:53.719+0000","NextPageInformation":"2"},"View":[{"_type":"SearchResultsViewType","ViewId":0,"Result":[{"Relevance":1.0,"Distance":-55.6,"MatchLevel":"landmark","MatchQuality":{"Country":1.0,"State":1.0,"Name":1.0},"Location":{"LocationId":"NT_5HPOzDeRDZVM2ZcDmsdktD","LocationType":"island","Name":"Sardegna","DisplayPosition":{"Latitude":40.06161,"Longitude":9.09799},"MapView":{"TopLeft":{"Latitude":41.25915,"Longitude":8.13115},"BottomRight":{"Latitude":38.86407,"Longitude":9.82883}},"Address":{"Label":"Italia","Country":"ITA","State":"Sardegna","AdditionalData":[{"value":"Italia","key":"CountryName"},{"value":"Sardegna","key":"StateName"}]},"MapReference":{"CountryId":"20110484","StateId":"20220774","PlaceId":"60827885"}}},{"Relevance":1.0,"Distance":0.0,"Direction":0.0,"MatchLevel":"city","MatchQuality":{"Country":1.0,"State":1.0,"County":1.0,"City":1.0,"PostalCode":1.0},"Location":{"LocationId":"NT_Wldnofz9YHgxazN9DL-VvD","LocationType":"point","DisplayPosition":{"Latitude":40.8184864,"Longitude":8.4631788},"MapView":{"TopLeft":{"Latitude":40.8692,"Longitude":8.13115},"BottomRight":{"Latitude":40.65177,"Longitude":8.64323}},"Address":{"Label":"Sassari, Sardegna, Italia","Country":"ITA","State":"Sardegna","County":"SS","City":"Sassari","PostalCode":"07100","AdditionalData":[{"value":"Italia","key":"CountryName"},{"value":"Sardegna","key":"StateName"},{"value":"Sassari","key":"CountyName"}]},"MapReference":{"ReferenceId":"1226137078","SideOfStreet":"neither","CountryId":"20110484","StateId":"20220774","CountyId":"20240521","CityId":"20240714"}}},{"Relevance":1.0,"Distance":78.4,"MatchLevel":"houseNumber","MatchQuality":{"Country":1.0,"State":1.0,"County":1.0,"City":1.0,"Street":[1.0],"HouseNumber":1.0,"PostalCode":1.0},"MatchType":"interpolated","Location":{"LocationId":"NT_JLKSrtbqk0xL.luGaoZi8D_3A","LocationType":"point","DisplayPosition":{"Latitude":40.81807,"Longitude":8.46419},"MapView":{"TopLeft":{"Latitude":40.8191942,"Longitude":8.4627046},"BottomRight":{"Latitude":40.8169458,"Longitude":8.4656754}},"Address":{"Label":"Via della Torre, 7, 07100 Sassari SS, Italia","Country":"ITA","State":"Sardegna","County":"SS","City":"Sassari","Street":"Via della Torre","HouseNumber":"7","PostalCode":"07100","AdditionalData":[{"value":"Italia","key":"CountryName"},{"value":"Sardegna","key":"StateName"},{"value":"Sassari","key":"CountyName"}]},"MapReference":{"ReferenceId":"706756776","Spot":0.6,"SideOfStreet":"right","CountryId":"20110484","StateId":"20220774","CountyId":"20240521","CityId":"20240714","AddressId":"806001516","RoadLinkId":"112558303"}}},{"Relevance":1.0,"Distance":88.1,"MatchLevel":"houseNumber","MatchQuality":{"Country":1.0,"State":1.0,"County":1.0,"City":1.0,"Street":[1.0],"HouseNumber":1.0,"PostalCode":1.0},"MatchType":"interpolated","Location":{"LocationId":"NT_Ahm47dzPTJM5kmjYTi2Q4A_xgD","LocationType":"point","DisplayPosition":{"Latitude":40.8173,"Longitude":8.46275},"MapView":{"TopLeft":{"Latitude":40.8184242,"Longitude":8.4612646},"BottomRight":{"Latitude":40.8161758,"Longitude":8.4642354}},"Address":{"Label":"Via Roberto Stefanelli, 18, 07100 Sassari SS, Italia","Country":"ITA","State":"Sardegna","County":"SS","City":"Sassari","Street":"Via Roberto Stefanelli","HouseNumber":"18","PostalCode":"07100","AdditionalData":[{"value":"Italia","key":"CountryName"},{"value":"Sardegna","key":"StateName"},{"value":"Sassari","key":"CountyName"}]},"MapReference":{"ReferenceId":"1226079684","Spot":0.38,"SideOfStreet":"right","CountryId":"20110484","StateId":"20220774","CountyId":"20240521","CityId":"20240714","AddressId":"752231288","RoadLinkId":"544382806"}}},{"Relevance":1.0,"Distance":167.1,"MatchLevel":"houseNumber","MatchQuality":{"Country":1.0,"State":1.0,"County":1.0,"City":1.0,"Street":[1.0],"HouseNumber":1.0,"PostalCode":1.0},"MatchType":"interpolated","Location":{"LocationId":"NT_JLKSrtbqk0xL.luGaoZi8D_xUD","LocationType":"point","DisplayPosition":{"Latitude":40.81881,"Longitude":8.46124},"MapView":{"TopLeft":{"Latitude":40.8199342,"Longitude":8.4597546},"BottomRight":{"Latitude":40.8176858,"Longitude":8.4627254}},"Address":{"Label":"Via della Torre, 15, 07100 Sassari SS, Italia","Country":"ITA","State":"Sardegna","County":"SS","City":"Sassari","Street":"Via della Torre","HouseNumber":"15","PostalCode":"07100","AdditionalData":[{"value":"Italia","key":"CountryName"},{"value":"Sardegna","key":"StateName"},{"value":"Sassari","key":"CountyName"}]},"MapReference":{"ReferenceId":"706756777","Spot":0.54,"SideOfStreet":"right","CountryId":"20110484","StateId":"20220774","CountyId":"20240521","CityId":"20240714","AddressId":"805985831","RoadLinkId":"112558304"}}},{"Relevance":1.0,"Distance":178.3,"MatchLevel":"houseNumber","MatchQuality":{"Country":1.0,"State":1.0,"County":1.0,"City":1.0,"Street":[1.0],"HouseNumber":1.0,"PostalCode":1.0},"MatchType":"interpolated","Location":{"LocationId":"NT_Ahm47dzPTJM5kmjYTi2Q4A_2A","LocationType":"point","DisplayPosition":{"Latitude":40.81833,"Longitude":8.46031},"MapView":{"TopLeft":{"Latitude":40.8194542,"Longitude":8.4588246},"BottomRight":{"Latitude":40.8172058,"Longitude":8.4617954}},"Address":{"Label":"Via Roberto Stefanelli, 6, 07100 Sassari SS, Italia","Country":"ITA","State":"Sardegna","County":"SS","City":"Sassari","Street":"Via Roberto Stefanelli","HouseNumber":"6","PostalCode":"07100","AdditionalData":[{"value":"Italia","key":"CountryName"},{"value":"Sardegna","key":"StateName"},{"value":"Sassari","key":"CountyName"}]},"MapReference":{"ReferenceId":"799791725","Spot":1.0,"SideOfStreet":"right","CountryId":"20110484","StateId":"20220774","CountyId":"20240521","CityId":"20240714","AddressId":"752671917","RoadLinkId":"190586977"}}},{"Relevance":1.0,"Distance":209.0,"MatchLevel":"houseNumber","MatchQuality":{"Country":1.0,"State":1.0,"County":1.0,"City":1.0,"Street":[1.0],"HouseNumber":1.0,"PostalCode":1.0},"MatchType":"interpolated","Location":{"LocationId":"NT_Ahm47dzPTJM5kmjYTi2Q4A_yQD","LocationType":"point","DisplayPosition":{"Latitude":40.81666,"Longitude":8.46435},"MapView":{"TopLeft":{"Latitude":40.8177842,"Longitude":8.4628646},"BottomRight":{"Latitude":40.8155358,"Longitude":8.4658354}},"Address":{"Label":"Via Roberto Stefanelli, 24, 07100 Sassari SS, Italia","Country":"ITA","State":"Sardegna","County":"SS","City":"Sassari","Street":"Via Roberto Stefanelli","HouseNumber":"24","PostalCode":"07100","AdditionalData":[{"value":"Italia","key":"CountryName"},{"value":"Sardegna","key":"StateName"},{"value":"Sassari","key":"CountyName"}]},"MapReference":{"ReferenceId":"1226079683","Spot":0.69,"SideOfStreet":"right","CountryId":"20110484","StateId":"20220774","CountyId":"20240521","CityId":"20240714","AddressId":"752232654","RoadLinkId":"544382805"}}},{"Relevance":1.0,"Distance":242.0,"MatchLevel":"houseNumber","MatchQuality":{"Country":1.0,"State":1.0,"County":1.0,"City":1.0,"Street":[1.0],"HouseNumber":1.0,"PostalCode":1.0},"MatchType":"interpolated","Location":{"LocationId":"NT_eNp8R1j6pl.-VROcgHksTC_xA","LocationType":"point","DisplayPosition":{"Latitude":40.81852,"Longitude":8.46013},"MapView":{"TopLeft":{"Latitude":40.8196442,"Longitude":8.4586446},"BottomRight":{"Latitude":40.8173958,"Longitude":8.4616154}},"Address":{"Label":"Piazzetta Abbacurrente, 1, 07100 Sassari SS, Italia","Country":"ITA","State":"Sardegna","County":"SS","City":"Sassari","Street":"Piazzetta Abbacurrente","HouseNumber":"1","PostalCode":"07100","AdditionalData":[{"value":"Italia","key":"CountryName"},{"value":"Sardegna","key":"StateName"},{"value":"Sassari","key":"CountyName"}]},"MapReference":{"ReferenceId":"586967625","Spot":0.74,"SideOfStreet":"right","CountryId":"20110484","StateId":"20220774","CountyId":"20240521","CityId":"20240714","AddressId":"785486146","RoadLinkId":"60015726"}}},{"Relevance":1.0,"Distance":242.0,"MatchLevel":"street","MatchQuality":{"Country":1.0,"State":1.0,"County":1.0,"City":1.0,"Street":[1.0],"PostalCode":1.0},"Location":{"LocationId":"NT_WzcJ4efx7cmVMueSoqor8A_l_586967624_R","LocationType":"point","DisplayPosition":{"Latitude":40.81833,"Longitude":8.46031},"MapView":{"TopLeft":{"Latitude":40.81845,"Longitude":8.45996},"BottomRight":{"Latitude":40.81833,"Longitude":8.46031}},"Address":{"Label":"Via Roberto Stefanelli, 07100 Sassari SS, Italia","Country":"ITA","State":"Sardegna","County":"SS","City":"Sassari","Street":"Via Roberto Stefanelli","PostalCode":"07100","AdditionalData":[{"value":"Italia","key":"CountryName"},{"value":"Sardegna","key":"StateName"},{"value":"Sassari","key":"CountyName"}]},"MapReference":{"ReferenceId":"586967624","Spot":0.0,"SideOfStreet":"right","CountryId":"20110484","StateId":"20220774","CountyId":"20240521","CityId":"20240714"}}},{"Relevance":1.0,"Distance":260.9,"MatchLevel":"street","MatchQuality":{"Country":1.0,"State":1.0,"County":1.0,"City":1.0,"Street":[1.0],"PostalCode":1.0},"Location":{"LocationId":"NT_eQAa0mkp.Y-2D3fMyKVrjC_l_586967617_R","LocationType":"point","DisplayPosition":{"Latitude":40.81895,"Longitude":8.46014},"MapView":{"TopLeft":{"Latitude":40.81895,"Longitude":8.46004},"BottomRight":{"Latitude":40.81881,"Longitude":8.46014}},"Address":{"Label":"Piazza Abbacurrente, 07100 Sassari SS, Italia","Country":"ITA","State":"Sardegna","County":"SS","City":"Sassari","Street":"Piazza Abbacurrente","PostalCode":"07100","AdditionalData":[{"value":"Italia","key":"CountryName"},{"value":"Sardegna","key":"StateName"},{"value":"Sassari","key":"CountyName"}]},"MapReference":{"ReferenceId":"586967617","Spot":1.0,"SideOfStreet":"right","CountryId":"20110484","StateId":"20220774","CountyId":"20240521","CityId":"20240714"}}}]}]}}