{"Response":{"MetaInfo":{"Timestamp":"2020-03-28T09:44:47.147+0000","NextPageInformation":"2"},"View":[{"_type":"SearchResultsViewType","ViewId":0,"Result":[{"Relevance":1.0,"Distance":0.0,"Direction":0.0,"MatchLevel":"city","MatchQuality":{"Country":1.0,"State":1.0,"County":1.0,"City":1.0,"PostalCode":1.0},"Location":{"LocationId":"NT_-vIRAhnQmLVDzqOPKaiBhA","LocationType":"point","DisplayPosition":{"Latitude":40.8238057,"Longitude":-3.5389589},"MapView":{"TopLeft":{"Latitude":40.86268,"Longitude":-3.60447},"BottomRight":{"Latitude":40.78737,"Longitude":-3.50224}},"Address":{"Label":"Torrelaguna, Comunidad de Madrid, España","Country":"ESP","State":"Comunidad de Madrid","County":"Madrid","City":"Torrelaguna","PostalCode":"28180","AdditionalData":[{"value":"España","key":"CountryName"},{"value":"Comunidad de Madrid","key":"StateName"},{"value":"Madrid","key":"CountyName"}]},"MapReference":{"ReferenceId":"988807773","SideOfStreet":"neither","CountryId":"20215059","StateId":"20226800","CountyId":"20226801","CityId":"20243146"}}},{"Relevance":1.0,"Distance":19.1,"MatchLevel":"houseNumber","MatchQuality":{"Country":1.0,"State":1.0,"County":1.0,"City":1.0,"Street":[1.0],"HouseNumber":1.0,"PostalCode":1.0},"MatchType":"interpolated","Location":{"LocationId":"NT_g0RrgjbMiIOjcneb3AqU4D_yA","LocationType":"point","DisplayPosition":{"Latitude":40.82392,"Longitude":-3.53879},"MapView":{"TopLeft":{"Latitude":40.8250442,"Longitude":-3.5402756},"BottomRight":{"Latitude":40.8227958,"Longitude":-3.5373044}},"Address":{"Label":"Calle Paseo, 2, 28180 Torrelaguna (Madrid), España","Country":"ESP","State":"Comunidad de Madrid","County":"Madrid","City":"Torrelaguna","Street":"Calle Paseo","HouseNumber":"2","PostalCode":"28180","AdditionalData":[{"value":"España","key":"CountryName"},{"value":"Comunidad de Madrid","key":"StateName"},{"value":"Madrid","key":"CountyName"}]},"MapReference":{"ReferenceId":"559921603","Spot":0.32,"SideOfStreet":"left","CountryId":"20215059","StateId":"20226800","CountyId":"20226801","CityId":"20243146","AddressId":"266959015","RoadLinkId":"67108312"}}},{"Relevance":1.0,"Distance":23.7,"MatchLevel":"houseNumber","MatchQuality":{"Country":1.0,"State":1.0,"County":1.0,"City":1.0,"Street":[1.0],"HouseNumber":1.0,"PostalCode":1.0},"MatchType":"interpolated","Location":{"LocationId":"NT_2rVkj3dcoObzxnZrXOnvRD_xA","LocationType":"point","DisplayPosition":{"Latitude":40.82372,"Longitude":-3.53923},"MapView":{"TopLeft":{"Latitude":40.8248442,"Longitude":-3.5407155},"BottomRight":{"Latitude":40.8225958,"Longitude":-3.5377445}},"Address":{"Label":"Camino Pañera, 1, 28180 Torrelaguna (Madrid), España","Country":"ESP","State":"Comunidad de Madrid","County":"Madrid","City":"Torrelaguna","Street":"Camino Pañera","HouseNumber":"1","PostalCode":"28180","AdditionalData":[{"value":"España","key":"CountryName"},{"value":"Comunidad de Madrid","key":"StateName"},{"value":"Madrid","key":"CountyName"}]},"MapReference":{"ReferenceId":"860274431","Spot":0.83,"SideOfStreet":"right","CountryId":"20215059","StateId":"20226800","CountyId":"20226801","CityId":"20243146","AddressId":"267360786","RoadLinkId":"235759031"}}},{"Relevance":1.0,"Distance":38.5,"MatchLevel":"houseNumber","MatchQuality":{"Country":1.0,"State":1.0,"County":1.0,"City":1.0,"Street":[1.0],"HouseNumber":1.0,"PostalCode":1.0},"MatchType":"interpolated","Location":{"LocationId":"NT_hZC-qKodDCEtI8xHaO1xKB_l_966167689_L_yYD","LocationType":"point","DisplayPosition":{"Latitude":40.823938,"Longitude":-3.5383511},"MapView":{"TopLeft":{"Latitude":40.8250621,"Longitude":-3.5398366},"BottomRight":{"Latitude":40.8228138,"Longitude":-3.5368655}},"Address":{"Label":"Calle Malacuera, 26, 28180 Torrelaguna (Madrid), España","Country":"ESP","State":"Comunidad de Madrid","County":"Madrid","City":"Torrelaguna","Street":"Calle Malacuera","HouseNumber":"26","PostalCode":"28180","AdditionalData":[{"value":"España","key":"CountryName"},{"value":"Comunidad de Madrid","key":"StateName"},{"value":"Madrid","key":"CountyName"}]},"MapReference":{"ReferenceId":"966167689","Spot":0.53,"SideOfStreet":"left","CountryId":"20215059","StateId":"20226800","CountyId":"20226801","CityId":"20243146"}}},{"Relevance":1.0,"Distance":44.7,"MatchLevel":"houseNumber","MatchQuality":{"Country":1.0,"State":1.0,"County":1.0,"City":1.0,"Street":[1.0],"HouseNumber":1.0,"PostalCode":1.0},"MatchType":"interpolated","Location":{"LocationId":"NT_g0RrgjbMiIOjcneb3AqU4D_xA","LocationType":"point","DisplayPosition":{"Latitude":40.82379,"Longitude":-3.53949},"MapView":{"TopLeft":{"Latitude":40.8249142,"Longitude":-3.5409756},"BottomRight":{"Latitude":40.8226658,"Longitude":-3.5380044}},"Address":{"Label":"Calle Paseo, 1, 28180 Torrelaguna (Madrid), España","Country":"ESP","State":"Comunidad de Madrid","County":"Madrid","City":"Torrelaguna","Street":"Calle Paseo","HouseNumber":"1","PostalCode":"28180","AdditionalData":[{"value":"España","key":"CountryName"},{"value":"Comunidad de Madrid","key":"StateName"},{"value":"Madrid","key":"CountyName"}]},"MapReference":{"ReferenceId":"559921608","Spot":0.51,"SideOfStreet":"right","CountryId":"20215059","StateId":"20226800","CountyId":"20226801","CityId":"20243146","AddressId":"267207968","RoadLinkId":"66881537"}}},{"Relevance":1.0,"Distance":47.9,"MatchLevel":"houseNumber","MatchQuality":{"Country":1.0,"State":1.0,"County":1.0,"City":1.0,"Street":[1.0],"HouseNumber":1.0,"PostalCode":1.0},"MatchType":"interpolated","Location":{"LocationId":"NT_adGBSDzDdoq3uQPe5Jv5sD_xED","LocationType":"point","DisplayPosition":{"Latitude":40.82422,"Longitude":-3.53911},"MapView":{"TopLeft":{"Latitude":40.8253442,"Longitude":-3.5405956},"BottomRight":{"Latitude":40.8230958,"Longitude":-3.5376244}},"Address":{"Label":"Calle Convento, 11, 28180 Torrelaguna (Madrid), España","Country":"ESP","State":"Comunidad de Madrid","County":"Madrid","City":"Torrelaguna","Street":"Calle Convento","HouseNumber":"11","PostalCode":"28180","AdditionalData":[{"value":"España","key":"CountryName"},{"value":"Comunidad de Madrid","key":"StateName"},{"value":"Madrid","key":"CountyName"}]},"MapReference":{"ReferenceId":"559921606","Spot":0.53,"SideOfStreet":"right","CountryId":"20215059","StateId":"20226800","CountyId":"20226801","CityId":"20243146","AddressId":"267656570","RoadLinkId":"66983235"}}},{"Relevance":1.0,"Distance":53.6,"MatchLevel":"houseNumber","MatchQuality":{"Country":1.0,"State":1.0,"County":1.0,"City":1.0,"Street":[1.0],"HouseNumber":1.0,"PostalCode":1.0},"MatchType":"interpolated","Location":{"LocationId":"NT_DFk1TxI6ahK2U.TdqTKRYC_zcD","LocationType":"point","DisplayPosition":{"Latitude":40.82399,"Longitude":-3.53837},"MapView":{"TopLeft":{"Latitude":40.8251142,"Longitude":-3.5398556},"BottomRight":{"Latitude":40.8228658,"Longitude":-3.5368844}},"Address":{"Label":"Calle Malacuera, 37, 28180 Torrelaguna (Madrid), España","Country":"ESP","State":"Comunidad de Madrid","County":"Madrid","City":"Torrelaguna","Street":"Calle Malacuera","HouseNumber":"37","PostalCode":"28180","AdditionalData":[{"value":"España","key":"CountryName"},{"value":"Comunidad de Madrid","key":"StateName"},{"value":"Madrid","key":"CountyName"}]},"MapReference":{"ReferenceId":"966167690","Spot":0.0,"SideOfStreet":"right","CountryId":"20215059","StateId":"20226800","CountyId":"20226801","CityId":"20243146","AddressId":"266751180","RoadLinkId":"304525662"}}},{"Relevance":1.0,"Distance":60.5,"MatchLevel":"houseNumber","MatchQuality":{"Country":1.0,"State":1.0,"County":1.0,"City":1.0,"Street":[1.0],"HouseNumber":1.0,"PostalCode":1.0},"MatchType":"interpolated","Location":{"LocationId":"NT_DFk1TxI6ahK2U.TdqTKRYC_zUD","LocationType":"point","DisplayPosition":{"Latitude":40.82419,"Longitude":-3.53845},"MapView":{"TopLeft":{"Latitude":40.8253142,"Longitude":-3.5399356},"BottomRight":{"Latitude":40.8230658,"Longitude":-3.5369644}},"Address":{"Label":"Calle Malacuera, 35, 28180 Torrelaguna (Madrid), España","Country":"ESP","State":"Comunidad de Madrid","County":"Madrid","City":"Torrelaguna","Street":"Calle Malacuera","HouseNumber":"35","PostalCode":"28180","AdditionalData":[{"value":"España","key":"CountryName"},{"value":"Comunidad de Madrid","key":"StateName"},{"value":"Madrid","key":"CountyName"}]},"MapReference":{"ReferenceId":"966167691","Spot":0.42,"SideOfStreet":"right","CountryId":"20215059","StateId":"20226800","CountyId":"20226801","CityId":"20243146","AddressId":"266751179","RoadLinkId":"304525663"}}},{"Relevance":1.0,"Distance":69.9,"MatchLevel":"street","MatchQuality":{"Country":1.0,"State":1.0,"County":1.0,"City":1.0,"Street":[1.0],"PostalCode":1.0},"Location":{"LocationId":"NT_R6vW7o6XNY.Rov7GsazGNC_l_79879484_L","LocationType":"point","DisplayPosition":{"Latitude":40.82433,"Longitude":-3.5385},"MapView":{"TopLeft":{"Latitude":40.82477,"Longitude":-3.5385},"BottomRight":{"Latitude":40.82433,"Longitude":-3.53821}},"Address":{"Label":"Salida Melchor Linán, 28180 Torrelaguna (Madrid), España","Country":"ESP","State":"Comunidad de Madrid","County":"Madrid","City":"Torrelaguna","Street":"Salida Melchor Linán","PostalCode":"28180","AdditionalData":[{"value":"España","key":"CountryName"},{"value":"Comunidad de Madrid","key":"StateName"},{"value":"Madrid","key":"CountyName"}]},"MapReference":{"ReferenceId":"79879484","Spot":0.0,"SideOfStreet":"left","CountryId":"20215059","StateId":"20226800","CountyId":"20226801","CityId":"20243146"}}},{"Relevance":1.0,"Distance":79.9,"MatchLevel":"houseNumber","MatchQuality":{"Country":1.0,"State":1.0,"County":1.0,"City":1.0,"Street":[1.0],"HouseNumber":1.0,"PostalCode":1.0},"MatchType":"interpolated","Location":{"LocationId":"NT_D5kEOpcEx.jSrpOnSNhu4C_xA","LocationType":"point","DisplayPosition":{"Latitude":40.82449,"Longitude":-3.53936},"MapView":{"TopLeft":{"Latitude":40.8256142,"Longitude":-3.5408456},"BottomRight":{"Latitude":40.8233658,"Longitude":-3.5378744}},"Address":{"Label":"Calle Franciscanos, 1, 28180 Torrelaguna (Madrid), España","Country":"ESP","State":"Comunidad de Madrid","County":"Madrid","City":"Torrelaguna","Street":"Calle Franciscanos","HouseNumber":"1","PostalCode":"28180","AdditionalData":[{"value":"España","key":"CountryName"},{"value":"Comunidad de Madrid","key":"StateName"},{"value":"Madrid","key":"CountyName"}]},"MapReference":{"ReferenceId":"860275902","Spot":0.85,"SideOfStreet":"right","CountryId":"20215059","StateId":"20226800","CountyId":"20226801","CityId":"20243146","AddressId":"267339284","RoadLinkId":"235760920"}}}]}]}}