{"Response":{"MetaInfo":{"Timestamp":"2020-03-28T11:26:17.371+0000","NextPageInformation":"2"},"View":[{"_type":"SearchResultsViewType","ViewId":0,"Result":[{"Relevance":1.0,"Distance":-19.7,"MatchLevel":"landmark","MatchQuality":{"Country":1.0,"State":1.0,"County":1.0,"City":1.0,"District":1.0,"Street":[1.0],"HouseNumber":1.0,"PostalCode":1.0,"Name":1.0},"Location":{"LocationId":"NT_mYySAZu2wRIIbU8uL2ypfD_p_Zi.zWP0cjN7IloHPs-6WXB","LocationType":"hospital","Name":"Loreto Mare","DisplayPosition":{"Latitude":40.84673,"Longitude":14.271},"MapView":{"TopLeft":{"Latitude":40.8478542,"Longitude":14.2695139},"BottomRight":{"Latitude":40.8456058,"Longitude":14.2724861}},"Address":{"Label":"Via Luigi Einaudi, 10, 80142 Napoli NA, Italia","Country":"ITA","State":"Campania","County":"NA","City":"Napoli","District":"Mercato","Street":"Via Luigi Einaudi","HouseNumber":"10","PostalCode":"80142","AdditionalData":[{"value":"Italia","key":"CountryName"},{"value":"Campania","key":"StateName"},{"value":"Napoli","key":"CountyName"}]},"MapReference":{"CountryId":"20110484","StateId":"20127654","CountyId":"20216051","CityId":"20216052","PlaceId":"55379315"}}},{"Relevance":1.0,"Distance":0.0,"Direction":0.0,"MatchLevel":"district","MatchQuality":{"Country":1.0,"State":1.0,"County":1.0,"City":1.0,"District":1.0,"PostalCode":1.0},"Location":{"LocationId":"NT_F3ndnePl5s8nhDbUzHZc.D","LocationType":"point","DisplayPosition":{"Latitude":40.8467754,"Longitude":14.2723975},"MapView":{"TopLeft":{"Latitude":40.8515,"Longitude":14.26605},"BottomRight":{"Latitude":40.83827,"Longitude":14.27765}},"Address":{"Label":"Mercato, Napoli, Campania, Italia","Country":"ITA","State":"Campania","County":"NA","City":"Napoli","District":"Mercato","PostalCode":"80142","AdditionalData":[{"value":"Italia","key":"CountryName"},{"value":"Campania","key":"StateName"},{"value":"Napoli","key":"CountyName"}]},"MapReference":{"ReferenceId":"64063716","SideOfStreet":"neither","CountryId":"20110484","StateId":"20127654","CountyId":"20216051","CityId":"20216052"}}},{"Relevance":1.0,"Distance":15.5,"MatchLevel":"houseNumber","MatchQuality":{"Country":1.0,"State":1.0,"County":1.0,"City":1.0,"District":1.0,"Street":[1.0],"HouseNumber":1.0,"PostalCode":1.0},"MatchType":"interpolated","Location":{"LocationId":"NT_jlPFiMisSjmwQnqiUNK2LD_l_1000697981_L_yYD","LocationType":"point","DisplayPosition":{"Latitude":40.8465856,"Longitude":14.2722448},"MapView":{"TopLeft":{"Latitude":40.8477098,"Longitude":14.2707587},"BottomRight":{"Latitude":40.8454614,"Longitude":14.2737309}},"Address":{"Label":"Via Amerigo Vespucci, 26, 80142 Napoli NA, Italia","Country":"ITA","State":"Campania","County":"NA","City":"Napoli","District":"Mercato","Street":"Via Amerigo Vespucci","HouseNumber":"26","PostalCode":"80142","AdditionalData":[{"value":"Italia","key":"CountryName"},{"value":"Campania","key":"StateName"},{"value":"Napoli","key":"CountyName"}]},"MapReference":{"ReferenceId":"1000697981","Spot":0.5,"SideOfStreet":"left","CountryId":"20110484","StateId":"20127654","CountyId":"20216051","CityId":"20216052"}}},{"Relevance":1.0,"Distance":20.2,"MatchLevel":"street","MatchQuality":{"Country":1.0,"State":1.0,"County":1.0,"City":1.0,"District":1.0,"Street":[1.0],"PostalCode":1.0},"Location":{"LocationId":"NT_jlPFiMisSjmwQnqiUNK2LD_l_1000697982_L","LocationType":"point","DisplayPosition":{"Latitude":40.8466,"Longitude":14.27246},"MapView":{"TopLeft":{"Latitude":40.84661,"Longitude":14.27246},"BottomRight":{"Latitude":40.8466,"Longitude":14.27263}},"Address":{"Label":"Via Amerigo Vespucci, 80142 Napoli NA, Italia","Country":"ITA","State":"Campania","County":"NA","City":"Napoli","District":"Mercato","Street":"Via Amerigo Vespucci","PostalCode":"80142","AdditionalData":[{"value":"Italia","key":"CountryName"},{"value":"Campania","key":"StateName"},{"value":"Napoli","key":"CountyName"}]},"MapReference":{"ReferenceId":"1000697982","Spot":0.0,"SideOfStreet":"left","CountryId":"20110484","StateId":"20127654","CountyId":"20216051","CityId":"20216052"}}},{"Relevance":1.0,"Distance":24.2,"MatchLevel":"street","MatchQuality":{"Country":1.0,"State":1.0,"County":1.0,"City":1.0,"District":1.0,"Street":[1.0],"PostalCode":1.0},"Location":{"LocationId":"NT_H5jewCUZ6ch-QpoRUSr87B_l_1046307621_L","LocationType":"point","DisplayPosition":{"Latitude":40.84696,"Longitude":14.27255},"MapView":{"TopLeft":{"Latitude":40.84696,"Longitude":14.27255},"BottomRight":{"Latitude":40.84694,"Longitude":14.27287}},"Address":{"Label":"Largo San Filippo Smaldone, 80142 Napoli NA, Italia","Country":"ITA","State":"Campania","County":"NA","City":"Napoli","District":"Mercato","Street":"Largo San Filippo Smaldone","PostalCode":"80142","AdditionalData":[{"value":"Italia","key":"CountryName"},{"value":"Campania","key":"StateName"},{"value":"Napoli","key":"CountyName"}]},"MapReference":{"ReferenceId":"1046307621","Spot":1.0,"SideOfStreet":"left","CountryId":"20110484","StateId":"20127654","CountyId":"20216051","CityId":"20216052"}}},{"Relevance":1.0,"Distance":26.8,"MatchLevel":"street","MatchQuality":{"Country":1.0,"State":1.0,"County":1.0,"City":1.0,"District":1.0,"Street":[1.0],"PostalCode":1.0},"Location":{"LocationId":"NT_jlPFiMisSjmwQnqiUNK2LD_l_64063818_L","LocationType":"point","DisplayPosition":{"Latitude":40.84661,"Longitude":14.27263},"MapView":{"TopLeft":{"Latitude":40.84662,"Longitude":14.27263},"BottomRight":{"Latitude":40.84661,"Longitude":14.27289}},"Address":{"Label":"Via Amerigo Vespucci, 80142 Napoli NA, Italia","Country":"ITA","State":"Campania","County":"NA","City":"Napoli","District":"Mercato","Street":"Via Amerigo Vespucci","PostalCode":"80142","AdditionalData":[{"value":"Italia","key":"CountryName"},{"value":"Campania","key":"StateName"},{"value":"Napoli","key":"CountyName"}]},"MapReference":{"ReferenceId":"64063818","Spot":0.0,"SideOfStreet":"left","CountryId":"20110484","StateId":"20127654","CountyId":"20216051","CityId":"20216052"}}},{"Relevance":1.0,"Distance":37.3,"MatchLevel":"street","MatchQuality":{"Country":1.0,"State":1.0,"County":1.0,"City":1.0,"District":1.0,"Street":[1.0],"PostalCode":1.0},"Location":{"LocationId":"NT_jlPFiMisSjmwQnqiUNK2LD_l_1254905794_L","LocationType":"point","DisplayPosition":{"Latitude":40.84644,"Longitude":14.27242},"MapView":{"TopLeft":{"Latitude":40.84646,"Longitude":14.27242},"BottomRight":{"Latitude":40.84644,"Longitude":14.27276}},"Address":{"Label":"Via Amerigo Vespucci, 80142 Napoli NA, Italia","Country":"ITA","State":"Campania","County":"NA","City":"Napoli","District":"Mercato","Street":"Via Amerigo Vespucci","PostalCode":"80142","AdditionalData":[{"value":"Italia","key":"CountryName"},{"value":"Campania","key":"StateName"},{"value":"Napoli","key":"CountyName"}]},"MapReference":{"ReferenceId":"1254905794","Spot":0.0,"SideOfStreet":"left","CountryId":"20110484","StateId":"20127654","CountyId":"20216051","CityId":"20216052"}}},{"Relevance":1.0,"Distance":37.4,"MatchLevel":"street","MatchQuality":{"Country":1.0,"State":1.0,"County":1.0,"City":1.0,"District":1.0,"Street":[1.0],"PostalCode":1.0},"Location":{"LocationId":"NT_jlPFiMisSjmwQnqiUNK2LD_l_1254905793_L","LocationType":"point","DisplayPosition":{"Latitude":40.8464397,"Longitude":14.2724147},"MapView":{"TopLeft":{"Latitude":40.84644,"Longitude":14.27203},"BottomRight":{"Latitude":40.84642,"Longitude":14.27242}},"Address":{"Label":"Via Amerigo Vespucci, 80142 Napoli NA, Italia","Country":"ITA","State":"Campania","County":"NA","City":"Napoli","District":"Mercato","Street":"Via Amerigo Vespucci","PostalCode":"80142","AdditionalData":[{"value":"Italia","key":"CountryName"},{"value":"Campania","key":"StateName"},{"value":"Napoli","key":"CountyName"}]},"MapReference":{"ReferenceId":"1254905793","Spot":0.99,"SideOfStreet":"left","CountryId":"20110484","StateId":"20127654","CountyId":"20216051","CityId":"20216052"}}},{"Relevance":1.0,"Distance":37.8,"MatchLevel":"street","MatchQuality":{"Country":1.0,"State":1.0,"County":1.0,"City":1.0,"District":1.0,"Street":[1.0],"PostalCode":1.0},"Location":{"LocationId":"NT_jlPFiMisSjmwQnqiUNK2LD_l_64235303_L","LocationType":"point","DisplayPosition":{"Latitude":40.84658,"Longitude":14.27203},"MapView":{"TopLeft":{"Latitude":40.84658,"Longitude":14.27103},"BottomRight":{"Latitude":40.84651,"Longitude":14.27203}},"Address":{"Label":"Via Amerigo Vespucci, 80142 Napoli NA, Italia","Country":"ITA","State":"Campania","County":"NA","City":"Napoli","District":"Mercato","Street":"Via Amerigo Vespucci","PostalCode":"80142","AdditionalData":[{"value":"Italia","key":"CountryName"},{"value":"Campania","key":"StateName"},{"value":"Napoli","key":"CountyName"}]},"MapReference":{"ReferenceId":"64235303","Spot":1.0,"SideOfStreet":"left","CountryId":"20110484","StateId":"20127654","CountyId":"20216051","CityId":"20216052"}}},{"Relevance":1.0,"Distance":40.6,"MatchLevel":"street","MatchQuality":{"Country":1.0,"State":1.0,"County":1.0,"City":1.0,"District":1.0,"Street":[1.0],"PostalCode":1.0},"Location":{"LocationId":"NT_atrkvmLsAHftRhsJy9I-qC_l_64063814_L","LocationType":"point","DisplayPosition":{"Latitude":40.8468055,"Longitude":14.2728784},"MapView":{"TopLeft":{"Latitude":40.84694,"Longitude":14.27287},"BottomRight":{"Latitude":40.84662,"Longitude":14.27289}},"Address":{"Label":"Piazzetta Orticello a Loreto, 80142 Napoli NA, Italia","Country":"ITA","State":"Campania","County":"NA","City":"Napoli","District":"Mercato","Street":"Piazzetta Orticello a Loreto","PostalCode":"80142","AdditionalData":[{"value":"Italia","key":"CountryName"},{"value":"Campania","key":"StateName"},{"value":"Napoli","key":"CountyName"}]},"MapReference":{"ReferenceId":"64063814","Spot":0.58,"SideOfStreet":"left","CountryId":"20110484","StateId":"20127654","CountyId":"20216051","CityId":"20216052"}}}]}]}}