{"Response":{"MetaInfo":{"Timestamp":"2020-03-28T09:59:17.809+0000","NextPageInformation":"2"},"View":[{"_type":"SearchResultsViewType","ViewId":0,"Result":[{"Relevance":1.0,"Distance":0.0,"Direction":0.0,"MatchLevel":"district","MatchQuality":{"Country":1.0,"County":1.0,"City":1.0,"District":1.0,"PostalCode":1.0},"Location":{"LocationId":"NT_b2.NirFzmj8cmhRmd1t.gD","LocationType":"point","DisplayPosition":{"Latitude":40.8074673,"Longitude":-8.5755416},"MapView":{"TopLeft":{"Latitude":40.81352,"Longitude":-8.5814},"BottomRight":{"Latitude":40.80093,"Longitude":-8.55753}},"Address":{"Label":"Avanca, Estarreja, Portugal","Country":"PRT","County":"Aveiro","City":"Estarreja","District":"Avanca","PostalCode":"3860-021","AdditionalData":[{"value":"Portugal","key":"CountryName"},{"value":"Aveiro","key":"CountyName"}]},"MapReference":{"ReferenceId":"549817576","SideOfStreet":"neither","CountryId":"20317122","CountyId":"20317149","CityId":"20317248","DistrictId":"20317249"}}},{"Relevance":1.0,"Distance":2.9,"MatchLevel":"street","MatchQuality":{"Country":1.0,"County":1.0,"City":1.0,"District":1.0,"PostalCode":1.0},"Location":{"LocationId":"NT_LNiiIQZD2oJWR4uvvuOB2C_l_588742106_L","LocationType":"point","DisplayPosition":{"Latitude":40.807492,"Longitude":-8.5755521},"MapView":{"TopLeft":{"Latitude":40.80751,"Longitude":-8.57619},"BottomRight":{"Latitude":40.80722,"Longitude":-8.57551}},"Address":{"Label":"3860 Estarreja, Portugal","Country":"PRT","County":"Aveiro","City":"Estarreja","District":"Avanca","PostalCode":"3860","AdditionalData":[{"value":"Portugal","key":"CountryName"},{"value":"Aveiro","key":"CountyName"}]},"MapReference":{"ReferenceId":"588742106","Spot":0.94,"SideOfStreet":"neither","CountryId":"20317122","CountyId":"20317149","CityId":"20317248","DistrictId":"20317249"}}},{"Relevance":1.0,"Distance":5.0,"MatchLevel":"street","MatchQuality":{"Country":1.0,"County":1.0,"City":1.0,"District":1.0,"PostalCode":1.0},"Location":{"LocationId":"NT_LNiiIQZD2oJWR4uvvuOB2C_l_588742107_L","LocationType":"point","DisplayPosition":{"Latitude":40.8075015,"Longitude":-8.5755025},"MapView":{"TopLeft":{"Latitude":40.80751,"Longitude":-8.57574},"BottomRight":{"Latitude":40.80711,"Longitude":-8.57544}},"Address":{"Label":"3860 Estarreja, Portugal","Country":"PRT","County":"Aveiro","City":"Estarreja","District":"Avanca","PostalCode":"3860","AdditionalData":[{"value":"Portugal","key":"CountryName"},{"value":"Aveiro","key":"CountyName"}]},"MapReference":{"ReferenceId":"588742107","Spot":0.98,"SideOfStreet":"left","CountryId":"20317122","CountyId":"20317149","CityId":"20317248","DistrictId":"20317249"}}},{"Relevance":1.0,"Distance":5.4,"MatchLevel":"street","MatchQuality":{"Country":1.0,"County":1.0,"City":1.0,"District":1.0,"PostalCode":1.0},"Location":{"LocationId":"NT_LNiiIQZD2oJWR4uvvuOB2C_l_588742108_R","LocationType":"point","DisplayPosition":{"Latitude":40.80751,"Longitude":-8.57551},"MapView":{"TopLeft":{"Latitude":40.80778,"Longitude":-8.57551},"BottomRight":{"Latitude":40.80751,"Longitude":-8.57476}},"Address":{"Label":"3860 Estarreja, Portugal","Country":"PRT","County":"Aveiro","City":"Estarreja","District":"Avanca","PostalCode":"3860","AdditionalData":[{"value":"Portugal","key":"CountryName"},{"value":"Aveiro","key":"CountyName"}]},"MapReference":{"ReferenceId":"588742108","Spot":0.0,"SideOfStreet":"right","CountryId":"20317122","CountyId":"20317149","CityId":"20317248","DistrictId":"20317249"}}},{"Relevance":1.0,"Distance":43.1,"MatchLevel":"street","MatchQuality":{"Country":1.0,"County":1.0,"City":1.0,"District":1.0,"PostalCode":1.0},"Location":{"LocationId":"NT_LNiiIQZD2oJWR4uvvuOB2C_l_588742109_R","LocationType":"point","DisplayPosition":{"Latitude":40.80711,"Longitude":-8.57574},"MapView":{"TopLeft":{"Latitude":40.80722,"Longitude":-8.57619},"BottomRight":{"Latitude":40.80711,"Longitude":-8.57574}},"Address":{"Label":"3860 Estarreja, Portugal","Country":"PRT","County":"Aveiro","City":"Estarreja","District":"Avanca","PostalCode":"3860","AdditionalData":[{"value":"Portugal","key":"CountryName"},{"value":"Aveiro","key":"CountyName"}]},"MapReference":{"ReferenceId":"588742109","Spot":0.0,"SideOfStreet":"right","CountryId":"20317122","CountyId":"20317149","CityId":"20317248","DistrictId":"20317249"}}},{"Relevance":1.0,"Distance":43.4,"MatchLevel":"street","MatchQuality":{"Country":1.0,"County":1.0,"City":1.0,"District":1.0,"PostalCode":1.0},"Location":{"LocationId":"NT_LNiiIQZD2oJWR4uvvuOB2C_l_588742102_R","LocationType":"point","DisplayPosition":{"Latitude":40.8071021,"Longitude":-8.5757242},"MapView":{"TopLeft":{"Latitude":40.80711,"Longitude":-8.57574},"BottomRight":{"Latitude":40.80697,"Longitude":-8.57489}},"Address":{"Label":"3860 Estarreja, Portugal","Country":"PRT","County":"Aveiro","City":"Estarreja","District":"Avanca","PostalCode":"3860","AdditionalData":[{"value":"Portugal","key":"CountryName"},{"value":"Aveiro","key":"CountyName"}]},"MapReference":{"ReferenceId":"588742102","Spot":0.98,"SideOfStreet":"right","CountryId":"20317122","CountyId":"20317149","CityId":"20317248","DistrictId":"20317249"}}},{"Relevance":1.0,"Distance":50.5,"MatchLevel":"houseNumber","MatchQuality":{"Country":1.0,"County":1.0,"City":1.0,"District":1.0,"Street":[1.0],"HouseNumber":1.0,"PostalCode":1.0},"MatchType":"interpolated","Location":{"LocationId":"NT_OANP56FqgObkZFZXVJbrRC_MhD","LocationType":"point","DisplayPosition":{"Latitude":40.80732,"Longitude":-8.57483},"MapView":{"TopLeft":{"Latitude":40.8084442,"Longitude":-8.5763152},"BottomRight":{"Latitude":40.8061958,"Longitude":-8.5733448}},"Address":{"Label":"Rua Fundação Benjamim Dias Costa L8, 3860-153 Estarreja, Portugal","Country":"PRT","County":"Aveiro","City":"Estarreja","District":"Avanca","Street":"Rua Fundação Benjamim Dias Costa","HouseNumber":"L8","PostalCode":"3860-153","AdditionalData":[{"value":"Portugal","key":"CountryName"},{"value":"Aveiro","key":"CountyName"}]},"MapReference":{"ReferenceId":"588742111","Spot":0.23,"SideOfStreet":"left","CountryId":"20317122","CountyId":"20317149","CityId":"20317248","DistrictId":"20317249","AddressId":"595250162","RoadLinkId":"70700230"}}},{"Relevance":1.0,"Distance":52.9,"MatchLevel":"houseNumber","MatchQuality":{"Country":1.0,"County":1.0,"City":1.0,"District":1.0,"Street":[1.0],"HouseNumber":1.0,"PostalCode":1.0},"MatchType":"interpolated","Location":{"LocationId":"NT_QjIaX31nk7..KkuTPYZNzB_ygD","LocationType":"point","DisplayPosition":{"Latitude":40.80804,"Longitude":-8.57521},"MapView":{"TopLeft":{"Latitude":40.8091642,"Longitude":-8.5766952},"BottomRight":{"Latitude":40.8069158,"Longitude":-8.5737248}},"Address":{"Label":"Rua Prof. Dr. Egas Moniz 28, 3860-078 Estarreja, Portugal","Country":"PRT","County":"Aveiro","City":"Estarreja","District":"Avanca","Street":"Rua Prof. Dr. Egas Moniz","HouseNumber":"28","PostalCode":"3860-078","AdditionalData":[{"value":"Portugal","key":"CountryName"},{"value":"Aveiro","key":"CountyName"}]},"MapReference":{"ReferenceId":"941323290","Spot":0.38,"SideOfStreet":"left","CountryId":"20317122","CountyId":"20317149","CityId":"20317248","DistrictId":"20317249","AddressId":"343562557","RoadLinkId":"291361454"}}},{"Relevance":1.0,"Distance":61.1,"MatchLevel":"street","MatchQuality":{"Country":1.0,"County":1.0,"City":1.0,"District":1.0,"PostalCode":1.0},"Location":{"LocationId":"NT_LNiiIQZD2oJWR4uvvuOB2C_l_588742103_R","LocationType":"point","DisplayPosition":{"Latitude":40.80722,"Longitude":-8.57619},"MapView":{"TopLeft":{"Latitude":40.80722,"Longitude":-8.57647},"BottomRight":{"Latitude":40.8071,"Longitude":-8.57619}},"Address":{"Label":"3860 Estarreja, Portugal","Country":"PRT","County":"Aveiro","City":"Estarreja","District":"Avanca","PostalCode":"3860","AdditionalData":[{"value":"Portugal","key":"CountryName"},{"value":"Aveiro","key":"CountyName"}]},"MapReference":{"ReferenceId":"588742103","Spot":1.0,"SideOfStreet":"right","CountryId":"20317122","CountyId":"20317149","CityId":"20317248","DistrictId":"20317249"}}},{"Relevance":1.0,"Distance":66.4,"MatchLevel":"street","MatchQuality":{"Country":1.0,"County":1.0,"City":1.0,"District":1.0,"Street":[1.0],"PostalCode":1.0},"Location":{"LocationId":"NT_OANP56FqgObkZFZXVJbrRC_l_588742122_L","LocationType":"point","DisplayPosition":{"Latitude":40.80718,"Longitude":-8.57485},"MapView":{"TopLeft":{"Latitude":40.80718,"Longitude":-8.57489},"BottomRight":{"Latitude":40.80697,"Longitude":-8.57485}},"Address":{"Label":"Rua Fundação Benjamim Dias Costa, 3860-153 Estarreja, Portugal","Country":"PRT","County":"Aveiro","City":"Estarreja","District":"Avanca","Street":"Rua Fundação Benjamim Dias Costa","PostalCode":"3860-153","AdditionalData":[{"value":"Portugal","key":"CountryName"},{"value":"Aveiro","key":"CountyName"}]},"MapReference":{"ReferenceId":"588742122","Spot":1.0,"SideOfStreet":"left","CountryId":"20317122","CountyId":"20317149","CityId":"20317248","DistrictId":"20317249"}}}]}]}}