{"Response":{"MetaInfo":{"Timestamp":"2020-03-28T09:44:30.752+0000","NextPageInformation":"2"},"View":[{"_type":"SearchResultsViewType","ViewId":0,"Result":[{"Relevance":1.0,"Distance":0.0,"Direction":0.0,"MatchLevel":"city","MatchQuality":{"Country":1.0,"State":1.0,"County":1.0,"City":1.0,"PostalCode":1.0},"Location":{"LocationId":"NT_9gpdMKLeL1oMnFmfjxFZHC","LocationType":"point","DisplayPosition":{"Latitude":40.9242247,"Longitude":-2.9263483},"MapView":{"TopLeft":{"Latitude":40.97211,"Longitude":-2.99066},"BottomRight":{"Latitude":40.87948,"Longitude":-2.86198}},"Address":{"Label":"Jadraque, Castilla-La Mancha, España","Country":"ESP","State":"Castilla-La Mancha","County":"Guadalajara","City":"Jadraque","PostalCode":"19240","AdditionalData":[{"value":"España","key":"CountryName"},{"value":"Castilla-La Mancha","key":"StateName"},{"value":"Guadalajara","key":"CountyName"}]},"MapReference":{"ReferenceId":"989878700","SideOfStreet":"neither","CountryId":"20215059","StateId":"20221903","CountyId":"20221907","CityId":"20295760"}}},{"Relevance":1.0,"Distance":13.5,"MatchLevel":"houseNumber","MatchQuality":{"Country":1.0,"State":1.0,"County":1.0,"City":1.0,"Street":[1.0],"HouseNumber":1.0,"PostalCode":1.0},"MatchType":"interpolated","Location":{"LocationId":"NT_41sNQQqjzWm..rg43Z9S9A_xA","LocationType":"point","DisplayPosition":{"Latitude":40.9244,"Longitude":-2.92635},"MapView":{"TopLeft":{"Latitude":40.9255242,"Longitude":-2.9278378},"BottomRight":{"Latitude":40.9232758,"Longitude":-2.9248622}},"Address":{"Label":"Camino de las Escuelas, 1, 19240 Jadraque (Guadalajara), España","Country":"ESP","State":"Castilla-La Mancha","County":"Guadalajara","City":"Jadraque","Street":"Camino de las Escuelas","HouseNumber":"1","PostalCode":"19240","AdditionalData":[{"value":"España","key":"CountryName"},{"value":"Castilla-La Mancha","key":"StateName"},{"value":"Guadalajara","key":"CountyName"}]},"MapReference":{"ReferenceId":"570697630","Spot":0.1,"SideOfStreet":"left","CountryId":"20215059","StateId":"20221903","CountyId":"20221907","CityId":"20295760","AddressId":"348338817","RoadLinkId":"65457643"}}},{"Relevance":1.0,"Distance":15.2,"MatchLevel":"houseNumber","MatchQuality":{"Country":1.0,"State":1.0,"County":1.0,"City":1.0,"Street":[1.0],"HouseNumber":1.0,"PostalCode":1.0},"MatchType":"interpolated","Location":{"LocationId":"NT_CGFVQchTR0pUdwdwLTBpFC_xIDV","LocationType":"point","DisplayPosition":{"Latitude":40.92409,"Longitude":-2.92638},"MapView":{"TopLeft":{"Latitude":40.9252142,"Longitude":-2.9278678},"BottomRight":{"Latitude":40.9229658,"Longitude":-2.9248922}},"Address":{"Label":"Calle Alcalde Eladio de Agustín Delgado, 12T, 19240 Jadraque (Guadalajara), España","Country":"ESP","State":"Castilla-La Mancha","County":"Guadalajara","City":"Jadraque","Street":"Calle Alcalde Eladio de Agustín Delgado","HouseNumber":"12T","PostalCode":"19240","AdditionalData":[{"value":"España","key":"CountryName"},{"value":"Castilla-La Mancha","key":"StateName"},{"value":"Guadalajara","key":"CountyName"}]},"MapReference":{"ReferenceId":"572170909","Spot":0.76,"SideOfStreet":"left","CountryId":"20215059","StateId":"20221903","CountyId":"20221907","CityId":"20295760","AddressId":"348495454","RoadLinkId":"65190986"}}},{"Relevance":1.0,"Distance":34.1,"MatchLevel":"houseNumber","MatchQuality":{"Country":1.0,"State":1.0,"County":1.0,"City":1.0,"Street":[1.0],"HouseNumber":1.0,"PostalCode":1.0},"MatchType":"interpolated","Location":{"LocationId":"NT_41sNQQqjzWm..rg43Z9S9A_l_570697642_L_xYD","LocationType":"point","DisplayPosition":{"Latitude":40.92419,"Longitude":-2.92594},"MapView":{"TopLeft":{"Latitude":40.9253142,"Longitude":-2.9274278},"BottomRight":{"Latitude":40.9230659,"Longitude":-2.9244522}},"Address":{"Label":"Camino de las Escuelas, 16, 19240 Jadraque (Guadalajara), España","Country":"ESP","State":"Castilla-La Mancha","County":"Guadalajara","City":"Jadraque","Street":"Camino de las Escuelas","HouseNumber":"16","PostalCode":"19240","AdditionalData":[{"value":"España","key":"CountryName"},{"value":"Castilla-La Mancha","key":"StateName"},{"value":"Guadalajara","key":"CountyName"}]},"MapReference":{"ReferenceId":"570697642","Spot":0.58,"SideOfStreet":"left","CountryId":"20215059","StateId":"20221903","CountyId":"20221907","CityId":"20295760"}}},{"Relevance":1.0,"Distance":51.0,"MatchLevel":"houseNumber","MatchQuality":{"Country":1.0,"State":1.0,"County":1.0,"City":1.0,"Street":[1.0],"HouseNumber":1.0,"PostalCode":1.0},"MatchType":"interpolated","Location":{"LocationId":"NT_r-l-LaPQcA-6GGRtN7PW3B_0A","LocationType":"point","DisplayPosition":{"Latitude":40.92383,"Longitude":-2.92596},"MapView":{"TopLeft":{"Latitude":40.9249542,"Longitude":-2.9274478},"BottomRight":{"Latitude":40.9227058,"Longitude":-2.9244722}},"Address":{"Label":"Calle del Alcalde Fidel de la Peca, 4, 19240 Jadraque (Guadalajara), España","Country":"ESP","State":"Castilla-La Mancha","County":"Guadalajara","City":"Jadraque","Street":"Calle del Alcalde Fidel de la Peca","HouseNumber":"4","PostalCode":"19240","AdditionalData":[{"value":"España","key":"CountryName"},{"value":"Castilla-La Mancha","key":"StateName"},{"value":"Guadalajara","key":"CountyName"}]},"MapReference":{"ReferenceId":"570697666","Spot":0.67,"SideOfStreet":"left","CountryId":"20215059","StateId":"20221903","CountyId":"20221907","CityId":"20295760","AddressId":"348317980","RoadLinkId":"65456875"}}},{"Relevance":1.0,"Distance":64.5,"MatchLevel":"houseNumber","MatchQuality":{"Country":1.0,"State":1.0,"County":1.0,"City":1.0,"Street":[1.0],"HouseNumber":1.0,"PostalCode":1.0},"MatchType":"interpolated","Location":{"LocationId":"NT_41sNQQqjzWm..rg43Z9S9A_l_570697707_R_yMD","LocationType":"point","DisplayPosition":{"Latitude":40.9240452,"Longitude":-2.9256111},"MapView":{"TopLeft":{"Latitude":40.9251694,"Longitude":-2.9270989},"BottomRight":{"Latitude":40.9229211,"Longitude":-2.9241232}},"Address":{"Label":"Camino de las Escuelas, 23, 19240 Jadraque (Guadalajara), España","Country":"ESP","State":"Castilla-La Mancha","County":"Guadalajara","City":"Jadraque","Street":"Camino de las Escuelas","HouseNumber":"23","PostalCode":"19240","AdditionalData":[{"value":"España","key":"CountryName"},{"value":"Castilla-La Mancha","key":"StateName"},{"value":"Guadalajara","key":"CountyName"}]},"MapReference":{"ReferenceId":"570697707","Spot":0.8,"SideOfStreet":"right","CountryId":"20215059","StateId":"20221903","CountyId":"20221907","CityId":"20295760"}}},{"Relevance":1.0,"Distance":70.4,"MatchLevel":"houseNumber","MatchQuality":{"Country":1.0,"State":1.0,"County":1.0,"City":1.0,"Street":[1.0],"HouseNumber":1.0,"PostalCode":1.0},"MatchType":"interpolated","Location":{"LocationId":"NT_Qhu9monoH8N8nXCmarVguC_0IE","LocationType":"point","DisplayPosition":{"Latitude":40.92363,"Longitude":-2.92582},"MapView":{"TopLeft":{"Latitude":40.9247542,"Longitude":-2.9273078},"BottomRight":{"Latitude":40.9225058,"Longitude":-2.9243322}},"Address":{"Label":"Paseo de Juan Casas, 4B, 19240 Jadraque (Guadalajara), España","Country":"ESP","State":"Castilla-La Mancha","County":"Guadalajara","City":"Jadraque","Street":"Paseo de Juan Casas","HouseNumber":"4B","PostalCode":"19240","AdditionalData":[{"value":"España","key":"CountryName"},{"value":"Castilla-La Mancha","key":"StateName"},{"value":"Guadalajara","key":"CountyName"}]},"MapReference":{"ReferenceId":"572170911","Spot":0.52,"SideOfStreet":"left","CountryId":"20215059","StateId":"20221903","CountyId":"20221907","CityId":"20295760","AddressId":"348354123","RoadLinkId":"65477494"}}},{"Relevance":1.0,"Distance":88.8,"MatchLevel":"street","MatchQuality":{"Country":1.0,"State":1.0,"County":1.0,"City":1.0,"Street":[1.0],"PostalCode":1.0},"Location":{"LocationId":"NT_rk1cIkw9qBFtAi.0.doFkB_l_572170925_L","LocationType":"point","DisplayPosition":{"Latitude":40.92401,"Longitude":-2.92533},"MapView":{"TopLeft":{"Latitude":40.92401,"Longitude":-2.92533},"BottomRight":{"Latitude":40.92339,"Longitude":-2.92441}},"Address":{"Label":"Calle de las Escuelas, 19240 Jadraque (Guadalajara), España","Country":"ESP","State":"Castilla-La Mancha","County":"Guadalajara","City":"Jadraque","Street":"Calle de las Escuelas","PostalCode":"19240","AdditionalData":[{"value":"España","key":"CountryName"},{"value":"Castilla-La Mancha","key":"StateName"},{"value":"Guadalajara","key":"CountyName"}]},"MapReference":{"ReferenceId":"572170925","Spot":1.0,"SideOfStreet":"left","CountryId":"20215059","StateId":"20221903","CountyId":"20221907","CityId":"20295760"}}},{"Relevance":1.0,"Distance":89.8,"MatchLevel":"houseNumber","MatchQuality":{"Country":1.0,"State":1.0,"County":1.0,"City":1.0,"Street":[1.0],"HouseNumber":1.0,"PostalCode":1.0},"MatchType":"interpolated","Location":{"LocationId":"NT_Qhu9monoH8N8nXCmarVguC_yA","LocationType":"point","DisplayPosition":{"Latitude":40.92415,"Longitude":-2.9252},"MapView":{"TopLeft":{"Latitude":40.9252742,"Longitude":-2.9266878},"BottomRight":{"Latitude":40.9230258,"Longitude":-2.9237122}},"Address":{"Label":"Paseo de Juan Casas, 2, 19240 Jadraque (Guadalajara), España","Country":"ESP","State":"Castilla-La Mancha","County":"Guadalajara","City":"Jadraque","Street":"Paseo de Juan Casas","HouseNumber":"2","PostalCode":"19240","AdditionalData":[{"value":"España","key":"CountryName"},{"value":"Castilla-La Mancha","key":"StateName"},{"value":"Guadalajara","key":"CountyName"}]},"MapReference":{"ReferenceId":"570697700","Spot":0.18,"SideOfStreet":"left","CountryId":"20215059","StateId":"20221903","CountyId":"20221907","CityId":"20295760","AddressId":"348403318","RoadLinkId":"66237980"}}},{"Relevance":1.0,"Distance":97.4,"MatchLevel":"houseNumber","MatchQuality":{"Country":1.0,"State":1.0,"County":1.0,"City":1.0,"Street":[1.0],"HouseNumber":1.0,"PostalCode":1.0},"MatchType":"interpolated","Location":{"LocationId":"NT_CGFVQchTR0pUdwdwLTBpFC_xgD","LocationType":"point","DisplayPosition":{"Latitude":40.92336,"Longitude":-2.92653},"MapView":{"TopLeft":{"Latitude":40.9244842,"Longitude":-2.9280178},"BottomRight":{"Latitude":40.9222358,"Longitude":-2.9250422}},"Address":{"Label":"Calle Alcalde Eladio de Agustín Delgado, 18, 19240 Jadraque (Guadalajara), España","Country":"ESP","State":"Castilla-La Mancha","County":"Guadalajara","City":"Jadraque","Street":"Calle Alcalde Eladio de Agustín Delgado","HouseNumber":"18","PostalCode":"19240","AdditionalData":[{"value":"España","key":"CountryName"},{"value":"Castilla-La Mancha","key":"StateName"},{"value":"Guadalajara","key":"CountyName"}]},"MapReference":{"ReferenceId":"572170912","Spot":1.0,"SideOfStreet":"left","CountryId":"20215059","StateId":"20221903","CountyId":"20221907","CityId":"20295760","AddressId":"348217690","RoadLinkId":"66416714"}}}]}]}}