{"Response":{"MetaInfo":{"Timestamp":"2020-03-28T09:47:38.716+0000","NextPageInformation":"2"},"View":[{"_type":"SearchResultsViewType","ViewId":0,"Result":[{"Relevance":1.0,"Distance":0.0,"Direction":0.0,"MatchLevel":"city","MatchQuality":{"Country":1.0,"State":1.0,"County":1.0,"City":1.0,"PostalCode":1.0},"Location":{"LocationId":"NT_Tk4BqcD2mYoDvObxQPeHxC","LocationType":"point","DisplayPosition":{"Latitude":40.9213968,"Longitude":-1.2990543},"MapView":{"TopLeft":{"Latitude":41.03201,"Longitude":-1.38454},"BottomRight":{"Latitude":40.84465,"Longitude":-1.09876}},"Address":{"Label":"Calamocha, Aragón, España","Country":"ESP","State":"Aragón","County":"Teruel","City":"Calamocha","PostalCode":"44200","AdditionalData":[{"value":"España","key":"CountryName"},{"value":"Aragón","key":"StateName"},{"value":"Teruel","key":"CountyName"}]},"MapReference":{"ReferenceId":"553445920","SideOfStreet":"neither","CountryId":"20215059","StateId":"20221894","CountyId":"20221896","CityId":"20277836"}}},{"Relevance":1.0,"Distance":24.3,"MatchLevel":"houseNumber","MatchQuality":{"Country":1.0,"State":1.0,"County":1.0,"City":1.0,"Street":[1.0],"HouseNumber":1.0,"PostalCode":1.0},"MatchType":"interpolated","Location":{"LocationId":"NT_yYivoEK7lp5no3AGZBsPzC_zUD","LocationType":"point","DisplayPosition":{"Latitude":40.92113,"Longitude":-1.29899},"MapView":{"TopLeft":{"Latitude":40.9222542,"Longitude":-1.3004777},"BottomRight":{"Latitude":40.9200058,"Longitude":-1.2975023}},"Address":{"Label":"Plaza Huerta Grande, 35, 44200 Calamocha (Teruel), España","Country":"ESP","State":"Aragón","County":"Teruel","City":"Calamocha","Street":"Plaza Huerta Grande","HouseNumber":"35","PostalCode":"44200","AdditionalData":[{"value":"España","key":"CountryName"},{"value":"Aragón","key":"StateName"},{"value":"Teruel","key":"CountyName"}]},"MapReference":{"ReferenceId":"592029919","Spot":0.89,"SideOfStreet":"left","CountryId":"20215059","StateId":"20221894","CountyId":"20221896","CityId":"20277836","AddressId":"698628830","RoadLinkId":"65987423"}}},{"Relevance":1.0,"Distance":31.8,"MatchLevel":"houseNumber","MatchQuality":{"Country":1.0,"State":1.0,"County":1.0,"City":1.0,"Street":[1.0],"HouseNumber":1.0,"PostalCode":1.0},"MatchType":"interpolated","Location":{"LocationId":"NT_7rXfy4M81rEvtkusFrRxNA_xEE","LocationType":"point","DisplayPosition":{"Latitude":40.92127,"Longitude":-1.29865},"MapView":{"TopLeft":{"Latitude":40.9223942,"Longitude":-1.3001377},"BottomRight":{"Latitude":40.9201458,"Longitude":-1.2971623}},"Address":{"Label":"Avenida Valencia, 1A, 44200 Calamocha (Teruel), España","Country":"ESP","State":"Aragón","County":"Teruel","City":"Calamocha","Street":"Avenida Valencia","HouseNumber":"1A","PostalCode":"44200","AdditionalData":[{"value":"España","key":"CountryName"},{"value":"Aragón","key":"StateName"},{"value":"Teruel","key":"CountyName"}]},"MapReference":{"ReferenceId":"553445977","Spot":0.4,"SideOfStreet":"left","CountryId":"20215059","StateId":"20221894","CountyId":"20221896","CityId":"20277836","AddressId":"347979817","RoadLinkId":"66184875"}}},{"Relevance":1.0,"Distance":56.9,"MatchLevel":"houseNumber","MatchQuality":{"Country":1.0,"State":1.0,"County":1.0,"City":1.0,"Street":[1.0],"HouseNumber":1.0,"PostalCode":1.0},"MatchType":"interpolated","Location":{"LocationId":"NT_ZqMGly0as6eWg00WT3i73B_yAD","LocationType":"point","DisplayPosition":{"Latitude":40.92093,"Longitude":-1.29879},"MapView":{"TopLeft":{"Latitude":40.9220542,"Longitude":-1.3002777},"BottomRight":{"Latitude":40.9198058,"Longitude":-1.2973023}},"Address":{"Label":"Calle Jaime I, 20, 44200 Calamocha (Teruel), España","Country":"ESP","State":"Aragón","County":"Teruel","City":"Calamocha","Street":"Calle Jaime I","HouseNumber":"20","PostalCode":"44200","AdditionalData":[{"value":"España","key":"CountryName"},{"value":"Aragón","key":"StateName"},{"value":"Teruel","key":"CountyName"}]},"MapReference":{"ReferenceId":"553445975","Spot":0.27,"SideOfStreet":"left","CountryId":"20215059","StateId":"20221894","CountyId":"20221896","CityId":"20277836","AddressId":"364805856","RoadLinkId":"66563650"}}},{"Relevance":1.0,"Distance":57.5,"MatchLevel":"houseNumber","MatchQuality":{"Country":1.0,"State":1.0,"County":1.0,"City":1.0,"Street":[1.0],"HouseNumber":1.0,"PostalCode":1.0},"MatchType":"interpolated","Location":{"LocationId":"NT_5TSZvwdCx1Bb79cAcAoM5A_xED","LocationType":"point","DisplayPosition":{"Latitude":40.92189,"Longitude":-1.29856},"MapView":{"TopLeft":{"Latitude":40.9230142,"Longitude":-1.3000478},"BottomRight":{"Latitude":40.9207658,"Longitude":-1.2970722}},"Address":{"Label":"Plaza San Roque, 11, 44200 Calamocha (Teruel), España","Country":"ESP","State":"Aragón","County":"Teruel","City":"Calamocha","Street":"Plaza San Roque","HouseNumber":"11","PostalCode":"44200","AdditionalData":[{"value":"España","key":"CountryName"},{"value":"Aragón","key":"StateName"},{"value":"Teruel","key":"CountyName"}]},"MapReference":{"ReferenceId":"553445959","Spot":0.8,"SideOfStreet":"left","CountryId":"20215059","StateId":"20221894","CountyId":"20221896","CityId":"20277836","AddressId":"347985003","RoadLinkId":"65765930"}}},{"Relevance":1.0,"Distance":65.5,"MatchLevel":"houseNumber","MatchQuality":{"Country":1.0,"State":1.0,"County":1.0,"City":1.0,"Street":[1.0],"HouseNumber":1.0,"PostalCode":1.0},"MatchType":"interpolated","Location":{"LocationId":"NT_5TSZvwdCx1Bb79cAcAoM5A_3EE","LocationType":"point","DisplayPosition":{"Latitude":40.92133,"Longitude":-1.29815},"MapView":{"TopLeft":{"Latitude":40.9224542,"Longitude":-1.2996377},"BottomRight":{"Latitude":40.9202058,"Longitude":-1.2966623}},"Address":{"Label":"Plaza San Roque, 7A, 44200 Calamocha (Teruel), España","Country":"ESP","State":"Aragón","County":"Teruel","City":"Calamocha","Street":"Plaza San Roque","HouseNumber":"7A","PostalCode":"44200","AdditionalData":[{"value":"España","key":"CountryName"},{"value":"Aragón","key":"StateName"},{"value":"Teruel","key":"CountyName"}]},"MapReference":{"ReferenceId":"864810718","Spot":0.06,"SideOfStreet":"left","CountryId":"20215059","StateId":"20221894","CountyId":"20221896","CityId":"20277836","AddressId":"348033286","RoadLinkId":"238149353"}}},{"Relevance":1.0,"Distance":66.3,"MatchLevel":"street","MatchQuality":{"Country":1.0,"State":1.0,"County":1.0,"City":1.0,"Street":[1.0],"PostalCode":1.0},"Location":{"LocationId":"NT_FRJUvEt-dG22RuQ4ZLHEeB_l_553445967_L","LocationType":"point","DisplayPosition":{"Latitude":40.92085,"Longitude":-1.29874},"MapView":{"TopLeft":{"Latitude":40.92117,"Longitude":-1.29874},"BottomRight":{"Latitude":40.92085,"Longitude":-1.29805}},"Address":{"Label":"Pasaje Fernando el Católico, 44200 Calamocha (Teruel), España","Country":"ESP","State":"Aragón","County":"Teruel","City":"Calamocha","Street":"Pasaje Fernando el Católico","PostalCode":"44200","AdditionalData":[{"value":"España","key":"CountryName"},{"value":"Aragón","key":"StateName"},{"value":"Teruel","key":"CountyName"}]},"MapReference":{"ReferenceId":"553445967","Spot":0.0,"SideOfStreet":"left","CountryId":"20215059","StateId":"20221894","CountyId":"20221896","CityId":"20277836"}}},{"Relevance":1.0,"Distance":69.3,"MatchLevel":"houseNumber","MatchQuality":{"Country":1.0,"State":1.0,"County":1.0,"City":1.0,"Street":[1.0],"HouseNumber":1.0,"PostalCode":1.0},"MatchType":"interpolated","Location":{"LocationId":"NT_5TSZvwdCx1Bb79cAcAoM5A_xMD","LocationType":"point","DisplayPosition":{"Latitude":40.92204,"Longitude":-1.29867},"MapView":{"TopLeft":{"Latitude":40.9231642,"Longitude":-1.3001578},"BottomRight":{"Latitude":40.9209158,"Longitude":-1.2971822}},"Address":{"Label":"Plaza San Roque, 13, 44200 Calamocha (Teruel), España","Country":"ESP","State":"Aragón","County":"Teruel","City":"Calamocha","Street":"Plaza San Roque","HouseNumber":"13","PostalCode":"44200","AdditionalData":[{"value":"España","key":"CountryName"},{"value":"Aragón","key":"StateName"},{"value":"Teruel","key":"CountyName"}]},"MapReference":{"ReferenceId":"553445961","Spot":0.14,"SideOfStreet":"left","CountryId":"20215059","StateId":"20221894","CountyId":"20221896","CityId":"20277836","AddressId":"348001512","RoadLinkId":"65944804"}}},{"Relevance":1.0,"Distance":76.2,"MatchLevel":"houseNumber","MatchQuality":{"Country":1.0,"State":1.0,"County":1.0,"City":1.0,"Street":[1.0],"HouseNumber":1.0,"PostalCode":1.0},"MatchType":"interpolated","Location":{"LocationId":"NT_7rXfy4M81rEvtkusFrRxNA_xA","LocationType":"point","DisplayPosition":{"Latitude":40.92149,"Longitude":-1.29814},"MapView":{"TopLeft":{"Latitude":40.9226142,"Longitude":-1.2996277},"BottomRight":{"Latitude":40.9203658,"Longitude":-1.2966523}},"Address":{"Label":"Avenida Valencia, 1, 44200 Calamocha (Teruel), España","Country":"ESP","State":"Aragón","County":"Teruel","City":"Calamocha","Street":"Avenida Valencia","HouseNumber":"1","PostalCode":"44200","AdditionalData":[{"value":"España","key":"CountryName"},{"value":"Aragón","key":"StateName"},{"value":"Teruel","key":"CountyName"}]},"MapReference":{"ReferenceId":"553445958","Spot":0.27,"SideOfStreet":"left","CountryId":"20215059","StateId":"20221894","CountyId":"20221896","CityId":"20277836","AddressId":"347966124","RoadLinkId":"65733366"}}},{"Relevance":1.0,"Distance":91.4,"MatchLevel":"houseNumber","MatchQuality":{"Country":1.0,"State":1.0,"County":1.0,"City":1.0,"Street":[1.0],"HouseNumber":1.0,"PostalCode":1.0},"MatchType":"interpolated","Location":{"LocationId":"NT_n9QBiRmIp0moDVBTUtTR4B_yA","LocationType":"point","DisplayPosition":{"Latitude":40.92208,"Longitude":-1.29839},"MapView":{"TopLeft":{"Latitude":40.9232042,"Longitude":-1.2998778},"BottomRight":{"Latitude":40.9209558,"Longitude":-1.2969022}},"Address":{"Label":"Calle Montpelier, 2, 44200 Calamocha (Teruel), España","Country":"ESP","State":"Aragón","County":"Teruel","City":"Calamocha","Street":"Calle Montpelier","HouseNumber":"2","PostalCode":"44200","AdditionalData":[{"value":"España","key":"CountryName"},{"value":"Aragón","key":"StateName"},{"value":"Teruel","key":"CountyName"}]},"MapReference":{"ReferenceId":"553445982","Spot":0.37,"SideOfStreet":"right","CountryId":"20215059","StateId":"20221894","CountyId":"20221896","CityId":"20277836","AddressId":"347979014","RoadLinkId":"65278168"}}}]}]}}