{"Response":{"MetaInfo":{"Timestamp":"2020-03-28T09:47:59.767+0000","NextPageInformation":"2"},"View":[{"_type":"SearchResultsViewType","ViewId":0,"Result":[{"Relevance":1.0,"Distance":0.0,"Direction":0.0,"MatchLevel":"city","MatchQuality":{"Country":1.0,"State":1.0,"County":1.0,"City":1.0,"PostalCode":1.0},"Location":{"LocationId":"NT_Cqi5fgKIjywJin4AWs50ND","LocationType":"point","DisplayPosition":{"Latitude":40.950721,"Longitude":-5.6287063},"MapView":{"TopLeft":{"Latitude":40.9682,"Longitude":-5.6573},"BottomRight":{"Latitude":40.92551,"Longitude":-5.60112}},"Address":{"Label":"Santa Marta de Tormes, Castilla y León, España","Country":"ESP","State":"Castilla y León","County":"Salamanca","City":"Santa Marta de Tormes","PostalCode":"37900","AdditionalData":[{"value":"España","key":"CountryName"},{"value":"Castilla y León","key":"StateName"},{"value":"Salamanca","key":"CountyName"}]},"MapReference":{"ReferenceId":"826720627","SideOfStreet":"neither","CountryId":"20215059","StateId":"20221909","CountyId":"20221914","CityId":"20310141"}}},{"Relevance":1.0,"Distance":20.1,"MatchLevel":"houseNumber","MatchQuality":{"Country":1.0,"State":1.0,"County":1.0,"City":1.0,"Street":[1.0],"HouseNumber":1.0,"PostalCode":1.0},"MatchType":"interpolated","Location":{"LocationId":"NT_X6gFyapom52IoIB0BFoFYB_xA","LocationType":"point","DisplayPosition":{"Latitude":40.95088,"Longitude":-5.62882},"MapView":{"TopLeft":{"Latitude":40.9520042,"Longitude":-5.6303084},"BottomRight":{"Latitude":40.9497558,"Longitude":-5.6273316}},"Address":{"Label":"Calle Padre Ignacio Ellacuría, 1, 37900 Santa Marta de Tormes (Salamanca), España","Country":"ESP","State":"Castilla y León","County":"Salamanca","City":"Santa Marta de Tormes","Street":"Calle Padre Ignacio Ellacuría","HouseNumber":"1","PostalCode":"37900","AdditionalData":[{"value":"España","key":"CountryName"},{"value":"Castilla y León","key":"StateName"},{"value":"Salamanca","key":"CountyName"}]},"MapReference":{"ReferenceId":"539370317","Spot":0.73,"SideOfStreet":"left","CountryId":"20215059","StateId":"20221909","CountyId":"20221914","CityId":"20310141","AddressId":"206646982","RoadLinkId":"68077440"}}},{"Relevance":1.0,"Distance":44.8,"MatchLevel":"houseNumber","MatchQuality":{"Country":1.0,"State":1.0,"County":1.0,"City":1.0,"Street":[1.0],"HouseNumber":1.0,"PostalCode":1.0},"MatchType":"interpolated","Location":{"LocationId":"NT_f3U4K7amtlL1PQlfwF46wD_xAD","LocationType":"point","DisplayPosition":{"Latitude":40.95089,"Longitude":-5.62926},"MapView":{"TopLeft":{"Latitude":40.9520142,"Longitude":-5.6307484},"BottomRight":{"Latitude":40.9497658,"Longitude":-5.6277716}},"Address":{"Label":"Avenida Antonio Machado, 10, 37900 Santa Marta de Tormes (Salamanca), España","Country":"ESP","State":"Castilla y León","County":"Salamanca","City":"Santa Marta de Tormes","Street":"Avenida Antonio Machado","HouseNumber":"10","PostalCode":"37900","AdditionalData":[{"value":"España","key":"CountryName"},{"value":"Castilla y León","key":"StateName"},{"value":"Salamanca","key":"CountyName"}]},"MapReference":{"ReferenceId":"539370322","Spot":1.0,"SideOfStreet":"right","CountryId":"20215059","StateId":"20221909","CountyId":"20221914","CityId":"20310141","AddressId":"206627896","RoadLinkId":"69030026"}}},{"Relevance":1.0,"Distance":51.6,"MatchLevel":"street","MatchQuality":{"Country":1.0,"State":1.0,"County":1.0,"City":1.0,"Street":[1.0],"PostalCode":1.0},"Location":{"LocationId":"NT_f3U4K7amtlL1PQlfwF46wD_l_539370319_R","LocationType":"point","DisplayPosition":{"Latitude":40.9509941,"Longitude":-5.6292028},"MapView":{"TopLeft":{"Latitude":40.95109,"Longitude":-5.62926},"BottomRight":{"Latitude":40.95089,"Longitude":-5.62915}},"Address":{"Label":"Avenida Antonio Machado, 37900 Santa Marta de Tormes (Salamanca), España","Country":"ESP","State":"Castilla y León","County":"Salamanca","City":"Santa Marta de Tormes","Street":"Avenida Antonio Machado","PostalCode":"37900","AdditionalData":[{"value":"España","key":"CountryName"},{"value":"Castilla y León","key":"StateName"},{"value":"Salamanca","key":"CountyName"}]},"MapReference":{"ReferenceId":"539370319","Spot":0.52,"SideOfStreet":"right","CountryId":"20215059","StateId":"20221909","CountyId":"20221914","CityId":"20310141"}}},{"Relevance":1.0,"Distance":53.8,"MatchLevel":"houseNumber","MatchQuality":{"Country":1.0,"State":1.0,"County":1.0,"City":1.0,"Street":[1.0],"HouseNumber":1.0,"PostalCode":1.0},"MatchType":"interpolated","Location":{"LocationId":"NT_rqIXM7ecKoRqXb3ZpLTNwB_2kD","LocationType":"point","DisplayPosition":{"Latitude":40.95015,"Longitude":-5.62851},"MapView":{"TopLeft":{"Latitude":40.9512742,"Longitude":-5.6299984},"BottomRight":{"Latitude":40.9490258,"Longitude":-5.6270216}},"Address":{"Label":"Avenida de Madrid, 69, 37900 Santa Marta de Tormes (Salamanca), España","Country":"ESP","State":"Castilla y León","County":"Salamanca","City":"Santa Marta de Tormes","Street":"Avenida de Madrid","HouseNumber":"69","PostalCode":"37900","AdditionalData":[{"value":"España","key":"CountryName"},{"value":"Castilla y León","key":"StateName"},{"value":"Salamanca","key":"CountyName"}]},"MapReference":{"ReferenceId":"927318207","Spot":0.12,"SideOfStreet":"right","CountryId":"20215059","StateId":"20221909","CountyId":"20221914","CityId":"20310141","AddressId":"417059634","RoadLinkId":"282720382"}}},{"Relevance":1.0,"Distance":55.6,"MatchLevel":"houseNumber","MatchQuality":{"Country":1.0,"State":1.0,"County":1.0,"City":1.0,"Street":[1.0],"HouseNumber":1.0,"PostalCode":1.0},"MatchType":"interpolated","Location":{"LocationId":"NT_Bn6DNgI1xJOCGQhOYFkylB_1A","LocationType":"point","DisplayPosition":{"Latitude":40.95089,"Longitude":-5.62933},"MapView":{"TopLeft":{"Latitude":40.9520142,"Longitude":-5.6308184},"BottomRight":{"Latitude":40.9497658,"Longitude":-5.6278416}},"Address":{"Label":"Calle Fray Luis de León, 5, 37900 Santa Marta de Tormes (Salamanca), España","Country":"ESP","State":"Castilla y León","County":"Salamanca","City":"Santa Marta de Tormes","Street":"Calle Fray Luis de León","HouseNumber":"5","PostalCode":"37900","AdditionalData":[{"value":"España","key":"CountryName"},{"value":"Castilla y León","key":"StateName"},{"value":"Salamanca","key":"CountyName"}]},"MapReference":{"ReferenceId":"539370320","Spot":0.14,"SideOfStreet":"right","CountryId":"20215059","StateId":"20221909","CountyId":"20221914","CityId":"20310141","AddressId":"206510733","RoadLinkId":"67899440"}}},{"Relevance":1.0,"Distance":56.0,"MatchLevel":"houseNumber","MatchQuality":{"Country":1.0,"State":1.0,"County":1.0,"City":1.0,"Street":[1.0],"HouseNumber":1.0,"PostalCode":1.0},"MatchType":"interpolated","Location":{"LocationId":"NT_HmG8csyogWw8Z62bNvFSMD_1A","LocationType":"point","DisplayPosition":{"Latitude":40.95115,"Longitude":-5.62833},"MapView":{"TopLeft":{"Latitude":40.9522742,"Longitude":-5.6298184},"BottomRight":{"Latitude":40.9500258,"Longitude":-5.6268416}},"Address":{"Label":"Calle Santiago Mirat, 5, 37900 Santa Marta de Tormes (Salamanca), España","Country":"ESP","State":"Castilla y León","County":"Salamanca","City":"Santa Marta de Tormes","Street":"Calle Santiago Mirat","HouseNumber":"5","PostalCode":"37900","AdditionalData":[{"value":"España","key":"CountryName"},{"value":"Castilla y León","key":"StateName"},{"value":"Salamanca","key":"CountyName"}]},"MapReference":{"ReferenceId":"539370256","Spot":0.35,"SideOfStreet":"left","CountryId":"20215059","StateId":"20221909","CountyId":"20221914","CityId":"20310141","AddressId":"206503343","RoadLinkId":"68824568"}}},{"Relevance":1.0,"Distance":57.1,"MatchLevel":"houseNumber","MatchQuality":{"Country":1.0,"State":1.0,"County":1.0,"City":1.0,"Street":[1.0],"HouseNumber":1.0,"PostalCode":1.0},"MatchType":"interpolated","Location":{"LocationId":"NT_f3U4K7amtlL1PQlfwF46wD_xID","LocationType":"point","DisplayPosition":{"Latitude":40.95121,"Longitude":-5.62906},"MapView":{"TopLeft":{"Latitude":40.9523342,"Longitude":-5.6305484},"BottomRight":{"Latitude":40.9500858,"Longitude":-5.6275716}},"Address":{"Label":"Avenida Antonio Machado, 12, 37900 Santa Marta de Tormes (Salamanca), España","Country":"ESP","State":"Castilla y León","County":"Salamanca","City":"Santa Marta de Tormes","Street":"Avenida Antonio Machado","HouseNumber":"12","PostalCode":"37900","AdditionalData":[{"value":"España","key":"CountryName"},{"value":"Castilla y León","key":"StateName"},{"value":"Salamanca","key":"CountyName"}]},"MapReference":{"ReferenceId":"539370338","Spot":0.21,"SideOfStreet":"right","CountryId":"20215059","StateId":"20221909","CountyId":"20221914","CityId":"20310141","AddressId":"206162953","RoadLinkId":"68854429"}}},{"Relevance":1.0,"Distance":61.5,"MatchLevel":"houseNumber","MatchQuality":{"Country":1.0,"State":1.0,"County":1.0,"City":1.0,"Street":[1.0],"HouseNumber":1.0,"PostalCode":1.0},"MatchType":"interpolated","Location":{"LocationId":"NT_HmG8csyogWw8Z62bNvFSMD_xA","LocationType":"point","DisplayPosition":{"Latitude":40.95064,"Longitude":-5.62796},"MapView":{"TopLeft":{"Latitude":40.9517642,"Longitude":-5.6294484},"BottomRight":{"Latitude":40.9495158,"Longitude":-5.6264716}},"Address":{"Label":"Calle Santiago Mirat, 1, 37900 Santa Marta de Tormes (Salamanca), España","Country":"ESP","State":"Castilla y León","County":"Salamanca","City":"Santa Marta de Tormes","Street":"Calle Santiago Mirat","HouseNumber":"1","PostalCode":"37900","AdditionalData":[{"value":"España","key":"CountryName"},{"value":"Castilla y León","key":"StateName"},{"value":"Salamanca","key":"CountyName"}]},"MapReference":{"ReferenceId":"539370257","Spot":0.61,"SideOfStreet":"left","CountryId":"20215059","StateId":"20221909","CountyId":"20221914","CityId":"20310141","AddressId":"206014860","RoadLinkId":"68900759"}}},{"Relevance":1.0,"Distance":67.2,"MatchLevel":"houseNumber","MatchQuality":{"Country":1.0,"State":1.0,"County":1.0,"City":1.0,"Street":[1.0],"HouseNumber":1.0,"PostalCode":1.0},"MatchType":"interpolated","Location":{"LocationId":"NT_hfYjhrHE5EHK87FyAr7rKA_4A","LocationType":"point","DisplayPosition":{"Latitude":40.95098,"Longitude":-5.62798},"MapView":{"TopLeft":{"Latitude":40.9521042,"Longitude":-5.6294684},"BottomRight":{"Latitude":40.9498558,"Longitude":-5.6264916}},"Address":{"Label":"Calle Herederos López, 8, 37900 Santa Marta de Tormes (Salamanca), España","Country":"ESP","State":"Castilla y León","County":"Salamanca","City":"Santa Marta de Tormes","Street":"Calle Herederos López","HouseNumber":"8","PostalCode":"37900","AdditionalData":[{"value":"España","key":"CountryName"},{"value":"Castilla y León","key":"StateName"},{"value":"Salamanca","key":"CountyName"}]},"MapReference":{"ReferenceId":"539370255","Spot":0.57,"SideOfStreet":"left","CountryId":"20215059","StateId":"20221909","CountyId":"20221914","CityId":"20310141","AddressId":"206566445","RoadLinkId":"69070064"}}}]}]}}