{"Response":{"MetaInfo":{"Timestamp":"2020-03-28T09:45:29.517+0000","NextPageInformation":"2"},"View":[{"_type":"SearchResultsViewType","ViewId":0,"Result":[{"Relevance":1.0,"Distance":0.0,"Direction":0.0,"MatchLevel":"city","MatchQuality":{"Country":1.0,"State":1.0,"County":1.0,"City":1.0,"PostalCode":1.0},"Location":{"LocationId":"NT_DmLMuJmUh1hSBQpfpre0BC","LocationType":"point","DisplayPosition":{"Latitude":40.9412087,"Longitude":-5.2072658},"MapView":{"TopLeft":{"Latitude":40.96716,"Longitude":-5.25217},"BottomRight":{"Latitude":40.91528,"Longitude":-5.17863}},"Address":{"Label":"Aldeaseca de la Frontera, Castilla y León, España","Country":"ESP","State":"Castilla y León","County":"Salamanca","City":"Aldeaseca de la Frontera","PostalCode":"37317","AdditionalData":[{"value":"España","key":"CountryName"},{"value":"Castilla y León","key":"StateName"},{"value":"Salamanca","key":"CountyName"}]},"MapReference":{"ReferenceId":"571943459","SideOfStreet":"neither","CountryId":"20215059","StateId":"20221909","CountyId":"20221914","CityId":"20308832"}}},{"Relevance":1.0,"Distance":6.0,"MatchLevel":"houseNumber","MatchQuality":{"Country":1.0,"State":1.0,"County":1.0,"City":1.0,"Street":[1.0],"HouseNumber":1.0,"PostalCode":1.0},"MatchType":"interpolated","Location":{"LocationId":"NT_tQaP-ox0-NcdUl9BhLjmgD_1A","LocationType":"point","DisplayPosition":{"Latitude":40.94133,"Longitude":-5.2073},"MapView":{"TopLeft":{"Latitude":40.9424542,"Longitude":-5.2087882},"BottomRight":{"Latitude":40.9402058,"Longitude":-5.2058118}},"Address":{"Label":"Calle Concejo, 5, 37317 Aldeaseca de la Frontera (Salamanca), España","Country":"ESP","State":"Castilla y León","County":"Salamanca","City":"Aldeaseca de la Frontera","Street":"Calle Concejo","HouseNumber":"5","PostalCode":"37317","AdditionalData":[{"value":"España","key":"CountryName"},{"value":"Castilla y León","key":"StateName"},{"value":"Salamanca","key":"CountyName"}]},"MapReference":{"ReferenceId":"592998717","Spot":0.42,"SideOfStreet":"right","CountryId":"20215059","StateId":"20221909","CountyId":"20221914","CityId":"20308832","AddressId":"405447539","RoadLinkId":"69064056"}}},{"Relevance":1.0,"Distance":18.6,"MatchLevel":"houseNumber","MatchQuality":{"Country":1.0,"State":1.0,"County":1.0,"City":1.0,"Street":[1.0],"HouseNumber":1.0,"PostalCode":1.0},"MatchType":"interpolated","Location":{"LocationId":"NT_QdtRmOWc6ItWddsZW53gZD_xQD","LocationType":"point","DisplayPosition":{"Latitude":40.94107,"Longitude":-5.207},"MapView":{"TopLeft":{"Latitude":40.9421942,"Longitude":-5.2084882},"BottomRight":{"Latitude":40.9399458,"Longitude":-5.2055118}},"Address":{"Label":"Calle Dulzura, 14, 37317 Aldeaseca de la Frontera (Salamanca), España","Country":"ESP","State":"Castilla y León","County":"Salamanca","City":"Aldeaseca de la Frontera","Street":"Calle Dulzura","HouseNumber":"14","PostalCode":"37317","AdditionalData":[{"value":"España","key":"CountryName"},{"value":"Castilla y León","key":"StateName"},{"value":"Salamanca","key":"CountyName"}]},"MapReference":{"ReferenceId":"574791892","Spot":0.55,"SideOfStreet":"left","CountryId":"20215059","StateId":"20221909","CountyId":"20221914","CityId":"20308832","AddressId":"405513753","RoadLinkId":"68006897"}}},{"Relevance":1.0,"Distance":31.0,"MatchLevel":"houseNumber","MatchQuality":{"Country":1.0,"State":1.0,"County":1.0,"City":1.0,"Street":[1.0],"HouseNumber":1.0,"PostalCode":1.0},"MatchType":"interpolated","Location":{"LocationId":"NT_UUyjZVK7C64O3s9FgcuurA_zA","LocationType":"point","DisplayPosition":{"Latitude":40.94167,"Longitude":-5.20739},"MapView":{"TopLeft":{"Latitude":40.9427942,"Longitude":-5.2088782},"BottomRight":{"Latitude":40.9405458,"Longitude":-5.2059018}},"Address":{"Label":"Plaza Mayor, 3, 37317 Aldeaseca de la Frontera (Salamanca), España","Country":"ESP","State":"Castilla y León","County":"Salamanca","City":"Aldeaseca de la Frontera","Street":"Plaza Mayor","HouseNumber":"3","PostalCode":"37317","AdditionalData":[{"value":"España","key":"CountryName"},{"value":"Castilla y León","key":"StateName"},{"value":"Salamanca","key":"CountyName"}]},"MapReference":{"ReferenceId":"592998720","Spot":0.62,"SideOfStreet":"left","CountryId":"20215059","StateId":"20221909","CountyId":"20221914","CityId":"20308832","AddressId":"405454607","RoadLinkId":"68405406"}}},{"Relevance":1.0,"Distance":32.3,"MatchLevel":"street","MatchQuality":{"Country":1.0,"State":1.0,"County":1.0,"City":1.0,"Street":[1.0],"PostalCode":1.0},"Location":{"LocationId":"NT_HYoa3AL-Hrwb.rzCN8vJyB_l_571943463_R","LocationType":"point","DisplayPosition":{"Latitude":40.94114,"Longitude":-5.20764},"MapView":{"TopLeft":{"Latitude":40.9413,"Longitude":-5.20768},"BottomRight":{"Latitude":40.94114,"Longitude":-5.20764}},"Address":{"Label":"Calle Salamanca, 37317 Aldeaseca de la Frontera (Salamanca), España","Country":"ESP","State":"Castilla y León","County":"Salamanca","City":"Aldeaseca de la Frontera","Street":"Calle Salamanca","PostalCode":"37317","AdditionalData":[{"value":"España","key":"CountryName"},{"value":"Castilla y León","key":"StateName"},{"value":"Salamanca","key":"CountyName"}]},"MapReference":{"ReferenceId":"571943463","Spot":0.0,"SideOfStreet":"right","CountryId":"20215059","StateId":"20221909","CountyId":"20221914","CityId":"20308832"}}},{"Relevance":1.0,"Distance":32.8,"MatchLevel":"houseNumber","MatchQuality":{"Country":1.0,"State":1.0,"County":1.0,"City":1.0,"Street":[1.0],"HouseNumber":1.0,"PostalCode":1.0},"MatchType":"interpolated","Location":{"LocationId":"NT_HYoa3AL-Hrwb.rzCN8vJyB_xAD","LocationType":"point","DisplayPosition":{"Latitude":40.94107,"Longitude":-5.20761},"MapView":{"TopLeft":{"Latitude":40.9421942,"Longitude":-5.2090982},"BottomRight":{"Latitude":40.9399458,"Longitude":-5.2061218}},"Address":{"Label":"Calle Salamanca, 10, 37317 Aldeaseca de la Frontera (Salamanca), España","Country":"ESP","State":"Castilla y León","County":"Salamanca","City":"Aldeaseca de la Frontera","Street":"Calle Salamanca","HouseNumber":"10","PostalCode":"37317","AdditionalData":[{"value":"España","key":"CountryName"},{"value":"Castilla y León","key":"StateName"},{"value":"Salamanca","key":"CountyName"}]},"MapReference":{"ReferenceId":"927283619","Spot":0.62,"SideOfStreet":"left","CountryId":"20215059","StateId":"20221909","CountyId":"20221914","CityId":"20308832","AddressId":"405426587","RoadLinkId":"282684303"}}},{"Relevance":1.0,"Distance":34.0,"MatchLevel":"houseNumber","MatchQuality":{"Country":1.0,"State":1.0,"County":1.0,"City":1.0,"Street":[1.0],"HouseNumber":1.0,"PostalCode":1.0},"MatchType":"interpolated","Location":{"LocationId":"NT_HYoa3AL-Hrwb.rzCN8vJyB_l_571943459_R_xATM","LocationType":"point","DisplayPosition":{"Latitude":40.94143,"Longitude":-5.20768},"MapView":{"TopLeft":{"Latitude":40.9425542,"Longitude":-5.2091682},"BottomRight":{"Latitude":40.9403059,"Longitude":-5.2061918}},"Address":{"Label":"Calle Calzada, 101, 37317 Aldeaseca de la Frontera (Salamanca), España","Country":"ESP","State":"Castilla y León","County":"Salamanca","City":"Aldeaseca de la Frontera","Street":"Calle Calzada","HouseNumber":"101","PostalCode":"37317","AdditionalData":[{"value":"España","key":"CountryName"},{"value":"Castilla y León","key":"StateName"},{"value":"Salamanca","key":"CountyName"}]},"MapReference":{"ReferenceId":"571943459","Spot":0.44,"SideOfStreet":"right","CountryId":"20215059","StateId":"20221909","CountyId":"20221914","CityId":"20308832"}}},{"Relevance":1.0,"Distance":38.5,"MatchLevel":"street","MatchQuality":{"Country":1.0,"State":1.0,"County":1.0,"City":1.0,"Street":[1.0],"PostalCode":1.0},"Location":{"LocationId":"NT_PXkb8G1Hz49-ZYJ2GcUMsD_l_927283618_R","LocationType":"point","DisplayPosition":{"Latitude":40.94095,"Longitude":-5.20757},"MapView":{"TopLeft":{"Latitude":40.94095,"Longitude":-5.20757},"BottomRight":{"Latitude":40.94086,"Longitude":-5.20754}},"Address":{"Label":"Calle Salamanca, 37317 Aldeaseca de la Frontera (Salamanca), España","Country":"ESP","State":"Castilla y León","County":"Salamanca","City":"Aldeaseca de la Frontera","Street":"Calle Salamanca","PostalCode":"37317","AdditionalData":[{"value":"España","key":"CountryName"},{"value":"Castilla y León","key":"StateName"},{"value":"Salamanca","key":"CountyName"}]},"MapReference":{"ReferenceId":"927283618","Spot":1.0,"SideOfStreet":"right","CountryId":"20215059","StateId":"20221909","CountyId":"20221914","CityId":"20308832"}}},{"Relevance":1.0,"Distance":40.5,"MatchLevel":"houseNumber","MatchQuality":{"Country":1.0,"State":1.0,"County":1.0,"City":1.0,"Street":[1.0],"HouseNumber":1.0,"PostalCode":1.0},"MatchType":"interpolated","Location":{"LocationId":"NT_KJT6KsaDH5I269ZRqcFPcD_yED","LocationType":"point","DisplayPosition":{"Latitude":40.94116,"Longitude":-5.20782},"MapView":{"TopLeft":{"Latitude":40.9422842,"Longitude":-5.2093082},"BottomRight":{"Latitude":40.9400358,"Longitude":-5.2063318}},"Address":{"Label":"Calle La Posada, 21, 37317 Aldeaseca de la Frontera (Salamanca), España","Country":"ESP","State":"Castilla y León","County":"Salamanca","City":"Aldeaseca de la Frontera","Street":"Calle La Posada","HouseNumber":"21","PostalCode":"37317","AdditionalData":[{"value":"España","key":"CountryName"},{"value":"Castilla y León","key":"StateName"},{"value":"Salamanca","key":"CountyName"}]},"MapReference":{"ReferenceId":"592998677","Spot":0.58,"SideOfStreet":"right","CountryId":"20215059","StateId":"20221909","CountyId":"20221914","CityId":"20308832","AddressId":"405416452","RoadLinkId":"68978768"}}},{"Relevance":1.0,"Distance":44.1,"MatchLevel":"houseNumber","MatchQuality":{"Country":1.0,"State":1.0,"County":1.0,"City":1.0,"Street":[1.0],"HouseNumber":1.0,"PostalCode":1.0},"MatchType":"interpolated","Location":{"LocationId":"NT_HYoa3AL-Hrwb.rzCN8vJyB_xA","LocationType":"point","DisplayPosition":{"Latitude":40.94081,"Longitude":-5.20752},"MapView":{"TopLeft":{"Latitude":40.9419342,"Longitude":-5.2090082},"BottomRight":{"Latitude":40.9396858,"Longitude":-5.2060318}},"Address":{"Label":"Calle Salamanca, 1, 37317 Aldeaseca de la Frontera (Salamanca), España","Country":"ESP","State":"Castilla y León","County":"Salamanca","City":"Aldeaseca de la Frontera","Street":"Calle Salamanca","HouseNumber":"1","PostalCode":"37317","AdditionalData":[{"value":"España","key":"CountryName"},{"value":"Castilla y León","key":"StateName"},{"value":"Salamanca","key":"CountyName"}]},"MapReference":{"ReferenceId":"571943461","Spot":0.91,"SideOfStreet":"right","CountryId":"20215059","StateId":"20221909","CountyId":"20221914","CityId":"20308832","AddressId":"405543450","RoadLinkId":"68138530"}}}]}]}}