{"Response":{"MetaInfo":{"Timestamp":"2020-03-28T09:41:35.147+0000","NextPageInformation":"2"},"View":[{"_type":"SearchResultsViewType","ViewId":0,"Result":[{"Relevance":1.0,"Distance":0.0,"Direction":0.0,"MatchLevel":"district","MatchQuality":{"Country":1.0,"State":1.0,"County":1.0,"City":1.0,"District":1.0,"PostalCode":1.0},"Location":{"LocationId":"NT_FxHkmWtNJfkNcedUctitqB","LocationType":"point","DisplayPosition":{"Latitude":40.951344,"Longitude":-5.6634474},"MapView":{"TopLeft":{"Latitude":40.95768,"Longitude":-5.67136},"BottomRight":{"Latitude":40.95041,"Longitude":-5.66098}},"Address":{"Label":"Tormes, Salamanca, Castilla y León, España","Country":"ESP","State":"Castilla y León","County":"Salamanca","City":"Salamanca","District":"Tormes","PostalCode":"37008","AdditionalData":[{"value":"España","key":"CountryName"},{"value":"Castilla y León","key":"StateName"},{"value":"Salamanca","key":"CountyName"}]},"MapReference":{"ReferenceId":"821165546","SideOfStreet":"neither","CountryId":"20215059","StateId":"20221909","CountyId":"20221914","CityId":"20310051"}}},{"Relevance":1.0,"Distance":9.2,"MatchLevel":"street","MatchQuality":{"Country":1.0,"State":1.0,"County":1.0,"City":1.0,"District":1.0,"Street":[1.0],"PostalCode":1.0},"Location":{"LocationId":"NT_8nYPWQMBBxjTxyFnhs6nUB_l_1004644889_L","LocationType":"point","DisplayPosition":{"Latitude":40.9512722,"Longitude":-5.6633922},"MapView":{"TopLeft":{"Latitude":40.95132,"Longitude":-5.66346},"BottomRight":{"Latitude":40.95122,"Longitude":-5.66333}},"Address":{"Label":"Calle Bartolomé de Escobedo, 37008 Salamanca (Salamanca), España","Country":"ESP","State":"Castilla y León","County":"Salamanca","City":"Salamanca","District":"Tormes","Street":"Calle Bartolomé de Escobedo","PostalCode":"37008","AdditionalData":[{"value":"España","key":"CountryName"},{"value":"Castilla y León","key":"StateName"},{"value":"Salamanca","key":"CountyName"}]},"MapReference":{"ReferenceId":"1004644889","Spot":0.52,"SideOfStreet":"left","CountryId":"20215059","StateId":"20221909","CountyId":"20221914","CityId":"20310051"}}},{"Relevance":1.0,"Distance":10.2,"MatchLevel":"street","MatchQuality":{"Country":1.0,"State":1.0,"County":1.0,"City":1.0,"District":1.0,"Street":[1.0],"PostalCode":1.0},"Location":{"LocationId":"NT_8nYPWQMBBxjTxyFnhs6nUB_l_821165528_L","LocationType":"point","DisplayPosition":{"Latitude":40.95132,"Longitude":-5.66333},"MapView":{"TopLeft":{"Latitude":40.95146,"Longitude":-5.66333},"BottomRight":{"Latitude":40.95132,"Longitude":-5.66317}},"Address":{"Label":"Calle Bartolomé de Escobedo, 37008 Salamanca (Salamanca), España","Country":"ESP","State":"Castilla y León","County":"Salamanca","City":"Salamanca","District":"Tormes","Street":"Calle Bartolomé de Escobedo","PostalCode":"37008","AdditionalData":[{"value":"España","key":"CountryName"},{"value":"Castilla y León","key":"StateName"},{"value":"Salamanca","key":"CountyName"}]},"MapReference":{"ReferenceId":"821165528","Spot":0.0,"SideOfStreet":"left","CountryId":"20215059","StateId":"20221909","CountyId":"20221914","CityId":"20310051"}}},{"Relevance":1.0,"Distance":10.2,"MatchLevel":"street","MatchQuality":{"Country":1.0,"State":1.0,"County":1.0,"City":1.0,"District":1.0,"Street":[1.0],"PostalCode":1.0},"Location":{"LocationId":"NT_TNV5Jt6-P-2d9gPh6i1nkC_l_821165530_L","LocationType":"point","DisplayPosition":{"Latitude":40.95132,"Longitude":-5.66333},"MapView":{"TopLeft":{"Latitude":40.95132,"Longitude":-5.66333},"BottomRight":{"Latitude":40.95122,"Longitude":-5.66318}},"Address":{"Label":"Calle Bartolomé de Escobedo, 37008 Salamanca (Salamanca), España","Country":"ESP","State":"Castilla y León","County":"Salamanca","City":"Salamanca","District":"San José","Street":"Calle Bartolomé de Escobedo","PostalCode":"37008","AdditionalData":[{"value":"España","key":"CountryName"},{"value":"Castilla y León","key":"StateName"},{"value":"Salamanca","key":"CountyName"}]},"MapReference":{"ReferenceId":"821165530","Spot":1.0,"SideOfStreet":"left","CountryId":"20215059","StateId":"20221909","CountyId":"20221914","CityId":"20310051"}}},{"Relevance":1.0,"Distance":13.8,"MatchLevel":"street","MatchQuality":{"Country":1.0,"State":1.0,"County":1.0,"City":1.0,"District":1.0,"PostalCode":1.0},"Location":{"LocationId":"NT_mlmUtc8bFcRFSzpB8Bz9sC_l_1004644892_R","LocationType":"point","DisplayPosition":{"Latitude":40.95122,"Longitude":-5.66346},"MapView":{"TopLeft":{"Latitude":40.95122,"Longitude":-5.66346},"BottomRight":{"Latitude":40.95112,"Longitude":-5.66331}},"Address":{"Label":"37008 Salamanca (Salamanca), España","Country":"ESP","State":"Castilla y León","County":"Salamanca","City":"Salamanca","District":"San José","PostalCode":"37008","AdditionalData":[{"value":"España","key":"CountryName"},{"value":"Castilla y León","key":"StateName"},{"value":"Salamanca","key":"CountyName"}]},"MapReference":{"ReferenceId":"1004644892","Spot":1.0,"SideOfStreet":"right","CountryId":"20215059","StateId":"20221909","CountyId":"20221914","CityId":"20310051"}}},{"Relevance":1.0,"Distance":20.2,"MatchLevel":"houseNumber","MatchQuality":{"Country":1.0,"State":1.0,"County":1.0,"City":1.0,"District":1.0,"Street":[1.0],"HouseNumber":1.0,"PostalCode":1.0},"MatchType":"interpolated","Location":{"LocationId":"NT_8nYPWQMBBxjTxyFnhs6nUB_l_1004644888_L_yA","LocationType":"point","DisplayPosition":{"Latitude":40.9511382,"Longitude":-5.6635706},"MapView":{"TopLeft":{"Latitude":40.9522624,"Longitude":-5.665059},"BottomRight":{"Latitude":40.9500141,"Longitude":-5.6620822}},"Address":{"Label":"Calle Bartolomé de Escobedo, 2, 37008 Salamanca (Salamanca), España","Country":"ESP","State":"Castilla y León","County":"Salamanca","City":"Salamanca","District":"Tormes","Street":"Calle Bartolomé de Escobedo","HouseNumber":"2","PostalCode":"37008","AdditionalData":[{"value":"España","key":"CountryName"},{"value":"Castilla y León","key":"StateName"},{"value":"Salamanca","key":"CountyName"}]},"MapReference":{"ReferenceId":"1004644888","Spot":0.52,"SideOfStreet":"left","CountryId":"20215059","StateId":"20221909","CountyId":"20221914","CityId":"20310051"}}},{"Relevance":1.0,"Distance":26.4,"MatchLevel":"street","MatchQuality":{"Country":1.0,"State":1.0,"County":1.0,"City":1.0,"District":1.0,"Street":[1.0],"PostalCode":1.0},"Location":{"LocationId":"NT_TNV5Jt6-P-2d9gPh6i1nkC_l_1004644903_L","LocationType":"point","DisplayPosition":{"Latitude":40.95122,"Longitude":-5.66318},"MapView":{"TopLeft":{"Latitude":40.95135,"Longitude":-5.66318},"BottomRight":{"Latitude":40.95122,"Longitude":-5.66301}},"Address":{"Label":"Calle Bartolomé de Escobedo, 37008 Salamanca (Salamanca), España","Country":"ESP","State":"Castilla y León","County":"Salamanca","City":"Salamanca","District":"San José","Street":"Calle Bartolomé de Escobedo","PostalCode":"37008","AdditionalData":[{"value":"España","key":"CountryName"},{"value":"Castilla y León","key":"StateName"},{"value":"Salamanca","key":"CountyName"}]},"MapReference":{"ReferenceId":"1004644903","Spot":0.0,"SideOfStreet":"left","CountryId":"20215059","StateId":"20221909","CountyId":"20221914","CityId":"20310051"}}},{"Relevance":1.0,"Distance":26.6,"MatchLevel":"street","MatchQuality":{"Country":1.0,"State":1.0,"County":1.0,"City":1.0,"District":1.0,"Street":[1.0],"PostalCode":1.0},"Location":{"LocationId":"NT_TNV5Jt6-P-2d9gPh6i1nkC_l_1004644904_L","LocationType":"point","DisplayPosition":{"Latitude":40.95146,"Longitude":-5.66317},"MapView":{"TopLeft":{"Latitude":40.95146,"Longitude":-5.66317},"BottomRight":{"Latitude":40.95135,"Longitude":-5.66301}},"Address":{"Label":"Calle Bartolomé de Escobedo, 37008 Salamanca (Salamanca), España","Country":"ESP","State":"Castilla y León","County":"Salamanca","City":"Salamanca","District":"San José","Street":"Calle Bartolomé de Escobedo","PostalCode":"37008","AdditionalData":[{"value":"España","key":"CountryName"},{"value":"Castilla y León","key":"StateName"},{"value":"Salamanca","key":"CountyName"}]},"MapReference":{"ReferenceId":"1004644904","Spot":1.0,"SideOfStreet":"left","CountryId":"20215059","StateId":"20221909","CountyId":"20221914","CityId":"20310051"}}},{"Relevance":1.0,"Distance":26.6,"MatchLevel":"street","MatchQuality":{"Country":1.0,"State":1.0,"County":1.0,"City":1.0,"District":1.0,"Street":[1.0],"PostalCode":1.0},"Location":{"LocationId":"NT_8nYPWQMBBxjTxyFnhs6nUB_l_821165529_L","LocationType":"point","DisplayPosition":{"Latitude":40.95146,"Longitude":-5.66317},"MapView":{"TopLeft":{"Latitude":40.95157,"Longitude":-5.66317},"BottomRight":{"Latitude":40.95146,"Longitude":-5.663}},"Address":{"Label":"Calle Bartolomé de Escobedo, 37008 Salamanca (Salamanca), España","Country":"ESP","State":"Castilla y León","County":"Salamanca","City":"Salamanca","District":"Tormes","Street":"Calle Bartolomé de Escobedo","PostalCode":"37008","AdditionalData":[{"value":"España","key":"CountryName"},{"value":"Castilla y León","key":"StateName"},{"value":"Salamanca","key":"CountyName"}]},"MapReference":{"ReferenceId":"821165529","Spot":0.0,"SideOfStreet":"left","CountryId":"20215059","StateId":"20221909","CountyId":"20221914","CityId":"20310051"}}},{"Relevance":1.0,"Distance":26.6,"MatchLevel":"street","MatchQuality":{"Country":1.0,"State":1.0,"County":1.0,"City":1.0,"District":1.0,"Street":[1.0],"PostalCode":1.0},"Location":{"LocationId":"NT_TNV5Jt6-P-2d9gPh6i1nkC_l_1004644891_L","LocationType":"point","DisplayPosition":{"Latitude":40.9511369,"Longitude":-5.6632881},"MapView":{"TopLeft":{"Latitude":40.95122,"Longitude":-5.66331},"BottomRight":{"Latitude":40.95112,"Longitude":-5.66318}},"Address":{"Label":"Calle Bartolomé de Escobedo, 37008 Salamanca (Salamanca), España","Country":"ESP","State":"Castilla y León","County":"Salamanca","City":"Salamanca","District":"San José","Street":"Calle Bartolomé de Escobedo","PostalCode":"37008","AdditionalData":[{"value":"España","key":"CountryName"},{"value":"Castilla y León","key":"StateName"},{"value":"Salamanca","key":"CountyName"}]},"MapReference":{"ReferenceId":"1004644891","Spot":0.17,"SideOfStreet":"left","CountryId":"20215059","StateId":"20221909","CountyId":"20221914","CityId":"20310051"}}}]}]}}