{"Response":{"MetaInfo":{"Timestamp":"2020-03-28T11:21:13.722+0000","NextPageInformation":"2"},"View":[{"_type":"SearchResultsViewType","ViewId":0,"Result":[{"Relevance":1.0,"Distance":0.0,"Direction":0.0,"MatchLevel":"district","MatchQuality":{"Country":1.0,"State":1.0,"County":1.0,"City":1.0,"District":1.0,"PostalCode":1.0},"Location":{"LocationId":"NT_KCwlPa0G-4legQaTp60oeD","LocationType":"point","DisplayPosition":{"Latitude":40.9823746,"Longitude":24.7037538},"MapView":{"TopLeft":{"Latitude":40.99629,"Longitude":24.68421},"BottomRight":{"Latitude":40.97866,"Longitude":24.7199}},"Address":{"Label":"Χρυσούπολη, Ανατολική Μακεδονία Θράκη, Ελληνικη Δημοκρατια","Country":"GRC","State":"Ανατολική Μακεδονία Θράκη","County":"Καβάλα","City":"Χρυσούπολη","District":"Χρυσούπολη","PostalCode":"642 00","AdditionalData":[{"value":"Ελληνικη Δημοκρατια","key":"CountryName"},{"value":"Ανατολική Μακεδονία Θράκη","key":"StateName"},{"value":"Καβάλα","key":"CountyName"}]},"MapReference":{"ReferenceId":"1195936947","SideOfStreet":"neither","CountryId":"20448870","StateId":"20653299","CountyId":"20653329","CityId":"20667073","DistrictId":"23008368"}}},{"Relevance":1.0,"Distance":9.1,"MatchLevel":"houseNumber","MatchQuality":{"Country":1.0,"State":1.0,"County":1.0,"City":1.0,"District":1.0,"Street":[1.0],"HouseNumber":1.0,"PostalCode":1.0},"MatchType":"interpolated","Location":{"LocationId":"NT_LRzoF1F36tRmNxHGfugP3D_l_781636617_L_yAD","LocationType":"point","DisplayPosition":{"Latitude":40.98243,"Longitude":24.7036734},"MapView":{"TopLeft":{"Latitude":40.9835542,"Longitude":24.7021842},"BottomRight":{"Latitude":40.9813059,"Longitude":24.7051625}},"Address":{"Label":"20 7ης Μεραρχίας, 642 00 Χρυσούπολη, Ελληνικη Δημοκρατια","Country":"GRC","State":"Ανατολική Μακεδονία Θράκη","County":"Καβάλα","City":"Χρυσούπολη","District":"Χρυσούπολη","Street":"7ης Μεραρχίας","HouseNumber":"20","PostalCode":"642 00","AdditionalData":[{"value":"Ελληνικη Δημοκρατια","key":"CountryName"},{"value":"Ανατολική Μακεδονία Θράκη","key":"StateName"},{"value":"Καβάλα","key":"CountyName"}]},"MapReference":{"ReferenceId":"781636617","Spot":0.38,"SideOfStreet":"left","CountryId":"20448870","StateId":"20653299","CountyId":"20653329","CityId":"20667073","DistrictId":"23008368"}}},{"Relevance":1.0,"Distance":21.8,"MatchLevel":"street","MatchQuality":{"Country":1.0,"State":1.0,"County":1.0,"City":1.0,"District":1.0,"PostalCode":1.0},"Location":{"LocationId":"NT_7Q5LsVgEfSCiy.SIN3xpAD_l_1196161721_L","LocationType":"point","DisplayPosition":{"Latitude":40.98219,"Longitude":24.70384},"MapView":{"TopLeft":{"Latitude":40.98219,"Longitude":24.70366},"BottomRight":{"Latitude":40.98201,"Longitude":24.70384}},"Address":{"Label":"642 00 Χρυσούπολη, Ελληνικη Δημοκρατια","Country":"GRC","State":"Ανατολική Μακεδονία Θράκη","County":"Καβάλα","City":"Χρυσούπολη","District":"Χρυσούπολη","PostalCode":"642 00","AdditionalData":[{"value":"Ελληνικη Δημοκρατια","key":"CountryName"},{"value":"Ανατολική Μακεδονία Θράκη","key":"StateName"},{"value":"Καβάλα","key":"CountyName"}]},"MapReference":{"ReferenceId":"1196161721","Spot":1.0,"SideOfStreet":"left","CountryId":"20448870","StateId":"20653299","CountyId":"20653329","CityId":"20667073","DistrictId":"23008368"}}},{"Relevance":1.0,"Distance":26.0,"MatchLevel":"houseNumber","MatchQuality":{"Country":1.0,"State":1.0,"County":1.0,"City":1.0,"District":1.0,"Street":[1.0],"HouseNumber":1.0,"PostalCode":1.0},"MatchType":"interpolated","Location":{"LocationId":"NT_AG9Nn8Fhy5AqcjahKDZeeB_l_1195874387_R_5A","LocationType":"point","DisplayPosition":{"Latitude":40.9822165,"Longitude":24.7033197},"MapView":{"TopLeft":{"Latitude":40.9833407,"Longitude":24.7018306},"BottomRight":{"Latitude":40.9810924,"Longitude":24.7048088}},"Address":{"Label":"9 Σκρα, 642 00 Χρυσούπολη, Ελληνικη Δημοκρατια","Country":"GRC","State":"Ανατολική Μακεδονία Θράκη","County":"Καβάλα","City":"Χρυσούπολη","District":"Χρυσούπολη","Street":"Σκρα","HouseNumber":"9","PostalCode":"642 00","AdditionalData":[{"value":"Ελληνικη Δημοκρατια","key":"CountryName"},{"value":"Ανατολική Μακεδονία Θράκη","key":"StateName"},{"value":"Καβάλα","key":"CountyName"}]},"MapReference":{"ReferenceId":"1195874387","Spot":0.51,"SideOfStreet":"right","CountryId":"20448870","StateId":"20653299","CountyId":"20653329","CityId":"20667073","DistrictId":"23008368"}}},{"Relevance":1.0,"Distance":26.9,"MatchLevel":"houseNumber","MatchQuality":{"Country":1.0,"State":1.0,"County":1.0,"City":1.0,"District":1.0,"Street":[1.0],"HouseNumber":1.0,"PostalCode":1.0},"MatchType":"interpolated","Location":{"LocationId":"NT_AG9Nn8Fhy5AqcjahKDZeeB_l_1195874388_R_3A","LocationType":"point","DisplayPosition":{"Latitude":40.9824,"Longitude":24.7033},"MapView":{"TopLeft":{"Latitude":40.9835242,"Longitude":24.7018109},"BottomRight":{"Latitude":40.9812759,"Longitude":24.7047891}},"Address":{"Label":"7 Σκρα, 642 00 Χρυσούπολη, Ελληνικη Δημοκρατια","Country":"GRC","State":"Ανατολική Μακεδονία Θράκη","County":"Καβάλα","City":"Χρυσούπολη","District":"Χρυσούπολη","Street":"Σκρα","HouseNumber":"7","PostalCode":"642 00","AdditionalData":[{"value":"Ελληνικη Δημοκρατια","key":"CountryName"},{"value":"Ανατολική Μακεδονία Θράκη","key":"StateName"},{"value":"Καβάλα","key":"CountyName"}]},"MapReference":{"ReferenceId":"1195874388","Spot":0.11,"SideOfStreet":"right","CountryId":"20448870","StateId":"20653299","CountyId":"20653329","CityId":"20667073","DistrictId":"23008368"}}},{"Relevance":1.0,"Distance":29.1,"MatchLevel":"houseNumber","MatchQuality":{"Country":1.0,"State":1.0,"County":1.0,"City":1.0,"District":1.0,"Street":[1.0],"HouseNumber":1.0,"PostalCode":1.0},"MatchType":"interpolated","Location":{"LocationId":"NT_vNjCNb73arL7uc-6tWLaEC_l_1196161719_R_xID","LocationType":"point","DisplayPosition":{"Latitude":40.9819961,"Longitude":24.7038654},"MapView":{"TopLeft":{"Latitude":40.9831202,"Longitude":24.7023762},"BottomRight":{"Latitude":40.9808719,"Longitude":24.7053545}},"Address":{"Label":"12 Κύπρου, 642 00 Χρυσούπολη, Ελληνικη Δημοκρατια","Country":"GRC","State":"Ανατολική Μακεδονία Θράκη","County":"Καβάλα","City":"Χρυσούπολη","District":"Χρυσούπολη","Street":"Κύπρου","HouseNumber":"12","PostalCode":"642 00","AdditionalData":[{"value":"Ελληνικη Δημοκρατια","key":"CountryName"},{"value":"Ανατολική Μακεδονία Θράκη","key":"StateName"},{"value":"Καβάλα","key":"CountyName"}]},"MapReference":{"ReferenceId":"1196161719","Spot":0.53,"SideOfStreet":"right","CountryId":"20448870","StateId":"20653299","CountyId":"20653329","CityId":"20667073","DistrictId":"23008368"}}},{"Relevance":1.0,"Distance":39.7,"MatchLevel":"street","MatchQuality":{"Country":1.0,"State":1.0,"County":1.0,"City":1.0,"District":1.0,"PostalCode":1.0},"Location":{"LocationId":"NT_7Q5LsVgEfSCiy.SIN3xpAD_l_1195874389_R","LocationType":"point","DisplayPosition":{"Latitude":40.98213,"Longitude":24.70341},"MapView":{"TopLeft":{"Latitude":40.98216,"Longitude":24.70333},"BottomRight":{"Latitude":40.98211,"Longitude":24.70342}},"Address":{"Label":"642 00 Χρυσούπολη, Ελληνικη Δημοκρατια","Country":"GRC","State":"Ανατολική Μακεδονία Θράκη","County":"Καβάλα","City":"Χρυσούπολη","District":"Χρυσούπολη","PostalCode":"642 00","AdditionalData":[{"value":"Ελληνικη Δημοκρατια","key":"CountryName"},{"value":"Ανατολική Μακεδονία Θράκη","key":"StateName"},{"value":"Καβάλα","key":"CountyName"}]},"MapReference":{"ReferenceId":"1195874389","Spot":0.2,"SideOfStreet":"right","CountryId":"20448870","StateId":"20653299","CountyId":"20653329","CityId":"20667073","DistrictId":"23008368"}}},{"Relevance":1.0,"Distance":40.6,"MatchLevel":"street","MatchQuality":{"Country":1.0,"State":1.0,"County":1.0,"City":1.0,"District":1.0,"PostalCode":1.0},"Location":{"LocationId":"NT_7Q5LsVgEfSCiy.SIN3xpAD_l_818729607_R","LocationType":"point","DisplayPosition":{"Latitude":40.98211,"Longitude":24.70342},"MapView":{"TopLeft":{"Latitude":40.98211,"Longitude":24.70336},"BottomRight":{"Latitude":40.98204,"Longitude":24.70342}},"Address":{"Label":"642 00 Χρυσούπολη, Ελληνικη Δημοκρατια","Country":"GRC","State":"Ανατολική Μακεδονία Θράκη","County":"Καβάλα","City":"Χρυσούπολη","District":"Χρυσούπολη","PostalCode":"642 00","AdditionalData":[{"value":"Ελληνικη Δημοκρατια","key":"CountryName"},{"value":"Ανατολική Μακεδονία Θράκη","key":"StateName"},{"value":"Καβάλα","key":"CountyName"}]},"MapReference":{"ReferenceId":"818729607","Spot":1.0,"SideOfStreet":"right","CountryId":"20448870","StateId":"20653299","CountyId":"20653329","CityId":"20667073","DistrictId":"23008368"}}},{"Relevance":1.0,"Distance":41.7,"MatchLevel":"houseNumber","MatchQuality":{"Country":1.0,"State":1.0,"County":1.0,"City":1.0,"District":1.0,"Street":[1.0],"HouseNumber":1.0,"PostalCode":1.0},"MatchType":"interpolated","Location":{"LocationId":"NT_vNjCNb73arL7uc-6tWLaEC_l_1196161720_R_ycD","LocationType":"point","DisplayPosition":{"Latitude":40.98201,"Longitude":24.7036362},"MapView":{"TopLeft":{"Latitude":40.9831342,"Longitude":24.7021471},"BottomRight":{"Latitude":40.9808858,"Longitude":24.7051253}},"Address":{"Label":"27 Κύπρου, 642 00 Χρυσούπολη, Ελληνικη Δημοκρατια","Country":"GRC","State":"Ανατολική Μακεδονία Θράκη","County":"Καβάλα","City":"Χρυσούπολη","District":"Χρυσούπολη","Street":"Κύπρου","HouseNumber":"27","PostalCode":"642 00","AdditionalData":[{"value":"Ελληνικη Δημοκρατια","key":"CountryName"},{"value":"Ανατολική Μακεδονία Θράκη","key":"StateName"},{"value":"Καβάλα","key":"CountyName"}]},"MapReference":{"ReferenceId":"1196161720","Spot":0.66,"SideOfStreet":"right","CountryId":"20448870","StateId":"20653299","CountyId":"20653329","CityId":"20667073","DistrictId":"23008368"}}},{"Relevance":1.0,"Distance":42.0,"MatchLevel":"street","MatchQuality":{"Country":1.0,"State":1.0,"County":1.0,"City":1.0,"District":1.0,"Street":[1.0],"PostalCode":1.0},"Location":{"LocationId":"NT_vNjCNb73arL7uc-6tWLaEC_l_818729614_R","LocationType":"point","DisplayPosition":{"Latitude":40.9820265,"Longitude":24.7035604},"MapView":{"TopLeft":{"Latitude":40.98211,"Longitude":24.70342},"BottomRight":{"Latitude":40.98201,"Longitude":24.70359}},"Address":{"Label":"Κύπρου, 642 00 Χρυσούπολη, Ελληνικη Δημοκρατια","Country":"GRC","State":"Ανατολική Μακεδονία Θράκη","County":"Καβάλα","City":"Χρυσούπολη","District":"Χρυσούπολη","Street":"Κύπρου","PostalCode":"642 00","AdditionalData":[{"value":"Ελληνικη Δημοκρατια","key":"CountryName"},{"value":"Ανατολική Μακεδονία Θράκη","key":"StateName"},{"value":"Καβάλα","key":"CountyName"}]},"MapReference":{"ReferenceId":"818729614","Spot":0.17,"SideOfStreet":"right","CountryId":"20448870","StateId":"20653299","CountyId":"20653329","CityId":"20667073","DistrictId":"23008368"}}}]}]}}