{"Response":{"MetaInfo":{"Timestamp":"2020-03-28T09:53:59.910+0000","NextPageInformation":"2"},"View":[{"_type":"SearchResultsViewType","ViewId":0,"Result":[{"Relevance":1.0,"Distance":0.0,"Direction":0.0,"MatchLevel":"district","MatchQuality":{"Country":1.0,"State":1.0,"County":1.0,"City":1.0,"District":1.0,"PostalCode":1.0},"Location":{"LocationId":"NT_Y.valyzjamE4.tY-DXXrwA","LocationType":"point","DisplayPosition":{"Latitude":40.9362803,"Longitude":24.4071456},"MapView":{"TopLeft":{"Latitude":40.95592,"Longitude":24.37325},"BottomRight":{"Latitude":40.91821,"Longitude":24.44459}},"Address":{"Label":"Καβάλα, Ανατολική Μακεδονία Θράκη, Ελληνικη Δημοκρατια","Country":"GRC","State":"Ανατολική Μακεδονία Θράκη","County":"Καβάλα","City":"Καβάλα","District":"Καβάλα","PostalCode":"652 01","AdditionalData":[{"value":"Ελληνικη Δημοκρατια","key":"CountryName"},{"value":"Ανατολική Μακεδονία Θράκη","key":"StateName"},{"value":"Καβάλα","key":"CountyName"}]},"MapReference":{"ReferenceId":"1166899925","SideOfStreet":"neither","CountryId":"20448870","StateId":"20653299","CountyId":"20653329","CityId":"20653354","DistrictId":"20678277"}}},{"Relevance":1.0,"Distance":6.4,"MatchLevel":"houseNumber","MatchQuality":{"Country":1.0,"State":1.0,"County":1.0,"City":1.0,"District":1.0,"Street":[1.0],"HouseNumber":1.0,"PostalCode":1.0},"MatchType":"interpolated","Location":{"LocationId":"NT_3wcu19zPkUJ9q-qROxxS3C_5A","LocationType":"point","DisplayPosition":{"Latitude":40.93639,"Longitude":24.40719},"MapView":{"TopLeft":{"Latitude":40.9375142,"Longitude":24.4057019},"BottomRight":{"Latitude":40.9352658,"Longitude":24.4086781}},"Address":{"Label":"9 Ερυθρού Σταυρού, 654 03 Καβάλα, Ελληνικη Δημοκρατια","Country":"GRC","State":"Ανατολική Μακεδονία Θράκη","County":"Καβάλα","City":"Καβάλα","District":"Καβάλα","Street":"Ερυθρού Σταυρού","HouseNumber":"9","PostalCode":"654 03","AdditionalData":[{"value":"Ελληνικη Δημοκρατια","key":"CountryName"},{"value":"Ανατολική Μακεδονία Θράκη","key":"StateName"},{"value":"Καβάλα","key":"CountyName"}]},"MapReference":{"ReferenceId":"735260547","Spot":0.2,"SideOfStreet":"right","CountryId":"20448870","StateId":"20653299","CountyId":"20653329","CityId":"20653354","DistrictId":"20678277","AddressId":"763055185","RoadLinkId":"135595184"}}},{"Relevance":1.0,"Distance":13.9,"MatchLevel":"houseNumber","MatchQuality":{"Country":1.0,"State":1.0,"County":1.0,"City":1.0,"District":1.0,"Street":[1.0],"HouseNumber":1.0,"PostalCode":1.0},"MatchType":"interpolated","Location":{"LocationId":"NT_F-QN2REN5Hx6cbFgN3I-pA_4A","LocationType":"point","DisplayPosition":{"Latitude":40.93622,"Longitude":24.407},"MapView":{"TopLeft":{"Latitude":40.9373442,"Longitude":24.4055119},"BottomRight":{"Latitude":40.9350958,"Longitude":24.4084881}},"Address":{"Label":"8 Μητροπολίτου Προκοπίου, 654 03 Καβάλα, Ελληνικη Δημοκρατια","Country":"GRC","State":"Ανατολική Μακεδονία Θράκη","County":"Καβάλα","City":"Καβάλα","District":"Καβάλα","Street":"Μητροπολίτου Προκοπίου","HouseNumber":"8","PostalCode":"654 03","AdditionalData":[{"value":"Ελληνικη Δημοκρατια","key":"CountryName"},{"value":"Ανατολική Μακεδονία Θράκη","key":"StateName"},{"value":"Καβάλα","key":"CountyName"}]},"MapReference":{"ReferenceId":"735624991","Spot":0.7,"SideOfStreet":"left","CountryId":"20448870","StateId":"20653299","CountyId":"20653329","CityId":"20653354","DistrictId":"20678277","AddressId":"763571914","RoadLinkId":"135516755"}}},{"Relevance":1.0,"Distance":20.3,"MatchLevel":"houseNumber","MatchQuality":{"Country":1.0,"State":1.0,"County":1.0,"City":1.0,"District":1.0,"Street":[1.0],"HouseNumber":1.0,"PostalCode":1.0},"MatchType":"interpolated","Location":{"LocationId":"NT_3wcu19zPkUJ9q-qROxxS3C_xYD","LocationType":"point","DisplayPosition":{"Latitude":40.93646,"Longitude":24.40719},"MapView":{"TopLeft":{"Latitude":40.9375842,"Longitude":24.4057019},"BottomRight":{"Latitude":40.9353358,"Longitude":24.4086781}},"Address":{"Label":"16 Ερυθρού Σταυρού, 654 03 Καβάλα, Ελληνικη Δημοκρατια","Country":"GRC","State":"Ανατολική Μακεδονία Θράκη","County":"Καβάλα","City":"Καβάλα","District":"Καβάλα","Street":"Ερυθρού Σταυρού","HouseNumber":"16","PostalCode":"654 03","AdditionalData":[{"value":"Ελληνικη Δημοκρατια","key":"CountryName"},{"value":"Ανατολική Μακεδονία Θράκη","key":"StateName"},{"value":"Καβάλα","key":"CountyName"}]},"MapReference":{"ReferenceId":"735260357","Spot":0.23,"SideOfStreet":"left","CountryId":"20448870","StateId":"20653299","CountyId":"20653329","CityId":"20653354","DistrictId":"20678277","AddressId":"763293410","RoadLinkId":"135260533"}}},{"Relevance":1.0,"Distance":27.8,"MatchLevel":"houseNumber","MatchQuality":{"Country":1.0,"State":1.0,"County":1.0,"City":1.0,"District":1.0,"Street":[1.0],"HouseNumber":1.0,"PostalCode":1.0},"MatchType":"interpolated","Location":{"LocationId":"NT_3wcu19zPkUJ9q-qROxxS3C_xgD","LocationType":"point","DisplayPosition":{"Latitude":40.93643,"Longitude":24.40688},"MapView":{"TopLeft":{"Latitude":40.9375542,"Longitude":24.4053919},"BottomRight":{"Latitude":40.9353058,"Longitude":24.4083681}},"Address":{"Label":"18 Ερυθρού Σταυρού, 654 03 Καβάλα, Ελληνικη Δημοκρατια","Country":"GRC","State":"Ανατολική Μακεδονία Θράκη","County":"Καβάλα","City":"Καβάλα","District":"Καβάλα","Street":"Ερυθρού Σταυρού","HouseNumber":"18","PostalCode":"654 03","AdditionalData":[{"value":"Ελληνικη Δημοκρατια","key":"CountryName"},{"value":"Ανατολική Μακεδονία Θράκη","key":"StateName"},{"value":"Καβάλα","key":"CountyName"}]},"MapReference":{"ReferenceId":"735260605","Spot":0.91,"SideOfStreet":"left","CountryId":"20448870","StateId":"20653299","CountyId":"20653329","CityId":"20653354","DistrictId":"20678277","AddressId":"762751385","RoadLinkId":"135260779"}}},{"Relevance":1.0,"Distance":45.8,"MatchLevel":"houseNumber","MatchQuality":{"Country":1.0,"State":1.0,"County":1.0,"City":1.0,"District":1.0,"Street":[1.0],"HouseNumber":1.0,"PostalCode":1.0},"MatchType":"interpolated","Location":{"LocationId":"NT_3wcu19zPkUJ9q-qROxxS3C_xED","LocationType":"point","DisplayPosition":{"Latitude":40.93634,"Longitude":24.40659},"MapView":{"TopLeft":{"Latitude":40.9374642,"Longitude":24.4051019},"BottomRight":{"Latitude":40.9352158,"Longitude":24.4080781}},"Address":{"Label":"11 Ερυθρού Σταυρού, 654 03 Καβάλα, Ελληνικη Δημοκρατια","Country":"GRC","State":"Ανατολική Μακεδονία Θράκη","County":"Καβάλα","City":"Καβάλα","District":"Καβάλα","Street":"Ερυθρού Σταυρού","HouseNumber":"11","PostalCode":"654 03","AdditionalData":[{"value":"Ελληνικη Δημοκρατια","key":"CountryName"},{"value":"Ανατολική Μακεδονία Θράκη","key":"StateName"},{"value":"Καβάλα","key":"CountyName"}]},"MapReference":{"ReferenceId":"735260353","Spot":0.57,"SideOfStreet":"right","CountryId":"20448870","StateId":"20653299","CountyId":"20653329","CityId":"20653354","DistrictId":"20678277","AddressId":"763119688","RoadLinkId":"135595182"}}},{"Relevance":1.0,"Distance":46.6,"MatchLevel":"houseNumber","MatchQuality":{"Country":1.0,"State":1.0,"County":1.0,"City":1.0,"District":1.0,"Street":[1.0],"HouseNumber":1.0,"PostalCode":1.0},"MatchType":"interpolated","Location":{"LocationId":"NT_F-QN2REN5Hx6cbFgN3I-pA_2A","LocationType":"point","DisplayPosition":{"Latitude":40.93667,"Longitude":24.40694},"MapView":{"TopLeft":{"Latitude":40.9377942,"Longitude":24.4054519},"BottomRight":{"Latitude":40.9355458,"Longitude":24.4084281}},"Address":{"Label":"6 Μητροπολίτου Προκοπίου, 654 03 Καβάλα, Ελληνικη Δημοκρατια","Country":"GRC","State":"Ανατολική Μακεδονία Θράκη","County":"Καβάλα","City":"Καβάλα","District":"Καβάλα","Street":"Μητροπολίτου Προκοπίου","HouseNumber":"6","PostalCode":"654 03","AdditionalData":[{"value":"Ελληνικη Δημοκρατια","key":"CountryName"},{"value":"Ανατολική Μακεδονία Θράκη","key":"StateName"},{"value":"Καβάλα","key":"CountyName"}]},"MapReference":{"ReferenceId":"735260325","Spot":0.47,"SideOfStreet":"left","CountryId":"20448870","StateId":"20653299","CountyId":"20653329","CityId":"20653354","DistrictId":"20678277","AddressId":"762712426","RoadLinkId":"135260501"}}},{"Relevance":1.0,"Distance":51.5,"MatchLevel":"houseNumber","MatchQuality":{"Country":1.0,"State":1.0,"County":1.0,"City":1.0,"District":1.0,"Street":[1.0],"HouseNumber":1.0,"PostalCode":1.0},"MatchType":"interpolated","Location":{"LocationId":"NT_e4SAoo-t26sxNVUPnhzh-B_2A","LocationType":"point","DisplayPosition":{"Latitude":40.9359,"Longitude":24.40753},"MapView":{"TopLeft":{"Latitude":40.9370242,"Longitude":24.4060419},"BottomRight":{"Latitude":40.9347758,"Longitude":24.4090181}},"Address":{"Label":"6 Φιλικής Εταιρείας, 654 03 Καβάλα, Ελληνικη Δημοκρατια","Country":"GRC","State":"Ανατολική Μακεδονία Θράκη","County":"Καβάλα","City":"Καβάλα","District":"Καβάλα","Street":"Φιλικής Εταιρείας","HouseNumber":"6","PostalCode":"654 03","AdditionalData":[{"value":"Ελληνικη Δημοκρατια","key":"CountryName"},{"value":"Ανατολική Μακεδονία Θράκη","key":"StateName"},{"value":"Καβάλα","key":"CountyName"}]},"MapReference":{"ReferenceId":"735261056","Spot":0.48,"SideOfStreet":"left","CountryId":"20448870","StateId":"20653299","CountyId":"20653329","CityId":"20653354","DistrictId":"20678277","AddressId":"763085675","RoadLinkId":"135261225"}}},{"Relevance":1.0,"Distance":55.0,"MatchLevel":"houseNumber","MatchQuality":{"Country":1.0,"State":1.0,"County":1.0,"City":1.0,"District":1.0,"Street":[1.0],"HouseNumber":1.0,"PostalCode":1.0},"MatchType":"interpolated","Location":{"LocationId":"NT_e4SAoo-t26sxNVUPnhzh-B_4A","LocationType":"point","DisplayPosition":{"Latitude":40.93584,"Longitude":24.4068},"MapView":{"TopLeft":{"Latitude":40.9369642,"Longitude":24.4053119},"BottomRight":{"Latitude":40.9347158,"Longitude":24.4082881}},"Address":{"Label":"8 Φιλικής Εταιρείας, 654 03 Καβάλα, Ελληνικη Δημοκρατια","Country":"GRC","State":"Ανατολική Μακεδονία Θράκη","County":"Καβάλα","City":"Καβάλα","District":"Καβάλα","Street":"Φιλικής Εταιρείας","HouseNumber":"8","PostalCode":"654 03","AdditionalData":[{"value":"Ελληνικη Δημοκρατια","key":"CountryName"},{"value":"Ανατολική Μακεδονία Θράκη","key":"StateName"},{"value":"Καβάλα","key":"CountyName"}]},"MapReference":{"ReferenceId":"735261048","Spot":0.67,"SideOfStreet":"left","CountryId":"20448870","StateId":"20653299","CountyId":"20653329","CityId":"20653354","DistrictId":"20678277","AddressId":"763331694","RoadLinkId":"135261217"}}},{"Relevance":1.0,"Distance":73.4,"MatchLevel":"houseNumber","MatchQuality":{"Country":1.0,"State":1.0,"County":1.0,"City":1.0,"District":1.0,"Street":[1.0],"HouseNumber":1.0,"PostalCode":1.0},"MatchType":"interpolated","Location":{"LocationId":"NT_F-QN2REN5Hx6cbFgN3I-pA_1A","LocationType":"point","DisplayPosition":{"Latitude":40.93562,"Longitude":24.40709},"MapView":{"TopLeft":{"Latitude":40.9367442,"Longitude":24.4056019},"BottomRight":{"Latitude":40.9344958,"Longitude":24.4085781}},"Address":{"Label":"5 Μητροπολίτου Προκοπίου, 654 03 Καβάλα, Ελληνικη Δημοκρατια","Country":"GRC","State":"Ανατολική Μακεδονία Θράκη","County":"Καβάλα","City":"Καβάλα","District":"Καβάλα","Street":"Μητροπολίτου Προκοπίου","HouseNumber":"5","PostalCode":"654 03","AdditionalData":[{"value":"Ελληνικη Δημοκρατια","key":"CountryName"},{"value":"Ανατολική Μακεδονία Θράκη","key":"StateName"},{"value":"Καβάλα","key":"CountyName"}]},"MapReference":{"ReferenceId":"735261049","Spot":0.63,"SideOfStreet":"right","CountryId":"20448870","StateId":"20653299","CountyId":"20653329","CityId":"20653354","DistrictId":"20678277","AddressId":"762760132","RoadLinkId":"135261218"}}}]}]}}