{"Response":{"MetaInfo":{"Timestamp":"2020-03-28T11:24:43.336+0000","NextPageInformation":"2"},"View":[{"_type":"SearchResultsViewType","ViewId":0,"Result":[{"Relevance":1.0,"Distance":0.0,"Direction":0.0,"MatchLevel":"city","MatchQuality":{"Country":1.0,"State":1.0,"County":1.0,"City":1.0,"PostalCode":1.0},"Location":{"LocationId":"NT_wx0DFS6nNxdSshxzKnDbWD","LocationType":"point","DisplayPosition":{"Latitude":41.0984138,"Longitude":16.8857253},"MapView":{"TopLeft":{"Latitude":41.1697,"Longitude":16.71718},"BottomRight":{"Latitude":41.016,"Longitude":17.03232}},"Address":{"Label":"Bari, Puglia, Italia","Country":"ITA","State":"Puglia","County":"BA","City":"Bari","PostalCode":"70122","AdditionalData":[{"value":"Italia","key":"CountryName"},{"value":"Puglia","key":"StateName"},{"value":"Bari","key":"CountyName"}]},"MapReference":{"ReferenceId":"79037092","SideOfStreet":"neither","CountryId":"20110484","StateId":"20218506","CountyId":"20221098","CityId":"20238886"}}},{"Relevance":1.0,"Distance":8.8,"MatchLevel":"houseNumber","MatchQuality":{"Country":1.0,"State":1.0,"County":1.0,"City":1.0,"Street":[1.0],"HouseNumber":1.0,"PostalCode":1.0},"MatchType":"interpolated","Location":{"LocationId":"NT_waoQX5qlKSHvKT87VK4-OD_xATQ","LocationType":"point","DisplayPosition":{"Latitude":41.09861,"Longitude":16.88579},"MapView":{"TopLeft":{"Latitude":41.0997342,"Longitude":16.8842982},"BottomRight":{"Latitude":41.0974858,"Longitude":16.8872818}},"Address":{"Label":"Via Samuel Friedrich Hahnemann, 10A, 70126 Bari BA, Italia","Country":"ITA","State":"Puglia","County":"BA","City":"Bari","Street":"Via Samuel Friedrich Hahnemann","HouseNumber":"10A","PostalCode":"70126","AdditionalData":[{"value":"Italia","key":"CountryName"},{"value":"Puglia","key":"StateName"},{"value":"Bari","key":"CountyName"}]},"MapReference":{"ReferenceId":"1197541035","Spot":0.4,"SideOfStreet":"left","CountryId":"20110484","StateId":"20218506","CountyId":"20221098","CityId":"20238886","AddressId":"738079427","RoadLinkId":"508340833"}}},{"Relevance":1.0,"Distance":31.3,"MatchLevel":"houseNumber","MatchQuality":{"Country":1.0,"State":1.0,"County":1.0,"City":1.0,"Street":[1.0],"HouseNumber":1.0,"PostalCode":1.0},"MatchType":"interpolated","Location":{"LocationId":"NT_waoQX5qlKSHvKT87VK4-OD_xAzQ","LocationType":"point","DisplayPosition":{"Latitude":41.09819,"Longitude":16.88599},"MapView":{"TopLeft":{"Latitude":41.0993142,"Longitude":16.8844983},"BottomRight":{"Latitude":41.0970658,"Longitude":16.8874817}},"Address":{"Label":"Via Samuel Friedrich Hahnemann, 10C, 70126 Bari BA, Italia","Country":"ITA","State":"Puglia","County":"BA","City":"Bari","Street":"Via Samuel Friedrich Hahnemann","HouseNumber":"10C","PostalCode":"70126","AdditionalData":[{"value":"Italia","key":"CountryName"},{"value":"Puglia","key":"StateName"},{"value":"Bari","key":"CountyName"}]},"MapReference":{"ReferenceId":"1196189741","Spot":0.0,"SideOfStreet":"right","CountryId":"20110484","StateId":"20218506","CountyId":"20221098","CityId":"20238886","AddressId":"738079426","RoadLinkId":"508340835"}}},{"Relevance":1.0,"Distance":51.2,"MatchLevel":"houseNumber","MatchQuality":{"Country":1.0,"State":1.0,"County":1.0,"City":1.0,"Street":[1.0],"HouseNumber":1.0,"PostalCode":1.0},"MatchType":"interpolated","Location":{"LocationId":"NT_waoQX5qlKSHvKT87VK4-OD_xADR","LocationType":"point","DisplayPosition":{"Latitude":41.09813,"Longitude":16.8863},"MapView":{"TopLeft":{"Latitude":41.0992542,"Longitude":16.8848083},"BottomRight":{"Latitude":41.0970058,"Longitude":16.8877917}},"Address":{"Label":"Via Samuel Friedrich Hahnemann, 10D, 70126 Bari BA, Italia","Country":"ITA","State":"Puglia","County":"BA","City":"Bari","Street":"Via Samuel Friedrich Hahnemann","HouseNumber":"10D","PostalCode":"70126","AdditionalData":[{"value":"Italia","key":"CountryName"},{"value":"Puglia","key":"StateName"},{"value":"Bari","key":"CountyName"}]},"MapReference":{"ReferenceId":"1196188417","Spot":0.89,"SideOfStreet":"left","CountryId":"20110484","StateId":"20218506","CountyId":"20221098","CityId":"20238886","AddressId":"738079424","RoadLinkId":"508340834"}}},{"Relevance":1.0,"Distance":56.3,"MatchLevel":"houseNumber","MatchQuality":{"Country":1.0,"State":1.0,"County":1.0,"City":1.0,"Street":[1.0],"HouseNumber":1.0,"PostalCode":1.0},"MatchType":"interpolated","Location":{"LocationId":"NT_waoQX5qlKSHvKT87VK4-OD_xAD","LocationType":"point","DisplayPosition":{"Latitude":41.09829,"Longitude":16.88647},"MapView":{"TopLeft":{"Latitude":41.0994142,"Longitude":16.8849783},"BottomRight":{"Latitude":41.0971658,"Longitude":16.8879617}},"Address":{"Label":"Via Samuel Friedrich Hahnemann, 10, 70126 Bari BA, Italia","Country":"ITA","State":"Puglia","County":"BA","City":"Bari","Street":"Via Samuel Friedrich Hahnemann","HouseNumber":"10","PostalCode":"70126","AdditionalData":[{"value":"Italia","key":"CountryName"},{"value":"Puglia","key":"StateName"},{"value":"Bari","key":"CountyName"}]},"MapReference":{"ReferenceId":"1197812697","Spot":0.43,"SideOfStreet":"left","CountryId":"20110484","StateId":"20218506","CountyId":"20221098","CityId":"20238886","AddressId":"710259375","RoadLinkId":"508757891"}}},{"Relevance":1.0,"Distance":66.1,"MatchLevel":"landmark","MatchQuality":{"Country":1.0,"State":1.0,"County":1.0,"City":1.0,"Street":[1.0],"HouseNumber":1.0,"PostalCode":1.0,"Name":1.0},"Location":{"LocationId":"NT_cDeBG1qpgJMxOyO2ID-6HC_p_12LUXH-vO4L.y2MyABTXbB","LocationType":"hospital","Name":"Giovanni XXIII","DisplayPosition":{"Latitude":41.0992,"Longitude":16.88926},"MapView":{"TopLeft":{"Latitude":41.1003242,"Longitude":16.8877682},"BottomRight":{"Latitude":41.0980758,"Longitude":16.8907518}},"Address":{"Label":"Via Giovanni Amendola, 207, 70126 Bari BA, Italia","Country":"ITA","State":"Puglia","County":"BA","City":"Bari","Street":"Via Giovanni Amendola","HouseNumber":"207","PostalCode":"70126","AdditionalData":[{"value":"Italia","key":"CountryName"},{"value":"Puglia","key":"StateName"},{"value":"Bari","key":"CountyName"}]},"MapReference":{"CountryId":"20110484","StateId":"20218506","CountyId":"20221098","CityId":"20238886","PlaceId":"66387986"}}},{"Relevance":1.0,"Distance":67.7,"MatchLevel":"houseNumber","MatchQuality":{"Country":1.0,"State":1.0,"County":1.0,"City":1.0,"Street":[1.0],"HouseNumber":1.0,"PostalCode":1.0},"MatchType":"interpolated","Location":{"LocationId":"NT_waoQX5qlKSHvKT87VK4-OD_2A","LocationType":"point","DisplayPosition":{"Latitude":41.09922,"Longitude":16.8855},"MapView":{"TopLeft":{"Latitude":41.1003442,"Longitude":16.8840082},"BottomRight":{"Latitude":41.0980958,"Longitude":16.8869918}},"Address":{"Label":"Via Samuel Friedrich Hahnemann, 6, 70126 Bari BA, Italia","Country":"ITA","State":"Puglia","County":"BA","City":"Bari","Street":"Via Samuel Friedrich Hahnemann","HouseNumber":"6","PostalCode":"70126","AdditionalData":[{"value":"Italia","key":"CountryName"},{"value":"Puglia","key":"StateName"},{"value":"Bari","key":"CountyName"}]},"MapReference":{"ReferenceId":"865019854","Spot":0.72,"SideOfStreet":"right","CountryId":"20110484","StateId":"20218506","CountyId":"20221098","CityId":"20238886","AddressId":"710259372","RoadLinkId":"238332403"}}},{"Relevance":1.0,"Distance":85.2,"MatchLevel":"street","MatchQuality":{"Country":1.0,"State":1.0,"County":1.0,"City":1.0,"PostalCode":1.0},"Location":{"LocationId":"NT_QoC2eCVxGuvqN08pvwJBWB_l_1197541034_R","LocationType":"point","DisplayPosition":{"Latitude":41.0980918,"Longitude":16.8848022},"MapView":{"TopLeft":{"Latitude":41.0985,"Longitude":16.88469},"BottomRight":{"Latitude":41.09739,"Longitude":16.88504}},"Address":{"Label":"70126 Bari BA, Italia","Country":"ITA","State":"Puglia","County":"BA","City":"Bari","PostalCode":"70126","AdditionalData":[{"value":"Italia","key":"CountryName"},{"value":"Puglia","key":"StateName"},{"value":"Bari","key":"CountyName"}]},"MapReference":{"ReferenceId":"1197541034","Spot":0.65,"SideOfStreet":"right","CountryId":"20110484","StateId":"20218506","CountyId":"20221098","CityId":"20238886"}}},{"Relevance":1.0,"Distance":97.7,"MatchLevel":"street","MatchQuality":{"Country":1.0,"State":1.0,"County":1.0,"City":1.0,"Street":[1.0],"PostalCode":1.0},"Location":{"LocationId":"NT_DRCd48YWboAIrGppDjHpAB_l_1196182256_R","LocationType":"point","DisplayPosition":{"Latitude":41.0980018,"Longitude":16.8846953},"MapView":{"TopLeft":{"Latitude":41.09839,"Longitude":16.88454},"BottomRight":{"Latitude":41.09739,"Longitude":16.88494}},"Address":{"Label":"Via Raffaele Bovio, 70126 Bari BA, Italia","Country":"ITA","State":"Puglia","County":"BA","City":"Bari","Street":"Via Raffaele Bovio","PostalCode":"70126","AdditionalData":[{"value":"Italia","key":"CountryName"},{"value":"Puglia","key":"StateName"},{"value":"Bari","key":"CountyName"}]},"MapReference":{"ReferenceId":"1196182256","Spot":0.61,"SideOfStreet":"right","CountryId":"20110484","StateId":"20218506","CountyId":"20221098","CityId":"20238886"}}},{"Relevance":1.0,"Distance":99.4,"MatchLevel":"street","MatchQuality":{"Country":1.0,"State":1.0,"County":1.0,"City":1.0,"Street":[1.0],"PostalCode":1.0},"Location":{"LocationId":"NT_DRCd48YWboAIrGppDjHpAB_l_865018465_R","LocationType":"point","DisplayPosition":{"Latitude":41.09839,"Longitude":16.88454},"MapView":{"TopLeft":{"Latitude":41.09839,"Longitude":16.88442},"BottomRight":{"Latitude":41.09779,"Longitude":16.88463}},"Address":{"Label":"Via Raffaele Bovio, 70125 Bari BA, Italia","Country":"ITA","State":"Puglia","County":"BA","City":"Bari","Street":"Via Raffaele Bovio","PostalCode":"70125","AdditionalData":[{"value":"Italia","key":"CountryName"},{"value":"Puglia","key":"StateName"},{"value":"Bari","key":"CountyName"}]},"MapReference":{"ReferenceId":"865018465","Spot":1.0,"SideOfStreet":"right","CountryId":"20110484","StateId":"20218506","CountyId":"20221098","CityId":"20238886"}}}]}]}}