{"Response":{"MetaInfo":{"Timestamp":"2020-03-28T11:25:24.215+0000","NextPageInformation":"2"},"View":[{"_type":"SearchResultsViewType","ViewId":0,"Result":[{"Relevance":1.0,"Distance":0.0,"Direction":0.0,"MatchLevel":"district","MatchQuality":{"Country":1.0,"State":1.0,"County":1.0,"City":1.0,"District":1.0,"PostalCode":1.0},"Location":{"LocationId":"NT_-XMZSCSfjwnHb8zwfXUT4C","LocationType":"point","DisplayPosition":{"Latitude":41.0075551,"Longitude":15.3559319},"MapView":{"TopLeft":{"Latitude":41.0148,"Longitude":15.34871},"BottomRight":{"Latitude":41.00357,"Longitude":15.36341}},"Address":{"Label":"Bisaccia Nuova, Bisaccia, Campania, Italia","Country":"ITA","State":"Campania","County":"AV","City":"Bisaccia","District":"Bisaccia Nuova","PostalCode":"83044","AdditionalData":[{"value":"Italia","key":"CountryName"},{"value":"Campania","key":"StateName"},{"value":"Avellino","key":"CountyName"}]},"MapReference":{"ReferenceId":"579412907","SideOfStreet":"neither","CountryId":"20110484","StateId":"20127654","CountyId":"20221046","CityId":"20237915","DistrictId":"20624296"}}},{"Relevance":1.0,"Distance":62.8,"MatchLevel":"street","MatchQuality":{"Country":1.0,"State":1.0,"County":1.0,"City":1.0,"District":1.0,"Street":[1.0],"PostalCode":1.0},"Location":{"LocationId":"NT_kOlQOw4VIvsF2nqkZVaoEB_l_579414939_L","LocationType":"point","DisplayPosition":{"Latitude":41.00746,"Longitude":15.35667},"MapView":{"TopLeft":{"Latitude":41.00746,"Longitude":15.35667},"BottomRight":{"Latitude":41.00716,"Longitude":15.35692}},"Address":{"Label":"Via Piano Regolatore, 83044 Bisaccia AV, Italia","Country":"ITA","State":"Campania","County":"AV","City":"Bisaccia","District":"Bisaccia Nuova","Street":"Via Piano Regolatore","PostalCode":"83044","AdditionalData":[{"value":"Italia","key":"CountryName"},{"value":"Campania","key":"StateName"},{"value":"Avellino","key":"CountyName"}]},"MapReference":{"ReferenceId":"579414939","Spot":1.0,"SideOfStreet":"left","CountryId":"20110484","StateId":"20127654","CountyId":"20221046","CityId":"20237915","DistrictId":"20624296"}}},{"Relevance":1.0,"Distance":70.3,"MatchLevel":"street","MatchQuality":{"Country":1.0,"State":1.0,"County":1.0,"City":1.0,"District":1.0,"Street":[1.0],"PostalCode":1.0},"Location":{"LocationId":"NT_9vDpPTiX55wOS8KjbYQouB_l_579412905_R","LocationType":"point","DisplayPosition":{"Latitude":41.0069268,"Longitude":15.3558421},"MapView":{"TopLeft":{"Latitude":41.00697,"Longitude":15.35554},"BottomRight":{"Latitude":41.00691,"Longitude":15.35596}},"Address":{"Label":"Strada Statale del Formicoso, 83044 Bisaccia AV, Italia","Country":"ITA","State":"Campania","County":"AV","City":"Bisaccia","District":"Bisaccia Nuova","Street":"Strada Statale del Formicoso","PostalCode":"83044","AdditionalData":[{"value":"Italia","key":"CountryName"},{"value":"Campania","key":"StateName"},{"value":"Avellino","key":"CountyName"}]},"MapReference":{"ReferenceId":"579412905","Spot":0.28,"SideOfStreet":"right","CountryId":"20110484","StateId":"20127654","CountyId":"20221046","CityId":"20237915","DistrictId":"20624296"}}},{"Relevance":1.0,"Distance":71.8,"MatchLevel":"street","MatchQuality":{"Country":1.0,"State":1.0,"County":1.0,"City":1.0,"District":1.0,"Street":[1.0],"PostalCode":1.0},"Location":{"LocationId":"NT_jw3K2olt5.K3bYn10P5CdC_l_579412904_L","LocationType":"point","DisplayPosition":{"Latitude":41.00691,"Longitude":15.35596},"MapView":{"TopLeft":{"Latitude":41.00693,"Longitude":15.35596},"BottomRight":{"Latitude":41.00686,"Longitude":15.35694}},"Address":{"Label":"Strada Statale del Formicoso, 83044 Bisaccia AV, Italia","Country":"ITA","State":"Campania","County":"AV","City":"Bisaccia","District":"Bisaccia Nuova","Street":"Strada Statale del Formicoso","PostalCode":"83044","AdditionalData":[{"value":"Italia","key":"CountryName"},{"value":"Campania","key":"StateName"},{"value":"Avellino","key":"CountyName"}]},"MapReference":{"ReferenceId":"579412904","Spot":0.0,"SideOfStreet":"left","CountryId":"20110484","StateId":"20127654","CountyId":"20221046","CityId":"20237915","DistrictId":"20624296"}}},{"Relevance":1.0,"Distance":71.8,"MatchLevel":"street","MatchQuality":{"Country":1.0,"State":1.0,"County":1.0,"City":1.0,"District":1.0,"Street":[1.0],"PostalCode":1.0},"Location":{"LocationId":"NT_S4tD3gSun1FeMkOeONO3ED_l_579414788_R","LocationType":"point","DisplayPosition":{"Latitude":41.00691,"Longitude":15.35596},"MapView":{"TopLeft":{"Latitude":41.00691,"Longitude":15.35596},"BottomRight":{"Latitude":41.00617,"Longitude":15.35776}},"Address":{"Label":"Via Manzoni, 83044 Bisaccia AV, Italia","Country":"ITA","State":"Campania","County":"AV","City":"Bisaccia","District":"Bisaccia Nuova","Street":"Via Manzoni","PostalCode":"83044","AdditionalData":[{"value":"Italia","key":"CountryName"},{"value":"Campania","key":"StateName"},{"value":"Avellino","key":"CountyName"}]},"MapReference":{"ReferenceId":"579414788","Spot":1.0,"SideOfStreet":"right","CountryId":"20110484","StateId":"20127654","CountyId":"20221046","CityId":"20237915","DistrictId":"20624296"}}},{"Relevance":1.0,"Distance":72.9,"MatchLevel":"street","MatchQuality":{"Country":1.0,"State":1.0,"County":1.0,"City":1.0,"Street":[1.0],"PostalCode":1.0},"Location":{"LocationId":"NT_QyX9hgKxDYWQp-F5RU8suD_l_579414876_R","LocationType":"point","DisplayPosition":{"Latitude":41.00697,"Longitude":15.35554},"MapView":{"TopLeft":{"Latitude":41.00697,"Longitude":15.35554},"BottomRight":{"Latitude":41.00569,"Longitude":15.35729}},"Address":{"Label":"Via 23 Luglio, 83044 Bisaccia AV, Italia","Country":"ITA","State":"Campania","County":"AV","City":"Bisaccia","Street":"Via 23 Luglio","PostalCode":"83044","AdditionalData":[{"value":"Italia","key":"CountryName"},{"value":"Campania","key":"StateName"},{"value":"Avellino","key":"CountyName"}]},"MapReference":{"ReferenceId":"579414876","Spot":1.0,"SideOfStreet":"right","CountryId":"20110484","StateId":"20127654","CountyId":"20221046","CityId":"20237915"}}},{"Relevance":1.0,"Distance":72.9,"MatchLevel":"street","MatchQuality":{"Country":1.0,"State":1.0,"County":1.0,"City":1.0,"District":1.0,"Street":[1.0],"PostalCode":1.0},"Location":{"LocationId":"NT_urjuohowTJ97cWVdIHdxXC_l_579412906_R","LocationType":"point","DisplayPosition":{"Latitude":41.00697,"Longitude":15.35554},"MapView":{"TopLeft":{"Latitude":41.00702,"Longitude":15.35522},"BottomRight":{"Latitude":41.00697,"Longitude":15.35554}},"Address":{"Label":"Strada Statale del Formicoso, 83044 Bisaccia AV, Italia","Country":"ITA","State":"Campania","County":"AV","City":"Bisaccia","District":"Bisaccia Nuova","Street":"Strada Statale del Formicoso","PostalCode":"83044","AdditionalData":[{"value":"Italia","key":"CountryName"},{"value":"Campania","key":"StateName"},{"value":"Avellino","key":"CountyName"}]},"MapReference":{"ReferenceId":"579412906","Spot":0.0,"SideOfStreet":"right","CountryId":"20110484","StateId":"20127654","CountyId":"20221046","CityId":"20237915","DistrictId":"20624296"}}},{"Relevance":1.0,"Distance":75.4,"MatchLevel":"street","MatchQuality":{"Country":1.0,"State":1.0,"County":1.0,"City":1.0,"District":1.0,"Street":[1.0],"PostalCode":1.0},"Location":{"LocationId":"NT_71CyUs4l5lrDvm2GrRJIxD_l_579413242_R","LocationType":"point","DisplayPosition":{"Latitude":41.0079578,"Longitude":15.3552094},"MapView":{"TopLeft":{"Latitude":41.00821,"Longitude":15.35501},"BottomRight":{"Latitude":41.0076,"Longitude":15.35535}},"Address":{"Label":"Via delle Nazioni, 83044 Bisaccia AV, Italia","Country":"ITA","State":"Campania","County":"AV","City":"Bisaccia","District":"Bisaccia Nuova","Street":"Via delle Nazioni","PostalCode":"83044","AdditionalData":[{"value":"Italia","key":"CountryName"},{"value":"Campania","key":"StateName"},{"value":"Avellino","key":"CountyName"}]},"MapReference":{"ReferenceId":"579413242","Spot":0.59,"SideOfStreet":"right","CountryId":"20110484","StateId":"20127654","CountyId":"20221046","CityId":"20237915","DistrictId":"20624296"}}},{"Relevance":1.0,"Distance":77.5,"MatchLevel":"street","MatchQuality":{"Country":1.0,"State":1.0,"County":1.0,"City":1.0,"District":1.0,"Street":[1.0],"PostalCode":1.0},"Location":{"LocationId":"NT_71CyUs4l5lrDvm2GrRJIxD_l_64267710_R","LocationType":"point","DisplayPosition":{"Latitude":41.0076,"Longitude":15.35501},"MapView":{"TopLeft":{"Latitude":41.0076,"Longitude":15.35473},"BottomRight":{"Latitude":41.00742,"Longitude":15.35501}},"Address":{"Label":"Via delle Nazioni, 83044 Bisaccia AV, Italia","Country":"ITA","State":"Campania","County":"AV","City":"Bisaccia","District":"Bisaccia Nuova","Street":"Via delle Nazioni","PostalCode":"83044","AdditionalData":[{"value":"Italia","key":"CountryName"},{"value":"Campania","key":"StateName"},{"value":"Avellino","key":"CountyName"}]},"MapReference":{"ReferenceId":"64267710","Spot":1.0,"SideOfStreet":"right","CountryId":"20110484","StateId":"20127654","CountyId":"20221046","CityId":"20237915","DistrictId":"20624296"}}},{"Relevance":1.0,"Distance":77.5,"MatchLevel":"street","MatchQuality":{"Country":1.0,"State":1.0,"County":1.0,"City":1.0,"District":1.0,"Street":[1.0],"PostalCode":1.0},"Location":{"LocationId":"NT_71CyUs4l5lrDvm2GrRJIxD_l_1190649956_R","LocationType":"point","DisplayPosition":{"Latitude":41.0076,"Longitude":15.35501},"MapView":{"TopLeft":{"Latitude":41.0076,"Longitude":15.35498},"BottomRight":{"Latitude":41.00739,"Longitude":15.35501}},"Address":{"Label":"Via delle Nazioni, 83044 Bisaccia AV, Italia","Country":"ITA","State":"Campania","County":"AV","City":"Bisaccia","District":"Bisaccia Nuova","Street":"Via delle Nazioni","PostalCode":"83044","AdditionalData":[{"value":"Italia","key":"CountryName"},{"value":"Campania","key":"StateName"},{"value":"Avellino","key":"CountyName"}]},"MapReference":{"ReferenceId":"1190649956","Spot":1.0,"SideOfStreet":"right","CountryId":"20110484","StateId":"20127654","CountyId":"20221046","CityId":"20237915","DistrictId":"20624296"}}}]}]}}