{"Response":{"MetaInfo":{"Timestamp":"2020-03-28T11:04:26.199+0000","NextPageInformation":"2"},"View":[{"_type":"SearchResultsViewType","ViewId":0,"Result":[{"Relevance":1.0,"Distance":0.0,"Direction":0.0,"MatchLevel":"city","MatchQuality":{"Country":1.0,"State":1.0,"County":1.0,"City":1.0,"PostalCode":1.0},"Location":{"LocationId":"NT_r9JPLSCAMdd5H9IPSCKLrA","LocationType":"point","DisplayPosition":{"Latitude":41.09505,"Longitude":0.6385737},"MapView":{"TopLeft":{"Latitude":41.13525,"Longitude":0.53326},"BottomRight":{"Latitude":41.06478,"Longitude":0.65991}},"Address":{"Label":"Móra d'Ebre, Catalunya, Espanya","Country":"ESP","State":"Catalunya","County":"Tarragona","City":"Móra d'Ebre","PostalCode":"43740","AdditionalData":[{"value":"Espanya","key":"CountryName"},{"value":"Catalunya","key":"StateName"},{"value":"Tarragona","key":"CountyName"}]},"MapReference":{"ReferenceId":"572186969","SideOfStreet":"neither","CountryId":"20215059","StateId":"20215741","CountyId":"20226116","CityId":"20226468"}}},{"Relevance":1.0,"Distance":22.5,"MatchLevel":"street","MatchQuality":{"Country":1.0,"State":1.0,"County":1.0,"City":1.0,"PostalCode":1.0},"Location":{"LocationId":"NT_aX5k4BUjSWYUGf1I9xmAWA_l_594693625_L","LocationType":"point","DisplayPosition":{"Latitude":41.09519,"Longitude":0.63838},"MapView":{"TopLeft":{"Latitude":41.09522,"Longitude":0.63767},"BottomRight":{"Latitude":41.09489,"Longitude":0.63838}},"Address":{"Label":"43740 Móra d'Ebre (Tarragona), Espanya","Country":"ESP","State":"Catalunya","County":"Tarragona","City":"Móra d'Ebre","PostalCode":"43740","AdditionalData":[{"value":"Espanya","key":"CountryName"},{"value":"Catalunya","key":"StateName"},{"value":"Tarragona","key":"CountyName"}]},"MapReference":{"ReferenceId":"594693625","Spot":0.0,"SideOfStreet":"left","CountryId":"20215059","StateId":"20215741","CountyId":"20226116","CityId":"20226468"}}},{"Relevance":1.0,"Distance":22.5,"MatchLevel":"street","MatchQuality":{"Country":1.0,"State":1.0,"County":1.0,"City":1.0,"PostalCode":1.0},"Location":{"LocationId":"NT_aX5k4BUjSWYUGf1I9xmAWA_l_594693612_L","LocationType":"point","DisplayPosition":{"Latitude":41.09519,"Longitude":0.63838},"MapView":{"TopLeft":{"Latitude":41.09545,"Longitude":0.63769},"BottomRight":{"Latitude":41.09519,"Longitude":0.63838}},"Address":{"Label":"43740 Móra d'Ebre (Tarragona), Espanya","Country":"ESP","State":"Catalunya","County":"Tarragona","City":"Móra d'Ebre","PostalCode":"43740","AdditionalData":[{"value":"Espanya","key":"CountryName"},{"value":"Catalunya","key":"StateName"},{"value":"Tarragona","key":"CountyName"}]},"MapReference":{"ReferenceId":"594693612","Spot":0.0,"SideOfStreet":"left","CountryId":"20215059","StateId":"20215741","CountyId":"20226116","CityId":"20226468"}}},{"Relevance":1.0,"Distance":71.6,"MatchLevel":"street","MatchQuality":{"Country":1.0,"State":1.0,"County":1.0,"City":1.0,"PostalCode":1.0},"Location":{"LocationId":"NT_aX5k4BUjSWYUGf1I9xmAWA_l_594693626_R","LocationType":"point","DisplayPosition":{"Latitude":41.09522,"Longitude":0.63775},"MapView":{"TopLeft":{"Latitude":41.09528,"Longitude":0.63769},"BottomRight":{"Latitude":41.09522,"Longitude":0.63775}},"Address":{"Label":"43740 Móra d'Ebre (Tarragona), Espanya","Country":"ESP","State":"Catalunya","County":"Tarragona","City":"Móra d'Ebre","PostalCode":"43740","AdditionalData":[{"value":"Espanya","key":"CountryName"},{"value":"Catalunya","key":"StateName"},{"value":"Tarragona","key":"CountyName"}]},"MapReference":{"ReferenceId":"594693626","Spot":0.0,"SideOfStreet":"right","CountryId":"20215059","StateId":"20215741","CountyId":"20226116","CityId":"20226468"}}},{"Relevance":1.0,"Distance":75.9,"MatchLevel":"houseNumber","MatchQuality":{"Country":1.0,"State":1.0,"County":1.0,"City":1.0,"Street":[1.0],"HouseNumber":1.0,"PostalCode":1.0},"MatchType":"interpolated","Location":{"LocationId":"NT_XnM3f.1G5qySqHIZWvLl4B_yA","LocationType":"point","DisplayPosition":{"Latitude":41.09454,"Longitude":0.63786},"MapView":{"TopLeft":{"Latitude":41.0956642,"Longitude":0.6363683},"BottomRight":{"Latitude":41.0934158,"Longitude":0.6393517}},"Address":{"Label":"Carrer Arrabal de Jesús, 2, 43740 Móra d'Ebre (Tarragona), Espanya","Country":"ESP","State":"Catalunya","County":"Tarragona","City":"Móra d'Ebre","Street":"Carrer Arrabal de Jesús","HouseNumber":"2","PostalCode":"43740","AdditionalData":[{"value":"Espanya","key":"CountryName"},{"value":"Catalunya","key":"StateName"},{"value":"Tarragona","key":"CountyName"}]},"MapReference":{"ReferenceId":"572186837","Spot":0.91,"SideOfStreet":"right","CountryId":"20215059","StateId":"20215741","CountyId":"20226116","CityId":"20226468","AddressId":"365608322","RoadLinkId":"65968892"}}},{"Relevance":1.0,"Distance":78.3,"MatchLevel":"street","MatchQuality":{"Country":1.0,"State":1.0,"County":1.0,"City":1.0,"Street":[1.0],"PostalCode":1.0},"Location":{"LocationId":"NT_CLtWgjr-TPz1WH0G67KU-C_l_594693624_R","LocationType":"point","DisplayPosition":{"Latitude":41.09528,"Longitude":0.63769},"MapView":{"TopLeft":{"Latitude":41.09563,"Longitude":0.63769},"BottomRight":{"Latitude":41.09528,"Longitude":0.63771}},"Address":{"Label":"Carrer de Benet Messeguer, 43740 Móra d'Ebre (Tarragona), Espanya","Country":"ESP","State":"Catalunya","County":"Tarragona","City":"Móra d'Ebre","Street":"Carrer de Benet Messeguer","PostalCode":"43740","AdditionalData":[{"value":"Espanya","key":"CountryName"},{"value":"Catalunya","key":"StateName"},{"value":"Tarragona","key":"CountyName"}]},"MapReference":{"ReferenceId":"594693624","Spot":0.0,"SideOfStreet":"right","CountryId":"20215059","StateId":"20215741","CountyId":"20226116","CityId":"20226468"}}},{"Relevance":1.0,"Distance":78.3,"MatchLevel":"street","MatchQuality":{"Country":1.0,"State":1.0,"County":1.0,"City":1.0,"PostalCode":1.0},"Location":{"LocationId":"NT_aX5k4BUjSWYUGf1I9xmAWA_l_594693614_R","LocationType":"point","DisplayPosition":{"Latitude":41.09528,"Longitude":0.63769},"MapView":{"TopLeft":{"Latitude":41.09528,"Longitude":0.63751},"BottomRight":{"Latitude":41.0951,"Longitude":0.63769}},"Address":{"Label":"43740 Móra d'Ebre (Tarragona), Espanya","Country":"ESP","State":"Catalunya","County":"Tarragona","City":"Móra d'Ebre","PostalCode":"43740","AdditionalData":[{"value":"Espanya","key":"CountryName"},{"value":"Catalunya","key":"StateName"},{"value":"Tarragona","key":"CountyName"}]},"MapReference":{"ReferenceId":"594693614","Spot":1.0,"SideOfStreet":"right","CountryId":"20215059","StateId":"20215741","CountyId":"20226116","CityId":"20226468"}}},{"Relevance":1.0,"Distance":87.2,"MatchLevel":"street","MatchQuality":{"Country":1.0,"State":1.0,"County":1.0,"City":1.0,"Street":[1.0],"PostalCode":1.0},"Location":{"LocationId":"NT_5LJcBizCBMFVkLHnP3FqtD_l_1157807691_R","LocationType":"point","DisplayPosition":{"Latitude":41.09472,"Longitude":0.63763},"MapView":{"TopLeft":{"Latitude":41.0951,"Longitude":0.63751},"BottomRight":{"Latitude":41.09472,"Longitude":0.63763}},"Address":{"Label":"Carrer Benet Messeguer i Viliro, 43740 Móra d'Ebre (Tarragona), Espanya","Country":"ESP","State":"Catalunya","County":"Tarragona","City":"Móra d'Ebre","Street":"Carrer Benet Messeguer i Viliro","PostalCode":"43740","AdditionalData":[{"value":"Espanya","key":"CountryName"},{"value":"Catalunya","key":"StateName"},{"value":"Tarragona","key":"CountyName"}]},"MapReference":{"ReferenceId":"1157807691","Spot":0.0,"SideOfStreet":"right","CountryId":"20215059","StateId":"20215741","CountyId":"20226116","CityId":"20226468"}}},{"Relevance":1.0,"Distance":88.5,"MatchLevel":"street","MatchQuality":{"Country":1.0,"State":1.0,"County":1.0,"City":1.0,"Street":[1.0],"PostalCode":1.0},"Location":{"LocationId":"NT_5LJcBizCBMFVkLHnP3FqtD_l_1157807690_R","LocationType":"point","DisplayPosition":{"Latitude":41.0946504,"Longitude":0.6376604},"MapView":{"TopLeft":{"Latitude":41.09472,"Longitude":0.63763},"BottomRight":{"Latitude":41.09456,"Longitude":0.6377}},"Address":{"Label":"Carrer Benet Messeguer i Viliro, 43740 Móra d'Ebre (Tarragona), Espanya","Country":"ESP","State":"Catalunya","County":"Tarragona","City":"Móra d'Ebre","Street":"Carrer Benet Messeguer i Viliro","PostalCode":"43740","AdditionalData":[{"value":"Espanya","key":"CountryName"},{"value":"Catalunya","key":"StateName"},{"value":"Tarragona","key":"CountyName"}]},"MapReference":{"ReferenceId":"1157807690","Spot":0.57,"SideOfStreet":"right","CountryId":"20215059","StateId":"20215741","CountyId":"20226116","CityId":"20226468"}}},{"Relevance":1.0,"Distance":90.4,"MatchLevel":"street","MatchQuality":{"Country":1.0,"State":1.0,"County":1.0,"City":1.0,"PostalCode":1.0},"Location":{"LocationId":"NT_aX5k4BUjSWYUGf1I9xmAWA_l_594693634_L","LocationType":"point","DisplayPosition":{"Latitude":41.0956,"Longitude":0.63778},"MapView":{"TopLeft":{"Latitude":41.09563,"Longitude":0.63771},"BottomRight":{"Latitude":41.0956,"Longitude":0.63778}},"Address":{"Label":"43740 Móra d'Ebre (Tarragona), Espanya","Country":"ESP","State":"Catalunya","County":"Tarragona","City":"Móra d'Ebre","PostalCode":"43740","AdditionalData":[{"value":"Espanya","key":"CountryName"},{"value":"Catalunya","key":"StateName"},{"value":"Tarragona","key":"CountyName"}]},"MapReference":{"ReferenceId":"594693634","Spot":0.0,"SideOfStreet":"left","CountryId":"20215059","StateId":"20215741","CountyId":"20226116","CityId":"20226468"}}}]}]}}