{"Response":{"MetaInfo":{"Timestamp":"2020-03-28T11:25:24.682+0000","NextPageInformation":"2"},"View":[{"_type":"SearchResultsViewType","ViewId":0,"Result":[{"Relevance":1.0,"Distance":-9.1,"MatchLevel":"landmark","MatchQuality":{"Country":1.0,"State":1.0,"County":1.0,"City":1.0,"District":1.0,"Street":[1.0],"HouseNumber":1.0,"PostalCode":1.0,"Name":1.0},"Location":{"LocationId":"NT_Pcv7BbH69Yi9o.sFBnn1iC_p_GcqIN2NiXiFKnaHL2AVTcC","LocationType":"hospital","Name":"Di Venere","DisplayPosition":{"Latitude":41.07655,"Longitude":16.86455},"MapView":{"TopLeft":{"Latitude":41.0776742,"Longitude":16.8630588},"BottomRight":{"Latitude":41.0754258,"Longitude":16.8660412}},"Address":{"Label":"Via Ospedale di Venere, 150, 70131 Bari BA, Italia","Country":"ITA","State":"Puglia","County":"BA","City":"Bari","District":"Carbonara di Bari","Street":"Via Ospedale di Venere","HouseNumber":"150","PostalCode":"70131","AdditionalData":[{"value":"Italia","key":"CountryName"},{"value":"Puglia","key":"StateName"},{"value":"Bari","key":"CountyName"}]},"MapReference":{"CountryId":"20110484","StateId":"20218506","CountyId":"20221098","CityId":"20238886","DistrictId":"20238889","PlaceId":"83037352"}}},{"Relevance":1.0,"Distance":0.0,"Direction":0.0,"MatchLevel":"district","MatchQuality":{"Country":1.0,"State":1.0,"County":1.0,"City":1.0,"District":1.0,"PostalCode":1.0},"Location":{"LocationId":"NT_WutHupYJ99In8sdFxFP9pD","LocationType":"point","DisplayPosition":{"Latitude":41.0746514,"Longitude":16.8641982},"MapView":{"TopLeft":{"Latitude":41.08257,"Longitude":16.86106},"BottomRight":{"Latitude":41.06588,"Longitude":16.87683}},"Address":{"Label":"Carbonara di Bari, Bari, Puglia, Italia","Country":"ITA","State":"Puglia","County":"BA","City":"Bari","District":"Carbonara di Bari","PostalCode":"70131","AdditionalData":[{"value":"Italia","key":"CountryName"},{"value":"Puglia","key":"StateName"},{"value":"Bari","key":"CountyName"}]},"MapReference":{"ReferenceId":"554102975","SideOfStreet":"neither","CountryId":"20110484","StateId":"20218506","CountyId":"20221098","CityId":"20238886","DistrictId":"20238889"}}},{"Relevance":1.0,"Distance":11.4,"MatchLevel":"houseNumber","MatchQuality":{"Country":1.0,"State":1.0,"County":1.0,"City":1.0,"District":1.0,"Street":[1.0],"HouseNumber":1.0,"PostalCode":1.0},"MatchType":"interpolated","Location":{"LocationId":"NT_ZDx13s3-ysQtVvI7tSWWLD_yID","LocationType":"point","DisplayPosition":{"Latitude":41.07457,"Longitude":16.86428},"MapView":{"TopLeft":{"Latitude":41.0756942,"Longitude":16.8627888},"BottomRight":{"Latitude":41.0734458,"Longitude":16.8657712}},"Address":{"Label":"Via Vaccarella, 22, 70131 Bari BA, Italia","Country":"ITA","State":"Puglia","County":"BA","City":"Bari","District":"Carbonara di Bari","Street":"Via Vaccarella","HouseNumber":"22","PostalCode":"70131","AdditionalData":[{"value":"Italia","key":"CountryName"},{"value":"Puglia","key":"StateName"},{"value":"Bari","key":"CountyName"}]},"MapReference":{"ReferenceId":"1206014551","Spot":0.61,"SideOfStreet":"right","CountryId":"20110484","StateId":"20218506","CountyId":"20221098","CityId":"20238886","DistrictId":"20238889","AddressId":"378483097","RoadLinkId":"519836618"}}},{"Relevance":1.0,"Distance":14.0,"MatchLevel":"houseNumber","MatchQuality":{"Country":1.0,"State":1.0,"County":1.0,"City":1.0,"District":1.0,"Street":[1.0],"HouseNumber":1.0,"PostalCode":1.0},"MatchType":"interpolated","Location":{"LocationId":"NT_ey4s025e83feECnkjUl1TB_l_554112553_L_yMD","LocationType":"point","DisplayPosition":{"Latitude":41.0744767,"Longitude":16.8644433},"MapView":{"TopLeft":{"Latitude":41.0756008,"Longitude":16.8629521},"BottomRight":{"Latitude":41.0733525,"Longitude":16.8659345}},"Address":{"Label":"Via Enrico Pantanelli, 23, 70131 Bari BA, Italia","Country":"ITA","State":"Puglia","County":"BA","City":"Bari","District":"Carbonara di Bari","Street":"Via Enrico Pantanelli","HouseNumber":"23","PostalCode":"70131","AdditionalData":[{"value":"Italia","key":"CountryName"},{"value":"Puglia","key":"StateName"},{"value":"Bari","key":"CountyName"}]},"MapReference":{"ReferenceId":"554112553","Spot":0.58,"SideOfStreet":"left","CountryId":"20110484","StateId":"20218506","CountyId":"20221098","CityId":"20238886","DistrictId":"20238889"}}},{"Relevance":1.0,"Distance":20.0,"MatchLevel":"houseNumber","MatchQuality":{"Country":1.0,"State":1.0,"County":1.0,"City":1.0,"District":1.0,"Street":[1.0],"HouseNumber":1.0,"PostalCode":1.0},"MatchType":"interpolated","Location":{"LocationId":"NT_ZDx13s3-ysQtVvI7tSWWLD_yATS","LocationType":"point","DisplayPosition":{"Latitude":41.07479,"Longitude":16.86435},"MapView":{"TopLeft":{"Latitude":41.0759142,"Longitude":16.8628588},"BottomRight":{"Latitude":41.0736658,"Longitude":16.8658412}},"Address":{"Label":"Via Vaccarella, 20I, 70131 Bari BA, Italia","Country":"ITA","State":"Puglia","County":"BA","City":"Bari","District":"Carbonara di Bari","Street":"Via Vaccarella","HouseNumber":"20I","PostalCode":"70131","AdditionalData":[{"value":"Italia","key":"CountryName"},{"value":"Puglia","key":"StateName"},{"value":"Bari","key":"CountyName"}]},"MapReference":{"ReferenceId":"1206733136","Spot":0.7,"SideOfStreet":"right","CountryId":"20110484","StateId":"20218506","CountyId":"20221098","CityId":"20238886","DistrictId":"20238889","AddressId":"738085681","RoadLinkId":"520739027"}}},{"Relevance":1.0,"Distance":30.2,"MatchLevel":"street","MatchQuality":{"Country":1.0,"State":1.0,"County":1.0,"City":1.0,"District":1.0,"PostalCode":1.0},"Location":{"LocationId":"NT_ArvaAK-QlMryxs5JHbh6sD_l_554112557_L","LocationType":"point","DisplayPosition":{"Latitude":41.07471,"Longitude":16.86455},"MapView":{"TopLeft":{"Latitude":41.07471,"Longitude":16.86455},"BottomRight":{"Latitude":41.07459,"Longitude":16.86498}},"Address":{"Label":"70131 Bari BA, Italia","Country":"ITA","State":"Puglia","County":"BA","City":"Bari","District":"Carbonara di Bari","PostalCode":"70131","AdditionalData":[{"value":"Italia","key":"CountryName"},{"value":"Puglia","key":"StateName"},{"value":"Bari","key":"CountyName"}]},"MapReference":{"ReferenceId":"554112557","Spot":1.0,"SideOfStreet":"left","CountryId":"20110484","StateId":"20218506","CountyId":"20221098","CityId":"20238886","DistrictId":"20238889"}}},{"Relevance":1.0,"Distance":39.0,"MatchLevel":"houseNumber","MatchQuality":{"Country":1.0,"State":1.0,"County":1.0,"City":1.0,"District":1.0,"Street":[1.0],"HouseNumber":1.0,"PostalCode":1.0},"MatchType":"interpolated","Location":{"LocationId":"NT_ZDx13s3-ysQtVvI7tSWWLD_zATR","LocationType":"point","DisplayPosition":{"Latitude":41.07496,"Longitude":16.86442},"MapView":{"TopLeft":{"Latitude":41.0760842,"Longitude":16.8629288},"BottomRight":{"Latitude":41.0738358,"Longitude":16.8659112}},"Address":{"Label":"Via Vaccarella, 30E, 70131 Bari BA, Italia","Country":"ITA","State":"Puglia","County":"BA","City":"Bari","District":"Carbonara di Bari","Street":"Via Vaccarella","HouseNumber":"30E","PostalCode":"70131","AdditionalData":[{"value":"Italia","key":"CountryName"},{"value":"Puglia","key":"StateName"},{"value":"Bari","key":"CountyName"}]},"MapReference":{"ReferenceId":"1206733137","Spot":0.22,"SideOfStreet":"right","CountryId":"20110484","StateId":"20218506","CountyId":"20221098","CityId":"20238886","DistrictId":"20238889","AddressId":"710258381","RoadLinkId":"520739028"}}},{"Relevance":1.0,"Distance":39.1,"MatchLevel":"houseNumber","MatchQuality":{"Country":1.0,"State":1.0,"County":1.0,"City":1.0,"District":1.0,"Street":[1.0],"HouseNumber":1.0,"PostalCode":1.0},"MatchType":"interpolated","Location":{"LocationId":"NT_ZDx13s3-ysQtVvI7tSWWLD_0cD","LocationType":"point","DisplayPosition":{"Latitude":41.0743,"Longitude":16.86419},"MapView":{"TopLeft":{"Latitude":41.0754242,"Longitude":16.8626988},"BottomRight":{"Latitude":41.0731758,"Longitude":16.8656812}},"Address":{"Label":"Via Vaccarella, 47, 70131 Bari BA, Italia","Country":"ITA","State":"Puglia","County":"BA","City":"Bari","District":"Carbonara di Bari","Street":"Via Vaccarella","HouseNumber":"47","PostalCode":"70131","AdditionalData":[{"value":"Italia","key":"CountryName"},{"value":"Puglia","key":"StateName"},{"value":"Bari","key":"CountyName"}]},"MapReference":{"ReferenceId":"1206014550","Spot":0.34,"SideOfStreet":"left","CountryId":"20110484","StateId":"20218506","CountyId":"20221098","CityId":"20238886","DistrictId":"20238889","AddressId":"378471234","RoadLinkId":"519836617"}}},{"Relevance":1.0,"Distance":50.3,"MatchLevel":"street","MatchQuality":{"Country":1.0,"State":1.0,"County":1.0,"City":1.0,"District":1.0,"Street":[1.0],"PostalCode":1.0},"Location":{"LocationId":"NT_Z4h3oT3zXto03lA.ce6A9B_l_554106690_R","LocationType":"point","DisplayPosition":{"Latitude":41.0742,"Longitude":16.86416},"MapView":{"TopLeft":{"Latitude":41.0742,"Longitude":16.86416},"BottomRight":{"Latitude":41.07415,"Longitude":16.8643}},"Address":{"Label":"Via Randaccio, 70131 Bari BA, Italia","Country":"ITA","State":"Puglia","County":"BA","City":"Bari","District":"Carbonara di Bari","Street":"Via Randaccio","PostalCode":"70131","AdditionalData":[{"value":"Italia","key":"CountryName"},{"value":"Puglia","key":"StateName"},{"value":"Bari","key":"CountyName"}]},"MapReference":{"ReferenceId":"554106690","Spot":1.0,"SideOfStreet":"right","CountryId":"20110484","StateId":"20218506","CountyId":"20221098","CityId":"20238886","DistrictId":"20238889"}}},{"Relevance":1.0,"Distance":58.3,"MatchLevel":"houseNumber","MatchQuality":{"Country":1.0,"State":1.0,"County":1.0,"City":1.0,"District":1.0,"Street":[1.0],"HouseNumber":1.0,"PostalCode":1.0},"MatchType":"interpolated","Location":{"LocationId":"NT_Z4h3oT3zXto03lA.ce6A9B_xIzM","LocationType":"point","DisplayPosition":{"Latitude":41.07413,"Longitude":16.86434},"MapView":{"TopLeft":{"Latitude":41.0752542,"Longitude":16.8628488},"BottomRight":{"Latitude":41.0730058,"Longitude":16.8658312}},"Address":{"Label":"Via Randaccio, 123, 70131 Bari BA, Italia","Country":"ITA","State":"Puglia","County":"BA","City":"Bari","District":"Carbonara di Bari","Street":"Via Randaccio","HouseNumber":"123","PostalCode":"70131","AdditionalData":[{"value":"Italia","key":"CountryName"},{"value":"Puglia","key":"StateName"},{"value":"Bari","key":"CountyName"}]},"MapReference":{"ReferenceId":"554112525","Spot":0.9,"SideOfStreet":"right","CountryId":"20110484","StateId":"20218506","CountyId":"20221098","CityId":"20238886","DistrictId":"20238889","AddressId":"738079304","RoadLinkId":"57524510"}}}]}]}}