{"Response":{"MetaInfo":{"Timestamp":"2020-03-28T09:46:55.444+0000","NextPageInformation":"2"},"View":[{"_type":"SearchResultsViewType","ViewId":0,"Result":[{"Relevance":1.0,"Distance":0.0,"Direction":0.0,"MatchLevel":"city","MatchQuality":{"Country":1.0,"State":1.0,"County":1.0,"City":1.0,"PostalCode":1.0},"Location":{"LocationId":"NT_ck23lKnweJjyqBo3bFoajA","LocationType":"point","DisplayPosition":{"Latitude":41.0727803,"Longitude":-5.5675604},"MapView":{"TopLeft":{"Latitude":41.12938,"Longitude":-5.63909},"BottomRight":{"Latitude":41.04694,"Longitude":-5.51615}},"Address":{"Label":"La Vellés, Castilla y León, España","Country":"ESP","State":"Castilla y León","County":"Salamanca","City":"La Vellés","PostalCode":"37427","AdditionalData":[{"value":"España","key":"CountryName"},{"value":"Castilla y León","key":"StateName"},{"value":"Salamanca","key":"CountyName"}]},"MapReference":{"ReferenceId":"990116396","SideOfStreet":"neither","CountryId":"20215059","StateId":"20221909","CountyId":"20221914","CityId":"20310385"}}},{"Relevance":1.0,"Distance":3.4,"MatchLevel":"houseNumber","MatchQuality":{"Country":1.0,"State":1.0,"County":1.0,"City":1.0,"Street":[1.0],"HouseNumber":1.0,"PostalCode":1.0},"MatchType":"interpolated","Location":{"LocationId":"NT_1Qg6StZcEgnmaFGhCaDEaB_xED","LocationType":"point","DisplayPosition":{"Latitude":41.07277,"Longitude":-5.56765},"MapView":{"TopLeft":{"Latitude":41.0738942,"Longitude":-5.5691412},"BottomRight":{"Latitude":41.0716458,"Longitude":-5.5661588}},"Address":{"Label":"Calle de la Iglesia, 11, 37427 La Vellés (Salamanca), España","Country":"ESP","State":"Castilla y León","County":"Salamanca","City":"La Vellés","Street":"Calle de la Iglesia","HouseNumber":"11","PostalCode":"37427","AdditionalData":[{"value":"España","key":"CountryName"},{"value":"Castilla y León","key":"StateName"},{"value":"Salamanca","key":"CountyName"}]},"MapReference":{"ReferenceId":"990116393","Spot":0.7,"SideOfStreet":"right","CountryId":"20215059","StateId":"20221909","CountyId":"20221914","CityId":"20310385","AddressId":"405386032","RoadLinkId":"318756901"}}},{"Relevance":1.0,"Distance":25.1,"MatchLevel":"houseNumber","MatchQuality":{"Country":1.0,"State":1.0,"County":1.0,"City":1.0,"Street":[1.0],"HouseNumber":1.0,"PostalCode":1.0},"MatchType":"interpolated","Location":{"LocationId":"NT_9rMGDO45xQOL67TNBg9xhC_xA","LocationType":"point","DisplayPosition":{"Latitude":41.07283,"Longitude":-5.56794},"MapView":{"TopLeft":{"Latitude":41.0739542,"Longitude":-5.5694312},"BottomRight":{"Latitude":41.0717058,"Longitude":-5.5664488}},"Address":{"Label":"Calle Cerrada, 1, 37427 La Vellés (Salamanca), España","Country":"ESP","State":"Castilla y León","County":"Salamanca","City":"La Vellés","Street":"Calle Cerrada","HouseNumber":"1","PostalCode":"37427","AdditionalData":[{"value":"España","key":"CountryName"},{"value":"Castilla y León","key":"StateName"},{"value":"Salamanca","key":"CountyName"}]},"MapReference":{"ReferenceId":"573575040","Spot":0.78,"SideOfStreet":"right","CountryId":"20215059","StateId":"20221909","CountyId":"20221914","CityId":"20310385","AddressId":"405522855","RoadLinkId":"68676753"}}},{"Relevance":1.0,"Distance":25.6,"MatchLevel":"houseNumber","MatchQuality":{"Country":1.0,"State":1.0,"County":1.0,"City":1.0,"Street":[1.0],"HouseNumber":1.0,"PostalCode":1.0},"MatchType":"interpolated","Location":{"LocationId":"NT_zQivVhU8y.R6pz1iIJs-aA_2A","LocationType":"point","DisplayPosition":{"Latitude":41.07312,"Longitude":-5.56774},"MapView":{"TopLeft":{"Latitude":41.0742442,"Longitude":-5.5692312},"BottomRight":{"Latitude":41.0719958,"Longitude":-5.5662488}},"Address":{"Label":"Calle de la Plata, 6, 37427 La Vellés (Salamanca), España","Country":"ESP","State":"Castilla y León","County":"Salamanca","City":"La Vellés","Street":"Calle de la Plata","HouseNumber":"6","PostalCode":"37427","AdditionalData":[{"value":"España","key":"CountryName"},{"value":"Castilla y León","key":"StateName"},{"value":"Salamanca","key":"CountyName"}]},"MapReference":{"ReferenceId":"573575000","Spot":0.33,"SideOfStreet":"right","CountryId":"20215059","StateId":"20221909","CountyId":"20221914","CityId":"20310385","AddressId":"405472821","RoadLinkId":"69301345"}}},{"Relevance":1.0,"Distance":32.3,"MatchLevel":"houseNumber","MatchQuality":{"Country":1.0,"State":1.0,"County":1.0,"City":1.0,"Street":[1.0],"HouseNumber":1.0,"PostalCode":1.0},"MatchType":"interpolated","Location":{"LocationId":"NT_1Qg6StZcEgnmaFGhCaDEaB_xQD","LocationType":"point","DisplayPosition":{"Latitude":41.07298,"Longitude":-5.56784},"MapView":{"TopLeft":{"Latitude":41.0741042,"Longitude":-5.5693312},"BottomRight":{"Latitude":41.0718558,"Longitude":-5.5663488}},"Address":{"Label":"Calle de la Iglesia, 14, 37427 La Vellés (Salamanca), España","Country":"ESP","State":"Castilla y León","County":"Salamanca","City":"La Vellés","Street":"Calle de la Iglesia","HouseNumber":"14","PostalCode":"37427","AdditionalData":[{"value":"España","key":"CountryName"},{"value":"Castilla y León","key":"StateName"},{"value":"Salamanca","key":"CountyName"}]},"MapReference":{"ReferenceId":"990116394","Spot":0.5,"SideOfStreet":"left","CountryId":"20215059","StateId":"20221909","CountyId":"20221914","CityId":"20310385","AddressId":"405540234","RoadLinkId":"318756902"}}},{"Relevance":1.0,"Distance":36.3,"MatchLevel":"houseNumber","MatchQuality":{"Country":1.0,"State":1.0,"County":1.0,"City":1.0,"Street":[1.0],"HouseNumber":1.0,"PostalCode":1.0},"MatchType":"interpolated","Location":{"LocationId":"NT_YBT2dLLbTPA.x8Hl6I5yYA_5A","LocationType":"point","DisplayPosition":{"Latitude":41.0725,"Longitude":-5.56724},"MapView":{"TopLeft":{"Latitude":41.0736242,"Longitude":-5.5687312},"BottomRight":{"Latitude":41.0713758,"Longitude":-5.5657488}},"Address":{"Label":"Calle Generalisimo, 9, 37427 La Vellés (Salamanca), España","Country":"ESP","State":"Castilla y León","County":"Salamanca","City":"La Vellés","Street":"Calle Generalisimo","HouseNumber":"9","PostalCode":"37427","AdditionalData":[{"value":"España","key":"CountryName"},{"value":"Castilla y León","key":"StateName"},{"value":"Salamanca","key":"CountyName"}]},"MapReference":{"ReferenceId":"539045332","Spot":0.19,"SideOfStreet":"left","CountryId":"20215059","StateId":"20221909","CountyId":"20221914","CityId":"20310385","AddressId":"405393963","RoadLinkId":"68939730"}}},{"Relevance":1.0,"Distance":42.0,"MatchLevel":"houseNumber","MatchQuality":{"Country":1.0,"State":1.0,"County":1.0,"City":1.0,"Street":[1.0],"HouseNumber":1.0,"PostalCode":1.0},"MatchType":"interpolated","Location":{"LocationId":"NT_VI6WV2dgKlswmY9UtNH9NB_0A","LocationType":"point","DisplayPosition":{"Latitude":41.07325,"Longitude":-5.56723},"MapView":{"TopLeft":{"Latitude":41.0743742,"Longitude":-5.5687212},"BottomRight":{"Latitude":41.0721258,"Longitude":-5.5657388}},"Address":{"Label":"Calle Pajares, 4, 37427 La Vellés (Salamanca), España","Country":"ESP","State":"Castilla y León","County":"Salamanca","City":"La Vellés","Street":"Calle Pajares","HouseNumber":"4","PostalCode":"37427","AdditionalData":[{"value":"España","key":"CountryName"},{"value":"Castilla y León","key":"StateName"},{"value":"Salamanca","key":"CountyName"}]},"MapReference":{"ReferenceId":"573575015","Spot":0.57,"SideOfStreet":"left","CountryId":"20215059","StateId":"20221909","CountyId":"20221914","CityId":"20310385","AddressId":"405391899","RoadLinkId":"68196800"}}},{"Relevance":1.0,"Distance":47.7,"MatchLevel":"houseNumber","MatchQuality":{"Country":1.0,"State":1.0,"County":1.0,"City":1.0,"Street":[1.0],"HouseNumber":1.0,"PostalCode":1.0},"MatchType":"interpolated","Location":{"LocationId":"NT_1Qg6StZcEgnmaFGhCaDEaB_xID","LocationType":"point","DisplayPosition":{"Latitude":41.07307,"Longitude":-5.56798},"MapView":{"TopLeft":{"Latitude":41.0741942,"Longitude":-5.5694712},"BottomRight":{"Latitude":41.0719458,"Longitude":-5.5664888}},"Address":{"Label":"Calle de la Iglesia, 12, 37427 La Vellés (Salamanca), España","Country":"ESP","State":"Castilla y León","County":"Salamanca","City":"La Vellés","Street":"Calle de la Iglesia","HouseNumber":"12","PostalCode":"37427","AdditionalData":[{"value":"España","key":"CountryName"},{"value":"Castilla y León","key":"StateName"},{"value":"Salamanca","key":"CountyName"}]},"MapReference":{"ReferenceId":"573575006","Spot":0.51,"SideOfStreet":"left","CountryId":"20215059","StateId":"20221909","CountyId":"20221914","CityId":"20310385","AddressId":"405538592","RoadLinkId":"67767157"}}},{"Relevance":1.0,"Distance":52.2,"MatchLevel":"houseNumber","MatchQuality":{"Country":1.0,"State":1.0,"County":1.0,"City":1.0,"Street":[1.0],"HouseNumber":1.0,"PostalCode":1.0},"MatchType":"interpolated","Location":{"LocationId":"NT_YBT2dLLbTPA.x8Hl6I5yYA_3ME","LocationType":"point","DisplayPosition":{"Latitude":41.07229,"Longitude":-5.56737},"MapView":{"TopLeft":{"Latitude":41.0734142,"Longitude":-5.5688612},"BottomRight":{"Latitude":41.0711658,"Longitude":-5.5658788}},"Address":{"Label":"Calle Generalisimo, 7C, 37427 La Vellés (Salamanca), España","Country":"ESP","State":"Castilla y León","County":"Salamanca","City":"La Vellés","Street":"Calle Generalisimo","HouseNumber":"7C","PostalCode":"37427","AdditionalData":[{"value":"España","key":"CountryName"},{"value":"Castilla y León","key":"StateName"},{"value":"Salamanca","key":"CountyName"}]},"MapReference":{"ReferenceId":"539045334","Spot":0.87,"SideOfStreet":"left","CountryId":"20215059","StateId":"20221909","CountyId":"20221914","CityId":"20310385","AddressId":"405393970","RoadLinkId":"68766868"}}},{"Relevance":1.0,"Distance":56.7,"MatchLevel":"houseNumber","MatchQuality":{"Country":1.0,"State":1.0,"County":1.0,"City":1.0,"Street":[1.0],"HouseNumber":1.0,"PostalCode":1.0},"MatchType":"interpolated","Location":{"LocationId":"NT_8cbfR1nQHb6AIPHvlAhy7A_3A","LocationType":"point","DisplayPosition":{"Latitude":41.07326,"Longitude":-5.56799},"MapView":{"TopLeft":{"Latitude":41.0743842,"Longitude":-5.5694812},"BottomRight":{"Latitude":41.0721358,"Longitude":-5.5664988}},"Address":{"Label":"Plaza José Antonio, 7, 37427 La Vellés (Salamanca), España","Country":"ESP","State":"Castilla y León","County":"Salamanca","City":"La Vellés","Street":"Plaza José Antonio","HouseNumber":"7","PostalCode":"37427","AdditionalData":[{"value":"España","key":"CountryName"},{"value":"Castilla y León","key":"StateName"},{"value":"Salamanca","key":"CountyName"}]},"MapReference":{"ReferenceId":"573575045","Spot":0.28,"SideOfStreet":"right","CountryId":"20215059","StateId":"20221909","CountyId":"20221914","CityId":"20310385","AddressId":"405385597","RoadLinkId":"69151890"}}}]}]}}