{"Response":{"MetaInfo":{"Timestamp":"2020-03-28T09:59:40.524+0000","NextPageInformation":"2"},"View":[{"_type":"SearchResultsViewType","ViewId":0,"Result":[{"Relevance":1.0,"Distance":0.0,"Direction":0.0,"MatchLevel":"district","MatchQuality":{"Country":1.0,"County":1.0,"City":1.0,"District":1.0,"PostalCode":1.0},"Location":{"LocationId":"NT_QuhNBYVt8P4iKTTHbMlOyA","LocationType":"point","DisplayPosition":{"Latitude":41.1833673,"Longitude":-8.5387693},"MapView":{"TopLeft":{"Latitude":41.18519,"Longitude":-8.53905},"BottomRight":{"Latitude":41.18068,"Longitude":-8.53364}},"Address":{"Label":"Baixinho, Gondomar, Portugal","Country":"PRT","County":"Porto","City":"Gondomar","District":"Baixinho","PostalCode":"4435-667","AdditionalData":[{"value":"Portugal","key":"CountryName"},{"value":"Porto","key":"CountyName"}]},"MapReference":{"ReferenceId":"1160229043","SideOfStreet":"neither","CountryId":"20317122","CountyId":"20319762","CityId":"20319859","DistrictId":"20609115"}}},{"Relevance":1.0,"Distance":23.8,"MatchLevel":"houseNumber","MatchQuality":{"Country":1.0,"County":1.0,"City":1.0,"District":1.0,"Street":[1.0],"HouseNumber":1.0,"PostalCode":1.0},"MatchType":"interpolated","Location":{"LocationId":"NT_NdLv7dkSQLPhpa2j8fyNFA_zUTO","LocationType":"point","DisplayPosition":{"Latitude":41.18362,"Longitude":-8.53841},"MapView":{"TopLeft":{"Latitude":41.1847442,"Longitude":-8.5399037},"BottomRight":{"Latitude":41.1824958,"Longitude":-8.5369163}},"Address":{"Label":"Rua Dom António Castro Meireles 359, 4435-668 Gondomar, Portugal","Country":"PRT","County":"Porto","City":"Gondomar","District":"Baixinho","Street":"Rua Dom António Castro Meireles","HouseNumber":"359","PostalCode":"4435-668","AdditionalData":[{"value":"Portugal","key":"CountryName"},{"value":"Porto","key":"CountyName"}]},"MapReference":{"ReferenceId":"1226695142","Spot":0.29,"SideOfStreet":"left","CountryId":"20317122","CountyId":"20319762","CityId":"20319859","DistrictId":"20609115","AddressId":"344004807","RoadLinkId":"545166637"}}},{"Relevance":1.0,"Distance":36.7,"MatchLevel":"houseNumber","MatchQuality":{"Country":1.0,"County":1.0,"City":1.0,"District":1.0,"Street":[1.0],"HouseNumber":1.0,"PostalCode":1.0},"MatchType":"interpolated","Location":{"LocationId":"NT_vwngHuea4WEYYcIm9KRz0D_l_1160275103_L_zUzM","LocationType":"point","DisplayPosition":{"Latitude":41.1834609,"Longitude":-8.53823},"MapView":{"TopLeft":{"Latitude":41.1845851,"Longitude":-8.5397237},"BottomRight":{"Latitude":41.1823368,"Longitude":-8.5367363}},"Address":{"Label":"Rua Dom António Castro Meireles 353, 4435-668 Gondomar, Portugal","Country":"PRT","County":"Porto","City":"Gondomar","District":"Baixinho","Street":"Rua Dom António Castro Meireles","HouseNumber":"353","PostalCode":"4435-668","AdditionalData":[{"value":"Portugal","key":"CountryName"},{"value":"Porto","key":"CountyName"}]},"MapReference":{"ReferenceId":"1160275103","Spot":0.91,"SideOfStreet":"left","CountryId":"20317122","CountyId":"20319762","CityId":"20319859","DistrictId":"20609115"}}},{"Relevance":1.0,"Distance":45.6,"MatchLevel":"houseNumber","MatchQuality":{"Country":1.0,"County":1.0,"City":1.0,"District":1.0,"Street":[1.0],"HouseNumber":1.0,"PostalCode":1.0},"MatchType":"interpolated","Location":{"LocationId":"NT_pfuRqtXCZ3fevs7QMQUyLD_5YjM","LocationType":"point","DisplayPosition":{"Latitude":41.18343,"Longitude":-8.53935},"MapView":{"TopLeft":{"Latitude":41.1845542,"Longitude":-8.5408437},"BottomRight":{"Latitude":41.1823058,"Longitude":-8.5378563}},"Address":{"Label":"Rua da Carreira 962, 4435 Gondomar, Portugal","Country":"PRT","County":"Porto","City":"Gondomar","District":"Baguim do Monte","Street":"Rua da Carreira","HouseNumber":"962","PostalCode":"4435","AdditionalData":[{"value":"Portugal","key":"CountryName"},{"value":"Porto","key":"CountyName"}]},"MapReference":{"ReferenceId":"545934764","Spot":0.96,"SideOfStreet":"right","CountryId":"20317122","CountyId":"20319762","CityId":"20319859","DistrictId":"20591309","AddressId":"377245516","RoadLinkId":"69918122"}}},{"Relevance":1.0,"Distance":62.9,"MatchLevel":"houseNumber","MatchQuality":{"Country":1.0,"County":1.0,"City":1.0,"District":1.0,"Street":[1.0],"HouseNumber":1.0,"PostalCode":1.0},"MatchType":"interpolated","Location":{"LocationId":"NT_NdLv7dkSQLPhpa2j8fyNFA_zMzM","LocationType":"point","DisplayPosition":{"Latitude":41.18319,"Longitude":-8.53791},"MapView":{"TopLeft":{"Latitude":41.1843142,"Longitude":-8.5394037},"BottomRight":{"Latitude":41.1820658,"Longitude":-8.5364163}},"Address":{"Label":"Rua Dom António Castro Meireles 333, 4435-668 Gondomar, Portugal","Country":"PRT","County":"Porto","City":"Gondomar","District":"Baixinho","Street":"Rua Dom António Castro Meireles","HouseNumber":"333","PostalCode":"4435-668","AdditionalData":[{"value":"Portugal","key":"CountryName"},{"value":"Porto","key":"CountyName"}]},"MapReference":{"ReferenceId":"1162048137","Spot":0.35,"SideOfStreet":"left","CountryId":"20317122","CountyId":"20319762","CityId":"20319859","DistrictId":"20609115","AddressId":"343428173","RoadLinkId":"468223844"}}},{"Relevance":1.0,"Distance":67.2,"MatchLevel":"street","MatchQuality":{"Country":1.0,"County":1.0,"City":1.0,"District":1.0,"Street":[1.0],"PostalCode":1.0},"Location":{"LocationId":"NT_NdLv7dkSQLPhpa2j8fyNFA_l_1226695143_L","LocationType":"point","DisplayPosition":{"Latitude":41.18397,"Longitude":-8.53883},"MapView":{"TopLeft":{"Latitude":41.18403,"Longitude":-8.53889},"BottomRight":{"Latitude":41.18397,"Longitude":-8.53883}},"Address":{"Label":"Rua Dom António Castro Meireles, 4435-668 Gondomar, Portugal","Country":"PRT","County":"Porto","City":"Gondomar","District":"Baixinho","Street":"Rua Dom António Castro Meireles","PostalCode":"4435-668","AdditionalData":[{"value":"Portugal","key":"CountryName"},{"value":"Porto","key":"CountyName"}]},"MapReference":{"ReferenceId":"1226695143","Spot":0.0,"SideOfStreet":"left","CountryId":"20317122","CountyId":"20319762","CityId":"20319859","DistrictId":"20609115"}}},{"Relevance":1.0,"Distance":73.8,"MatchLevel":"houseNumber","MatchQuality":{"Country":1.0,"County":1.0,"City":1.0,"District":1.0,"Street":[1.0],"HouseNumber":1.0,"PostalCode":1.0},"MatchType":"interpolated","Location":{"LocationId":"NT_SEWVAx.8vRvgXXlthRJ0LB_l_545933058_R_zAD","LocationType":"point","DisplayPosition":{"Latitude":41.1835098,"Longitude":-8.5379085},"MapView":{"TopLeft":{"Latitude":41.1846339,"Longitude":-8.5394022},"BottomRight":{"Latitude":41.1823856,"Longitude":-8.5364148}},"Address":{"Label":"Travessa Tomás Barbosa Leão 30, 4435-816 Gondomar, Portugal","Country":"PRT","County":"Porto","City":"Gondomar","District":"Baixinho","Street":"Travessa Tomás Barbosa Leão","HouseNumber":"30","PostalCode":"4435-816","AdditionalData":[{"value":"Portugal","key":"CountryName"},{"value":"Porto","key":"CountyName"}]},"MapReference":{"ReferenceId":"545933058","Spot":0.52,"SideOfStreet":"right","CountryId":"20317122","CountyId":"20319762","CityId":"20319859","DistrictId":"20609115"}}},{"Relevance":1.0,"Distance":74.4,"MatchLevel":"street","MatchQuality":{"Country":1.0,"County":1.0,"City":1.0,"District":1.0,"Street":[1.0],"PostalCode":1.0},"Location":{"LocationId":"NT_vwngHuea4WEYYcIm9KRz0D_l_1162048136_L","LocationType":"point","DisplayPosition":{"Latitude":41.18403,"Longitude":-8.53889},"MapView":{"TopLeft":{"Latitude":41.18416,"Longitude":-8.53905},"BottomRight":{"Latitude":41.18403,"Longitude":-8.53889}},"Address":{"Label":"Rua Dom António Castro Meireles, 4435-668 Gondomar, Portugal","Country":"PRT","County":"Porto","City":"Gondomar","District":"Baixinho","Street":"Rua Dom António Castro Meireles","PostalCode":"4435-668","AdditionalData":[{"value":"Portugal","key":"CountryName"},{"value":"Porto","key":"CountyName"}]},"MapReference":{"ReferenceId":"1162048136","Spot":0.0,"SideOfStreet":"left","CountryId":"20317122","CountyId":"20319762","CityId":"20319859","DistrictId":"20609115"}}},{"Relevance":1.0,"Distance":82.3,"MatchLevel":"houseNumber","MatchQuality":{"Country":1.0,"County":1.0,"City":1.0,"District":1.0,"Street":[1.0],"HouseNumber":1.0,"PostalCode":1.0},"MatchType":"interpolated","Location":{"LocationId":"NT_pfuRqtXCZ3fevs7QMQUyLD_xADMzA","LocationType":"point","DisplayPosition":{"Latitude":41.18407,"Longitude":-8.53908},"MapView":{"TopLeft":{"Latitude":41.1851942,"Longitude":-8.5405737},"BottomRight":{"Latitude":41.1829458,"Longitude":-8.5375863}},"Address":{"Label":"Rua da Carreira 1003, 4435 Gondomar, Portugal","Country":"PRT","County":"Porto","City":"Gondomar","District":"Baguim do Monte","Street":"Rua da Carreira","HouseNumber":"1003","PostalCode":"4435","AdditionalData":[{"value":"Portugal","key":"CountryName"},{"value":"Porto","key":"CountyName"}]},"MapReference":{"ReferenceId":"545934765","Spot":0.87,"SideOfStreet":"left","CountryId":"20317122","CountyId":"20319762","CityId":"20319859","DistrictId":"20591309","AddressId":"377228487","RoadLinkId":"70025160"}}},{"Relevance":1.0,"Distance":87.6,"MatchLevel":"street","MatchQuality":{"Country":1.0,"County":1.0,"City":1.0,"District":1.0,"PostalCode":1.0},"Location":{"LocationId":"NT_MBvPOOwNgYgEApj4Zbu5JD_l_545933077_L","LocationType":"point","DisplayPosition":{"Latitude":41.18309,"Longitude":-8.53779},"MapView":{"TopLeft":{"Latitude":41.18338,"Longitude":-8.53779},"BottomRight":{"Latitude":41.18309,"Longitude":-8.53737}},"Address":{"Label":"4435 Gondomar, Portugal","Country":"PRT","County":"Porto","City":"Gondomar","District":"Baixinho","PostalCode":"4435","AdditionalData":[{"value":"Portugal","key":"CountryName"},{"value":"Porto","key":"CountyName"}]},"MapReference":{"ReferenceId":"545933077","Spot":0.0,"SideOfStreet":"left","CountryId":"20317122","CountyId":"20319762","CityId":"20319859","DistrictId":"20609115"}}}]}]}}