{"Response":{"MetaInfo":{"Timestamp":"2020-03-28T09:58:52.594+0000","NextPageInformation":"2"},"View":[{"_type":"SearchResultsViewType","ViewId":0,"Result":[{"Relevance":1.0,"Distance":0.0,"Direction":0.0,"MatchLevel":"district","MatchQuality":{"Country":1.0,"County":1.0,"City":1.0,"District":1.0,"PostalCode":1.0},"Location":{"LocationId":"NT_6M0CJ0CkS.dVMaiHaGfoBD","LocationType":"point","DisplayPosition":{"Latitude":41.1287122,"Longitude":-8.65394},"MapView":{"TopLeft":{"Latitude":41.14305,"Longitude":-8.66704},"BottomRight":{"Latitude":41.10598,"Longitude":-8.63137}},"Address":{"Label":"Canidelo, Vila Nova de Gaia, Portugal","Country":"PRT","County":"Porto","City":"Vila Nova de Gaia","District":"Canidelo","PostalCode":"4400-572","AdditionalData":[{"value":"Portugal","key":"CountryName"},{"value":"Porto","key":"CountyName"}]},"MapReference":{"ReferenceId":"545942345","SideOfStreet":"neither","CountryId":"20317122","CountyId":"20319762","CityId":"20320138","DistrictId":"23391948"}}},{"Relevance":1.0,"Distance":26.2,"MatchLevel":"houseNumber","MatchQuality":{"Country":1.0,"County":1.0,"City":1.0,"District":1.0,"Street":[1.0],"HouseNumber":1.0,"PostalCode":1.0},"MatchType":"interpolated","Location":{"LocationId":"NT_hnJpIxWGaP7-IJ48tlN35C_ygjM","LocationType":"point","DisplayPosition":{"Latitude":41.1288,"Longitude":-8.65365},"MapView":{"TopLeft":{"Latitude":41.1299242,"Longitude":-8.6551424},"BottomRight":{"Latitude":41.1276758,"Longitude":-8.6521576}},"Address":{"Label":"Rua das Fábricas 282, 4400-712 Vila Nova de Gaia, Portugal","Country":"PRT","County":"Porto","City":"Vila Nova de Gaia","District":"Canidelo","Street":"Rua das Fábricas","HouseNumber":"282","PostalCode":"4400-712","AdditionalData":[{"value":"Portugal","key":"CountryName"},{"value":"Porto","key":"CountyName"}]},"MapReference":{"ReferenceId":"768767012","Spot":0.7,"SideOfStreet":"right","CountryId":"20317122","CountyId":"20319762","CityId":"20320138","DistrictId":"23391948","AddressId":"343623925","RoadLinkId":"162349053"}}},{"Relevance":1.0,"Distance":60.0,"MatchLevel":"houseNumber","MatchQuality":{"Country":1.0,"County":1.0,"City":1.0,"District":1.0,"Street":[1.0],"HouseNumber":1.0,"PostalCode":1.0},"MatchType":"interpolated","Location":{"LocationId":"NT_JvAqpeVBIYwNeAFOt212uA_l_768767016_R_xEDM3A","LocationType":"point","DisplayPosition":{"Latitude":41.1282825,"Longitude":-8.6546225},"MapView":{"TopLeft":{"Latitude":41.1294067,"Longitude":-8.656115},"BottomRight":{"Latitude":41.1271584,"Longitude":-8.6531301}},"Address":{"Label":"Rua da Estamparia de Lavadores 1107, 4400-455 Vila Nova de Gaia, Portugal","Country":"PRT","County":"Porto","City":"Vila Nova de Gaia","District":"Canidelo","Street":"Rua da Estamparia de Lavadores","HouseNumber":"1107","PostalCode":"4400-455","AdditionalData":[{"value":"Portugal","key":"CountryName"},{"value":"Porto","key":"CountyName"}]},"MapReference":{"ReferenceId":"768767016","Spot":0.38,"SideOfStreet":"right","CountryId":"20317122","CountyId":"20319762","CityId":"20320138","DistrictId":"23391948"}}},{"Relevance":1.0,"Distance":65.0,"MatchLevel":"street","MatchQuality":{"Country":1.0,"County":1.0,"City":1.0,"District":1.0,"Street":[1.0],"PostalCode":1.0},"Location":{"LocationId":"NT_giQugLOhY8xKY6T.Qsd5nA_l_768767017_L","LocationType":"point","DisplayPosition":{"Latitude":41.1281314,"Longitude":-8.6538507},"MapView":{"TopLeft":{"Latitude":41.12888,"Longitude":-8.65438},"BottomRight":{"Latitude":41.12805,"Longitude":-8.65293}},"Address":{"Label":"Rua do Centro de Saúde, 4400-713 Vila Nova de Gaia, Portugal","Country":"PRT","County":"Porto","City":"Vila Nova de Gaia","District":"Canidelo","Street":"Rua do Centro de Saúde","PostalCode":"4400-713","AdditionalData":[{"value":"Portugal","key":"CountryName"},{"value":"Porto","key":"CountyName"}]},"MapReference":{"ReferenceId":"768767017","Spot":0.26,"SideOfStreet":"left","CountryId":"20317122","CountyId":"20319762","CityId":"20320138","DistrictId":"23391948"}}},{"Relevance":1.0,"Distance":76.0,"MatchLevel":"street","MatchQuality":{"Country":1.0,"County":1.0,"City":1.0,"District":1.0,"Street":[1.0],"PostalCode":1.0},"Location":{"LocationId":"NT_hnJpIxWGaP7-IJ48tlN35C_l_768767013_R","LocationType":"point","DisplayPosition":{"Latitude":41.12888,"Longitude":-8.65306},"MapView":{"TopLeft":{"Latitude":41.12903,"Longitude":-8.65306},"BottomRight":{"Latitude":41.12888,"Longitude":-8.65193}},"Address":{"Label":"Rua das Fábricas, 4400-712 Vila Nova de Gaia, Portugal","Country":"PRT","County":"Porto","City":"Vila Nova de Gaia","District":"Canidelo","Street":"Rua das Fábricas","PostalCode":"4400-712","AdditionalData":[{"value":"Portugal","key":"CountryName"},{"value":"Porto","key":"CountyName"}]},"MapReference":{"ReferenceId":"768767013","Spot":0.0,"SideOfStreet":"right","CountryId":"20317122","CountyId":"20319762","CityId":"20320138","DistrictId":"23391948"}}},{"Relevance":1.0,"Distance":76.7,"MatchLevel":"street","MatchQuality":{"Country":1.0,"County":1.0,"City":1.0,"District":1.0,"Street":[1.0],"PostalCode":1.0},"Location":{"LocationId":"NT_cTJoEU64mcRmB5VhsJhwqC_l_768767014_L","LocationType":"point","DisplayPosition":{"Latitude":41.1289365,"Longitude":-8.6530747},"MapView":{"TopLeft":{"Latitude":41.12942,"Longitude":-8.6532},"BottomRight":{"Latitude":41.12888,"Longitude":-8.65306}},"Address":{"Label":"Travessa José Maria Alves, 4400-483 Vila Nova de Gaia, Portugal","Country":"PRT","County":"Porto","City":"Vila Nova de Gaia","District":"Canidelo","Street":"Travessa José Maria Alves","PostalCode":"4400-483","AdditionalData":[{"value":"Portugal","key":"CountryName"},{"value":"Porto","key":"CountyName"}]},"MapReference":{"ReferenceId":"768767014","Spot":0.1,"SideOfStreet":"left","CountryId":"20317122","CountyId":"20319762","CityId":"20320138","DistrictId":"23391948"}}},{"Relevance":1.0,"Distance":82.3,"MatchLevel":"street","MatchQuality":{"Country":1.0,"County":1.0,"City":1.0,"District":1.0,"Street":[1.0],"PostalCode":1.0},"Location":{"LocationId":"NT_giQugLOhY8xKY6T.Qsd5nA_l_768767023_L","LocationType":"point","DisplayPosition":{"Latitude":41.12805,"Longitude":-8.65438},"MapView":{"TopLeft":{"Latitude":41.12805,"Longitude":-8.65538},"BottomRight":{"Latitude":41.1279,"Longitude":-8.65438}},"Address":{"Label":"Rua do Centro de Saúde, 4400-713 Vila Nova de Gaia, Portugal","Country":"PRT","County":"Porto","City":"Vila Nova de Gaia","District":"Canidelo","Street":"Rua do Centro de Saúde","PostalCode":"4400-713","AdditionalData":[{"value":"Portugal","key":"CountryName"},{"value":"Porto","key":"CountyName"}]},"MapReference":{"ReferenceId":"768767023","Spot":1.0,"SideOfStreet":"left","CountryId":"20317122","CountyId":"20319762","CityId":"20320138","DistrictId":"23391948"}}},{"Relevance":1.0,"Distance":87.3,"MatchLevel":"houseNumber","MatchQuality":{"Country":1.0,"County":1.0,"City":1.0,"District":1.0,"Street":[1.0],"HouseNumber":1.0,"PostalCode":1.0},"MatchType":"interpolated","Location":{"LocationId":"NT_JvAqpeVBIYwNeAFOt212uA_l_768767015_R_xEDM1A","LocationType":"point","DisplayPosition":{"Latitude":41.1278486,"Longitude":-8.6542514},"MapView":{"TopLeft":{"Latitude":41.1289727,"Longitude":-8.6557438},"BottomRight":{"Latitude":41.1267244,"Longitude":-8.652759}},"Address":{"Label":"Rua da Estamparia de Lavadores 1105, 4400-455 Vila Nova de Gaia, Portugal","Country":"PRT","County":"Porto","City":"Vila Nova de Gaia","District":"Canidelo","Street":"Rua da Estamparia de Lavadores","HouseNumber":"1105","PostalCode":"4400-455","AdditionalData":[{"value":"Portugal","key":"CountryName"},{"value":"Porto","key":"CountyName"}]},"MapReference":{"ReferenceId":"768767015","Spot":0.73,"SideOfStreet":"right","CountryId":"20317122","CountyId":"20319762","CityId":"20320138","DistrictId":"23391948"}}},{"Relevance":1.0,"Distance":99.9,"MatchLevel":"houseNumber","MatchQuality":{"Country":1.0,"County":1.0,"City":1.0,"District":1.0,"Street":[1.0],"HouseNumber":1.0,"PostalCode":1.0},"MatchType":"interpolated","Location":{"LocationId":"NT_sWMTi08QQVHeiQaPReilwA_xMjN","LocationType":"point","DisplayPosition":{"Latitude":41.12964,"Longitude":-8.65449},"MapView":{"TopLeft":{"Latitude":41.1307642,"Longitude":-8.6559825},"BottomRight":{"Latitude":41.1285158,"Longitude":-8.6529975}},"Address":{"Label":"Rua José Maria Alves 136, 4400-482 Vila Nova de Gaia, Portugal","Country":"PRT","County":"Porto","City":"Vila Nova de Gaia","District":"Canidelo","Street":"Rua José Maria Alves","HouseNumber":"136","PostalCode":"4400-482","AdditionalData":[{"value":"Portugal","key":"CountryName"},{"value":"Porto","key":"CountyName"}]},"MapReference":{"ReferenceId":"768767035","Spot":0.53,"SideOfStreet":"right","CountryId":"20317122","CountyId":"20319762","CityId":"20320138","DistrictId":"23391948","AddressId":"343595742","RoadLinkId":"162349077"}}},{"Relevance":1.0,"Distance":105.1,"MatchLevel":"street","MatchQuality":{"Country":1.0,"County":1.0,"City":1.0,"District":1.0,"Street":[1.0],"PostalCode":1.0},"Location":{"LocationId":"NT_sWMTi08QQVHeiQaPReilwA_l_768767034_R","LocationType":"point","DisplayPosition":{"Latitude":41.1294,"Longitude":-8.6548},"MapView":{"TopLeft":{"Latitude":41.1294,"Longitude":-8.6555},"BottomRight":{"Latitude":41.12888,"Longitude":-8.6548}},"Address":{"Label":"Rua José Maria Alves, 4400-482 Vila Nova de Gaia, Portugal","Country":"PRT","County":"Porto","City":"Vila Nova de Gaia","District":"Canidelo","Street":"Rua José Maria Alves","PostalCode":"4400-482","AdditionalData":[{"value":"Portugal","key":"CountryName"},{"value":"Porto","key":"CountyName"}]},"MapReference":{"ReferenceId":"768767034","Spot":1.0,"SideOfStreet":"right","CountryId":"20317122","CountyId":"20319762","CityId":"20320138","DistrictId":"23391948"}}}]}]}}