{"Response":{"MetaInfo":{"Timestamp":"2020-03-28T11:24:21.862+0000","NextPageInformation":"2"},"View":[{"_type":"SearchResultsViewType","ViewId":0,"Result":[{"Relevance":1.0,"Distance":0.0,"Direction":0.0,"MatchLevel":"city","MatchQuality":{"Country":1.0,"State":1.0,"County":1.0,"City":1.0,"PostalCode":1.0},"Location":{"LocationId":"NT_179ojBpSsnjIoUZiP4WtaA","LocationType":"point","DisplayPosition":{"Latitude":41.1200476,"Longitude":14.7934953},"MapView":{"TopLeft":{"Latitude":41.22471,"Longitude":14.70887},"BottomRight":{"Latitude":41.08997,"Longitude":14.87022}},"Address":{"Label":"Benevento, Campania, Italia","Country":"ITA","State":"Campania","County":"BN","City":"Benevento","PostalCode":"82100","AdditionalData":[{"value":"Italia","key":"CountryName"},{"value":"Campania","key":"StateName"},{"value":"Benevento","key":"CountyName"}]},"MapReference":{"ReferenceId":"76360153","SideOfStreet":"neither","CountryId":"20110484","StateId":"20127654","CountyId":"20218487","CityId":"20237449"}}},{"Relevance":1.0,"Distance":4.3,"MatchLevel":"landmark","MatchQuality":{"Country":1.0,"State":1.0,"County":1.0,"City":1.0,"Street":[1.0],"PostalCode":1.0,"Name":1.0},"Location":{"LocationId":"NT_hb12.CT30ebaVwNm8pjYIB_p_JOpqLBaG0MDJO1jHp5UcYB","LocationType":"hospital","Name":"Gaetano Rummo","DisplayPosition":{"Latitude":41.11842,"Longitude":14.79608},"MapView":{"TopLeft":{"Latitude":41.12052,"Longitude":14.79345},"BottomRight":{"Latitude":41.11801,"Longitude":14.79715}},"Address":{"Label":"Via Luigi Firrao, 82100 Benevento BN, Italia","Country":"ITA","State":"Campania","County":"BN","City":"Benevento","Street":"Via Luigi Firrao","PostalCode":"82100","AdditionalData":[{"value":"Italia","key":"CountryName"},{"value":"Campania","key":"StateName"},{"value":"Benevento","key":"CountyName"}]},"MapReference":{"CountryId":"20110484","StateId":"20127654","CountyId":"20218487","CityId":"20237449","PlaceId":"55512326"}}},{"Relevance":1.0,"Distance":14.1,"MatchLevel":"houseNumber","MatchQuality":{"Country":1.0,"State":1.0,"County":1.0,"City":1.0,"Street":[1.0],"HouseNumber":1.0,"PostalCode":1.0},"MatchType":"interpolated","Location":{"LocationId":"NT_7S1PLi-scFkaPMHSQC5-iD_0kD","LocationType":"point","DisplayPosition":{"Latitude":41.12009,"Longitude":14.79336},"MapView":{"TopLeft":{"Latitude":41.1212142,"Longitude":14.7918678},"BottomRight":{"Latitude":41.1189658,"Longitude":14.7948522}},"Address":{"Label":"Via Pacevecchia, 49, 82100 Benevento BN, Italia","Country":"ITA","State":"Campania","County":"BN","City":"Benevento","Street":"Via Pacevecchia","HouseNumber":"49","PostalCode":"82100","AdditionalData":[{"value":"Italia","key":"CountryName"},{"value":"Campania","key":"StateName"},{"value":"Benevento","key":"CountyName"}]},"MapReference":{"ReferenceId":"1046278317","Spot":0.19,"SideOfStreet":"right","CountryId":"20110484","StateId":"20127654","CountyId":"20218487","CityId":"20237449","AddressId":"574034708","RoadLinkId":"366338293"}}},{"Relevance":1.0,"Distance":24.8,"MatchLevel":"houseNumber","MatchQuality":{"Country":1.0,"State":1.0,"County":1.0,"City":1.0,"Street":[1.0],"HouseNumber":1.0,"PostalCode":1.0},"MatchType":"interpolated","Location":{"LocationId":"NT_7S1PLi-scFkaPMHSQC5-iD_1ED","LocationType":"point","DisplayPosition":{"Latitude":41.11983,"Longitude":14.79356},"MapView":{"TopLeft":{"Latitude":41.1209542,"Longitude":14.7920678},"BottomRight":{"Latitude":41.1187058,"Longitude":14.7950522}},"Address":{"Label":"Via Pacevecchia, 51, 82100 Benevento BN, Italia","Country":"ITA","State":"Campania","County":"BN","City":"Benevento","Street":"Via Pacevecchia","HouseNumber":"51","PostalCode":"82100","AdditionalData":[{"value":"Italia","key":"CountryName"},{"value":"Campania","key":"StateName"},{"value":"Benevento","key":"CountyName"}]},"MapReference":{"ReferenceId":"1046278316","Spot":0.85,"SideOfStreet":"right","CountryId":"20110484","StateId":"20127654","CountyId":"20218487","CityId":"20237449","AddressId":"765306886","RoadLinkId":"366338292"}}},{"Relevance":1.0,"Distance":77.7,"MatchLevel":"houseNumber","MatchQuality":{"Country":1.0,"State":1.0,"County":1.0,"City":1.0,"Street":[1.0],"HouseNumber":1.0,"PostalCode":1.0},"MatchType":"interpolated","Location":{"LocationId":"NT_7S1PLi-scFkaPMHSQC5-iD_xMD","LocationType":"point","DisplayPosition":{"Latitude":41.12062,"Longitude":14.79297},"MapView":{"TopLeft":{"Latitude":41.1217442,"Longitude":14.7914777},"BottomRight":{"Latitude":41.1194958,"Longitude":14.7944623}},"Address":{"Label":"Via Pacevecchia, 13, 82100 Benevento BN, Italia","Country":"ITA","State":"Campania","County":"BN","City":"Benevento","Street":"Via Pacevecchia","HouseNumber":"13","PostalCode":"82100","AdditionalData":[{"value":"Italia","key":"CountryName"},{"value":"Campania","key":"StateName"},{"value":"Benevento","key":"CountyName"}]},"MapReference":{"ReferenceId":"901262260","Spot":0.07,"SideOfStreet":"right","CountryId":"20110484","StateId":"20127654","CountyId":"20218487","CityId":"20237449","AddressId":"574013521","RoadLinkId":"262872758"}}},{"Relevance":1.0,"Distance":115.6,"MatchLevel":"street","MatchQuality":{"Country":1.0,"State":1.0,"County":1.0,"City":1.0,"PostalCode":1.0},"Location":{"LocationId":"NT_dm6iIwXwfsYgsy5urbstVD_l_1046366869_L","LocationType":"point","DisplayPosition":{"Latitude":41.12068,"Longitude":14.79459},"MapView":{"TopLeft":{"Latitude":41.12126,"Longitude":14.79459},"BottomRight":{"Latitude":41.12068,"Longitude":14.79535}},"Address":{"Label":"82100 Benevento BN, Italia","Country":"ITA","State":"Campania","County":"BN","City":"Benevento","PostalCode":"82100","AdditionalData":[{"value":"Italia","key":"CountryName"},{"value":"Campania","key":"StateName"},{"value":"Benevento","key":"CountyName"}]},"MapReference":{"ReferenceId":"1046366869","Spot":0.0,"SideOfStreet":"left","CountryId":"20110484","StateId":"20127654","CountyId":"20218487","CityId":"20237449"}}},{"Relevance":1.0,"Distance":127.8,"MatchLevel":"street","MatchQuality":{"Country":1.0,"State":1.0,"County":1.0,"City":1.0,"Street":[1.0],"PostalCode":1.0},"Location":{"LocationId":"NT_Mop0uGWxJ78qXS0.VYi1sB_l_897458046_L","LocationType":"point","DisplayPosition":{"Latitude":41.1190202,"Longitude":14.7941803},"MapView":{"TopLeft":{"Latitude":41.11908,"Longitude":14.79411},"BottomRight":{"Latitude":41.11896,"Longitude":14.79427}},"Address":{"Label":"Via Luigi Intorcia, 82100 Benevento BN, Italia","Country":"ITA","State":"Campania","County":"BN","City":"Benevento","Street":"Via Luigi Intorcia","PostalCode":"82100","AdditionalData":[{"value":"Italia","key":"CountryName"},{"value":"Campania","key":"StateName"},{"value":"Benevento","key":"CountyName"}]},"MapReference":{"ReferenceId":"897458046","Spot":0.46,"SideOfStreet":"left","CountryId":"20110484","StateId":"20127654","CountyId":"20218487","CityId":"20237449"}}},{"Relevance":1.0,"Distance":134.4,"MatchLevel":"houseNumber","MatchQuality":{"Country":1.0,"State":1.0,"County":1.0,"City":1.0,"Street":[1.0],"HouseNumber":1.0,"PostalCode":1.0},"MatchType":"interpolated","Location":{"LocationId":"NT_7S1PLi-scFkaPMHSQC5-iD_1cD","LocationType":"point","DisplayPosition":{"Latitude":41.11902,"Longitude":14.79434},"MapView":{"TopLeft":{"Latitude":41.1201442,"Longitude":14.7928478},"BottomRight":{"Latitude":41.1178958,"Longitude":14.7958322}},"Address":{"Label":"Via Pacevecchia, 57, 82100 Benevento BN, Italia","Country":"ITA","State":"Campania","County":"BN","City":"Benevento","Street":"Via Pacevecchia","HouseNumber":"57","PostalCode":"82100","AdditionalData":[{"value":"Italia","key":"CountryName"},{"value":"Campania","key":"StateName"},{"value":"Benevento","key":"CountyName"}]},"MapReference":{"ReferenceId":"743557925","Spot":0.88,"SideOfStreet":"right","CountryId":"20110484","StateId":"20127654","CountyId":"20218487","CityId":"20237449","AddressId":"574043131","RoadLinkId":"141689301"}}},{"Relevance":1.0,"Distance":142.7,"MatchLevel":"houseNumber","MatchQuality":{"Country":1.0,"State":1.0,"County":1.0,"City":1.0,"Street":[1.0],"HouseNumber":1.0,"PostalCode":1.0},"MatchType":"interpolated","Location":{"LocationId":"NT_7S1PLi-scFkaPMHSQC5-iD_yEE","LocationType":"point","DisplayPosition":{"Latitude":41.12113,"Longitude":14.79258},"MapView":{"TopLeft":{"Latitude":41.1222542,"Longitude":14.7910877},"BottomRight":{"Latitude":41.1200058,"Longitude":14.7940723}},"Address":{"Label":"Via Pacevecchia, 2A, 82100 Benevento BN, Italia","Country":"ITA","State":"Campania","County":"BN","City":"Benevento","Street":"Via Pacevecchia","HouseNumber":"2A","PostalCode":"82100","AdditionalData":[{"value":"Italia","key":"CountryName"},{"value":"Campania","key":"StateName"},{"value":"Benevento","key":"CountyName"}]},"MapReference":{"ReferenceId":"554099955","Spot":0.28,"SideOfStreet":"left","CountryId":"20110484","StateId":"20127654","CountyId":"20218487","CityId":"20237449","AddressId":"574043206","RoadLinkId":"57619956"}}},{"Relevance":1.0,"Distance":152.3,"MatchLevel":"houseNumber","MatchQuality":{"Country":1.0,"State":1.0,"County":1.0,"City":1.0,"Street":[1.0],"HouseNumber":1.0,"PostalCode":1.0},"MatchType":"interpolated","Location":{"LocationId":"NT_wWbd6KVJrExYFkX.D4qVgB_1kD","LocationType":"point","DisplayPosition":{"Latitude":41.11912,"Longitude":14.79199},"MapView":{"TopLeft":{"Latitude":41.1202442,"Longitude":14.7904978},"BottomRight":{"Latitude":41.1179958,"Longitude":14.7934822}},"Address":{"Label":"Via Avellino, 59, 82100 Benevento BN, Italia","Country":"ITA","State":"Campania","County":"BN","City":"Benevento","Street":"Via Avellino","HouseNumber":"59","PostalCode":"82100","AdditionalData":[{"value":"Italia","key":"CountryName"},{"value":"Campania","key":"StateName"},{"value":"Benevento","key":"CountyName"}]},"MapReference":{"ReferenceId":"555563216","Spot":0.1,"SideOfStreet":"right","CountryId":"20110484","StateId":"20127654","CountyId":"20218487","CityId":"20237449","AddressId":"574013250","RoadLinkId":"57472075"}}}]}]}}