{"Response":{"MetaInfo":{"Timestamp":"2020-03-28T09:59:10.572+0000","NextPageInformation":"2"},"View":[{"_type":"SearchResultsViewType","ViewId":0,"Result":[{"Relevance":1.0,"Distance":0.0,"Direction":0.0,"MatchLevel":"district","MatchQuality":{"Country":1.0,"County":1.0,"City":1.0,"District":1.0,"PostalCode":1.0},"Location":{"LocationId":"NT_2Ih95CWgzVoRQvo5HNmkdD","LocationType":"point","DisplayPosition":{"Latitude":41.1510777,"Longitude":-8.6069667},"MapView":{"TopLeft":{"Latitude":41.15363,"Longitude":-8.61225},"BottomRight":{"Latitude":41.1454,"Longitude":-8.60475}},"Address":{"Label":"Baixa, Porto, Portugal","Country":"PRT","County":"Porto","City":"Porto","District":"Baixa","PostalCode":"4000-117","AdditionalData":[{"value":"Portugal","key":"CountryName"},{"value":"Porto","key":"CountyName"}]},"MapReference":{"ReferenceId":"543101589","SideOfStreet":"neither","CountryId":"20317122","CountyId":"20319762","CityId":"20320039"}}},{"Relevance":1.0,"Distance":5.1,"MatchLevel":"houseNumber","MatchQuality":{"Country":1.0,"County":1.0,"City":1.0,"District":1.0,"Street":[1.0],"HouseNumber":1.0,"PostalCode":1.0},"MatchType":"interpolated","Location":{"LocationId":"NT_Eb6wQmTgf7mHCpv2j629ZC_1cDM","LocationType":"point","DisplayPosition":{"Latitude":41.15104,"Longitude":-8.60703},"MapView":{"TopLeft":{"Latitude":41.1521642,"Longitude":-8.6085229},"BottomRight":{"Latitude":41.1499158,"Longitude":-8.6055371}},"Address":{"Label":"Rua da Firmeza 570, 4000-226 Porto, Portugal","Country":"PRT","County":"Porto","City":"Porto","District":"Baixa","Street":"Rua da Firmeza","HouseNumber":"570","PostalCode":"4000-226","AdditionalData":[{"value":"Portugal","key":"CountryName"},{"value":"Porto","key":"CountyName"}]},"MapReference":{"ReferenceId":"1236856074","Spot":0.66,"SideOfStreet":"right","CountryId":"20317122","CountyId":"20319762","CityId":"20320039","AddressId":"343590871","RoadLinkId":"557559809"}}},{"Relevance":1.0,"Distance":12.9,"MatchLevel":"houseNumber","MatchQuality":{"Country":1.0,"County":1.0,"City":1.0,"District":1.0,"Street":[1.0],"HouseNumber":1.0,"PostalCode":1.0},"MatchType":"interpolated","Location":{"LocationId":"NT_FZbuaVAZqsiUlYtZJb-gfD_xkD","LocationType":"point","DisplayPosition":{"Latitude":41.15124,"Longitude":-8.60695},"MapView":{"TopLeft":{"Latitude":41.1523642,"Longitude":-8.6084429},"BottomRight":{"Latitude":41.1501158,"Longitude":-8.6054571}},"Address":{"Label":"Pátio do Bolhão 19, 4000-110 Porto, Portugal","Country":"PRT","County":"Porto","City":"Porto","District":"Baixa","Street":"Pátio do Bolhão","HouseNumber":"19","PostalCode":"4000-110","AdditionalData":[{"value":"Portugal","key":"CountryName"},{"value":"Porto","key":"CountyName"}]},"MapReference":{"ReferenceId":"711547312","Spot":0.0,"SideOfStreet":"right","CountryId":"20317122","CountyId":"20319762","CityId":"20320039","AddressId":"343959670","RoadLinkId":"116470499"}}},{"Relevance":1.0,"Distance":17.5,"MatchLevel":"houseNumber","MatchQuality":{"Country":1.0,"County":1.0,"City":1.0,"District":1.0,"Street":[1.0],"HouseNumber":1.0,"PostalCode":1.0},"MatchType":"interpolated","Location":{"LocationId":"NT_f5ksF.ojrSxxIefac3ZXyD_1UzN","LocationType":"point","DisplayPosition":{"Latitude":41.15106,"Longitude":-8.60665},"MapView":{"TopLeft":{"Latitude":41.1521842,"Longitude":-8.6081429},"BottomRight":{"Latitude":41.1499358,"Longitude":-8.6051571}},"Address":{"Label":"Rua de Sá da Bandeira 557, 4000-437 Porto, Portugal","Country":"PRT","County":"Porto","City":"Porto","District":"Baixa","Street":"Rua de Sá da Bandeira","HouseNumber":"557","PostalCode":"4000-437","AdditionalData":[{"value":"Portugal","key":"CountryName"},{"value":"Porto","key":"CountyName"}]},"MapReference":{"ReferenceId":"543104137","Spot":0.07,"SideOfStreet":"left","CountryId":"20317122","CountyId":"20319762","CityId":"20320039","AddressId":"343398898","RoadLinkId":"70632863"}}},{"Relevance":1.0,"Distance":20.1,"MatchLevel":"houseNumber","MatchQuality":{"Country":1.0,"County":1.0,"City":1.0,"District":1.0,"Street":[1.0],"HouseNumber":1.0,"PostalCode":1.0},"MatchType":"interpolated","Location":{"LocationId":"NT_Eb6wQmTgf7mHCpv2j629ZC_1gDO","LocationType":"point","DisplayPosition":{"Latitude":41.15107,"Longitude":-8.60722},"MapView":{"TopLeft":{"Latitude":41.1521942,"Longitude":-8.6087129},"BottomRight":{"Latitude":41.1499458,"Longitude":-8.6057271}},"Address":{"Label":"Rua da Firmeza 588, 4000-226 Porto, Portugal","Country":"PRT","County":"Porto","City":"Porto","District":"Baixa","Street":"Rua da Firmeza","HouseNumber":"588","PostalCode":"4000-226","AdditionalData":[{"value":"Portugal","key":"CountryName"},{"value":"Porto","key":"CountyName"}]},"MapReference":{"ReferenceId":"1236856075","Spot":0.11,"SideOfStreet":"right","CountryId":"20317122","CountyId":"20319762","CityId":"20320039","AddressId":"343590873","RoadLinkId":"557559810"}}},{"Relevance":1.0,"Distance":29.9,"MatchLevel":"houseNumber","MatchQuality":{"Country":1.0,"County":1.0,"City":1.0,"District":1.0,"Street":[1.0],"HouseNumber":1.0,"PostalCode":1.0},"MatchType":"interpolated","Location":{"LocationId":"NT_h2OrcitdL4ttcPtQLIyp6A_1IzM","LocationType":"point","DisplayPosition":{"Latitude":41.15077,"Longitude":-8.60681},"MapView":{"TopLeft":{"Latitude":41.1518942,"Longitude":-8.6083029},"BottomRight":{"Latitude":41.1496458,"Longitude":-8.6053171}},"Address":{"Label":"Rua de Sá da Bandeira 523, 4000-436 Porto, Portugal","Country":"PRT","County":"Porto","City":"Porto","District":"Baixa","Street":"Rua de Sá da Bandeira","HouseNumber":"523","PostalCode":"4000-436","AdditionalData":[{"value":"Portugal","key":"CountryName"},{"value":"Porto","key":"CountyName"}]},"MapReference":{"ReferenceId":"880364038","Spot":0.48,"SideOfStreet":"left","CountryId":"20317122","CountyId":"20319762","CityId":"20320039","AddressId":"343364773","RoadLinkId":"248994637"}}},{"Relevance":1.0,"Distance":31.9,"MatchLevel":"houseNumber","MatchQuality":{"Country":1.0,"County":1.0,"City":1.0,"District":1.0,"Street":[1.0],"HouseNumber":1.0,"PostalCode":1.0},"MatchType":"interpolated","Location":{"LocationId":"NT_TzCFuPvjt.HMreTRJuuC1A_xIDN","LocationType":"point","DisplayPosition":{"Latitude":41.15135,"Longitude":-8.60728},"MapView":{"TopLeft":{"Latitude":41.1524742,"Longitude":-8.6087729},"BottomRight":{"Latitude":41.1502258,"Longitude":-8.6057871}},"Address":{"Label":"Rua do Bolhão 124, 4000-111 Porto, Portugal","Country":"PRT","County":"Porto","City":"Porto","District":"Baixa","Street":"Rua do Bolhão","HouseNumber":"124","PostalCode":"4000-111","AdditionalData":[{"value":"Portugal","key":"CountryName"},{"value":"Porto","key":"CountyName"}]},"MapReference":{"ReferenceId":"543104134","Spot":0.47,"SideOfStreet":"right","CountryId":"20317122","CountyId":"20319762","CityId":"20320039","AddressId":"343688970","RoadLinkId":"69666258"}}},{"Relevance":1.0,"Distance":34.3,"MatchLevel":"houseNumber","MatchQuality":{"Country":1.0,"County":1.0,"City":1.0,"District":1.0,"Street":[1.0],"HouseNumber":1.0,"PostalCode":1.0},"MatchType":"interpolated","Location":{"LocationId":"NT_TzCFuPvjt.HMreTRJuuC1A_4YD","LocationType":"point","DisplayPosition":{"Latitude":41.15097,"Longitude":-8.60743},"MapView":{"TopLeft":{"Latitude":41.1520942,"Longitude":-8.6089229},"BottomRight":{"Latitude":41.1498458,"Longitude":-8.6059371}},"Address":{"Label":"Rua do Bolhão 86, 4000-111 Porto, Portugal","Country":"PRT","County":"Porto","City":"Porto","District":"Baixa","Street":"Rua do Bolhão","HouseNumber":"86","PostalCode":"4000-111","AdditionalData":[{"value":"Portugal","key":"CountryName"},{"value":"Porto","key":"CountyName"}]},"MapReference":{"ReferenceId":"811827732","Spot":0.63,"SideOfStreet":"right","CountryId":"20317122","CountyId":"20319762","CityId":"20320039","AddressId":"343796419","RoadLinkId":"199259310"}}},{"Relevance":1.0,"Distance":45.9,"MatchLevel":"houseNumber","MatchQuality":{"Country":1.0,"County":1.0,"City":1.0,"District":1.0,"Street":[1.0],"HouseNumber":1.0,"PostalCode":1.0},"MatchType":"interpolated","Location":{"LocationId":"NT_Eb6wQmTgf7mHCpv2j629ZC_1IDM","LocationType":"point","DisplayPosition":{"Latitude":41.15097,"Longitude":-8.60642},"MapView":{"TopLeft":{"Latitude":41.1520942,"Longitude":-8.6079129},"BottomRight":{"Latitude":41.1498458,"Longitude":-8.6049271}},"Address":{"Label":"Rua da Firmeza 520, 4000-226 Porto, Portugal","Country":"PRT","County":"Porto","City":"Porto","District":"Baixa","Street":"Rua da Firmeza","HouseNumber":"520","PostalCode":"4000-226","AdditionalData":[{"value":"Portugal","key":"CountryName"},{"value":"Porto","key":"CountyName"}]},"MapReference":{"ReferenceId":"880358692","Spot":0.79,"SideOfStreet":"right","CountryId":"20317122","CountyId":"20319762","CityId":"20320039","AddressId":"343754406","RoadLinkId":"248988450"}}},{"Relevance":1.0,"Distance":49.6,"MatchLevel":"street","MatchQuality":{"Country":1.0,"County":1.0,"City":1.0,"District":1.0,"Street":[1.0],"PostalCode":1.0},"Location":{"LocationId":"NT_FZbuaVAZqsiUlYtZJb-gfD_l_880415984_L","LocationType":"point","DisplayPosition":{"Latitude":41.1515155,"Longitude":-8.6068508},"MapView":{"TopLeft":{"Latitude":41.1516,"Longitude":-8.60717},"BottomRight":{"Latitude":41.15151,"Longitude":-8.60683}},"Address":{"Label":"Pátio do Bolhão, 4000-110 Porto, Portugal","Country":"PRT","County":"Porto","City":"Porto","District":"Baixa","Street":"Pátio do Bolhão","PostalCode":"4000-110","AdditionalData":[{"value":"Portugal","key":"CountryName"},{"value":"Porto","key":"CountyName"}]},"MapReference":{"ReferenceId":"880415984","Spot":0.06,"SideOfStreet":"left","CountryId":"20317122","CountyId":"20319762","CityId":"20320039"}}}]}]}}