{"Response":{"MetaInfo":{"Timestamp":"2020-03-28T11:04:19.579+0000","NextPageInformation":"2"},"View":[{"_type":"SearchResultsViewType","ViewId":0,"Result":[{"Relevance":1.0,"Distance":0.0,"Direction":0.0,"MatchLevel":"city","MatchQuality":{"Country":1.0,"State":1.0,"County":1.0,"City":1.0,"PostalCode":1.0},"Location":{"LocationId":"NT_EsqrEgIyJFeYrD2AliXcJA","LocationType":"point","DisplayPosition":{"Latitude":41.1213992,"Longitude":1.2631856},"MapView":{"TopLeft":{"Latitude":41.16709,"Longitude":1.18559},"BottomRight":{"Latitude":41.07865,"Longitude":1.37405}},"Address":{"Label":"Tarragona, Catalunya, Espanya","Country":"ESP","State":"Catalunya","County":"Tarragona","City":"Tarragona","PostalCode":"43003","AdditionalData":[{"value":"Espanya","key":"CountryName"},{"value":"Catalunya","key":"StateName"},{"value":"Tarragona","key":"CountyName"}]},"MapReference":{"ReferenceId":"1224225857","SideOfStreet":"neither","CountryId":"20215059","StateId":"20215741","CountyId":"20226116","CityId":"20226653"}}},{"Relevance":1.0,"Distance":20.4,"MatchLevel":"street","MatchQuality":{"Country":1.0,"State":1.0,"County":1.0,"City":1.0,"PostalCode":1.0},"Location":{"LocationId":"NT_Yu9ScRjeO1U13OkA5cDbsC_l_1193095109_R","LocationType":"point","DisplayPosition":{"Latitude":41.1215549,"Longitude":1.2630559},"MapView":{"TopLeft":{"Latitude":41.12173,"Longitude":1.26279},"BottomRight":{"Latitude":41.12133,"Longitude":1.26352}},"Address":{"Label":"43007 Tarragona (Tarragona), Espanya","Country":"ESP","State":"Catalunya","County":"Tarragona","City":"Tarragona","PostalCode":"43007","AdditionalData":[{"value":"Espanya","key":"CountryName"},{"value":"Catalunya","key":"StateName"},{"value":"Tarragona","key":"CountyName"}]},"MapReference":{"ReferenceId":"1193095109","Spot":0.41,"SideOfStreet":"right","CountryId":"20215059","StateId":"20215741","CountyId":"20226116","CityId":"20226653"}}},{"Relevance":1.0,"Distance":25.5,"MatchLevel":"street","MatchQuality":{"Country":1.0,"State":1.0,"County":1.0,"City":1.0,"PostalCode":1.0},"Location":{"LocationId":"NT_Yu9ScRjeO1U13OkA5cDbsC_l_842416647_R","LocationType":"point","DisplayPosition":{"Latitude":41.12117,"Longitude":1.2631856},"MapView":{"TopLeft":{"Latitude":41.12133,"Longitude":1.26279},"BottomRight":{"Latitude":41.12099,"Longitude":1.26331}},"Address":{"Label":"43007 Tarragona (Tarragona), Espanya","Country":"ESP","State":"Catalunya","County":"Tarragona","City":"Tarragona","PostalCode":"43007","AdditionalData":[{"value":"Espanya","key":"CountryName"},{"value":"Catalunya","key":"StateName"},{"value":"Tarragona","key":"CountyName"}]},"MapReference":{"ReferenceId":"842416647","Spot":0.42,"SideOfStreet":"right","CountryId":"20215059","StateId":"20215741","CountyId":"20226116","CityId":"20226653"}}},{"Relevance":1.0,"Distance":33.4,"MatchLevel":"houseNumber","MatchQuality":{"Country":1.0,"State":1.0,"County":1.0,"City":1.0,"Street":[1.0],"HouseNumber":1.0,"PostalCode":1.0},"MatchType":"interpolated","Location":{"LocationId":"NT_1zcahxpd6m5g13PXdwsMFD_yATS","LocationType":"point","DisplayPosition":{"Latitude":41.12033,"Longitude":1.26363},"MapView":{"TopLeft":{"Latitude":41.1214542,"Longitude":1.2621378},"BottomRight":{"Latitude":41.1192058,"Longitude":1.2651222}},"Address":{"Label":"Carrer Johann Sebastian Bach, 20I, 43007 Tarragona (Tarragona), Espanya","Country":"ESP","State":"Catalunya","County":"Tarragona","City":"Tarragona","Street":"Carrer Johann Sebastian Bach","HouseNumber":"20I","PostalCode":"43007","AdditionalData":[{"value":"Espanya","key":"CountryName"},{"value":"Catalunya","key":"StateName"},{"value":"Tarragona","key":"CountyName"}]},"MapReference":{"ReferenceId":"71474691","Spot":0.14,"SideOfStreet":"left","CountryId":"20215059","StateId":"20215741","CountyId":"20226116","CityId":"20226653","AddressId":"771357713","RoadLinkId":"65482519"}}},{"Relevance":1.0,"Distance":34.0,"MatchLevel":"street","MatchQuality":{"Country":1.0,"State":1.0,"County":1.0,"City":1.0,"PostalCode":1.0},"Location":{"LocationId":"NT_Yu9ScRjeO1U13OkA5cDbsC_l_1193095108_R","LocationType":"point","DisplayPosition":{"Latitude":41.12133,"Longitude":1.26279},"MapView":{"TopLeft":{"Latitude":41.12133,"Longitude":1.2627},"BottomRight":{"Latitude":41.12117,"Longitude":1.26279}},"Address":{"Label":"43007 Tarragona (Tarragona), Espanya","Country":"ESP","State":"Catalunya","County":"Tarragona","City":"Tarragona","PostalCode":"43007","AdditionalData":[{"value":"Espanya","key":"CountryName"},{"value":"Catalunya","key":"StateName"},{"value":"Tarragona","key":"CountyName"}]},"MapReference":{"ReferenceId":"1193095108","Spot":1.0,"SideOfStreet":"right","CountryId":"20215059","StateId":"20215741","CountyId":"20226116","CityId":"20226653"}}},{"Relevance":1.0,"Distance":42.5,"MatchLevel":"street","MatchQuality":{"Country":1.0,"State":1.0,"County":1.0,"City":1.0,"PostalCode":1.0},"Location":{"LocationId":"NT_Yu9ScRjeO1U13OkA5cDbsC_l_1193095107_L","LocationType":"point","DisplayPosition":{"Latitude":41.12117,"Longitude":1.26278},"MapView":{"TopLeft":{"Latitude":41.12117,"Longitude":1.26249},"BottomRight":{"Latitude":41.1211,"Longitude":1.26278}},"Address":{"Label":"43007 Tarragona (Tarragona), Espanya","Country":"ESP","State":"Catalunya","County":"Tarragona","City":"Tarragona","PostalCode":"43007","AdditionalData":[{"value":"Espanya","key":"CountryName"},{"value":"Catalunya","key":"StateName"},{"value":"Tarragona","key":"CountyName"}]},"MapReference":{"ReferenceId":"1193095107","Spot":1.0,"SideOfStreet":"left","CountryId":"20215059","StateId":"20215741","CountyId":"20226116","CityId":"20226653"}}},{"Relevance":1.0,"Distance":42.5,"MatchLevel":"street","MatchQuality":{"Country":1.0,"State":1.0,"County":1.0,"City":1.0,"PostalCode":1.0},"Location":{"LocationId":"NT_Yu9ScRjeO1U13OkA5cDbsC_l_1175833912_R","LocationType":"point","DisplayPosition":{"Latitude":41.12117,"Longitude":1.26278},"MapView":{"TopLeft":{"Latitude":41.12117,"Longitude":1.26179},"BottomRight":{"Latitude":41.12059,"Longitude":1.26278}},"Address":{"Label":"43007 Tarragona (Tarragona), Espanya","Country":"ESP","State":"Catalunya","County":"Tarragona","City":"Tarragona","PostalCode":"43007","AdditionalData":[{"value":"Espanya","key":"CountryName"},{"value":"Catalunya","key":"StateName"},{"value":"Tarragona","key":"CountyName"}]},"MapReference":{"ReferenceId":"1175833912","Spot":1.0,"SideOfStreet":"right","CountryId":"20215059","StateId":"20215741","CountyId":"20226116","CityId":"20226653"}}},{"Relevance":1.0,"Distance":67.1,"MatchLevel":"street","MatchQuality":{"Country":1.0,"State":1.0,"County":1.0,"City":1.0,"PostalCode":1.0},"Location":{"LocationId":"NT_Yu9ScRjeO1U13OkA5cDbsC_l_1193095106_L","LocationType":"point","DisplayPosition":{"Latitude":41.1211,"Longitude":1.26249},"MapView":{"TopLeft":{"Latitude":41.1211,"Longitude":1.26151},"BottomRight":{"Latitude":41.12081,"Longitude":1.26249}},"Address":{"Label":"43007 Tarragona (Tarragona), Espanya","Country":"ESP","State":"Catalunya","County":"Tarragona","City":"Tarragona","PostalCode":"43007","AdditionalData":[{"value":"Espanya","key":"CountryName"},{"value":"Catalunya","key":"StateName"},{"value":"Tarragona","key":"CountyName"}]},"MapReference":{"ReferenceId":"1193095106","Spot":1.0,"SideOfStreet":"left","CountryId":"20215059","StateId":"20215741","CountyId":"20226116","CityId":"20226653"}}},{"Relevance":1.0,"Distance":98.1,"MatchLevel":"houseNumber","MatchQuality":{"Country":1.0,"State":1.0,"County":1.0,"City":1.0,"Street":[1.0],"HouseNumber":1.0,"PostalCode":1.0},"MatchType":"interpolated","Location":{"LocationId":"NT_Fl9BGGQi-.-SCh.0JNIyBB_xATS","LocationType":"point","DisplayPosition":{"Latitude":41.12184,"Longitude":1.26447},"MapView":{"TopLeft":{"Latitude":41.1229642,"Longitude":1.2629777},"BottomRight":{"Latitude":41.1207158,"Longitude":1.2659623}},"Address":{"Label":"Carrer L. van Beethoven, 10I, 43007 Tarragona (Tarragona), Espanya","Country":"ESP","State":"Catalunya","County":"Tarragona","City":"Tarragona","Street":"Carrer L. van Beethoven","HouseNumber":"10I","PostalCode":"43007","AdditionalData":[{"value":"Espanya","key":"CountryName"},{"value":"Catalunya","key":"StateName"},{"value":"Tarragona","key":"CountyName"}]},"MapReference":{"ReferenceId":"71474698","Spot":0.64,"SideOfStreet":"left","CountryId":"20215059","StateId":"20215741","CountyId":"20226116","CityId":"20226653","AddressId":"350088298","RoadLinkId":"65676554"}}},{"Relevance":1.0,"Distance":115.7,"MatchLevel":"street","MatchQuality":{"Country":1.0,"State":1.0,"County":1.0,"City":1.0,"District":1.0,"Street":[1.0],"PostalCode":1.0},"Location":{"LocationId":"NT_S3eV.HEih2GuOY0gUgjeDC_l_842416728_R","LocationType":"point","DisplayPosition":{"Latitude":41.12244,"Longitude":1.26321},"MapView":{"TopLeft":{"Latitude":41.12264,"Longitude":1.26321},"BottomRight":{"Latitude":41.12244,"Longitude":1.26524}},"Address":{"Label":"Carrer Internet, 43007 Tarragona (Tarragona), Espanya","Country":"ESP","State":"Catalunya","County":"Tarragona","City":"Tarragona","District":"Ciutat","Street":"Carrer Internet","PostalCode":"43007","AdditionalData":[{"value":"Espanya","key":"CountryName"},{"value":"Catalunya","key":"StateName"},{"value":"Tarragona","key":"CountyName"}]},"MapReference":{"ReferenceId":"842416728","Spot":0.0,"SideOfStreet":"right","CountryId":"20215059","StateId":"20215741","CountyId":"20226116","CityId":"20226653"}}}]}]}}