{"Response":{"MetaInfo":{"Timestamp":"2020-03-28T11:25:24.915+0000","NextPageInformation":"2"},"View":[{"_type":"SearchResultsViewType","ViewId":0,"Result":[{"Relevance":1.0,"Distance":-91.5,"MatchLevel":"landmark","MatchQuality":{"Country":1.0,"State":1.0,"County":1.0,"City":1.0,"Street":[1.0],"PostalCode":1.0,"Name":1.0},"Location":{"LocationId":"NT_MAuCCAcKZTUrNAz4rz6AAB_p_cY-Gkv5mQMXcfr77KOYA2D","LocationType":"hospital","Name":"Civile di Molfetta","DisplayPosition":{"Latitude":41.19144,"Longitude":16.59051},"MapView":{"TopLeft":{"Latitude":41.19336,"Longitude":16.58992},"BottomRight":{"Latitude":41.18976,"Longitude":16.59286}},"Address":{"Label":"Strada Molfetta Terlizzi, 70056 Molfetta BA, Italia","Country":"ITA","State":"Puglia","County":"BA","City":"Molfetta","Street":"Strada Molfetta Terlizzi","PostalCode":"70056","AdditionalData":[{"value":"Italia","key":"CountryName"},{"value":"Puglia","key":"StateName"},{"value":"Bari","key":"CountyName"}]},"MapReference":{"CountryId":"20110484","StateId":"20218506","CountyId":"20221098","CityId":"20238926","PlaceId":"55512618"}}},{"Relevance":1.0,"Distance":0.0,"Direction":0.0,"MatchLevel":"city","MatchQuality":{"Country":1.0,"State":1.0,"County":1.0,"City":1.0,"PostalCode":1.0},"Location":{"LocationId":"NT_jJj6Fs7QKwRsIHDIgdE9SB","LocationType":"point","DisplayPosition":{"Latitude":41.1908002,"Longitude":16.5914303},"MapView":{"TopLeft":{"Latitude":41.22938,"Longitude":16.50805},"BottomRight":{"Latitude":41.13685,"Longitude":16.64027}},"Address":{"Label":"Molfetta, Puglia, Italia","Country":"ITA","State":"Puglia","County":"BA","City":"Molfetta","PostalCode":"70056","AdditionalData":[{"value":"Italia","key":"CountryName"},{"value":"Puglia","key":"StateName"},{"value":"Bari","key":"CountyName"}]},"MapReference":{"ReferenceId":"544614903","SideOfStreet":"neither","CountryId":"20110484","StateId":"20218506","CountyId":"20221098","CityId":"20238926"}}},{"Relevance":1.0,"Distance":1.1,"MatchLevel":"street","MatchQuality":{"Country":1.0,"State":1.0,"County":1.0,"City":1.0,"PostalCode":1.0},"Location":{"LocationId":"NT_7VuFBV6SKXpNr27SShA4xB_l_1212416948_L","LocationType":"point","DisplayPosition":{"Latitude":41.1907907,"Longitude":16.591433},"MapView":{"TopLeft":{"Latitude":41.19133,"Longitude":16.59042},"BottomRight":{"Latitude":41.19077,"Longitude":16.59217}},"Address":{"Label":"70056 Molfetta BA, Italia","Country":"ITA","State":"Puglia","County":"BA","City":"Molfetta","PostalCode":"70056","AdditionalData":[{"value":"Italia","key":"CountryName"},{"value":"Puglia","key":"StateName"},{"value":"Bari","key":"CountyName"}]},"MapReference":{"ReferenceId":"1212416948","Spot":0.39,"SideOfStreet":"neither","CountryId":"20110484","StateId":"20218506","CountyId":"20221098","CityId":"20238926"}}},{"Relevance":1.0,"Distance":63.9,"MatchLevel":"street","MatchQuality":{"Country":1.0,"State":1.0,"County":1.0,"City":1.0,"PostalCode":1.0},"Location":{"LocationId":"NT_7VuFBV6SKXpNr27SShA4xB_l_1212416949_L","LocationType":"point","DisplayPosition":{"Latitude":41.1908943,"Longitude":16.5921832},"MapView":{"TopLeft":{"Latitude":41.191,"Longitude":16.59217},"BottomRight":{"Latitude":41.19036,"Longitude":16.59225}},"Address":{"Label":"70056 Molfetta BA, Italia","Country":"ITA","State":"Puglia","County":"BA","City":"Molfetta","PostalCode":"70056","AdditionalData":[{"value":"Italia","key":"CountryName"},{"value":"Puglia","key":"StateName"},{"value":"Bari","key":"CountyName"}]},"MapReference":{"ReferenceId":"1212416949","Spot":0.83,"SideOfStreet":"left","CountryId":"20110484","StateId":"20218506","CountyId":"20221098","CityId":"20238926"}}},{"Relevance":1.0,"Distance":65.8,"MatchLevel":"street","MatchQuality":{"Country":1.0,"State":1.0,"County":1.0,"City":1.0,"PostalCode":1.0},"Location":{"LocationId":"NT_7VuFBV6SKXpNr27SShA4xB_l_1212420501_L","LocationType":"point","DisplayPosition":{"Latitude":41.191,"Longitude":16.59217},"MapView":{"TopLeft":{"Latitude":41.19202,"Longitude":16.59217},"BottomRight":{"Latitude":41.191,"Longitude":16.59227}},"Address":{"Label":"70056 Molfetta BA, Italia","Country":"ITA","State":"Puglia","County":"BA","City":"Molfetta","PostalCode":"70056","AdditionalData":[{"value":"Italia","key":"CountryName"},{"value":"Puglia","key":"StateName"},{"value":"Bari","key":"CountyName"}]},"MapReference":{"ReferenceId":"1212420501","Spot":0.0,"SideOfStreet":"left","CountryId":"20110484","StateId":"20218506","CountyId":"20221098","CityId":"20238926"}}},{"Relevance":1.0,"Distance":83.4,"MatchLevel":"street","MatchQuality":{"Country":1.0,"State":1.0,"County":1.0,"City":1.0,"PostalCode":1.0},"Location":{"LocationId":"NT_7VuFBV6SKXpNr27SShA4xB_l_1269116188_L","LocationType":"point","DisplayPosition":{"Latitude":41.1901364,"Longitude":16.5918949},"MapView":{"TopLeft":{"Latitude":41.19025,"Longitude":16.59159},"BottomRight":{"Latitude":41.18986,"Longitude":16.5922}},"Address":{"Label":"70056 Molfetta BA, Italia","Country":"ITA","State":"Puglia","County":"BA","City":"Molfetta","PostalCode":"70056","AdditionalData":[{"value":"Italia","key":"CountryName"},{"value":"Puglia","key":"StateName"},{"value":"Bari","key":"CountyName"}]},"MapReference":{"ReferenceId":"1269116188","Spot":0.56,"SideOfStreet":"left","CountryId":"20110484","StateId":"20218506","CountyId":"20221098","CityId":"20238926"}}},{"Relevance":1.0,"Distance":84.3,"MatchLevel":"street","MatchQuality":{"Country":1.0,"State":1.0,"County":1.0,"City":1.0,"PostalCode":1.0},"Location":{"LocationId":"NT_7VuFBV6SKXpNr27SShA4xB_l_1212416947_L","LocationType":"point","DisplayPosition":{"Latitude":41.19036,"Longitude":16.59225},"MapView":{"TopLeft":{"Latitude":41.19076,"Longitude":16.59225},"BottomRight":{"Latitude":41.19036,"Longitude":16.59258}},"Address":{"Label":"70056 Molfetta BA, Italia","Country":"ITA","State":"Puglia","County":"BA","City":"Molfetta","PostalCode":"70056","AdditionalData":[{"value":"Italia","key":"CountryName"},{"value":"Puglia","key":"StateName"},{"value":"Bari","key":"CountyName"}]},"MapReference":{"ReferenceId":"1212416947","Spot":0.0,"SideOfStreet":"left","CountryId":"20110484","StateId":"20218506","CountyId":"20221098","CityId":"20238926"}}},{"Relevance":1.0,"Distance":84.9,"MatchLevel":"street","MatchQuality":{"Country":1.0,"State":1.0,"County":1.0,"City":1.0,"PostalCode":1.0},"Location":{"LocationId":"NT_7VuFBV6SKXpNr27SShA4xB_l_1269116189_L","LocationType":"point","DisplayPosition":{"Latitude":41.19033,"Longitude":16.59223},"MapView":{"TopLeft":{"Latitude":41.19036,"Longitude":16.5922},"BottomRight":{"Latitude":41.19025,"Longitude":16.59225}},"Address":{"Label":"70056 Molfetta BA, Italia","Country":"ITA","State":"Puglia","County":"BA","City":"Molfetta","PostalCode":"70056","AdditionalData":[{"value":"Italia","key":"CountryName"},{"value":"Puglia","key":"StateName"},{"value":"Bari","key":"CountyName"}]},"MapReference":{"ReferenceId":"1269116189","Spot":0.7,"SideOfStreet":"left","CountryId":"20110484","StateId":"20218506","CountyId":"20221098","CityId":"20238926"}}},{"Relevance":1.0,"Distance":90.2,"MatchLevel":"street","MatchQuality":{"Country":1.0,"State":1.0,"County":1.0,"City":1.0,"Street":[1.0],"PostalCode":1.0},"Location":{"LocationId":"NT_PHy9bJLWuGTpKAOdmIuhrD_l_1269116187_R","LocationType":"point","DisplayPosition":{"Latitude":41.19005,"Longitude":16.59102},"MapView":{"TopLeft":{"Latitude":41.19061,"Longitude":16.58999},"BottomRight":{"Latitude":41.19005,"Longitude":16.59102}},"Address":{"Label":"Via Bettino Craxi, 70056 Molfetta BA, Italia","Country":"ITA","State":"Puglia","County":"BA","City":"Molfetta","Street":"Via Bettino Craxi","PostalCode":"70056","AdditionalData":[{"value":"Italia","key":"CountryName"},{"value":"Puglia","key":"StateName"},{"value":"Bari","key":"CountyName"}]},"MapReference":{"ReferenceId":"1269116187","Spot":0.0,"SideOfStreet":"right","CountryId":"20110484","StateId":"20218506","CountyId":"20221098","CityId":"20238926"}}},{"Relevance":1.0,"Distance":91.6,"MatchLevel":"street","MatchQuality":{"Country":1.0,"State":1.0,"County":1.0,"City":1.0,"Street":[1.0],"PostalCode":1.0},"Location":{"LocationId":"NT_PHy9bJLWuGTpKAOdmIuhrD_l_1269116186_R","LocationType":"point","DisplayPosition":{"Latitude":41.1900058,"Longitude":16.5911414},"MapView":{"TopLeft":{"Latitude":41.19005,"Longitude":16.59102},"BottomRight":{"Latitude":41.18986,"Longitude":16.59159}},"Address":{"Label":"Via Bettino Craxi, 70056 Molfetta BA, Italia","Country":"ITA","State":"Puglia","County":"BA","City":"Molfetta","Street":"Via Bettino Craxi","PostalCode":"70056","AdditionalData":[{"value":"Italia","key":"CountryName"},{"value":"Puglia","key":"StateName"},{"value":"Bari","key":"CountyName"}]},"MapReference":{"ReferenceId":"1269116186","Spot":0.79,"SideOfStreet":"right","CountryId":"20110484","StateId":"20218506","CountyId":"20221098","CityId":"20238926"}}}]}]}}