{"Response":{"MetaInfo":{"Timestamp":"2020-03-28T12:06:52.444+0000","NextPageInformation":"2"},"View":[{"_type":"SearchResultsViewType","ViewId":0,"Result":[{"Relevance":1.0,"Distance":0.0,"Direction":0.0,"MatchLevel":"district","MatchQuality":{"Country":1.0,"County":1.0,"City":1.0,"District":1.0,"PostalCode":1.0},"Location":{"LocationId":"NT_-tLZ0UHGip8TFmNUlqZ.3B","LocationType":"point","DisplayPosition":{"Latitude":41.1509557,"Longitude":-8.6023836},"MapView":{"TopLeft":{"Latitude":41.16249,"Longitude":-8.61202},"BottomRight":{"Latitude":41.14487,"Longitude":-8.59824}},"Address":{"Label":"Santo Ildefonso, Porto, Portugal","Country":"PRT","County":"Porto","City":"Porto","District":"Santo Ildefonso","PostalCode":"4000-199","AdditionalData":[{"value":"Portugal","key":"CountryName"},{"value":"Porto","key":"CountyName"}]},"MapReference":{"ReferenceId":"812145086","SideOfStreet":"neither","CountryId":"20317122","CountyId":"20319762","CityId":"20320039"}}},{"Relevance":1.0,"Distance":2.6,"MatchLevel":"houseNumber","MatchQuality":{"Country":1.0,"County":1.0,"City":1.0,"District":1.0,"Street":[1.0],"HouseNumber":1.0,"PostalCode":1.0},"MatchType":"interpolated","Location":{"LocationId":"NT_WEJNlzWH-gSeuLTySt4iND_5UD","LocationType":"point","DisplayPosition":{"Latitude":41.151,"Longitude":-8.60236},"MapView":{"TopLeft":{"Latitude":41.1521242,"Longitude":-8.6038529},"BottomRight":{"Latitude":41.1498758,"Longitude":-8.6008671}},"Address":{"Label":"Rua da Firmeza 95, 4000-228 Porto, Portugal","Country":"PRT","County":"Porto","City":"Porto","District":"Santo Ildefonso","Street":"Rua da Firmeza","HouseNumber":"95","PostalCode":"4000-228","AdditionalData":[{"value":"Portugal","key":"CountryName"},{"value":"Porto","key":"CountyName"}]},"MapReference":{"ReferenceId":"543101424","Spot":0.92,"SideOfStreet":"right","CountryId":"20317122","CountyId":"20319762","CityId":"20320039","AddressId":"343572920","RoadLinkId":"69360669"}}},{"Relevance":1.0,"Distance":7.6,"MatchLevel":"houseNumber","MatchQuality":{"Country":1.0,"County":1.0,"City":1.0,"District":1.0,"Street":[1.0],"HouseNumber":1.0,"PostalCode":1.0},"MatchType":"interpolated","Location":{"LocationId":"NT_ehTw48m.nFtbCbgJqnE9yB_0gTO","LocationType":"point","DisplayPosition":{"Latitude":41.1509,"Longitude":-8.60224},"MapView":{"TopLeft":{"Latitude":41.1520242,"Longitude":-8.6037329},"BottomRight":{"Latitude":41.1497758,"Longitude":-8.6007471}},"Address":{"Label":"Rua de Dom João IV 489, 4000-302 Porto, Portugal","Country":"PRT","County":"Porto","City":"Porto","District":"Santo Ildefonso","Street":"Rua de Dom João IV","HouseNumber":"489","PostalCode":"4000-302","AdditionalData":[{"value":"Portugal","key":"CountryName"},{"value":"Porto","key":"CountyName"}]},"MapReference":{"ReferenceId":"1172435478","Spot":0.84,"SideOfStreet":"left","CountryId":"20317122","CountyId":"20319762","CityId":"20320039","AddressId":"344030857","RoadLinkId":"479606241"}}},{"Relevance":1.0,"Distance":43.8,"MatchLevel":"houseNumber","MatchQuality":{"Country":1.0,"County":1.0,"City":1.0,"District":1.0,"Street":[1.0],"HouseNumber":1.0,"PostalCode":1.0},"MatchType":"interpolated","Location":{"LocationId":"NT_lXn3DHJSQ7-D4X9UMtF9FD_1MTN","LocationType":"point","DisplayPosition":{"Latitude":41.15135,"Longitude":-8.60227},"MapView":{"TopLeft":{"Latitude":41.1524742,"Longitude":-8.6037629},"BottomRight":{"Latitude":41.1502258,"Longitude":-8.6007771}},"Address":{"Label":"Rua de Dom João IV 535, 4000-303 Porto, Portugal","Country":"PRT","County":"Porto","City":"Porto","District":"Santo Ildefonso","Street":"Rua de Dom João IV","HouseNumber":"535","PostalCode":"4000-303","AdditionalData":[{"value":"Portugal","key":"CountryName"},{"value":"Porto","key":"CountyName"}]},"MapReference":{"ReferenceId":"1221290927","Spot":0.49,"SideOfStreet":"left","CountryId":"20317122","CountyId":"20319762","CityId":"20320039","AddressId":"343848482","RoadLinkId":"538664433"}}},{"Relevance":1.0,"Distance":76.6,"MatchLevel":"houseNumber","MatchQuality":{"Country":1.0,"County":1.0,"City":1.0,"District":1.0,"Street":[1.0],"HouseNumber":1.0,"PostalCode":1.0},"MatchType":"interpolated","Location":{"LocationId":"NT_ehTw48m.nFtbCbgJqnE9yB_0ETO","LocationType":"point","DisplayPosition":{"Latitude":41.15027,"Longitude":-8.6022},"MapView":{"TopLeft":{"Latitude":41.1513942,"Longitude":-8.6036929},"BottomRight":{"Latitude":41.1491458,"Longitude":-8.6007071}},"Address":{"Label":"Rua de Dom João IV 419, 4000-302 Porto, Portugal","Country":"PRT","County":"Porto","City":"Porto","District":"Santo Ildefonso","Street":"Rua de Dom João IV","HouseNumber":"419","PostalCode":"4000-302","AdditionalData":[{"value":"Portugal","key":"CountryName"},{"value":"Porto","key":"CountyName"}]},"MapReference":{"ReferenceId":"1172435477","Spot":0.92,"SideOfStreet":"left","CountryId":"20317122","CountyId":"20319762","CityId":"20320039","AddressId":"344030847","RoadLinkId":"479606240"}}},{"Relevance":1.0,"Distance":80.2,"MatchLevel":"houseNumber","MatchQuality":{"Country":1.0,"County":1.0,"City":1.0,"District":1.0,"Street":[1.0],"HouseNumber":1.0,"PostalCode":1.0},"MatchType":"interpolated","Location":{"LocationId":"NT_WEJNlzWH-gSeuLTySt4iND_0kD","LocationType":"point","DisplayPosition":{"Latitude":41.15102,"Longitude":-8.60143},"MapView":{"TopLeft":{"Latitude":41.1521442,"Longitude":-8.6029229},"BottomRight":{"Latitude":41.1498958,"Longitude":-8.5999371}},"Address":{"Label":"Rua da Firmeza 49, 4000-228 Porto, Portugal","Country":"PRT","County":"Porto","City":"Porto","District":"Santo Ildefonso","Street":"Rua da Firmeza","HouseNumber":"49","PostalCode":"4000-228","AdditionalData":[{"value":"Portugal","key":"CountryName"},{"value":"Porto","key":"CountyName"}]},"MapReference":{"ReferenceId":"543101410","Spot":0.76,"SideOfStreet":"right","CountryId":"20317122","CountyId":"20319762","CityId":"20320039","AddressId":"343659557","RoadLinkId":"69494742"}}},{"Relevance":1.0,"Distance":86.1,"MatchLevel":"houseNumber","MatchQuality":{"Country":1.0,"County":1.0,"City":1.0,"District":1.0,"Street":[1.0],"HouseNumber":1.0,"PostalCode":1.0},"MatchType":"interpolated","Location":{"LocationId":"NT_lXn3DHJSQ7-D4X9UMtF9FD_1gTM","LocationType":"point","DisplayPosition":{"Latitude":41.15173,"Longitude":-8.6023},"MapView":{"TopLeft":{"Latitude":41.1528542,"Longitude":-8.603793},"BottomRight":{"Latitude":41.1506058,"Longitude":-8.600807}},"Address":{"Label":"Rua de Dom João IV 581, 4000-303 Porto, Portugal","Country":"PRT","County":"Porto","City":"Porto","District":"Santo Ildefonso","Street":"Rua de Dom João IV","HouseNumber":"581","PostalCode":"4000-303","AdditionalData":[{"value":"Portugal","key":"CountryName"},{"value":"Porto","key":"CountyName"}]},"MapReference":{"ReferenceId":"1221290928","Spot":0.02,"SideOfStreet":"left","CountryId":"20317122","CountyId":"20319762","CityId":"20320039","AddressId":"343848447","RoadLinkId":"538664434"}}},{"Relevance":1.0,"Distance":102.7,"MatchLevel":"houseNumber","MatchQuality":{"Country":1.0,"County":1.0,"City":1.0,"District":1.0,"Street":[1.0],"HouseNumber":1.0,"PostalCode":1.0},"MatchType":"interpolated","Location":{"LocationId":"NT_DyXuLNtUmGVeFubDy0.yuC_xA","LocationType":"point","DisplayPosition":{"Latitude":41.15128,"Longitude":-8.60116},"MapView":{"TopLeft":{"Latitude":41.1524042,"Longitude":-8.6026529},"BottomRight":{"Latitude":41.1501558,"Longitude":-8.5996671}},"Address":{"Label":"Rua de Anselmo Braancamp 1, 4000-082 Porto, Portugal","Country":"PRT","County":"Porto","City":"Porto","District":"Santo Ildefonso","Street":"Rua de Anselmo Braancamp","HouseNumber":"1","PostalCode":"4000-082","AdditionalData":[{"value":"Portugal","key":"CountryName"},{"value":"Porto","key":"CountyName"}]},"MapReference":{"ReferenceId":"543101406","Spot":0.11,"SideOfStreet":"left","CountryId":"20317122","CountyId":"20319762","CityId":"20320039","AddressId":"344020460","RoadLinkId":"69880313"}}},{"Relevance":1.0,"Distance":107.1,"MatchLevel":"houseNumber","MatchQuality":{"Country":1.0,"County":1.0,"City":1.0,"District":1.0,"Street":[1.0],"HouseNumber":1.0,"PostalCode":1.0},"MatchType":"interpolated","Location":{"LocationId":"NT_RkpYRWGGAIltl6OObtShKC_yEzM","LocationType":"point","DisplayPosition":{"Latitude":41.15082,"Longitude":-8.60365},"MapView":{"TopLeft":{"Latitude":41.1519442,"Longitude":-8.6051429},"BottomRight":{"Latitude":41.1496958,"Longitude":-8.6021571}},"Address":{"Label":"Rua do Doutor Alves da Veiga 213, 4000-074 Porto, Portugal","Country":"PRT","County":"Porto","City":"Porto","District":"Santo Ildefonso","Street":"Rua do Doutor Alves da Veiga","HouseNumber":"213","PostalCode":"4000-074","AdditionalData":[{"value":"Portugal","key":"CountryName"},{"value":"Porto","key":"CountyName"}]},"MapReference":{"ReferenceId":"1236856898","Spot":0.25,"SideOfStreet":"left","CountryId":"20317122","CountyId":"20319762","CityId":"20320039","AddressId":"343900192","RoadLinkId":"557560751"}}},{"Relevance":1.0,"Distance":110.1,"MatchLevel":"houseNumber","MatchQuality":{"Country":1.0,"County":1.0,"City":1.0,"District":1.0,"Street":[1.0],"HouseNumber":1.0,"PostalCode":1.0},"MatchType":"interpolated","Location":{"LocationId":"NT_TZKhw2qvV.eTiCMm.llpWD_xkDO","LocationType":"point","DisplayPosition":{"Latitude":41.15029,"Longitude":-8.60349},"MapView":{"TopLeft":{"Latitude":41.1514142,"Longitude":-8.6049829},"BottomRight":{"Latitude":41.1491658,"Longitude":-8.6019971}},"Address":{"Label":"Rua do Doutor Alves da Veiga 198, 4000-072 Porto, Portugal","Country":"PRT","County":"Porto","City":"Porto","District":"Santo Ildefonso","Street":"Rua do Doutor Alves da Veiga","HouseNumber":"198","PostalCode":"4000-072","AdditionalData":[{"value":"Portugal","key":"CountryName"},{"value":"Porto","key":"CountyName"}]},"MapReference":{"ReferenceId":"1236856897","Spot":0.69,"SideOfStreet":"right","CountryId":"20317122","CountyId":"20319762","CityId":"20320039","AddressId":"343900220","RoadLinkId":"557560750"}}}]}]}}