{"Response":{"MetaInfo":{"Timestamp":"2020-03-28T11:05:44.780+0000","NextPageInformation":"2"},"View":[{"_type":"SearchResultsViewType","ViewId":0,"Result":[{"Relevance":1.0,"Distance":0.0,"Direction":0.0,"MatchLevel":"district","MatchQuality":{"Country":1.0,"State":1.0,"County":1.0,"City":1.0,"District":1.0,"PostalCode":1.0},"Location":{"LocationId":"NT_lQiLNlJgK0hNoAAvFQOPNA","LocationType":"point","DisplayPosition":{"Latitude":41.1159205,"Longitude":1.2537892},"MapView":{"TopLeft":{"Latitude":41.12931,"Longitude":1.22887},"BottomRight":{"Latitude":41.10892,"Longitude":1.2666}},"Address":{"Label":"Ciutat, Tarragona, Catalunya, Espanya","Country":"ESP","State":"Catalunya","County":"Tarragona","City":"Tarragona","District":"Ciutat","PostalCode":"43002","AdditionalData":[{"value":"Espanya","key":"CountryName"},{"value":"Catalunya","key":"StateName"},{"value":"Tarragona","key":"CountyName"}]},"MapReference":{"ReferenceId":"71469668","SideOfStreet":"neither","CountryId":"20215059","StateId":"20215741","CountyId":"20226116","CityId":"20226653"}}},{"Relevance":1.0,"Distance":11.2,"MatchLevel":"houseNumber","MatchQuality":{"Country":1.0,"State":1.0,"County":1.0,"City":1.0,"District":1.0,"Street":[1.0],"HouseNumber":1.0,"PostalCode":1.0},"MatchType":"interpolated","Location":{"LocationId":"NT_wAj3Q0JDOIE.kyfuwR9HrD_xYD","LocationType":"point","DisplayPosition":{"Latitude":41.11603,"Longitude":1.2538},"MapView":{"TopLeft":{"Latitude":41.1171542,"Longitude":1.2523079},"BottomRight":{"Latitude":41.1149058,"Longitude":1.2552921}},"Address":{"Label":"Carrer Comte de Rius, 16, 43003 Tarragona (Tarragona), Espanya","Country":"ESP","State":"Catalunya","County":"Tarragona","City":"Tarragona","District":"Ciutat","Street":"Carrer Comte de Rius","HouseNumber":"16","PostalCode":"43003","AdditionalData":[{"value":"Espanya","key":"CountryName"},{"value":"Catalunya","key":"StateName"},{"value":"Tarragona","key":"CountyName"}]},"MapReference":{"ReferenceId":"71475233","Spot":0.14,"SideOfStreet":"right","CountryId":"20215059","StateId":"20215741","CountyId":"20226116","CityId":"20226653","AddressId":"350080534","RoadLinkId":"66093238"}}},{"Relevance":1.0,"Distance":11.2,"MatchLevel":"houseNumber","MatchQuality":{"Country":1.0,"State":1.0,"County":1.0,"City":1.0,"District":1.0,"Street":[1.0],"HouseNumber":1.0,"PostalCode":1.0},"MatchType":"interpolated","Location":{"LocationId":"NT_PkkKRkx9Bx.q2wBTiVn-xD_xMD","LocationType":"point","DisplayPosition":{"Latitude":41.11584,"Longitude":1.25387},"MapView":{"TopLeft":{"Latitude":41.1169642,"Longitude":1.2523779},"BottomRight":{"Latitude":41.1147158,"Longitude":1.2553621}},"Address":{"Label":"Carrer August, 13, 43003 Tarragona (Tarragona), Espanya","Country":"ESP","State":"Catalunya","County":"Tarragona","City":"Tarragona","District":"Ciutat","Street":"Carrer August","HouseNumber":"13","PostalCode":"43003","AdditionalData":[{"value":"Espanya","key":"CountryName"},{"value":"Catalunya","key":"StateName"},{"value":"Tarragona","key":"CountyName"}]},"MapReference":{"ReferenceId":"71475231","Spot":0.86,"SideOfStreet":"right","CountryId":"20215059","StateId":"20215741","CountyId":"20226116","CityId":"20226653","AddressId":"349557693","RoadLinkId":"65404420"}}},{"Relevance":1.0,"Distance":13.4,"MatchLevel":"houseNumber","MatchQuality":{"Country":1.0,"State":1.0,"County":1.0,"City":1.0,"District":1.0,"Street":[1.0],"HouseNumber":1.0,"PostalCode":1.0},"MatchType":"interpolated","Location":{"LocationId":"NT_wAj3Q0JDOIE.kyfuwR9HrD_xgD","LocationType":"point","DisplayPosition":{"Latitude":41.11584,"Longitude":1.25365},"MapView":{"TopLeft":{"Latitude":41.1169642,"Longitude":1.2521579},"BottomRight":{"Latitude":41.1147158,"Longitude":1.2551421}},"Address":{"Label":"Carrer Comte de Rius, 18, 43003 Tarragona (Tarragona), Espanya","Country":"ESP","State":"Catalunya","County":"Tarragona","City":"Tarragona","District":"Ciutat","Street":"Carrer Comte de Rius","HouseNumber":"18","PostalCode":"43003","AdditionalData":[{"value":"Espanya","key":"CountryName"},{"value":"Catalunya","key":"StateName"},{"value":"Tarragona","key":"CountyName"}]},"MapReference":{"ReferenceId":"71475232","Spot":0.86,"SideOfStreet":"right","CountryId":"20215059","StateId":"20215741","CountyId":"20226116","CityId":"20226653","AddressId":"350066100","RoadLinkId":"66047536"}}},{"Relevance":1.0,"Distance":24.0,"MatchLevel":"houseNumber","MatchQuality":{"Country":1.0,"State":1.0,"County":1.0,"City":1.0,"District":1.0,"Street":[1.0],"HouseNumber":1.0,"PostalCode":1.0},"MatchType":"interpolated","Location":{"LocationId":"NT_PkkKRkx9Bx.q2wBTiVn-xD_yED","LocationType":"point","DisplayPosition":{"Latitude":41.116,"Longitude":1.25351},"MapView":{"TopLeft":{"Latitude":41.1171242,"Longitude":1.2520179},"BottomRight":{"Latitude":41.1148758,"Longitude":1.2550021}},"Address":{"Label":"Carrer August, 21, 43003 Tarragona (Tarragona), Espanya","Country":"ESP","State":"Catalunya","County":"Tarragona","City":"Tarragona","District":"Ciutat","Street":"Carrer August","HouseNumber":"21","PostalCode":"43003","AdditionalData":[{"value":"Espanya","key":"CountryName"},{"value":"Catalunya","key":"StateName"},{"value":"Tarragona","key":"CountyName"}]},"MapReference":{"ReferenceId":"71475234","Spot":0.3,"SideOfStreet":"right","CountryId":"20215059","StateId":"20215741","CountyId":"20226116","CityId":"20226653","AddressId":"349561802","RoadLinkId":"65896308"}}},{"Relevance":1.0,"Distance":64.2,"MatchLevel":"houseNumber","MatchQuality":{"Country":1.0,"State":1.0,"County":1.0,"City":1.0,"District":1.0,"Street":[1.0],"HouseNumber":1.0,"PostalCode":1.0},"MatchType":"interpolated","Location":{"LocationId":"NT_ZFuVoPsAgvF2Nt0EAKbCqC_xgD","LocationType":"point","DisplayPosition":{"Latitude":41.11615,"Longitude":1.25299},"MapView":{"TopLeft":{"Latitude":41.1172742,"Longitude":1.2514979},"BottomRight":{"Latitude":41.1150258,"Longitude":1.2544821}},"Address":{"Label":"Carrer Sant Francesc, 18, 43003 Tarragona (Tarragona), Espanya","Country":"ESP","State":"Catalunya","County":"Tarragona","City":"Tarragona","District":"Ciutat","Street":"Carrer Sant Francesc","HouseNumber":"18","PostalCode":"43003","AdditionalData":[{"value":"Espanya","key":"CountryName"},{"value":"Catalunya","key":"StateName"},{"value":"Tarragona","key":"CountyName"}]},"MapReference":{"ReferenceId":"71469847","Spot":0.83,"SideOfStreet":"right","CountryId":"20215059","StateId":"20215741","CountyId":"20226116","CityId":"20226653","AddressId":"349831827","RoadLinkId":"66536985"}}},{"Relevance":1.0,"Distance":64.4,"MatchLevel":"houseNumber","MatchQuality":{"Country":1.0,"State":1.0,"County":1.0,"City":1.0,"District":1.0,"Street":[1.0],"HouseNumber":1.0,"PostalCode":1.0},"MatchType":"interpolated","Location":{"LocationId":"NT_ZFuVoPsAgvF2Nt0EAKbCqC_xQD","LocationType":"point","DisplayPosition":{"Latitude":41.11639,"Longitude":1.25318},"MapView":{"TopLeft":{"Latitude":41.1175142,"Longitude":1.2516878},"BottomRight":{"Latitude":41.1152658,"Longitude":1.2546722}},"Address":{"Label":"Carrer Sant Francesc, 14, 43003 Tarragona (Tarragona), Espanya","Country":"ESP","State":"Catalunya","County":"Tarragona","City":"Tarragona","District":"Ciutat","Street":"Carrer Sant Francesc","HouseNumber":"14","PostalCode":"43003","AdditionalData":[{"value":"Espanya","key":"CountryName"},{"value":"Catalunya","key":"StateName"},{"value":"Tarragona","key":"CountyName"}]},"MapReference":{"ReferenceId":"71469846","Spot":0.18,"SideOfStreet":"right","CountryId":"20215059","StateId":"20215741","CountyId":"20226116","CityId":"20226653","AddressId":"349793780","RoadLinkId":"66411820"}}},{"Relevance":1.0,"Distance":64.5,"MatchLevel":"houseNumber","MatchQuality":{"Country":1.0,"State":1.0,"County":1.0,"City":1.0,"District":1.0,"Street":[1.0],"HouseNumber":1.0,"PostalCode":1.0},"MatchType":"interpolated","Location":{"LocationId":"NT_GatCMrjC1-DhnKfAV9rY7C_1cD","LocationType":"point","DisplayPosition":{"Latitude":41.11547,"Longitude":1.25318},"MapView":{"TopLeft":{"Latitude":41.1165942,"Longitude":1.2516879},"BottomRight":{"Latitude":41.1143458,"Longitude":1.2546721}},"Address":{"Label":"Rambla Nova, 57, 43003 Tarragona (Tarragona), Espanya","Country":"ESP","State":"Catalunya","County":"Tarragona","City":"Tarragona","District":"Ciutat","Street":"Rambla Nova","HouseNumber":"57","PostalCode":"43003","AdditionalData":[{"value":"Espanya","key":"CountryName"},{"value":"Catalunya","key":"StateName"},{"value":"Tarragona","key":"CountyName"}]},"MapReference":{"ReferenceId":"843853778","Spot":0.29,"SideOfStreet":"right","CountryId":"20215059","StateId":"20215741","CountyId":"20226116","CityId":"20226653","AddressId":"349888855","RoadLinkId":"225283993"}}},{"Relevance":1.0,"Distance":64.7,"MatchLevel":"houseNumber","MatchQuality":{"Country":1.0,"State":1.0,"County":1.0,"City":1.0,"District":1.0,"Street":[1.0],"HouseNumber":1.0,"PostalCode":1.0},"MatchType":"interpolated","Location":{"LocationId":"NT_GatCMrjC1-DhnKfAV9rY7C_1MD","LocationType":"point","DisplayPosition":{"Latitude":41.11532,"Longitude":1.25349},"MapView":{"TopLeft":{"Latitude":41.1164442,"Longitude":1.2519979},"BottomRight":{"Latitude":41.1141958,"Longitude":1.2549821}},"Address":{"Label":"Rambla Nova, 53, 43003 Tarragona (Tarragona), Espanya","Country":"ESP","State":"Catalunya","County":"Tarragona","City":"Tarragona","District":"Ciutat","Street":"Rambla Nova","HouseNumber":"53","PostalCode":"43003","AdditionalData":[{"value":"Espanya","key":"CountryName"},{"value":"Catalunya","key":"StateName"},{"value":"Tarragona","key":"CountyName"}]},"MapReference":{"ReferenceId":"865757034","Spot":0.31,"SideOfStreet":"right","CountryId":"20215059","StateId":"20215741","CountyId":"20226116","CityId":"20226653","AddressId":"349889444","RoadLinkId":"238944043"}}},{"Relevance":1.0,"Distance":68.5,"MatchLevel":"houseNumber","MatchQuality":{"Country":1.0,"State":1.0,"County":1.0,"City":1.0,"District":1.0,"Street":[1.0],"HouseNumber":1.0,"PostalCode":1.0},"MatchType":"interpolated","Location":{"LocationId":"NT_GatCMrjC1-DhnKfAV9rY7C_1ED","LocationType":"point","DisplayPosition":{"Latitude":41.11525,"Longitude":1.25363},"MapView":{"TopLeft":{"Latitude":41.1163742,"Longitude":1.2521379},"BottomRight":{"Latitude":41.1141258,"Longitude":1.2551221}},"Address":{"Label":"Rambla Nova, 51, 43003 Tarragona (Tarragona), Espanya","Country":"ESP","State":"Catalunya","County":"Tarragona","City":"Tarragona","District":"Ciutat","Street":"Rambla Nova","HouseNumber":"51","PostalCode":"43003","AdditionalData":[{"value":"Espanya","key":"CountryName"},{"value":"Catalunya","key":"StateName"},{"value":"Tarragona","key":"CountyName"}]},"MapReference":{"ReferenceId":"865757033","Spot":0.92,"SideOfStreet":"right","CountryId":"20215059","StateId":"20215741","CountyId":"20226116","CityId":"20226653","AddressId":"349711730","RoadLinkId":"238944042"}}}]}]}}