{"Response":{"MetaInfo":{"Timestamp":"2020-03-28T10:44:31.123+0000","NextPageInformation":"2"},"View":[{"_type":"SearchResultsViewType","ViewId":0,"Result":[{"Relevance":1.0,"Distance":0.0,"Direction":0.0,"MatchLevel":"city","MatchQuality":{"Country":1.0,"State":1.0,"County":1.0,"City":1.0,"PostalCode":1.0},"Location":{"LocationId":"NT_NZeo4QMQ1rEB1FmImX3LPB","LocationType":"point","DisplayPosition":{"Latitude":41.2565451,"Longitude":13.5972314},"MapView":{"TopLeft":{"Latitude":41.33764,"Longitude":13.55153},"BottomRight":{"Latitude":41.24415,"Longitude":13.70842}},"Address":{"Label":"Formia, Lazio, Italia","Country":"ITA","State":"Lazio","County":"LT","City":"Formia","PostalCode":"04023","AdditionalData":[{"value":"Italia","key":"CountryName"},{"value":"Lazio","key":"StateName"},{"value":"Latina","key":"CountyName"}]},"MapReference":{"ReferenceId":"566362877","SideOfStreet":"neither","CountryId":"20110484","StateId":"20126288","CountyId":"20127224","CityId":"20127259"}}},{"Relevance":1.0,"Distance":10.5,"MatchLevel":"houseNumber","MatchQuality":{"Country":1.0,"State":1.0,"County":1.0,"City":1.0,"Street":[1.0],"HouseNumber":1.0,"PostalCode":1.0},"MatchType":"interpolated","Location":{"LocationId":"NT_.X8MVyHp7vlUCiAOOnAwyB_l_566363507_L_xcD","LocationType":"point","DisplayPosition":{"Latitude":41.2566603,"Longitude":13.5973691},"MapView":{"TopLeft":{"Latitude":41.2577844,"Longitude":13.5958738},"BottomRight":{"Latitude":41.2555361,"Longitude":13.5988645}},"Address":{"Label":"Via Santa Maria la Noce, 17, 04023 Formia LT, Italia","Country":"ITA","State":"Lazio","County":"LT","City":"Formia","Street":"Via Santa Maria la Noce","HouseNumber":"17","PostalCode":"04023","AdditionalData":[{"value":"Italia","key":"CountryName"},{"value":"Lazio","key":"StateName"},{"value":"Latina","key":"CountyName"}]},"MapReference":{"ReferenceId":"566363507","Spot":0.82,"SideOfStreet":"left","CountryId":"20110484","StateId":"20126288","CountyId":"20127224","CityId":"20127259"}}},{"Relevance":1.0,"Distance":32.8,"MatchLevel":"houseNumber","MatchQuality":{"Country":1.0,"State":1.0,"County":1.0,"City":1.0,"Street":[1.0],"HouseNumber":1.0,"PostalCode":1.0},"MatchType":"interpolated","Location":{"LocationId":"NT_.X8MVyHp7vlUCiAOOnAwyB_l_566363210_L_ycD","LocationType":"point","DisplayPosition":{"Latitude":41.2567,"Longitude":13.5968399},"MapView":{"TopLeft":{"Latitude":41.2578242,"Longitude":13.5953446},"BottomRight":{"Latitude":41.2555758,"Longitude":13.5983353}},"Address":{"Label":"Via Santa Maria la Noce, 27, 04023 Formia LT, Italia","Country":"ITA","State":"Lazio","County":"LT","City":"Formia","Street":"Via Santa Maria la Noce","HouseNumber":"27","PostalCode":"04023","AdditionalData":[{"value":"Italia","key":"CountryName"},{"value":"Lazio","key":"StateName"},{"value":"Latina","key":"CountyName"}]},"MapReference":{"ReferenceId":"566363210","Spot":0.09,"SideOfStreet":"left","CountryId":"20110484","StateId":"20126288","CountyId":"20127224","CityId":"20127259"}}},{"Relevance":1.0,"Distance":38.1,"MatchLevel":"houseNumber","MatchQuality":{"Country":1.0,"State":1.0,"County":1.0,"City":1.0,"Street":[1.0],"HouseNumber":1.0,"PostalCode":1.0},"MatchType":"interpolated","Location":{"LocationId":"NT_-V.2mDPSuI6zvp7kHMbALB_l_566363029_L_zA","LocationType":"point","DisplayPosition":{"Latitude":41.25682,"Longitude":13.59696},"MapView":{"TopLeft":{"Latitude":41.2579442,"Longitude":13.5954646},"BottomRight":{"Latitude":41.2556959,"Longitude":13.5984554}},"Address":{"Label":"Via Balze di Pagnano, 3, 04023 Formia LT, Italia","Country":"ITA","State":"Lazio","County":"LT","City":"Formia","Street":"Via Balze di Pagnano","HouseNumber":"3","PostalCode":"04023","AdditionalData":[{"value":"Italia","key":"CountryName"},{"value":"Lazio","key":"StateName"},{"value":"Latina","key":"CountyName"}]},"MapReference":{"ReferenceId":"566363029","Spot":0.13,"SideOfStreet":"left","CountryId":"20110484","StateId":"20126288","CountyId":"20127224","CityId":"20127259"}}},{"Relevance":1.0,"Distance":108.7,"MatchLevel":"street","MatchQuality":{"Country":1.0,"State":1.0,"County":1.0,"City":1.0,"Street":[1.0],"PostalCode":1.0},"Location":{"LocationId":"NT_-V.2mDPSuI6zvp7kHMbALB_l_566363031_R","LocationType":"point","DisplayPosition":{"Latitude":41.25752,"Longitude":13.59732},"MapView":{"TopLeft":{"Latitude":41.2584,"Longitude":13.59732},"BottomRight":{"Latitude":41.25752,"Longitude":13.59846}},"Address":{"Label":"Via Balze di Pagnano, 04023 Formia LT, Italia","Country":"ITA","State":"Lazio","County":"LT","City":"Formia","Street":"Via Balze di Pagnano","PostalCode":"04023","AdditionalData":[{"value":"Italia","key":"CountryName"},{"value":"Lazio","key":"StateName"},{"value":"Latina","key":"CountyName"}]},"MapReference":{"ReferenceId":"566363031","Spot":0.0,"SideOfStreet":"right","CountryId":"20110484","StateId":"20126288","CountyId":"20127224","CityId":"20127259"}}},{"Relevance":1.0,"Distance":109.5,"MatchLevel":"houseNumber","MatchQuality":{"Country":1.0,"State":1.0,"County":1.0,"City":1.0,"Street":[1.0],"HouseNumber":1.0,"PostalCode":1.0},"MatchType":"interpolated","Location":{"LocationId":"NT_QRekPkGCYnAC89xlTEMWkB_l_566363816_L_zQD","LocationType":"point","DisplayPosition":{"Latitude":41.2555205,"Longitude":13.5978201},"MapView":{"TopLeft":{"Latitude":41.2566446,"Longitude":13.5963247},"BottomRight":{"Latitude":41.2543963,"Longitude":13.5993154}},"Address":{"Label":"Via Olivetani, 34, 04023 Formia LT, Italia","Country":"ITA","State":"Lazio","County":"LT","City":"Formia","Street":"Via Olivetani","HouseNumber":"34","PostalCode":"04023","AdditionalData":[{"value":"Italia","key":"CountryName"},{"value":"Lazio","key":"StateName"},{"value":"Latina","key":"CountyName"}]},"MapReference":{"ReferenceId":"566363816","Spot":0.24,"SideOfStreet":"left","CountryId":"20110484","StateId":"20126288","CountyId":"20127224","CityId":"20127259"}}},{"Relevance":1.0,"Distance":122.4,"MatchLevel":"houseNumber","MatchQuality":{"Country":1.0,"State":1.0,"County":1.0,"City":1.0,"Street":[1.0],"HouseNumber":1.0,"PostalCode":1.0},"MatchType":"interpolated","Location":{"LocationId":"NT_FpMPoLdcLHkGvX5zx3T-7C_l_566363228_L_3A","LocationType":"point","DisplayPosition":{"Latitude":41.25764,"Longitude":13.59738},"MapView":{"TopLeft":{"Latitude":41.2587642,"Longitude":13.5958846},"BottomRight":{"Latitude":41.2565159,"Longitude":13.5988754}},"Address":{"Label":"Via Monte di Mola, 7, 04023 Formia LT, Italia","Country":"ITA","State":"Lazio","County":"LT","City":"Formia","Street":"Via Monte di Mola","HouseNumber":"7","PostalCode":"04023","AdditionalData":[{"value":"Italia","key":"CountryName"},{"value":"Lazio","key":"StateName"},{"value":"Latina","key":"CountyName"}]},"MapReference":{"ReferenceId":"566363228","Spot":0.11,"SideOfStreet":"left","CountryId":"20110484","StateId":"20126288","CountyId":"20127224","CityId":"20127259"}}},{"Relevance":1.0,"Distance":131.9,"MatchLevel":"street","MatchQuality":{"Country":1.0,"State":1.0,"County":1.0,"City":1.0,"Street":[1.0],"PostalCode":1.0},"Location":{"LocationId":"NT_-ulaCwcd0uQUaZZWpqMJkC_l_566363247_R","LocationType":"point","DisplayPosition":{"Latitude":41.2554,"Longitude":13.59682},"MapView":{"TopLeft":{"Latitude":41.2554,"Longitude":13.59682},"BottomRight":{"Latitude":41.25519,"Longitude":13.59702}},"Address":{"Label":"Strada Comunale Pietre Composte, 04023 Formia LT, Italia","Country":"ITA","State":"Lazio","County":"LT","City":"Formia","Street":"Strada Comunale Pietre Composte","PostalCode":"04023","AdditionalData":[{"value":"Italia","key":"CountryName"},{"value":"Lazio","key":"StateName"},{"value":"Latina","key":"CountyName"}]},"MapReference":{"ReferenceId":"566363247","Spot":1.0,"SideOfStreet":"right","CountryId":"20110484","StateId":"20126288","CountyId":"20127224","CityId":"20127259"}}},{"Relevance":1.0,"Distance":151.7,"MatchLevel":"street","MatchQuality":{"Country":1.0,"State":1.0,"County":1.0,"City":1.0,"Street":[1.0],"PostalCode":1.0},"Location":{"LocationId":"NT_-ulaCwcd0uQUaZZWpqMJkC_l_566363238_L","LocationType":"point","DisplayPosition":{"Latitude":41.25519,"Longitude":13.59702},"MapView":{"TopLeft":{"Latitude":41.25523,"Longitude":13.59485},"BottomRight":{"Latitude":41.25478,"Longitude":13.59702}},"Address":{"Label":"Strada Comunale Pietre Composte, 04023 Formia LT, Italia","Country":"ITA","State":"Lazio","County":"LT","City":"Formia","Street":"Strada Comunale Pietre Composte","PostalCode":"04023","AdditionalData":[{"value":"Italia","key":"CountryName"},{"value":"Lazio","key":"StateName"},{"value":"Latina","key":"CountyName"}]},"MapReference":{"ReferenceId":"566363238","Spot":1.0,"SideOfStreet":"left","CountryId":"20110484","StateId":"20126288","CountyId":"20127224","CityId":"20127259"}}},{"Relevance":1.0,"Distance":151.7,"MatchLevel":"street","MatchQuality":{"Country":1.0,"State":1.0,"County":1.0,"City":1.0,"Street":[1.0],"PostalCode":1.0},"Location":{"LocationId":"NT_-ulaCwcd0uQUaZZWpqMJkC_l_566363246_R","LocationType":"point","DisplayPosition":{"Latitude":41.25519,"Longitude":13.59702},"MapView":{"TopLeft":{"Latitude":41.25519,"Longitude":13.59702},"BottomRight":{"Latitude":41.25504,"Longitude":13.59731}},"Address":{"Label":"Strada Comunale Pietre Composte, 04023 Formia LT, Italia","Country":"ITA","State":"Lazio","County":"LT","City":"Formia","Street":"Strada Comunale Pietre Composte","PostalCode":"04023","AdditionalData":[{"value":"Italia","key":"CountryName"},{"value":"Lazio","key":"StateName"},{"value":"Latina","key":"CountyName"}]},"MapReference":{"ReferenceId":"566363246","Spot":1.0,"SideOfStreet":"right","CountryId":"20110484","StateId":"20126288","CountyId":"20127224","CityId":"20127259"}}}]}]}}