{"Response":{"MetaInfo":{"Timestamp":"2020-03-28T09:41:04.568+0000","NextPageInformation":"2"},"View":[{"_type":"SearchResultsViewType","ViewId":0,"Result":[{"Relevance":1.0,"Distance":0.0,"Direction":0.0,"MatchLevel":"city","MatchQuality":{"Country":1.0,"State":1.0,"County":1.0,"City":1.0,"PostalCode":1.0},"Location":{"LocationId":"NT_BD4xHEIBvPF.zD4n4vMKuD","LocationType":"point","DisplayPosition":{"Latitude":41.2844659,"Longitude":-4.6823753},"MapView":{"TopLeft":{"Latitude":41.374,"Longitude":-4.79992},"BottomRight":{"Latitude":41.18738,"Longitude":-4.60085}},"Address":{"Label":"Olmedo, Castilla y León, España","Country":"ESP","State":"Castilla y León","County":"Valladolid","City":"Olmedo","PostalCode":"47410","AdditionalData":[{"value":"España","key":"CountryName"},{"value":"Castilla y León","key":"StateName"},{"value":"Valladolid","key":"CountyName"}]},"MapReference":{"ReferenceId":"592989204","SideOfStreet":"neither","CountryId":"20215059","StateId":"20221909","CountyId":"20221917","CityId":"20313058"}}},{"Relevance":1.0,"Distance":3.1,"MatchLevel":"street","MatchQuality":{"Country":1.0,"State":1.0,"County":1.0,"City":1.0,"Street":[1.0],"PostalCode":1.0},"Location":{"LocationId":"NT_hvKpfAZBtl0JP2Sha03juA_l_995446050_L","LocationType":"point","DisplayPosition":{"Latitude":41.2844471,"Longitude":-4.6824024},"MapView":{"TopLeft":{"Latitude":41.28453,"Longitude":-4.68246},"BottomRight":{"Latitude":41.28417,"Longitude":-4.68221}},"Address":{"Label":"Calle Ana, 47410 Olmedo (Valladolid), España","Country":"ESP","State":"Castilla y León","County":"Valladolid","City":"Olmedo","Street":"Calle Ana","PostalCode":"47410","AdditionalData":[{"value":"España","key":"CountryName"},{"value":"Castilla y León","key":"StateName"},{"value":"Valladolid","key":"CountyName"}]},"MapReference":{"ReferenceId":"995446050","Spot":0.77,"SideOfStreet":"neither","CountryId":"20215059","StateId":"20221909","CountyId":"20221917","CityId":"20313058"}}},{"Relevance":1.0,"Distance":5.9,"MatchLevel":"houseNumber","MatchQuality":{"Country":1.0,"State":1.0,"County":1.0,"City":1.0,"Street":[1.0],"HouseNumber":1.0,"PostalCode":1.0},"MatchType":"interpolated","Location":{"LocationId":"NT_qpPnmJTtOHAWwu9x9R5B1B_l_564676810_R_yMD","LocationType":"point","DisplayPosition":{"Latitude":41.28458,"Longitude":-4.68231},"MapView":{"TopLeft":{"Latitude":41.2857042,"Longitude":-4.6838059},"BottomRight":{"Latitude":41.2834558,"Longitude":-4.680814}},"Address":{"Label":"Calle Calabazas, 23, 47410 Olmedo (Valladolid), España","Country":"ESP","State":"Castilla y León","County":"Valladolid","City":"Olmedo","Street":"Calle Calabazas","HouseNumber":"23","PostalCode":"47410","AdditionalData":[{"value":"España","key":"CountryName"},{"value":"Castilla y León","key":"StateName"},{"value":"Valladolid","key":"CountyName"}]},"MapReference":{"ReferenceId":"564676810","Spot":0.0,"SideOfStreet":"right","CountryId":"20215059","StateId":"20221909","CountyId":"20221917","CityId":"20313058"}}},{"Relevance":1.0,"Distance":9.8,"MatchLevel":"houseNumber","MatchQuality":{"Country":1.0,"State":1.0,"County":1.0,"City":1.0,"Street":[1.0],"HouseNumber":1.0,"PostalCode":1.0},"MatchType":"interpolated","Location":{"LocationId":"NT_qpPnmJTtOHAWwu9x9R5B1B_l_564676814_L_zYD","LocationType":"point","DisplayPosition":{"Latitude":41.28455,"Longitude":-4.68241},"MapView":{"TopLeft":{"Latitude":41.2856742,"Longitude":-4.683906},"BottomRight":{"Latitude":41.2834259,"Longitude":-4.680914}},"Address":{"Label":"Calle Calabazas, 36, 47410 Olmedo (Valladolid), España","Country":"ESP","State":"Castilla y León","County":"Valladolid","City":"Olmedo","Street":"Calle Calabazas","HouseNumber":"36","PostalCode":"47410","AdditionalData":[{"value":"España","key":"CountryName"},{"value":"Castilla y León","key":"StateName"},{"value":"Valladolid","key":"CountyName"}]},"MapReference":{"ReferenceId":"564676814","Spot":0.0,"SideOfStreet":"left","CountryId":"20215059","StateId":"20221909","CountyId":"20221917","CityId":"20313058"}}},{"Relevance":1.0,"Distance":9.8,"MatchLevel":"street","MatchQuality":{"Country":1.0,"State":1.0,"County":1.0,"City":1.0,"Street":[1.0],"PostalCode":1.0},"Location":{"LocationId":"NT_qpPnmJTtOHAWwu9x9R5B1B_l_995446048_R","LocationType":"point","DisplayPosition":{"Latitude":41.28455,"Longitude":-4.68241},"MapView":{"TopLeft":{"Latitude":41.28455,"Longitude":-4.68246},"BottomRight":{"Latitude":41.28453,"Longitude":-4.68241}},"Address":{"Label":"Calle Calabazas, 47410 Olmedo (Valladolid), España","Country":"ESP","State":"Castilla y León","County":"Valladolid","City":"Olmedo","Street":"Calle Calabazas","PostalCode":"47410","AdditionalData":[{"value":"España","key":"CountryName"},{"value":"Castilla y León","key":"StateName"},{"value":"Valladolid","key":"CountyName"}]},"MapReference":{"ReferenceId":"995446048","Spot":1.0,"SideOfStreet":"right","CountryId":"20215059","StateId":"20221909","CountyId":"20221917","CityId":"20313058"}}},{"Relevance":1.0,"Distance":11.9,"MatchLevel":"houseNumber","MatchQuality":{"Country":1.0,"State":1.0,"County":1.0,"City":1.0,"Street":[1.0],"HouseNumber":1.0,"PostalCode":1.0},"MatchType":"interpolated","Location":{"LocationId":"NT_qpPnmJTtOHAWwu9x9R5B1B_zA","LocationType":"point","DisplayPosition":{"Latitude":41.2845,"Longitude":-4.68251},"MapView":{"TopLeft":{"Latitude":41.2856242,"Longitude":-4.684006},"BottomRight":{"Latitude":41.2833758,"Longitude":-4.681014}},"Address":{"Label":"Calle Calabazas, 3, 47410 Olmedo (Valladolid), España","Country":"ESP","State":"Castilla y León","County":"Valladolid","City":"Olmedo","Street":"Calle Calabazas","HouseNumber":"3","PostalCode":"47410","AdditionalData":[{"value":"España","key":"CountryName"},{"value":"Castilla y León","key":"StateName"},{"value":"Valladolid","key":"CountyName"}]},"MapReference":{"ReferenceId":"995446047","Spot":0.68,"SideOfStreet":"left","CountryId":"20215059","StateId":"20221909","CountyId":"20221917","CityId":"20313058","AddressId":"349358960","RoadLinkId":"323198235"}}},{"Relevance":1.0,"Distance":20.0,"MatchLevel":"houseNumber","MatchQuality":{"Country":1.0,"State":1.0,"County":1.0,"City":1.0,"Street":[1.0],"HouseNumber":1.0,"PostalCode":1.0},"MatchType":"interpolated","Location":{"LocationId":"NT_qpPnmJTtOHAWwu9x9R5B1B_xA","LocationType":"point","DisplayPosition":{"Latitude":41.28447,"Longitude":-4.68263},"MapView":{"TopLeft":{"Latitude":41.2855942,"Longitude":-4.684126},"BottomRight":{"Latitude":41.2833458,"Longitude":-4.681134}},"Address":{"Label":"Calle Calabazas, 1, 47410 Olmedo (Valladolid), España","Country":"ESP","State":"Castilla y León","County":"Valladolid","City":"Olmedo","Street":"Calle Calabazas","HouseNumber":"1","PostalCode":"47410","AdditionalData":[{"value":"España","key":"CountryName"},{"value":"Castilla y León","key":"StateName"},{"value":"Valladolid","key":"CountyName"}]},"MapReference":{"ReferenceId":"564676792","Spot":1.0,"SideOfStreet":"left","CountryId":"20215059","StateId":"20221909","CountyId":"20221917","CityId":"20313058","AddressId":"349396581","RoadLinkId":"67978289"}}},{"Relevance":1.0,"Distance":28.9,"MatchLevel":"houseNumber","MatchQuality":{"Country":1.0,"State":1.0,"County":1.0,"City":1.0,"Street":[1.0],"HouseNumber":1.0,"PostalCode":1.0},"MatchType":"interpolated","Location":{"LocationId":"NT_dyud-BwjYLW8pIVdiNooLD_l_564676789_R_yUD","LocationType":"point","DisplayPosition":{"Latitude":41.2845901,"Longitude":-4.6827101},"MapView":{"TopLeft":{"Latitude":41.2857143,"Longitude":-4.6842061},"BottomRight":{"Latitude":41.283466,"Longitude":-4.6812141}},"Address":{"Label":"Calle Paralela a Nicolás Rodríguez, 25, 47410 Olmedo (Valladolid), España","Country":"ESP","State":"Castilla y León","County":"Valladolid","City":"Olmedo","Street":"Calle Paralela a Nicolás Rodríguez","HouseNumber":"25","PostalCode":"47410","AdditionalData":[{"value":"España","key":"CountryName"},{"value":"Castilla y León","key":"StateName"},{"value":"Valladolid","key":"CountyName"}]},"MapReference":{"ReferenceId":"564676789","Spot":0.27,"SideOfStreet":"right","CountryId":"20215059","StateId":"20221909","CountyId":"20221917","CityId":"20313058"}}},{"Relevance":1.0,"Distance":30.8,"MatchLevel":"houseNumber","MatchQuality":{"Country":1.0,"State":1.0,"County":1.0,"City":1.0,"Street":[1.0],"HouseNumber":1.0,"PostalCode":1.0},"MatchType":"interpolated","Location":{"LocationId":"NT_Xtz4TdBEu5MwxKt4Gs9TVB_xAD","LocationType":"point","DisplayPosition":{"Latitude":41.28464,"Longitude":-4.68203},"MapView":{"TopLeft":{"Latitude":41.2857642,"Longitude":-4.683526},"BottomRight":{"Latitude":41.2835158,"Longitude":-4.680534}},"Address":{"Label":"Calle Llano de Olmedo, 10, 47410 Olmedo (Valladolid), España","Country":"ESP","State":"Castilla y León","County":"Valladolid","City":"Olmedo","Street":"Calle Llano de Olmedo","HouseNumber":"10","PostalCode":"47410","AdditionalData":[{"value":"España","key":"CountryName"},{"value":"Castilla y León","key":"StateName"},{"value":"Valladolid","key":"CountyName"}]},"MapReference":{"ReferenceId":"564676807","Spot":0.11,"SideOfStreet":"left","CountryId":"20215059","StateId":"20221909","CountyId":"20221917","CityId":"20313058","AddressId":"349374451","RoadLinkId":"68339361"}}},{"Relevance":1.0,"Distance":31.4,"MatchLevel":"houseNumber","MatchQuality":{"Country":1.0,"State":1.0,"County":1.0,"City":1.0,"Street":[1.0],"HouseNumber":1.0,"PostalCode":1.0},"MatchType":"interpolated","Location":{"LocationId":"NT_wVvrKFhk8UP8JJ4-tOiO2D_xQD","LocationType":"point","DisplayPosition":{"Latitude":41.28473,"Longitude":-4.68251},"MapView":{"TopLeft":{"Latitude":41.2858542,"Longitude":-4.684006},"BottomRight":{"Latitude":41.2836058,"Longitude":-4.681014}},"Address":{"Label":"Calle Aguasal, 14, 47410 Olmedo (Valladolid), España","Country":"ESP","State":"Castilla y León","County":"Valladolid","City":"Olmedo","Street":"Calle Aguasal","HouseNumber":"14","PostalCode":"47410","AdditionalData":[{"value":"España","key":"CountryName"},{"value":"Castilla y León","key":"StateName"},{"value":"Valladolid","key":"CountyName"}]},"MapReference":{"ReferenceId":"564676817","Spot":0.38,"SideOfStreet":"left","CountryId":"20215059","StateId":"20221909","CountyId":"20221917","CityId":"20313058","AddressId":"349218134","RoadLinkId":"67938517"}}}]}]}}