{"Response":{"MetaInfo":{"Timestamp":"2020-03-28T12:03:43.143+0000","NextPageInformation":"2"},"View":[{"_type":"SearchResultsViewType","ViewId":0,"Result":[{"Relevance":1.0,"Distance":0.0,"Direction":0.0,"MatchLevel":"city","MatchQuality":{"Country":1.0,"State":1.0,"County":1.0,"City":1.0,"PostalCode":1.0},"Location":{"LocationId":"NT_dGULN43pmb8HmUcFY6yTeC","LocationType":"point","DisplayPosition":{"Latitude":41.2728718,"Longitude":14.3072568},"MapView":{"TopLeft":{"Latitude":41.29838,"Longitude":14.26637},"BottomRight":{"Latitude":41.22617,"Longitude":14.34386}},"Address":{"Label":"Dragoni, Campania, Italia","Country":"ITA","State":"Campania","County":"CE","City":"Dragoni","PostalCode":"81010","AdditionalData":[{"value":"Italia","key":"CountryName"},{"value":"Campania","key":"StateName"},{"value":"Caserta","key":"CountyName"}]},"MapReference":{"ReferenceId":"562176937","SideOfStreet":"neither","CountryId":"20110484","StateId":"20127654","CountyId":"20127655","CityId":"20237221"}}},{"Relevance":1.0,"Distance":26.6,"MatchLevel":"street","MatchQuality":{"Country":1.0,"State":1.0,"County":1.0,"City":1.0,"Street":[1.0],"PostalCode":1.0},"Location":{"LocationId":"NT_9LJRDyKOz4HrWjXXgXde9D_l_559056505_L","LocationType":"point","DisplayPosition":{"Latitude":41.2726619,"Longitude":14.3074082},"MapView":{"TopLeft":{"Latitude":41.27293,"Longitude":14.30604},"BottomRight":{"Latitude":41.27216,"Longitude":14.30778}},"Address":{"Label":"Via Roma, 81010 Dragoni CE, Italia","Country":"ITA","State":"Campania","County":"CE","City":"Dragoni","Street":"Via Roma","PostalCode":"81010","AdditionalData":[{"value":"Italia","key":"CountryName"},{"value":"Campania","key":"StateName"},{"value":"Caserta","key":"CountyName"}]},"MapReference":{"ReferenceId":"559056505","Spot":0.78,"SideOfStreet":"left","CountryId":"20110484","StateId":"20127654","CountyId":"20127655","CityId":"20237221"}}},{"Relevance":1.0,"Distance":37.1,"MatchLevel":"street","MatchQuality":{"Country":1.0,"State":1.0,"County":1.0,"City":1.0,"Street":[1.0],"PostalCode":1.0},"Location":{"LocationId":"NT_qUO6G1is6-HJOmNUAyFa4A_l_907002947_L","LocationType":"point","DisplayPosition":{"Latitude":41.27314,"Longitude":14.30752},"MapView":{"TopLeft":{"Latitude":41.27314,"Longitude":14.30752},"BottomRight":{"Latitude":41.27303,"Longitude":14.30766}},"Address":{"Label":"Via Roma, 81010 Dragoni CE, Italia","Country":"ITA","State":"Campania","County":"CE","City":"Dragoni","Street":"Via Roma","PostalCode":"81010","AdditionalData":[{"value":"Italia","key":"CountryName"},{"value":"Campania","key":"StateName"},{"value":"Caserta","key":"CountyName"}]},"MapReference":{"ReferenceId":"907002947","Spot":1.0,"SideOfStreet":"left","CountryId":"20110484","StateId":"20127654","CountyId":"20127655","CityId":"20237221"}}},{"Relevance":1.0,"Distance":37.8,"MatchLevel":"street","MatchQuality":{"Country":1.0,"State":1.0,"County":1.0,"City":1.0,"Street":[1.0],"PostalCode":1.0},"Location":{"LocationId":"NT_qUO6G1is6-HJOmNUAyFa4A_l_907002948_L","LocationType":"point","DisplayPosition":{"Latitude":41.2731622,"Longitude":14.3074927},"MapView":{"TopLeft":{"Latitude":41.27366,"Longitude":14.30688},"BottomRight":{"Latitude":41.27314,"Longitude":14.30752}},"Address":{"Label":"Via Roma, 81010 Dragoni CE, Italia","Country":"ITA","State":"Campania","County":"CE","City":"Dragoni","Street":"Via Roma","PostalCode":"81010","AdditionalData":[{"value":"Italia","key":"CountryName"},{"value":"Campania","key":"StateName"},{"value":"Caserta","key":"CountyName"}]},"MapReference":{"ReferenceId":"907002948","Spot":0.04,"SideOfStreet":"left","CountryId":"20110484","StateId":"20127654","CountyId":"20127655","CityId":"20237221"}}},{"Relevance":1.0,"Distance":38.0,"MatchLevel":"street","MatchQuality":{"Country":1.0,"State":1.0,"County":1.0,"City":1.0,"Street":[1.0],"PostalCode":1.0},"Location":{"LocationId":"NT_Pg8f1ysTv.ybrsUpqsoWmC_l_559056291_L","LocationType":"point","DisplayPosition":{"Latitude":41.27303,"Longitude":14.30766},"MapView":{"TopLeft":{"Latitude":41.27303,"Longitude":14.30766},"BottomRight":{"Latitude":41.27293,"Longitude":14.30778}},"Address":{"Label":"Via Roma, 81010 Dragoni CE, Italia","Country":"ITA","State":"Campania","County":"CE","City":"Dragoni","Street":"Via Roma","PostalCode":"81010","AdditionalData":[{"value":"Italia","key":"CountryName"},{"value":"Campania","key":"StateName"},{"value":"Caserta","key":"CountyName"}]},"MapReference":{"ReferenceId":"559056291","Spot":1.0,"SideOfStreet":"left","CountryId":"20110484","StateId":"20127654","CountyId":"20127655","CityId":"20237221"}}},{"Relevance":1.0,"Distance":38.0,"MatchLevel":"street","MatchQuality":{"Country":1.0,"State":1.0,"County":1.0,"City":1.0,"Street":[1.0],"PostalCode":1.0},"Location":{"LocationId":"NT_9LJRDyKOz4HrWjXXgXde9D_l_559056528_L","LocationType":"point","DisplayPosition":{"Latitude":41.27303,"Longitude":14.30766},"MapView":{"TopLeft":{"Latitude":41.27342,"Longitude":14.30766},"BottomRight":{"Latitude":41.27303,"Longitude":14.30836}},"Address":{"Label":"Via Roma, 81010 Dragoni CE, Italia","Country":"ITA","State":"Campania","County":"CE","City":"Dragoni","Street":"Via Roma","PostalCode":"81010","AdditionalData":[{"value":"Italia","key":"CountryName"},{"value":"Campania","key":"StateName"},{"value":"Caserta","key":"CountyName"}]},"MapReference":{"ReferenceId":"559056528","Spot":0.0,"SideOfStreet":"left","CountryId":"20110484","StateId":"20127654","CountyId":"20127655","CityId":"20237221"}}},{"Relevance":1.0,"Distance":44.2,"MatchLevel":"street","MatchQuality":{"Country":1.0,"State":1.0,"County":1.0,"City":1.0,"Street":[1.0],"PostalCode":1.0},"Location":{"LocationId":"NT_qUO6G1is6-HJOmNUAyFa4A_l_559056294_L","LocationType":"point","DisplayPosition":{"Latitude":41.27293,"Longitude":14.30778},"MapView":{"TopLeft":{"Latitude":41.27293,"Longitude":14.30778},"BottomRight":{"Latitude":41.27277,"Longitude":14.30798}},"Address":{"Label":"Via Roma, 81010 Dragoni CE, Italia","Country":"ITA","State":"Campania","County":"CE","City":"Dragoni","Street":"Via Roma","PostalCode":"81010","AdditionalData":[{"value":"Italia","key":"CountryName"},{"value":"Campania","key":"StateName"},{"value":"Caserta","key":"CountyName"}]},"MapReference":{"ReferenceId":"559056294","Spot":1.0,"SideOfStreet":"left","CountryId":"20110484","StateId":"20127654","CountyId":"20127655","CityId":"20237221"}}},{"Relevance":1.0,"Distance":61.5,"MatchLevel":"street","MatchQuality":{"Country":1.0,"State":1.0,"County":1.0,"City":1.0,"Street":[1.0],"PostalCode":1.0},"Location":{"LocationId":"NT_qUO6G1is6-HJOmNUAyFa4A_l_1210910409_L","LocationType":"point","DisplayPosition":{"Latitude":41.27277,"Longitude":14.30798},"MapView":{"TopLeft":{"Latitude":41.27277,"Longitude":14.30798},"BottomRight":{"Latitude":41.27271,"Longitude":14.30806}},"Address":{"Label":"Via Roma, 81010 Dragoni CE, Italia","Country":"ITA","State":"Campania","County":"CE","City":"Dragoni","Street":"Via Roma","PostalCode":"81010","AdditionalData":[{"value":"Italia","key":"CountryName"},{"value":"Campania","key":"StateName"},{"value":"Caserta","key":"CountyName"}]},"MapReference":{"ReferenceId":"1210910409","Spot":1.0,"SideOfStreet":"left","CountryId":"20110484","StateId":"20127654","CountyId":"20127655","CityId":"20237221"}}},{"Relevance":1.0,"Distance":69.5,"MatchLevel":"street","MatchQuality":{"Country":1.0,"State":1.0,"County":1.0,"City":1.0,"Street":[1.0],"PostalCode":1.0},"Location":{"LocationId":"NT_Pg8f1ysTv.ybrsUpqsoWmC_l_1210910408_L","LocationType":"point","DisplayPosition":{"Latitude":41.27271,"Longitude":14.30806},"MapView":{"TopLeft":{"Latitude":41.27271,"Longitude":14.30806},"BottomRight":{"Latitude":41.27236,"Longitude":14.3085}},"Address":{"Label":"Via Roma, 81010 Dragoni CE, Italia","Country":"ITA","State":"Campania","County":"CE","City":"Dragoni","Street":"Via Roma","PostalCode":"81010","AdditionalData":[{"value":"Italia","key":"CountryName"},{"value":"Campania","key":"StateName"},{"value":"Caserta","key":"CountyName"}]},"MapReference":{"ReferenceId":"1210910408","Spot":1.0,"SideOfStreet":"left","CountryId":"20110484","StateId":"20127654","CountyId":"20127655","CityId":"20237221"}}},{"Relevance":1.0,"Distance":69.5,"MatchLevel":"street","MatchQuality":{"Country":1.0,"State":1.0,"County":1.0,"City":1.0,"PostalCode":1.0},"Location":{"LocationId":"NT_mmVLgTZ1AZB10QnNnSVnoA_l_559056508_L","LocationType":"point","DisplayPosition":{"Latitude":41.27271,"Longitude":14.30806},"MapView":{"TopLeft":{"Latitude":41.27333,"Longitude":14.30806},"BottomRight":{"Latitude":41.27271,"Longitude":14.30914}},"Address":{"Label":"81010 Dragoni CE, Italia","Country":"ITA","State":"Campania","County":"CE","City":"Dragoni","PostalCode":"81010","AdditionalData":[{"value":"Italia","key":"CountryName"},{"value":"Campania","key":"StateName"},{"value":"Caserta","key":"CountyName"}]},"MapReference":{"ReferenceId":"559056508","Spot":0.0,"SideOfStreet":"left","CountryId":"20110484","StateId":"20127654","CountyId":"20127655","CityId":"20237221"}}}]}]}}