{"Response":{"MetaInfo":{"Timestamp":"2020-03-28T09:41:12.431+0000","NextPageInformation":"2"},"View":[{"_type":"SearchResultsViewType","ViewId":0,"Result":[{"Relevance":1.0,"Distance":0.0,"Direction":0.0,"MatchLevel":"city","MatchQuality":{"Country":1.0,"State":1.0,"County":1.0,"City":1.0,"PostalCode":1.0},"Location":{"LocationId":"NT_kb3SSvXhc7Dj1lPimrzWzD","LocationType":"point","DisplayPosition":{"Latitude":41.232195,"Longitude":-5.4990652},"MapView":{"TopLeft":{"Latitude":41.28892,"Longitude":-5.57104},"BottomRight":{"Latitude":41.19038,"Longitude":-5.43412}},"Address":{"Label":"Fuentesaúco, Castilla y León, España","Country":"ESP","State":"Castilla y León","County":"Zamora","City":"Fuentesaúco","PostalCode":"49400","AdditionalData":[{"value":"España","key":"CountryName"},{"value":"Castilla y León","key":"StateName"},{"value":"Zamora","key":"CountyName"}]},"MapReference":{"ReferenceId":"571902675","SideOfStreet":"neither","CountryId":"20215059","StateId":"20221909","CountyId":"20221918","CityId":"20313860"}}},{"Relevance":1.0,"Distance":7.6,"MatchLevel":"houseNumber","MatchQuality":{"Country":1.0,"State":1.0,"County":1.0,"City":1.0,"Street":[1.0],"HouseNumber":1.0,"PostalCode":1.0},"MatchType":"interpolated","Location":{"LocationId":"NT_Wa9hnvUyPX5eAFSt8vk3gD_0A","LocationType":"point","DisplayPosition":{"Latitude":41.23222,"Longitude":-5.49898},"MapView":{"TopLeft":{"Latitude":41.2333442,"Longitude":-5.5004748},"BottomRight":{"Latitude":41.2310958,"Longitude":-5.4974852}},"Address":{"Label":"Calle Arrabal de San Pedro, 4, 49400 Fuentesaúco (Zamora), España","Country":"ESP","State":"Castilla y León","County":"Zamora","City":"Fuentesaúco","Street":"Calle Arrabal de San Pedro","HouseNumber":"4","PostalCode":"49400","AdditionalData":[{"value":"España","key":"CountryName"},{"value":"Castilla y León","key":"StateName"},{"value":"Zamora","key":"CountyName"}]},"MapReference":{"ReferenceId":"571902650","Spot":0.07,"SideOfStreet":"right","CountryId":"20215059","StateId":"20221909","CountyId":"20221918","CityId":"20313860","AddressId":"349086451","RoadLinkId":"68414619"}}},{"Relevance":1.0,"Distance":15.1,"MatchLevel":"houseNumber","MatchQuality":{"Country":1.0,"State":1.0,"County":1.0,"City":1.0,"Street":[1.0],"HouseNumber":1.0,"PostalCode":1.0},"MatchType":"interpolated","Location":{"LocationId":"NT_51E1IyGVc0pwsrv5E4ZF8D_3A","LocationType":"point","DisplayPosition":{"Latitude":41.23209,"Longitude":-5.49918},"MapView":{"TopLeft":{"Latitude":41.2332142,"Longitude":-5.5006748},"BottomRight":{"Latitude":41.2309658,"Longitude":-5.4976852}},"Address":{"Label":"Calle Mercado de Ganados, 7, 49400 Fuentesaúco (Zamora), España","Country":"ESP","State":"Castilla y León","County":"Zamora","City":"Fuentesaúco","Street":"Calle Mercado de Ganados","HouseNumber":"7","PostalCode":"49400","AdditionalData":[{"value":"España","key":"CountryName"},{"value":"Castilla y León","key":"StateName"},{"value":"Zamora","key":"CountyName"}]},"MapReference":{"ReferenceId":"571902691","Spot":0.4,"SideOfStreet":"left","CountryId":"20215059","StateId":"20221909","CountyId":"20221918","CityId":"20313860","AddressId":"798768041","RoadLinkId":"68186731"}}},{"Relevance":1.0,"Distance":30.2,"MatchLevel":"houseNumber","MatchQuality":{"Country":1.0,"State":1.0,"County":1.0,"City":1.0,"Street":[1.0],"HouseNumber":1.0,"PostalCode":1.0},"MatchType":"interpolated","Location":{"LocationId":"NT_v7Wn-H-SOOlJuuWGHo-HSD_3A","LocationType":"point","DisplayPosition":{"Latitude":41.23214,"Longitude":-5.49946},"MapView":{"TopLeft":{"Latitude":41.2332642,"Longitude":-5.5009548},"BottomRight":{"Latitude":41.2310158,"Longitude":-5.4979652}},"Address":{"Label":"Plaza Mercado Ganado, 7, 49400 Fuentesaúco (Zamora), España","Country":"ESP","State":"Castilla y León","County":"Zamora","City":"Fuentesaúco","Street":"Plaza Mercado Ganado","HouseNumber":"7","PostalCode":"49400","AdditionalData":[{"value":"España","key":"CountryName"},{"value":"Castilla y León","key":"StateName"},{"value":"Zamora","key":"CountyName"}]},"MapReference":{"ReferenceId":"592065752","Spot":0.9,"SideOfStreet":"right","CountryId":"20215059","StateId":"20221909","CountyId":"20221918","CityId":"20313860","AddressId":"364730790","RoadLinkId":"67752722"}}},{"Relevance":1.0,"Distance":32.5,"MatchLevel":"houseNumber","MatchQuality":{"Country":1.0,"State":1.0,"County":1.0,"City":1.0,"Street":[1.0],"HouseNumber":1.0,"PostalCode":1.0},"MatchType":"interpolated","Location":{"LocationId":"NT_x.Te61pQWO6S2F85mPXQ8D_5A","LocationType":"point","DisplayPosition":{"Latitude":41.23213,"Longitude":-5.49868},"MapView":{"TopLeft":{"Latitude":41.2332542,"Longitude":-5.5001748},"BottomRight":{"Latitude":41.2310058,"Longitude":-5.4971852}},"Address":{"Label":"Plaza Excma. Diputación Provincial, 9, 49400 Fuentesaúco (Zamora), España","Country":"ESP","State":"Castilla y León","County":"Zamora","City":"Fuentesaúco","Street":"Plaza Excma. Diputación Provincial","HouseNumber":"9","PostalCode":"49400","AdditionalData":[{"value":"España","key":"CountryName"},{"value":"Castilla y León","key":"StateName"},{"value":"Zamora","key":"CountyName"}]},"MapReference":{"ReferenceId":"571902653","Spot":0.47,"SideOfStreet":"left","CountryId":"20215059","StateId":"20221909","CountyId":"20221918","CityId":"20313860","AddressId":"349017772","RoadLinkId":"68239805"}}},{"Relevance":1.0,"Distance":34.9,"MatchLevel":"houseNumber","MatchQuality":{"Country":1.0,"State":1.0,"County":1.0,"City":1.0,"Street":[1.0],"HouseNumber":1.0,"PostalCode":1.0},"MatchType":"interpolated","Location":{"LocationId":"NT_AxCfsBQN5Ojz6ndaGgG19B_xYD","LocationType":"point","DisplayPosition":{"Latitude":41.2319,"Longitude":-5.49927},"MapView":{"TopLeft":{"Latitude":41.2330242,"Longitude":-5.5007648},"BottomRight":{"Latitude":41.2307758,"Longitude":-5.4977752}},"Address":{"Label":"Calle San Pedro, 16, 49400 Fuentesaúco (Zamora), España","Country":"ESP","State":"Castilla y León","County":"Zamora","City":"Fuentesaúco","Street":"Calle San Pedro","HouseNumber":"16","PostalCode":"49400","AdditionalData":[{"value":"España","key":"CountryName"},{"value":"Castilla y León","key":"StateName"},{"value":"Zamora","key":"CountyName"}]},"MapReference":{"ReferenceId":"571902698","Spot":0.81,"SideOfStreet":"right","CountryId":"20215059","StateId":"20221909","CountyId":"20221918","CityId":"20313860","AddressId":"349165183","RoadLinkId":"69062430"}}},{"Relevance":1.0,"Distance":35.0,"MatchLevel":"houseNumber","MatchQuality":{"Country":1.0,"State":1.0,"County":1.0,"City":1.0,"Street":[1.0],"HouseNumber":1.0,"PostalCode":1.0},"MatchType":"interpolated","Location":{"LocationId":"NT_51E1IyGVc0pwsrv5E4ZF8D_xYD","LocationType":"point","DisplayPosition":{"Latitude":41.23215,"Longitude":-5.49948},"MapView":{"TopLeft":{"Latitude":41.2332742,"Longitude":-5.5009748},"BottomRight":{"Latitude":41.2310258,"Longitude":-5.4979852}},"Address":{"Label":"Calle Mercado de Ganados, 16, 49400 Fuentesaúco (Zamora), España","Country":"ESP","State":"Castilla y León","County":"Zamora","City":"Fuentesaúco","Street":"Calle Mercado de Ganados","HouseNumber":"16","PostalCode":"49400","AdditionalData":[{"value":"España","key":"CountryName"},{"value":"Castilla y León","key":"StateName"},{"value":"Zamora","key":"CountyName"}]},"MapReference":{"ReferenceId":"990055503","Spot":1.0,"SideOfStreet":"left","CountryId":"20215059","StateId":"20221909","CountyId":"20221918","CityId":"20313860","AddressId":"348871858","RoadLinkId":"318688868"}}},{"Relevance":1.0,"Distance":35.3,"MatchLevel":"houseNumber","MatchQuality":{"Country":1.0,"State":1.0,"County":1.0,"City":1.0,"Street":[1.0],"HouseNumber":1.0,"PostalCode":1.0},"MatchType":"interpolated","Location":{"LocationId":"NT_Wa9hnvUyPX5eAFSt8vk3gD_xA","LocationType":"point","DisplayPosition":{"Latitude":41.23249,"Longitude":-5.49922},"MapView":{"TopLeft":{"Latitude":41.2336142,"Longitude":-5.5007148},"BottomRight":{"Latitude":41.2313658,"Longitude":-5.4977252}},"Address":{"Label":"Calle Arrabal de San Pedro, 1, 49400 Fuentesaúco (Zamora), España","Country":"ESP","State":"Castilla y León","County":"Zamora","City":"Fuentesaúco","Street":"Calle Arrabal de San Pedro","HouseNumber":"1","PostalCode":"49400","AdditionalData":[{"value":"España","key":"CountryName"},{"value":"Castilla y León","key":"StateName"},{"value":"Zamora","key":"CountyName"}]},"MapReference":{"ReferenceId":"571902633","Spot":0.0,"SideOfStreet":"left","CountryId":"20215059","StateId":"20221909","CountyId":"20221918","CityId":"20313860","AddressId":"348871863","RoadLinkId":"68460318"}}},{"Relevance":1.0,"Distance":43.5,"MatchLevel":"houseNumber","MatchQuality":{"Country":1.0,"State":1.0,"County":1.0,"City":1.0,"Street":[1.0],"HouseNumber":1.0,"PostalCode":1.0},"MatchType":"interpolated","Location":{"LocationId":"NT_51E1IyGVc0pwsrv5E4ZF8D_xcD","LocationType":"point","DisplayPosition":{"Latitude":41.23194,"Longitude":-5.49946},"MapView":{"TopLeft":{"Latitude":41.2330642,"Longitude":-5.5009548},"BottomRight":{"Latitude":41.2308158,"Longitude":-5.4979652}},"Address":{"Label":"Calle Mercado de Ganados, 17, 49400 Fuentesaúco (Zamora), España","Country":"ESP","State":"Castilla y León","County":"Zamora","City":"Fuentesaúco","Street":"Calle Mercado de Ganados","HouseNumber":"17","PostalCode":"49400","AdditionalData":[{"value":"España","key":"CountryName"},{"value":"Castilla y León","key":"StateName"},{"value":"Zamora","key":"CountyName"}]},"MapReference":{"ReferenceId":"1164496158","Spot":0.78,"SideOfStreet":"left","CountryId":"20215059","StateId":"20221909","CountyId":"20221918","CityId":"20313860","AddressId":"348871857","RoadLinkId":"470773909"}}},{"Relevance":1.0,"Distance":46.3,"MatchLevel":"street","MatchQuality":{"Country":1.0,"State":1.0,"County":1.0,"City":1.0,"PostalCode":1.0},"Location":{"LocationId":"NT_o4plMNFmyQjcrhactSyttC_l_592065751_L","LocationType":"point","DisplayPosition":{"Latitude":41.23242,"Longitude":-5.4986},"MapView":{"TopLeft":{"Latitude":41.23255,"Longitude":-5.4986},"BottomRight":{"Latitude":41.23242,"Longitude":-5.4984}},"Address":{"Label":"49400 Fuentesaúco (Zamora), España","Country":"ESP","State":"Castilla y León","County":"Zamora","City":"Fuentesaúco","PostalCode":"49400","AdditionalData":[{"value":"España","key":"CountryName"},{"value":"Castilla y León","key":"StateName"},{"value":"Zamora","key":"CountyName"}]},"MapReference":{"ReferenceId":"592065751","Spot":0.0,"SideOfStreet":"left","CountryId":"20215059","StateId":"20221909","CountyId":"20221918","CityId":"20313860"}}}]}]}}