{"Response":{"MetaInfo":{"Timestamp":"2020-03-28T11:04:19.831+0000","NextPageInformation":"2"},"View":[{"_type":"SearchResultsViewType","ViewId":0,"Result":[{"Relevance":1.0,"Distance":-37.5,"MatchLevel":"landmark","MatchQuality":{"Country":1.0,"State":1.0,"County":1.0,"City":1.0,"District":1.0,"Street":[1.0],"HouseNumber":1.0,"PostalCode":1.0,"Name":1.0},"Location":{"LocationId":"NT_6Wuq1KOiZdYY3mfjaIsYUD_p_OzVN6r-LjwaLdkj0HOejrD","LocationType":"hospital","Name":"Casa Prov. de la Maternitat","DisplayPosition":{"Latitude":41.38597,"Longitude":2.12426},"MapView":{"TopLeft":{"Latitude":41.3870942,"Longitude":2.1227617},"BottomRight":{"Latitude":41.3848458,"Longitude":2.1257583}},"Address":{"Label":"Carrer de Sabino Arana, 1, 08028 Barcelona (Barcelona), Espanya","Country":"ESP","State":"Catalunya","County":"Barcelona","City":"Barcelona","District":"La Maternitat i Sant Ramon","Street":"Carrer de Sabino Arana","HouseNumber":"1","PostalCode":"08028","AdditionalData":[{"value":"Espanya","key":"CountryName"},{"value":"Catalunya","key":"StateName"},{"value":"Barcelona","key":"CountyName"}]},"MapReference":{"CountryId":"20215059","StateId":"20215741","CountyId":"20215742","CityId":"20215774","PlaceId":"55706758"}}},{"Relevance":1.0,"Distance":0.0,"Direction":0.0,"MatchLevel":"district","MatchQuality":{"Country":1.0,"State":1.0,"County":1.0,"City":1.0,"District":1.0,"PostalCode":1.0},"Location":{"LocationId":"NT_1rEqUTOVENp1vTtV-.L2fC","LocationType":"point","DisplayPosition":{"Latitude":41.3850391,"Longitude":2.1229266},"MapView":{"TopLeft":{"Latitude":41.38826,"Longitude":2.10216},"BottomRight":{"Latitude":41.37568,"Longitude":2.12917}},"Address":{"Label":"La Maternitat i Sant Ramon, Barcelona, Catalunya, Espanya","Country":"ESP","State":"Catalunya","County":"Barcelona","City":"Barcelona","District":"La Maternitat i Sant Ramon","PostalCode":"08028","AdditionalData":[{"value":"Espanya","key":"CountryName"},{"value":"Catalunya","key":"StateName"},{"value":"Barcelona","key":"CountyName"}]},"MapReference":{"ReferenceId":"1207248252","SideOfStreet":"neither","CountryId":"20215059","StateId":"20215741","CountyId":"20215742","CityId":"20215774"}}},{"Relevance":1.0,"Distance":12.7,"MatchLevel":"street","MatchQuality":{"Country":1.0,"State":1.0,"County":1.0,"City":1.0,"District":1.0,"Street":[1.0],"PostalCode":1.0},"Location":{"LocationId":"NT_0ES4FJ07zgUa9rEBoOgNaD_l_810533383_R","LocationType":"point","DisplayPosition":{"Latitude":41.3851335,"Longitude":2.1228417},"MapView":{"TopLeft":{"Latitude":41.38568,"Longitude":2.12273},"BottomRight":{"Latitude":41.38481,"Longitude":2.12421}},"Address":{"Label":"Carrer Doctor Salvador Cardenal, 08028 Barcelona (Barcelona), Espanya","Country":"ESP","State":"Catalunya","County":"Barcelona","City":"Barcelona","District":"La Maternitat i Sant Ramon","Street":"Carrer Doctor Salvador Cardenal","PostalCode":"08028","AdditionalData":[{"value":"Espanya","key":"CountryName"},{"value":"Catalunya","key":"StateName"},{"value":"Barcelona","key":"CountyName"}]},"MapReference":{"ReferenceId":"810533383","Spot":0.21,"SideOfStreet":"right","CountryId":"20215059","StateId":"20215741","CountyId":"20215742","CityId":"20215774"}}},{"Relevance":1.0,"Distance":24.1,"MatchLevel":"houseNumber","MatchQuality":{"Country":1.0,"State":1.0,"County":1.0,"City":1.0,"District":1.0,"Street":[1.0],"HouseNumber":1.0,"PostalCode":1.0},"MatchType":"interpolated","Location":{"LocationId":"NT_avTlVCubPjtV-QPy2aMVKB_xgD","LocationType":"point","DisplayPosition":{"Latitude":41.38493,"Longitude":2.12256},"MapView":{"TopLeft":{"Latitude":41.3860542,"Longitude":2.1210617},"BottomRight":{"Latitude":41.3838058,"Longitude":2.1240583}},"Address":{"Label":"Avinguda de Joan XXIII, 18, 08028 Barcelona (Barcelona), Espanya","Country":"ESP","State":"Catalunya","County":"Barcelona","City":"Barcelona","District":"La Maternitat i Sant Ramon","Street":"Avinguda de Joan XXIII","HouseNumber":"18","PostalCode":"08028","AdditionalData":[{"value":"Espanya","key":"CountryName"},{"value":"Catalunya","key":"StateName"},{"value":"Barcelona","key":"CountyName"}]},"MapReference":{"ReferenceId":"772378298","Spot":0.32,"SideOfStreet":"right","CountryId":"20215059","StateId":"20215741","CountyId":"20215742","CityId":"20215774","AddressId":"416968054","RoadLinkId":"165997823"}}},{"Relevance":1.0,"Distance":26.5,"MatchLevel":"landmark","MatchQuality":{"Country":1.0,"State":1.0,"County":1.0,"City":1.0,"District":1.0,"Street":[1.0],"PostalCode":1.0,"Name":1.0},"Location":{"LocationId":"NT_4A.GIHESSHf-axb0iONaYC_p_Mm5rlSKzSpzTIy874ebuwA","LocationType":"park","Name":"Jardins de la Maternitat","DisplayPosition":{"Latitude":41.38204,"Longitude":2.12442},"MapView":{"TopLeft":{"Latitude":41.38531,"Longitude":2.12257},"BottomRight":{"Latitude":41.38066,"Longitude":2.12702}},"Address":{"Label":"Carrer d'Elisabeth Eidenbenz, 08028 Barcelona (Barcelona), Espanya","Country":"ESP","State":"Catalunya","County":"Barcelona","City":"Barcelona","District":"La Maternitat i Sant Ramon","Street":"Carrer d'Elisabeth Eidenbenz","PostalCode":"08028","AdditionalData":[{"value":"Espanya","key":"CountryName"},{"value":"Catalunya","key":"StateName"},{"value":"Barcelona","key":"CountyName"}]},"MapReference":{"CountryId":"20215059","StateId":"20215741","CountyId":"20215742","CityId":"20215774","PlaceId":"1112986170"}}},{"Relevance":1.0,"Distance":26.5,"MatchLevel":"street","MatchQuality":{"Country":1.0,"State":1.0,"County":1.0,"City":1.0,"District":1.0,"PostalCode":1.0},"Location":{"LocationId":"NT_23ACmh2hqaEEIzFu46m4UB_l_810533391_L","LocationType":"point","DisplayPosition":{"Latitude":41.3848102,"Longitude":2.1230168},"MapView":{"TopLeft":{"Latitude":41.38531,"Longitude":2.12294},"BottomRight":{"Latitude":41.38478,"Longitude":2.12446}},"Address":{"Label":"08028 Barcelona (Barcelona), Espanya","Country":"ESP","State":"Catalunya","County":"Barcelona","City":"Barcelona","District":"La Maternitat i Sant Ramon","PostalCode":"08028","AdditionalData":[{"value":"Espanya","key":"CountryName"},{"value":"Catalunya","key":"StateName"},{"value":"Barcelona","key":"CountyName"}]},"MapReference":{"ReferenceId":"810533391","Spot":0.05,"SideOfStreet":"left","CountryId":"20215059","StateId":"20215741","CountyId":"20215742","CityId":"20215774"}}},{"Relevance":1.0,"Distance":27.4,"MatchLevel":"street","MatchQuality":{"Country":1.0,"State":1.0,"County":1.0,"City":1.0,"District":1.0,"PostalCode":1.0},"Location":{"LocationId":"NT_23ACmh2hqaEEIzFu46m4UB_l_810533390_R","LocationType":"point","DisplayPosition":{"Latitude":41.384796,"Longitude":2.1228705},"MapView":{"TopLeft":{"Latitude":41.38481,"Longitude":2.12281},"BottomRight":{"Latitude":41.38478,"Longitude":2.12294}},"Address":{"Label":"08028 Barcelona (Barcelona), Espanya","Country":"ESP","State":"Catalunya","County":"Barcelona","City":"Barcelona","District":"La Maternitat i Sant Ramon","PostalCode":"08028","AdditionalData":[{"value":"Espanya","key":"CountryName"},{"value":"Catalunya","key":"StateName"},{"value":"Barcelona","key":"CountyName"}]},"MapReference":{"ReferenceId":"810533390","Spot":0.53,"SideOfStreet":"right","CountryId":"20215059","StateId":"20215741","CountyId":"20215742","CityId":"20215774"}}},{"Relevance":1.0,"Distance":28.8,"MatchLevel":"street","MatchQuality":{"Country":1.0,"State":1.0,"County":1.0,"City":1.0,"District":1.0,"PostalCode":1.0},"Location":{"LocationId":"NT_23ACmh2hqaEEIzFu46m4UB_l_810533394_R","LocationType":"point","DisplayPosition":{"Latitude":41.38478,"Longitude":2.12294},"MapView":{"TopLeft":{"Latitude":41.38478,"Longitude":2.12294},"BottomRight":{"Latitude":41.38466,"Longitude":2.12315}},"Address":{"Label":"08028 Barcelona (Barcelona), Espanya","Country":"ESP","State":"Catalunya","County":"Barcelona","City":"Barcelona","District":"La Maternitat i Sant Ramon","PostalCode":"08028","AdditionalData":[{"value":"Espanya","key":"CountryName"},{"value":"Catalunya","key":"StateName"},{"value":"Barcelona","key":"CountyName"}]},"MapReference":{"ReferenceId":"810533394","Spot":1.0,"SideOfStreet":"right","CountryId":"20215059","StateId":"20215741","CountyId":"20215742","CityId":"20215774"}}},{"Relevance":1.0,"Distance":35.3,"MatchLevel":"street","MatchQuality":{"Country":1.0,"State":1.0,"County":1.0,"City":1.0,"District":1.0,"Street":[1.0],"PostalCode":1.0},"Location":{"LocationId":"NT_UBzZi.Hb-AsLom4CL1uPmD_l_810533393_R","LocationType":"point","DisplayPosition":{"Latitude":41.3847258,"Longitude":2.1228564},"MapView":{"TopLeft":{"Latitude":41.38479,"Longitude":2.12257},"BottomRight":{"Latitude":41.38466,"Longitude":2.12315}},"Address":{"Label":"Carrer Maternitat, 08028 Barcelona (Barcelona), Espanya","Country":"ESP","State":"Catalunya","County":"Barcelona","City":"Barcelona","District":"La Maternitat i Sant Ramon","Street":"Carrer Maternitat","PostalCode":"08028","AdditionalData":[{"value":"Espanya","key":"CountryName"},{"value":"Catalunya","key":"StateName"},{"value":"Barcelona","key":"CountyName"}]},"MapReference":{"ReferenceId":"810533393","Spot":0.51,"SideOfStreet":"right","CountryId":"20215059","StateId":"20215741","CountyId":"20215742","CityId":"20215774"}}},{"Relevance":1.0,"Distance":40.6,"MatchLevel":"street","MatchQuality":{"Country":1.0,"State":1.0,"County":1.0,"City":1.0,"District":1.0,"Street":[1.0],"PostalCode":1.0},"Location":{"LocationId":"NT_avTlVCubPjtV-QPy2aMVKB_l_962618725_R","LocationType":"point","DisplayPosition":{"Latitude":41.38479,"Longitude":2.12257},"MapView":{"TopLeft":{"Latitude":41.38479,"Longitude":2.12257},"BottomRight":{"Latitude":41.38465,"Longitude":2.12259}},"Address":{"Label":"Avinguda de Joan XXIII, 08028 Barcelona (Barcelona), Espanya","Country":"ESP","State":"Catalunya","County":"Barcelona","City":"Barcelona","District":"La Maternitat i Sant Ramon","Street":"Avinguda de Joan XXIII","PostalCode":"08028","AdditionalData":[{"value":"Espanya","key":"CountryName"},{"value":"Catalunya","key":"StateName"},{"value":"Barcelona","key":"CountyName"}]},"MapReference":{"ReferenceId":"962618725","Spot":1.0,"SideOfStreet":"right","CountryId":"20215059","StateId":"20215741","CountyId":"20215742","CityId":"20215774"}}}]}]}}