{"Response":{"MetaInfo":{"Timestamp":"2020-03-28T09:38:19.193+0000","NextPageInformation":"2"},"View":[{"_type":"SearchResultsViewType","ViewId":0,"Result":[{"Relevance":1.0,"Distance":0.0,"Direction":0.0,"MatchLevel":"city","MatchQuality":{"Country":1.0,"State":1.0,"County":1.0,"City":1.0,"PostalCode":1.0},"Location":{"LocationId":"NT_ljvDALFJKqSEQUqN8mc7VC","LocationType":"point","DisplayPosition":{"Latitude":41.3087986,"Longitude":1.3587199},"MapView":{"TopLeft":{"Latitude":41.33343,"Longitude":1.3137},"BottomRight":{"Latitude":41.28162,"Longitude":1.42571}},"Address":{"Label":"Vila-Rodona, Catalunya, Espanya","Country":"ESP","State":"Catalunya","County":"Tarragona","City":"Vila-Rodona","PostalCode":"43814","AdditionalData":[{"value":"Espanya","key":"CountryName"},{"value":"Catalunya","key":"StateName"},{"value":"Tarragona","key":"CountyName"}]},"MapReference":{"ReferenceId":"542612021","SideOfStreet":"neither","CountryId":"20215059","StateId":"20215741","CountyId":"20226116","CityId":"20226742"}}},{"Relevance":1.0,"Distance":13.8,"MatchLevel":"houseNumber","MatchQuality":{"Country":1.0,"State":1.0,"County":1.0,"City":1.0,"Street":[1.0],"HouseNumber":1.0,"PostalCode":1.0},"MatchType":"interpolated","Location":{"LocationId":"NT_LrszXZyIa8xUstqMDvLgqC_2A","LocationType":"point","DisplayPosition":{"Latitude":41.30885,"Longitude":1.35887},"MapView":{"TopLeft":{"Latitude":41.3099742,"Longitude":1.3573734},"BottomRight":{"Latitude":41.3077258,"Longitude":1.3603666}},"Address":{"Label":"Carrer de les Escoles, 6, 43814 Vila-Rodona (Tarragona), Espanya","Country":"ESP","State":"Catalunya","County":"Tarragona","City":"Vila-Rodona","Street":"Carrer de les Escoles","HouseNumber":"6","PostalCode":"43814","AdditionalData":[{"value":"Espanya","key":"CountryName"},{"value":"Catalunya","key":"StateName"},{"value":"Tarragona","key":"CountyName"}]},"MapReference":{"ReferenceId":"542612083","Spot":0.46,"SideOfStreet":"right","CountryId":"20215059","StateId":"20215741","CountyId":"20226116","CityId":"20226742","AddressId":"404076589","RoadLinkId":"66572425"}}},{"Relevance":1.0,"Distance":32.3,"MatchLevel":"houseNumber","MatchQuality":{"Country":1.0,"State":1.0,"County":1.0,"City":1.0,"Street":[1.0],"HouseNumber":1.0,"PostalCode":1.0},"MatchType":"interpolated","Location":{"LocationId":"NT_UF4Y4F8wmXDrr5uWKskNrA_xA","LocationType":"point","DisplayPosition":{"Latitude":41.3085,"Longitude":1.3586},"MapView":{"TopLeft":{"Latitude":41.3096242,"Longitude":1.3571035},"BottomRight":{"Latitude":41.3073758,"Longitude":1.3600965}},"Address":{"Label":"Carrer Àngel Guimerà, 1, 43814 Vila-Rodona (Tarragona), Espanya","Country":"ESP","State":"Catalunya","County":"Tarragona","City":"Vila-Rodona","Street":"Carrer Àngel Guimerà","HouseNumber":"1","PostalCode":"43814","AdditionalData":[{"value":"Espanya","key":"CountryName"},{"value":"Catalunya","key":"StateName"},{"value":"Tarragona","key":"CountyName"}]},"MapReference":{"ReferenceId":"542612043","Spot":0.6,"SideOfStreet":"right","CountryId":"20215059","StateId":"20215741","CountyId":"20226116","CityId":"20226742","AddressId":"404192775","RoadLinkId":"66025621"}}},{"Relevance":1.0,"Distance":37.4,"MatchLevel":"houseNumber","MatchQuality":{"Country":1.0,"State":1.0,"County":1.0,"City":1.0,"Street":[1.0],"HouseNumber":1.0,"PostalCode":1.0},"MatchType":"interpolated","Location":{"LocationId":"NT_LrszXZyIa8xUstqMDvLgqC_l_542612079_R_yA","LocationType":"point","DisplayPosition":{"Latitude":41.3088053,"Longitude":1.3582724},"MapView":{"TopLeft":{"Latitude":41.3099295,"Longitude":1.3567759},"BottomRight":{"Latitude":41.3076812,"Longitude":1.359769}},"Address":{"Label":"Carrer de les Escoles, 2, 43814 Vila-Rodona (Tarragona), Espanya","Country":"ESP","State":"Catalunya","County":"Tarragona","City":"Vila-Rodona","Street":"Carrer de les Escoles","HouseNumber":"2","PostalCode":"43814","AdditionalData":[{"value":"Espanya","key":"CountryName"},{"value":"Catalunya","key":"StateName"},{"value":"Tarragona","key":"CountyName"}]},"MapReference":{"ReferenceId":"542612079","Spot":0.5,"SideOfStreet":"right","CountryId":"20215059","StateId":"20215741","CountyId":"20226116","CityId":"20226742"}}},{"Relevance":1.0,"Distance":42.2,"MatchLevel":"houseNumber","MatchQuality":{"Country":1.0,"State":1.0,"County":1.0,"City":1.0,"Street":[1.0],"HouseNumber":1.0,"PostalCode":1.0},"MatchType":"interpolated","Location":{"LocationId":"NT_LnrAdD4QYT.yL-4ayq9pMB_4A","LocationType":"point","DisplayPosition":{"Latitude":41.30902,"Longitude":1.35919},"MapView":{"TopLeft":{"Latitude":41.3101442,"Longitude":1.3576934},"BottomRight":{"Latitude":41.3078958,"Longitude":1.3606866}},"Address":{"Label":"Carrer de Vilardida, 8, 43814 Vila-Rodona (Tarragona), Espanya","Country":"ESP","State":"Catalunya","County":"Tarragona","City":"Vila-Rodona","Street":"Carrer de Vilardida","HouseNumber":"8","PostalCode":"43814","AdditionalData":[{"value":"Espanya","key":"CountryName"},{"value":"Catalunya","key":"StateName"},{"value":"Tarragona","key":"CountyName"}]},"MapReference":{"ReferenceId":"542612027","Spot":0.21,"SideOfStreet":"left","CountryId":"20215059","StateId":"20215741","CountyId":"20226116","CityId":"20226742","AddressId":"404182656","RoadLinkId":"66091634"}}},{"Relevance":1.0,"Distance":42.3,"MatchLevel":"street","MatchQuality":{"Country":1.0,"State":1.0,"County":1.0,"City":1.0,"PostalCode":1.0},"Location":{"LocationId":"NT_fxnkBkxfOo8b3YFCAFORhC_l_973325728_L","LocationType":"point","DisplayPosition":{"Latitude":41.30846,"Longitude":1.35895},"MapView":{"TopLeft":{"Latitude":41.30846,"Longitude":1.35895},"BottomRight":{"Latitude":41.30806,"Longitude":1.35906}},"Address":{"Label":"43814 Vila-Rodona (Tarragona), Espanya","Country":"ESP","State":"Catalunya","County":"Tarragona","City":"Vila-Rodona","PostalCode":"43814","AdditionalData":[{"value":"Espanya","key":"CountryName"},{"value":"Catalunya","key":"StateName"},{"value":"Tarragona","key":"CountyName"}]},"MapReference":{"ReferenceId":"973325728","Spot":1.0,"SideOfStreet":"left","CountryId":"20215059","StateId":"20215741","CountyId":"20226116","CityId":"20226742"}}},{"Relevance":1.0,"Distance":43.3,"MatchLevel":"street","MatchQuality":{"Country":1.0,"State":1.0,"County":1.0,"City":1.0,"Street":[1.0],"PostalCode":1.0},"Location":{"LocationId":"NT_LnrAdD4QYT.yL-4ayq9pMB_l_572193200_L","LocationType":"point","DisplayPosition":{"Latitude":41.30887,"Longitude":1.35923},"MapView":{"TopLeft":{"Latitude":41.30887,"Longitude":1.35923},"BottomRight":{"Latitude":41.30829,"Longitude":1.35938}},"Address":{"Label":"Carrer de Vilardida, 43814 Vila-Rodona (Tarragona), Espanya","Country":"ESP","State":"Catalunya","County":"Tarragona","City":"Vila-Rodona","Street":"Carrer de Vilardida","PostalCode":"43814","AdditionalData":[{"value":"Espanya","key":"CountryName"},{"value":"Catalunya","key":"StateName"},{"value":"Tarragona","key":"CountyName"}]},"MapReference":{"ReferenceId":"572193200","Spot":1.0,"SideOfStreet":"left","CountryId":"20215059","StateId":"20215741","CountyId":"20226116","CityId":"20226742"}}},{"Relevance":1.0,"Distance":49.0,"MatchLevel":"houseNumber","MatchQuality":{"Country":1.0,"State":1.0,"County":1.0,"City":1.0,"Street":[1.0],"HouseNumber":1.0,"PostalCode":1.0},"MatchType":"interpolated","Location":{"LocationId":"NT_4dkIZRAUKjCbw40q8bYYoD_xcDW","LocationType":"point","DisplayPosition":{"Latitude":41.3091,"Longitude":1.358},"MapView":{"TopLeft":{"Latitude":41.3102242,"Longitude":1.3565034},"BottomRight":{"Latitude":41.3079758,"Longitude":1.3594966}},"Address":{"Label":"Avinguda Enric Benet, 17X, 43814 Vila-Rodona (Tarragona), Espanya","Country":"ESP","State":"Catalunya","County":"Tarragona","City":"Vila-Rodona","Street":"Avinguda Enric Benet","HouseNumber":"17X","PostalCode":"43814","AdditionalData":[{"value":"Espanya","key":"CountryName"},{"value":"Catalunya","key":"StateName"},{"value":"Tarragona","key":"CountyName"}]},"MapReference":{"ReferenceId":"542611965","Spot":0.42,"SideOfStreet":"right","CountryId":"20215059","StateId":"20215741","CountyId":"20226116","CityId":"20226742","AddressId":"404328449","RoadLinkId":"65838685"}}},{"Relevance":1.0,"Distance":54.9,"MatchLevel":"houseNumber","MatchQuality":{"Country":1.0,"State":1.0,"County":1.0,"City":1.0,"Street":[1.0],"HouseNumber":1.0,"PostalCode":1.0},"MatchType":"interpolated","Location":{"LocationId":"NT_wrYgTlKM0NcJD0f-BRaWXC_xMD","LocationType":"point","DisplayPosition":{"Latitude":41.30911,"Longitude":1.35923},"MapView":{"TopLeft":{"Latitude":41.3102342,"Longitude":1.3577334},"BottomRight":{"Latitude":41.3079858,"Longitude":1.3607266}},"Address":{"Label":"Carrer Mossèn Galofré, 13, 43814 Vila-Rodona (Tarragona), Espanya","Country":"ESP","State":"Catalunya","County":"Tarragona","City":"Vila-Rodona","Street":"Carrer Mossèn Galofré","HouseNumber":"13","PostalCode":"43814","AdditionalData":[{"value":"Espanya","key":"CountryName"},{"value":"Catalunya","key":"StateName"},{"value":"Tarragona","key":"CountyName"}]},"MapReference":{"ReferenceId":"973324710","Spot":0.4,"SideOfStreet":"right","CountryId":"20215059","StateId":"20215741","CountyId":"20226116","CityId":"20226742","AddressId":"404078090","RoadLinkId":"309741833"}}},{"Relevance":1.0,"Distance":60.4,"MatchLevel":"houseNumber","MatchQuality":{"Country":1.0,"State":1.0,"County":1.0,"City":1.0,"Street":[1.0],"HouseNumber":1.0,"PostalCode":1.0},"MatchType":"interpolated","Location":{"LocationId":"NT_.74swgJGFh0GNVBFYgHDcB_1A","LocationType":"point","DisplayPosition":{"Latitude":41.30837,"Longitude":1.35806},"MapView":{"TopLeft":{"Latitude":41.3094942,"Longitude":1.3565635},"BottomRight":{"Latitude":41.3072458,"Longitude":1.3595565}},"Address":{"Label":"Avinguda del Columbari, 5, 43814 Vila-Rodona (Tarragona), Espanya","Country":"ESP","State":"Catalunya","County":"Tarragona","City":"Vila-Rodona","Street":"Avinguda del Columbari","HouseNumber":"5","PostalCode":"43814","AdditionalData":[{"value":"Espanya","key":"CountryName"},{"value":"Catalunya","key":"StateName"},{"value":"Tarragona","key":"CountyName"}]},"MapReference":{"ReferenceId":"542612048","Spot":0.47,"SideOfStreet":"right","CountryId":"20215059","StateId":"20215741","CountyId":"20226116","CityId":"20226742","AddressId":"404310278","RoadLinkId":"66369379"}}}]}]}}