{"Response":{"MetaInfo":{"Timestamp":"2020-03-28T09:48:14.858+0000","NextPageInformation":"2"},"View":[{"_type":"SearchResultsViewType","ViewId":0,"Result":[{"Relevance":1.0,"Distance":0.0,"Direction":0.0,"MatchLevel":"city","MatchQuality":{"Country":1.0,"State":1.0,"County":1.0,"City":1.0,"PostalCode":1.0},"Location":{"LocationId":"NT_WS278AREUHtX7OaAEgq3nD","LocationType":"point","DisplayPosition":{"Latitude":41.3864116,"Longitude":2.0484425},"MapView":{"TopLeft":{"Latitude":41.4223,"Longitude":2.0213},"BottomRight":{"Latitude":41.37315,"Longitude":2.07984}},"Address":{"Label":"Sant Feliu de Llobregat, Catalunya, Espanya","Country":"ESP","State":"Catalunya","County":"Barcelona","City":"Sant Feliu de Llobregat","PostalCode":"08980","AdditionalData":[{"value":"Espanya","key":"CountryName"},{"value":"Catalunya","key":"StateName"},{"value":"Barcelona","key":"CountyName"}]},"MapReference":{"ReferenceId":"1127202546","SideOfStreet":"neither","CountryId":"20215059","StateId":"20215741","CountyId":"20215742","CityId":"20222998"}}},{"Relevance":1.0,"Distance":21.6,"MatchLevel":"houseNumber","MatchQuality":{"Country":1.0,"State":1.0,"County":1.0,"City":1.0,"Street":[1.0],"HouseNumber":1.0,"PostalCode":1.0},"MatchType":"interpolated","Location":{"LocationId":"NT_SfRAUqgqIZAHqu4iAWDj-C_xADM","LocationType":"point","DisplayPosition":{"Latitude":41.38614,"Longitude":2.04835},"MapView":{"TopLeft":{"Latitude":41.3872642,"Longitude":2.0468517},"BottomRight":{"Latitude":41.3850158,"Longitude":2.0498483}},"Address":{"Label":"Carrer de Francesc S치ez, 100, 08980 Sant Feliu de Llobregat (Barcelona), Espanya","Country":"ESP","State":"Catalunya","County":"Barcelona","City":"Sant Feliu de Llobregat","Street":"Carrer de Francesc S치ez","HouseNumber":"100","PostalCode":"08980","AdditionalData":[{"value":"Espanya","key":"CountryName"},{"value":"Catalunya","key":"StateName"},{"value":"Barcelona","key":"CountyName"}]},"MapReference":{"ReferenceId":"560862200","Spot":0.26,"SideOfStreet":"left","CountryId":"20215059","StateId":"20215741","CountyId":"20215742","CityId":"20222998","AddressId":"221204030","RoadLinkId":"65297882"}}},{"Relevance":1.0,"Distance":23.5,"MatchLevel":"houseNumber","MatchQuality":{"Country":1.0,"State":1.0,"County":1.0,"City":1.0,"Street":[1.0],"HouseNumber":1.0,"PostalCode":1.0},"MatchType":"interpolated","Location":{"LocationId":"NT_pjkGXQG7Sbw1WZJgId1BtA_xUD","LocationType":"point","DisplayPosition":{"Latitude":41.38672,"Longitude":2.04826},"MapView":{"TopLeft":{"Latitude":41.3878442,"Longitude":2.0467617},"BottomRight":{"Latitude":41.3855958,"Longitude":2.0497583}},"Address":{"Label":"Carrer de Joaquim Montmany, 15, 08980 Sant Feliu de Llobregat (Barcelona), Espanya","Country":"ESP","State":"Catalunya","County":"Barcelona","City":"Sant Feliu de Llobregat","Street":"Carrer de Joaquim Montmany","HouseNumber":"15","PostalCode":"08980","AdditionalData":[{"value":"Espanya","key":"CountryName"},{"value":"Catalunya","key":"StateName"},{"value":"Barcelona","key":"CountyName"}]},"MapReference":{"ReferenceId":"992734514","Spot":0.0,"SideOfStreet":"right","CountryId":"20215059","StateId":"20215741","CountyId":"20215742","CityId":"20222998","AddressId":"698656064","RoadLinkId":"321287538"}}},{"Relevance":1.0,"Distance":28.3,"MatchLevel":"street","MatchQuality":{"Country":1.0,"State":1.0,"County":1.0,"City":1.0,"Street":[1.0],"PostalCode":1.0},"Location":{"LocationId":"NT_9zeYXfncxLOdYsEv49-KkB_l_992734517_L","LocationType":"point","DisplayPosition":{"Latitude":41.3866222,"Longitude":2.048632},"MapView":{"TopLeft":{"Latitude":41.38694,"Longitude":2.04819},"BottomRight":{"Latitude":41.38648,"Longitude":2.04888}},"Address":{"Label":"Carrer Joaquim Monmany, 08980 Sant Feliu de Llobregat (Barcelona), Espanya","Country":"ESP","State":"Catalunya","County":"Barcelona","City":"Sant Feliu de Llobregat","Street":"Carrer Joaquim Monmany","PostalCode":"08980","AdditionalData":[{"value":"Espanya","key":"CountryName"},{"value":"Catalunya","key":"StateName"},{"value":"Barcelona","key":"CountyName"}]},"MapReference":{"ReferenceId":"992734517","Spot":0.37,"SideOfStreet":"left","CountryId":"20215059","StateId":"20215741","CountyId":"20215742","CityId":"20222998"}}},{"Relevance":1.0,"Distance":29.0,"MatchLevel":"houseNumber","MatchQuality":{"Country":1.0,"State":1.0,"County":1.0,"City":1.0,"Street":[1.0],"HouseNumber":1.0,"PostalCode":1.0},"MatchType":"interpolated","Location":{"LocationId":"NT_.2T7qGuD3OEeIAkDk2w3nB_xADM","LocationType":"point","DisplayPosition":{"Latitude":41.38619,"Longitude":2.04806},"MapView":{"TopLeft":{"Latitude":41.3873142,"Longitude":2.0465617},"BottomRight":{"Latitude":41.3850658,"Longitude":2.0495583}},"Address":{"Label":"Rambla de la Marquesa de Castellbell, 100, 08980 Sant Feliu de Llobregat (Barcelona), Espanya","Country":"ESP","State":"Catalunya","County":"Barcelona","City":"Sant Feliu de Llobregat","Street":"Rambla de la Marquesa de Castellbell","HouseNumber":"100","PostalCode":"08980","AdditionalData":[{"value":"Espanya","key":"CountryName"},{"value":"Catalunya","key":"StateName"},{"value":"Barcelona","key":"CountyName"}]},"MapReference":{"ReferenceId":"744323190","Spot":0.31,"SideOfStreet":"right","CountryId":"20215059","StateId":"20215741","CountyId":"20215742","CityId":"20222998","AddressId":"206228948","RoadLinkId":"142316145"}}},{"Relevance":1.0,"Distance":38.8,"MatchLevel":"street","MatchQuality":{"Country":1.0,"State":1.0,"County":1.0,"City":1.0,"PostalCode":1.0},"Location":{"LocationId":"NT_FWXFfRkYfuMQinAcyvHdMD_l_992734516_L","LocationType":"point","DisplayPosition":{"Latitude":41.38653,"Longitude":2.04888},"MapView":{"TopLeft":{"Latitude":41.3866,"Longitude":2.04888},"BottomRight":{"Latitude":41.38653,"Longitude":2.04902}},"Address":{"Label":"08980 Sant Feliu de Llobregat (Barcelona), Espanya","Country":"ESP","State":"Catalunya","County":"Barcelona","City":"Sant Feliu de Llobregat","PostalCode":"08980","AdditionalData":[{"value":"Espanya","key":"CountryName"},{"value":"Catalunya","key":"StateName"},{"value":"Barcelona","key":"CountyName"}]},"MapReference":{"ReferenceId":"992734516","Spot":0.0,"SideOfStreet":"left","CountryId":"20215059","StateId":"20215741","CountyId":"20215742","CityId":"20222998"}}},{"Relevance":1.0,"Distance":44.4,"MatchLevel":"street","MatchQuality":{"Country":1.0,"State":1.0,"County":1.0,"City":1.0,"Street":[1.0],"PostalCode":1.0},"Location":{"LocationId":"NT_SfRAUqgqIZAHqu4iAWDj-C_l_744323197_L","LocationType":"point","DisplayPosition":{"Latitude":41.38606,"Longitude":2.04819},"MapView":{"TopLeft":{"Latitude":41.38606,"Longitude":2.04789},"BottomRight":{"Latitude":41.38592,"Longitude":2.04819}},"Address":{"Label":"Carrer de Francesc S치ez, 08980 Sant Feliu de Llobregat (Barcelona), Espanya","Country":"ESP","State":"Catalunya","County":"Barcelona","City":"Sant Feliu de Llobregat","Street":"Carrer de Francesc S치ez","PostalCode":"08980","AdditionalData":[{"value":"Espanya","key":"CountryName"},{"value":"Catalunya","key":"StateName"},{"value":"Barcelona","key":"CountyName"}]},"MapReference":{"ReferenceId":"744323197","Spot":1.0,"SideOfStreet":"left","CountryId":"20215059","StateId":"20215741","CountyId":"20215742","CityId":"20222998"}}},{"Relevance":1.0,"Distance":45.8,"MatchLevel":"houseNumber","MatchQuality":{"Country":1.0,"State":1.0,"County":1.0,"City":1.0,"Street":[1.0],"HouseNumber":1.0,"PostalCode":1.0},"MatchType":"interpolated","Location":{"LocationId":"NT_.2T7qGuD3OEeIAkDk2w3nB_5YD","LocationType":"point","DisplayPosition":{"Latitude":41.38594,"Longitude":2.0483},"MapView":{"TopLeft":{"Latitude":41.3870642,"Longitude":2.0468017},"BottomRight":{"Latitude":41.3848158,"Longitude":2.0497983}},"Address":{"Label":"Rambla de la Marquesa de Castellbell, 96, 08980 Sant Feliu de Llobregat (Barcelona), Espanya","Country":"ESP","State":"Catalunya","County":"Barcelona","City":"Sant Feliu de Llobregat","Street":"Rambla de la Marquesa de Castellbell","HouseNumber":"96","PostalCode":"08980","AdditionalData":[{"value":"Espanya","key":"CountryName"},{"value":"Catalunya","key":"StateName"},{"value":"Barcelona","key":"CountyName"}]},"MapReference":{"ReferenceId":"560862221","Spot":0.34,"SideOfStreet":"right","CountryId":"20215059","StateId":"20215741","CountyId":"20215742","CityId":"20222998","AddressId":"416960577","RoadLinkId":"66180859"}}},{"Relevance":1.0,"Distance":46.1,"MatchLevel":"houseNumber","MatchQuality":{"Country":1.0,"State":1.0,"County":1.0,"City":1.0,"Street":[1.0],"HouseNumber":1.0,"PostalCode":1.0},"MatchType":"interpolated","Location":{"LocationId":"NT_pjkGXQG7Sbw1WZJgId1BtA_5A","LocationType":"point","DisplayPosition":{"Latitude":41.38674,"Longitude":2.04892},"MapView":{"TopLeft":{"Latitude":41.3878642,"Longitude":2.0474217},"BottomRight":{"Latitude":41.3856158,"Longitude":2.0504183}},"Address":{"Label":"Carrer de Joaquim Montmany, 9, 08980 Sant Feliu de Llobregat (Barcelona), Espanya","Country":"ESP","State":"Catalunya","County":"Barcelona","City":"Sant Feliu de Llobregat","Street":"Carrer de Joaquim Montmany","HouseNumber":"9","PostalCode":"08980","AdditionalData":[{"value":"Espanya","key":"CountryName"},{"value":"Catalunya","key":"StateName"},{"value":"Barcelona","key":"CountyName"}]},"MapReference":{"ReferenceId":"992734513","Spot":0.67,"SideOfStreet":"left","CountryId":"20215059","StateId":"20215741","CountyId":"20215742","CityId":"20222998","AddressId":"205818324","RoadLinkId":"321287537"}}},{"Relevance":1.0,"Distance":51.9,"MatchLevel":"houseNumber","MatchQuality":{"Country":1.0,"State":1.0,"County":1.0,"City":1.0,"Street":[1.0],"HouseNumber":1.0,"PostalCode":1.0},"MatchType":"interpolated","Location":{"LocationId":"NT_pjkGXQG7Sbw1WZJgId1BtA_xED","LocationType":"point","DisplayPosition":{"Latitude":41.3869,"Longitude":2.04877},"MapView":{"TopLeft":{"Latitude":41.3880242,"Longitude":2.0472717},"BottomRight":{"Latitude":41.3857758,"Longitude":2.0502683}},"Address":{"Label":"Carrer de Joaquim Montmany, 11, 08980 Sant Feliu de Llobregat (Barcelona), Espanya","Country":"ESP","State":"Catalunya","County":"Barcelona","City":"Sant Feliu de Llobregat","Street":"Carrer de Joaquim Montmany","HouseNumber":"11","PostalCode":"08980","AdditionalData":[{"value":"Espanya","key":"CountryName"},{"value":"Catalunya","key":"StateName"},{"value":"Barcelona","key":"CountyName"}]},"MapReference":{"ReferenceId":"786425590","Spot":0.2,"SideOfStreet":"left","CountryId":"20215059","StateId":"20215741","CountyId":"20215742","CityId":"20222998","AddressId":"206286630","RoadLinkId":"179090293"}}}]}]}}