{"Response":{"MetaInfo":{"Timestamp":"2020-03-28T09:44:46.421+0000","NextPageInformation":"2"},"View":[{"_type":"SearchResultsViewType","ViewId":0,"Result":[{"Relevance":1.0,"Distance":0.0,"Direction":0.0,"MatchLevel":"city","MatchQuality":{"Country":1.0,"State":1.0,"County":1.0,"City":1.0,"PostalCode":1.0},"Location":{"LocationId":"NT_bGqCCaLO8spaRyAPAuTg6C","LocationType":"point","DisplayPosition":{"Latitude":41.3613263,"Longitude":-4.532122},"MapView":{"TopLeft":{"Latitude":41.39662,"Longitude":-4.59675},"BottomRight":{"Latitude":41.29167,"Longitude":-4.46766}},"Address":{"Label":"Íscar, Castilla y León, España","Country":"ESP","State":"Castilla y León","County":"Valladolid","City":"Íscar","PostalCode":"47420","AdditionalData":[{"value":"España","key":"CountryName"},{"value":"Castilla y León","key":"StateName"},{"value":"Valladolid","key":"CountyName"}]},"MapReference":{"ReferenceId":"539092943","SideOfStreet":"neither","CountryId":"20215059","StateId":"20221909","CountyId":"20221917","CityId":"20312951"}}},{"Relevance":1.0,"Distance":12.4,"MatchLevel":"houseNumber","MatchQuality":{"Country":1.0,"State":1.0,"County":1.0,"City":1.0,"Street":[1.0],"HouseNumber":1.0,"PostalCode":1.0},"MatchType":"interpolated","Location":{"LocationId":"NT_FzCpErATZZknoWv4HJ0NqB_xYD","LocationType":"point","DisplayPosition":{"Latitude":41.36137,"Longitude":-4.5323},"MapView":{"TopLeft":{"Latitude":41.3624942,"Longitude":-4.5337978},"BottomRight":{"Latitude":41.3602458,"Longitude":-4.5308022}},"Address":{"Label":"Calle Ronda, 16, 47420 Íscar (Valladolid), España","Country":"ESP","State":"Castilla y León","County":"Valladolid","City":"Íscar","Street":"Calle Ronda","HouseNumber":"16","PostalCode":"47420","AdditionalData":[{"value":"España","key":"CountryName"},{"value":"Castilla y León","key":"StateName"},{"value":"Valladolid","key":"CountyName"}]},"MapReference":{"ReferenceId":"539095007","Spot":0.61,"SideOfStreet":"right","CountryId":"20215059","StateId":"20221909","CountyId":"20221917","CityId":"20312951","AddressId":"349041966","RoadLinkId":"68166423"}}},{"Relevance":1.0,"Distance":24.2,"MatchLevel":"houseNumber","MatchQuality":{"Country":1.0,"State":1.0,"County":1.0,"City":1.0,"Street":[1.0],"HouseNumber":1.0,"PostalCode":1.0},"MatchType":"interpolated","Location":{"LocationId":"NT_-2Ro6bXEj7qopmFSQqh3LA_0ED","LocationType":"point","DisplayPosition":{"Latitude":41.36158,"Longitude":-4.53201},"MapView":{"TopLeft":{"Latitude":41.3627042,"Longitude":-4.5335078},"BottomRight":{"Latitude":41.3604558,"Longitude":-4.5305122}},"Address":{"Label":"Calle Eras, 41, 47420 Íscar (Valladolid), España","Country":"ESP","State":"Castilla y León","County":"Valladolid","City":"Íscar","Street":"Calle Eras","HouseNumber":"41","PostalCode":"47420","AdditionalData":[{"value":"España","key":"CountryName"},{"value":"Castilla y León","key":"StateName"},{"value":"Valladolid","key":"CountyName"}]},"MapReference":{"ReferenceId":"539095071","Spot":0.08,"SideOfStreet":"left","CountryId":"20215059","StateId":"20221909","CountyId":"20221917","CityId":"20312951","AddressId":"367764109","RoadLinkId":"68570276"}}},{"Relevance":1.0,"Distance":34.4,"MatchLevel":"houseNumber","MatchQuality":{"Country":1.0,"State":1.0,"County":1.0,"City":1.0,"Street":[1.0],"HouseNumber":1.0,"PostalCode":1.0},"MatchType":"interpolated","Location":{"LocationId":"NT_-2Ro6bXEj7qopmFSQqh3LA_2A","LocationType":"point","DisplayPosition":{"Latitude":41.36136,"Longitude":-4.53169},"MapView":{"TopLeft":{"Latitude":41.3624842,"Longitude":-4.5331878},"BottomRight":{"Latitude":41.3602358,"Longitude":-4.5301922}},"Address":{"Label":"Calle Eras, 6, 47420 Íscar (Valladolid), España","Country":"ESP","State":"Castilla y León","County":"Valladolid","City":"Íscar","Street":"Calle Eras","HouseNumber":"6","PostalCode":"47420","AdditionalData":[{"value":"España","key":"CountryName"},{"value":"Castilla y León","key":"StateName"},{"value":"Valladolid","key":"CountyName"}]},"MapReference":{"ReferenceId":"592990518","Spot":0.0,"SideOfStreet":"left","CountryId":"20215059","StateId":"20221909","CountyId":"20221917","CityId":"20312951","AddressId":"349366409","RoadLinkId":"68247902"}}},{"Relevance":1.0,"Distance":36.2,"MatchLevel":"street","MatchQuality":{"Country":1.0,"State":1.0,"County":1.0,"City":1.0,"PostalCode":1.0},"Location":{"LocationId":"NT_NtVKSd-YXt8..w1NgeD1yA_l_592990520_L","LocationType":"point","DisplayPosition":{"Latitude":41.36136,"Longitude":-4.53169},"MapView":{"TopLeft":{"Latitude":41.36183,"Longitude":-4.53169},"BottomRight":{"Latitude":41.36136,"Longitude":-4.53152}},"Address":{"Label":"47420 Íscar (Valladolid), España","Country":"ESP","State":"Castilla y León","County":"Valladolid","City":"Íscar","PostalCode":"47420","AdditionalData":[{"value":"España","key":"CountryName"},{"value":"Castilla y León","key":"StateName"},{"value":"Valladolid","key":"CountyName"}]},"MapReference":{"ReferenceId":"592990520","Spot":0.0,"SideOfStreet":"left","CountryId":"20215059","StateId":"20221909","CountyId":"20221917","CityId":"20312951"}}},{"Relevance":1.0,"Distance":41.2,"MatchLevel":"houseNumber","MatchQuality":{"Country":1.0,"State":1.0,"County":1.0,"City":1.0,"Street":[1.0],"HouseNumber":1.0,"PostalCode":1.0},"MatchType":"interpolated","Location":{"LocationId":"NT_FzCpErATZZknoWv4HJ0NqB_xYTQ","LocationType":"point","DisplayPosition":{"Latitude":41.36165,"Longitude":-4.53181},"MapView":{"TopLeft":{"Latitude":41.3627742,"Longitude":-4.5333078},"BottomRight":{"Latitude":41.3605258,"Longitude":-4.5303122}},"Address":{"Label":"Calle Ronda, 16A, 47420 Íscar (Valladolid), España","Country":"ESP","State":"Castilla y León","County":"Valladolid","City":"Íscar","Street":"Calle Ronda","HouseNumber":"16A","PostalCode":"47420","AdditionalData":[{"value":"España","key":"CountryName"},{"value":"Castilla y León","key":"StateName"},{"value":"Valladolid","key":"CountyName"}]},"MapReference":{"ReferenceId":"592990516","Spot":0.36,"SideOfStreet":"right","CountryId":"20215059","StateId":"20221909","CountyId":"20221917","CityId":"20312951","AddressId":"349057816","RoadLinkId":"69268413"}}},{"Relevance":1.0,"Distance":47.4,"MatchLevel":"houseNumber","MatchQuality":{"Country":1.0,"State":1.0,"County":1.0,"City":1.0,"Street":[1.0],"HouseNumber":1.0,"PostalCode":1.0},"MatchType":"interpolated","Location":{"LocationId":"NT_-2Ro6bXEj7qopmFSQqh3LA_4A","LocationType":"point","DisplayPosition":{"Latitude":41.36124,"Longitude":-4.53153},"MapView":{"TopLeft":{"Latitude":41.3623642,"Longitude":-4.5330278},"BottomRight":{"Latitude":41.3601158,"Longitude":-4.5300322}},"Address":{"Label":"Calle Eras, 8, 47420 Íscar (Valladolid), España","Country":"ESP","State":"Castilla y León","County":"Valladolid","City":"Íscar","Street":"Calle Eras","HouseNumber":"8","PostalCode":"47420","AdditionalData":[{"value":"España","key":"CountryName"},{"value":"Castilla y León","key":"StateName"},{"value":"Valladolid","key":"CountyName"}]},"MapReference":{"ReferenceId":"592990519","Spot":0.65,"SideOfStreet":"left","CountryId":"20215059","StateId":"20221909","CountyId":"20221917","CityId":"20312951","AddressId":"349366407","RoadLinkId":"68629174"}}},{"Relevance":1.0,"Distance":61.4,"MatchLevel":"houseNumber","MatchQuality":{"Country":1.0,"State":1.0,"County":1.0,"City":1.0,"Street":[1.0],"HouseNumber":1.0,"PostalCode":1.0},"MatchType":"interpolated","Location":{"LocationId":"NT_67dOSN-eg0FcMyuQIknsJC_yQD","LocationType":"point","DisplayPosition":{"Latitude":41.36186,"Longitude":-4.53256},"MapView":{"TopLeft":{"Latitude":41.3629842,"Longitude":-4.5340578},"BottomRight":{"Latitude":41.3607358,"Longitude":-4.5310622}},"Address":{"Label":"Calle Real, 24, 47420 Íscar (Valladolid), España","Country":"ESP","State":"Castilla y León","County":"Valladolid","City":"Íscar","Street":"Calle Real","HouseNumber":"24","PostalCode":"47420","AdditionalData":[{"value":"España","key":"CountryName"},{"value":"Castilla y León","key":"StateName"},{"value":"Valladolid","key":"CountyName"}]},"MapReference":{"ReferenceId":"539094429","Spot":0.92,"SideOfStreet":"right","CountryId":"20215059","StateId":"20221909","CountyId":"20221917","CityId":"20312951","AddressId":"349400653","RoadLinkId":"68770398"}}},{"Relevance":1.0,"Distance":71.4,"MatchLevel":"houseNumber","MatchQuality":{"Country":1.0,"State":1.0,"County":1.0,"City":1.0,"Street":[1.0],"HouseNumber":1.0,"PostalCode":1.0},"MatchType":"interpolated","Location":{"LocationId":"NT_5ntWJ7S-Hkb.4XXho7O0tD_zA","LocationType":"point","DisplayPosition":{"Latitude":41.36067,"Longitude":-4.53234},"MapView":{"TopLeft":{"Latitude":41.3617942,"Longitude":-4.5338377},"BottomRight":{"Latitude":41.3595458,"Longitude":-4.5308423}},"Address":{"Label":"Calle Palomares, 3, 47420 Íscar (Valladolid), España","Country":"ESP","State":"Castilla y León","County":"Valladolid","City":"Íscar","Street":"Calle Palomares","HouseNumber":"3","PostalCode":"47420","AdditionalData":[{"value":"España","key":"CountryName"},{"value":"Castilla y León","key":"StateName"},{"value":"Valladolid","key":"CountyName"}]},"MapReference":{"ReferenceId":"539095004","Spot":0.55,"SideOfStreet":"right","CountryId":"20215059","StateId":"20221909","CountyId":"20221917","CityId":"20312951","AddressId":"349384207","RoadLinkId":"68478606"}}},{"Relevance":1.0,"Distance":72.3,"MatchLevel":"houseNumber","MatchQuality":{"Country":1.0,"State":1.0,"County":1.0,"City":1.0,"Street":[1.0],"HouseNumber":1.0,"PostalCode":1.0},"MatchType":"interpolated","Location":{"LocationId":"NT_67dOSN-eg0FcMyuQIknsJC_yYD","LocationType":"point","DisplayPosition":{"Latitude":41.36202,"Longitude":-4.5323},"MapView":{"TopLeft":{"Latitude":41.3631442,"Longitude":-4.5337978},"BottomRight":{"Latitude":41.3608958,"Longitude":-4.5308022}},"Address":{"Label":"Calle Real, 26, 47420 Íscar (Valladolid), España","Country":"ESP","State":"Castilla y León","County":"Valladolid","City":"Íscar","Street":"Calle Real","HouseNumber":"26","PostalCode":"47420","AdditionalData":[{"value":"España","key":"CountryName"},{"value":"Castilla y León","key":"StateName"},{"value":"Valladolid","key":"CountyName"}]},"MapReference":{"ReferenceId":"539092963","Spot":0.59,"SideOfStreet":"right","CountryId":"20215059","StateId":"20221909","CountyId":"20221917","CityId":"20312951","AddressId":"349400763","RoadLinkId":"68430538"}}}]}]}}