{"Response":{"MetaInfo":{"Timestamp":"2020-03-28T11:03:51.776+0000","NextPageInformation":"2"},"View":[{"_type":"SearchResultsViewType","ViewId":0,"Result":[{"Relevance":1.0,"Distance":0.0,"Direction":0.0,"MatchLevel":"city","MatchQuality":{"Country":1.0,"State":1.0,"County":1.0,"City":1.0,"PostalCode":1.0},"Location":{"LocationId":"NT_Rhm51DuWP70GYG31.xk-TD","LocationType":"point","DisplayPosition":{"Latitude":41.3786157,"Longitude":2.097056},"MapView":{"TopLeft":{"Latitude":41.39423,"Longitude":2.07468},"BottomRight":{"Latitude":41.36602,"Longitude":2.10578}},"Address":{"Label":"Esplugues de Llobregat, Catalunya, Espanya","Country":"ESP","State":"Catalunya","County":"Barcelona","City":"Esplugues de Llobregat","PostalCode":"08950","AdditionalData":[{"value":"Espanya","key":"CountryName"},{"value":"Catalunya","key":"StateName"},{"value":"Barcelona","key":"CountyName"}]},"MapReference":{"ReferenceId":"1210091447","SideOfStreet":"neither","CountryId":"20215059","StateId":"20215741","CountyId":"20215742","CityId":"20222362"}}},{"Relevance":1.0,"Distance":4.2,"MatchLevel":"houseNumber","MatchQuality":{"Country":1.0,"State":1.0,"County":1.0,"City":1.0,"Street":[1.0],"HouseNumber":1.0,"PostalCode":1.0},"MatchType":"interpolated","Location":{"LocationId":"NT_eG-58DXKwLSqHFz76CvDIC_yUD","LocationType":"point","DisplayPosition":{"Latitude":41.37855,"Longitude":2.097},"MapView":{"TopLeft":{"Latitude":41.3796742,"Longitude":2.0955018},"BottomRight":{"Latitude":41.3774258,"Longitude":2.0984982}},"Address":{"Label":"Carrer de Sant Mateu, 25, 08950 Esplugues de Llobregat (Barcelona), Espanya","Country":"ESP","State":"Catalunya","County":"Barcelona","City":"Esplugues de Llobregat","Street":"Carrer de Sant Mateu","HouseNumber":"25","PostalCode":"08950","AdditionalData":[{"value":"Espanya","key":"CountryName"},{"value":"Catalunya","key":"StateName"},{"value":"Barcelona","key":"CountyName"}]},"MapReference":{"ReferenceId":"1068092170","Spot":0.75,"SideOfStreet":"right","CountryId":"20215059","StateId":"20215741","CountyId":"20215742","CityId":"20222362","AddressId":"206403438","RoadLinkId":"390392356"}}},{"Relevance":1.0,"Distance":56.1,"MatchLevel":"street","MatchQuality":{"Country":1.0,"State":1.0,"County":1.0,"City":1.0,"PostalCode":1.0},"Location":{"LocationId":"NT_FfLU8gHk9liPQt-LneC.AC_l_830454937_R","LocationType":"point","DisplayPosition":{"Latitude":41.37892,"Longitude":2.09652},"MapView":{"TopLeft":{"Latitude":41.37892,"Longitude":2.09619},"BottomRight":{"Latitude":41.37851,"Longitude":2.09652}},"Address":{"Label":"08950 Esplugues de Llobregat (Barcelona), Espanya","Country":"ESP","State":"Catalunya","County":"Barcelona","City":"Esplugues de Llobregat","PostalCode":"08950","AdditionalData":[{"value":"Espanya","key":"CountryName"},{"value":"Catalunya","key":"StateName"},{"value":"Barcelona","key":"CountyName"}]},"MapReference":{"ReferenceId":"830454937","Spot":1.0,"SideOfStreet":"right","CountryId":"20215059","StateId":"20215741","CountyId":"20215742","CityId":"20222362"}}},{"Relevance":1.0,"Distance":60.1,"MatchLevel":"street","MatchQuality":{"Country":1.0,"State":1.0,"County":1.0,"City":1.0,"PostalCode":1.0},"Location":{"LocationId":"NT_FfLU8gHk9liPQt-LneC.AC_l_1210104548_L","LocationType":"point","DisplayPosition":{"Latitude":41.3781445,"Longitude":2.0974094},"MapView":{"TopLeft":{"Latitude":41.37916,"Longitude":2.09648},"BottomRight":{"Latitude":41.37731,"Longitude":2.09881}},"Address":{"Label":"08950 Esplugues de Llobregat (Barcelona), Espanya","Country":"ESP","State":"Catalunya","County":"Barcelona","City":"Esplugues de Llobregat","PostalCode":"08950","AdditionalData":[{"value":"Espanya","key":"CountryName"},{"value":"Catalunya","key":"StateName"},{"value":"Barcelona","key":"CountyName"}]},"MapReference":{"ReferenceId":"1210104548","Spot":0.42,"SideOfStreet":"left","CountryId":"20215059","StateId":"20215741","CountyId":"20215742","CityId":"20222362"}}},{"Relevance":1.0,"Distance":67.6,"MatchLevel":"street","MatchQuality":{"Country":1.0,"State":1.0,"County":1.0,"City":1.0,"Street":[1.0],"PostalCode":1.0},"Location":{"LocationId":"NT_OfMt5opql38K5oET0cS5hD_l_1221821227_L","LocationType":"point","DisplayPosition":{"Latitude":41.37814,"Longitude":2.09756},"MapView":{"TopLeft":{"Latitude":41.38126,"Longitude":2.09756},"BottomRight":{"Latitude":41.37814,"Longitude":2.10102}},"Address":{"Label":"Ronda de Dalt, 08950 Esplugues de Llobregat (Barcelona), Espanya","Country":"ESP","State":"Catalunya","County":"Barcelona","City":"Esplugues de Llobregat","Street":"Ronda de Dalt","PostalCode":"08950","AdditionalData":[{"value":"Espanya","key":"CountryName"},{"value":"Catalunya","key":"StateName"},{"value":"Barcelona","key":"CountyName"}]},"MapReference":{"ReferenceId":"1221821227","Spot":0.0,"SideOfStreet":"left","CountryId":"20215059","StateId":"20215741","CountyId":"20215742","CityId":"20222362"}}},{"Relevance":1.0,"Distance":69.9,"MatchLevel":"street","MatchQuality":{"Country":1.0,"State":1.0,"County":1.0,"City":1.0,"Street":[1.0],"PostalCode":1.0},"Location":{"LocationId":"NT_OfMt5opql38K5oET0cS5hD_l_1221821226_L","LocationType":"point","DisplayPosition":{"Latitude":41.3780505,"Longitude":2.0974217},"MapView":{"TopLeft":{"Latitude":41.37814,"Longitude":2.09648},"BottomRight":{"Latitude":41.37731,"Longitude":2.09756}},"Address":{"Label":"Ronda de Dalt, 08950 Esplugues de Llobregat (Barcelona), Espanya","Country":"ESP","State":"Catalunya","County":"Barcelona","City":"Esplugues de Llobregat","Street":"Ronda de Dalt","PostalCode":"08950","AdditionalData":[{"value":"Espanya","key":"CountryName"},{"value":"Catalunya","key":"StateName"},{"value":"Barcelona","key":"CountyName"}]},"MapReference":{"ReferenceId":"1221821226","Spot":0.88,"SideOfStreet":"left","CountryId":"20215059","StateId":"20215741","CountyId":"20215742","CityId":"20222362"}}},{"Relevance":1.0,"Distance":81.3,"MatchLevel":"street","MatchQuality":{"Country":1.0,"State":1.0,"County":1.0,"City":1.0,"Street":[1.0],"PostalCode":1.0},"Location":{"LocationId":"NT_RydyU1Y279zkPChF70FYHA_l_1221821225_L","LocationType":"point","DisplayPosition":{"Latitude":41.37806,"Longitude":2.09769},"MapView":{"TopLeft":{"Latitude":41.38116,"Longitude":2.09769},"BottomRight":{"Latitude":41.37806,"Longitude":2.10111}},"Address":{"Label":"Ronda de Dalt, 08950 Esplugues de Llobregat (Barcelona), Espanya","Country":"ESP","State":"Catalunya","County":"Barcelona","City":"Esplugues de Llobregat","Street":"Ronda de Dalt","PostalCode":"08950","AdditionalData":[{"value":"Espanya","key":"CountryName"},{"value":"Catalunya","key":"StateName"},{"value":"Barcelona","key":"CountyName"}]},"MapReference":{"ReferenceId":"1221821225","Spot":0.0,"SideOfStreet":"left","CountryId":"20215059","StateId":"20215741","CountyId":"20215742","CityId":"20222362"}}},{"Relevance":1.0,"Distance":84.2,"MatchLevel":"street","MatchQuality":{"Country":1.0,"State":1.0,"County":1.0,"City":1.0,"Street":[1.0],"PostalCode":1.0},"Location":{"LocationId":"NT_RydyU1Y279zkPChF70FYHA_l_1221821224_L","LocationType":"point","DisplayPosition":{"Latitude":41.3779602,"Longitude":2.0975602},"MapView":{"TopLeft":{"Latitude":41.37806,"Longitude":2.09629},"BottomRight":{"Latitude":41.37691,"Longitude":2.09769}},"Address":{"Label":"Ronda de Dalt, 08950 Esplugues de Llobregat (Barcelona), Espanya","Country":"ESP","State":"Catalunya","County":"Barcelona","City":"Esplugues de Llobregat","Street":"Ronda de Dalt","PostalCode":"08950","AdditionalData":[{"value":"Espanya","key":"CountryName"},{"value":"Catalunya","key":"StateName"},{"value":"Barcelona","key":"CountyName"}]},"MapReference":{"ReferenceId":"1221821224","Spot":0.91,"SideOfStreet":"left","CountryId":"20215059","StateId":"20215741","CountyId":"20215742","CityId":"20222362"}}},{"Relevance":1.0,"Distance":86.1,"MatchLevel":"houseNumber","MatchQuality":{"Country":1.0,"State":1.0,"County":1.0,"City":1.0,"Street":[1.0],"HouseNumber":1.0,"PostalCode":1.0},"MatchType":"interpolated","Location":{"LocationId":"NT_eG-58DXKwLSqHFz76CvDIC_xUD","LocationType":"point","DisplayPosition":{"Latitude":41.37914,"Longitude":2.09629},"MapView":{"TopLeft":{"Latitude":41.3802642,"Longitude":2.0947918},"BottomRight":{"Latitude":41.3780158,"Longitude":2.0977882}},"Address":{"Label":"Carrer de Sant Mateu, 15, 08950 Esplugues de Llobregat (Barcelona), Espanya","Country":"ESP","State":"Catalunya","County":"Barcelona","City":"Esplugues de Llobregat","Street":"Carrer de Sant Mateu","HouseNumber":"15","PostalCode":"08950","AdditionalData":[{"value":"Espanya","key":"CountryName"},{"value":"Catalunya","key":"StateName"},{"value":"Barcelona","key":"CountyName"}]},"MapReference":{"ReferenceId":"811712803","Spot":0.21,"SideOfStreet":"right","CountryId":"20215059","StateId":"20215741","CountyId":"20215742","CityId":"20222362","AddressId":"205761760","RoadLinkId":"199152254"}}},{"Relevance":1.0,"Distance":90.8,"MatchLevel":"street","MatchQuality":{"Country":1.0,"State":1.0,"County":1.0,"City":1.0,"Street":[1.0],"PostalCode":1.0},"Location":{"LocationId":"NT_LvJxZnvLi0oM37AGzQCUTA_l_1068092169_L","LocationType":"point","DisplayPosition":{"Latitude":41.37802,"Longitude":2.0978},"MapView":{"TopLeft":{"Latitude":41.37828,"Longitude":2.0978},"BottomRight":{"Latitude":41.37802,"Longitude":2.09817}},"Address":{"Label":"11, 08950 Esplugues de Llobregat (Barcelona), Espanya","Country":"ESP","State":"Catalunya","County":"Barcelona","City":"Esplugues de Llobregat","Street":"11","PostalCode":"08950","AdditionalData":[{"value":"Espanya","key":"CountryName"},{"value":"Catalunya","key":"StateName"},{"value":"Barcelona","key":"CountyName"}]},"MapReference":{"ReferenceId":"1068092169","Spot":0.0,"SideOfStreet":"left","CountryId":"20215059","StateId":"20215741","CountyId":"20215742","CityId":"20222362"}}}]}]}}