{"Response":{"MetaInfo":{"Timestamp":"2020-03-28T11:05:09.559+0000","NextPageInformation":"2"},"View":[{"_type":"SearchResultsViewType","ViewId":0,"Result":[{"Relevance":1.0,"Distance":0.0,"Direction":0.0,"MatchLevel":"city","MatchQuality":{"Country":1.0,"State":1.0,"County":1.0,"City":1.0,"PostalCode":1.0},"Location":{"LocationId":"NT_Rhm51DuWP70GYG31.xk-TD","LocationType":"point","DisplayPosition":{"Latitude":41.3850976,"Longitude":2.1023824},"MapView":{"TopLeft":{"Latitude":41.39423,"Longitude":2.07468},"BottomRight":{"Latitude":41.36602,"Longitude":2.10578}},"Address":{"Label":"Esplugues de Llobregat, Catalunya, Espanya","Country":"ESP","State":"Catalunya","County":"Barcelona","City":"Esplugues de Llobregat","PostalCode":"08950","AdditionalData":[{"value":"Espanya","key":"CountryName"},{"value":"Catalunya","key":"StateName"},{"value":"Barcelona","key":"CountyName"}]},"MapReference":{"ReferenceId":"1210091447","SideOfStreet":"neither","CountryId":"20215059","StateId":"20215741","CountyId":"20215742","CityId":"20222362"}}},{"Relevance":1.0,"Distance":28.9,"MatchLevel":"houseNumber","MatchQuality":{"Country":1.0,"State":1.0,"County":1.0,"City":1.0,"Street":[1.0],"HouseNumber":1.0,"PostalCode":1.0},"MatchType":"interpolated","Location":{"LocationId":"NT_H38y0YDzGVSQvRWYK8w1VB_0ID","LocationType":"point","DisplayPosition":{"Latitude":41.38509,"Longitude":2.102},"MapView":{"TopLeft":{"Latitude":41.3862142,"Longitude":2.1005017},"BottomRight":{"Latitude":41.3839658,"Longitude":2.1034983}},"Address":{"Label":"Carrer de Santa Rosa, 42, 08950 Esplugues de Llobregat (Barcelona), Espanya","Country":"ESP","State":"Catalunya","County":"Barcelona","City":"Esplugues de Llobregat","Street":"Carrer de Santa Rosa","HouseNumber":"42","PostalCode":"08950","AdditionalData":[{"value":"Espanya","key":"CountryName"},{"value":"Catalunya","key":"StateName"},{"value":"Barcelona","key":"CountyName"}]},"MapReference":{"ReferenceId":"924289768","Spot":0.19,"SideOfStreet":"right","CountryId":"20215059","StateId":"20215741","CountyId":"20215742","CityId":"20222362","AddressId":"205716668","RoadLinkId":"279669824"}}},{"Relevance":1.0,"Distance":32.1,"MatchLevel":"houseNumber","MatchQuality":{"Country":1.0,"State":1.0,"County":1.0,"City":1.0,"Street":[1.0],"HouseNumber":1.0,"PostalCode":1.0},"MatchType":"interpolated","Location":{"LocationId":"NT_H38y0YDzGVSQvRWYK8w1VB_0QD","LocationType":"point","DisplayPosition":{"Latitude":41.38491,"Longitude":2.1027},"MapView":{"TopLeft":{"Latitude":41.3860342,"Longitude":2.1012017},"BottomRight":{"Latitude":41.3837858,"Longitude":2.1041983}},"Address":{"Label":"Carrer de Santa Rosa, 44, 08950 Esplugues de Llobregat (Barcelona), Espanya","Country":"ESP","State":"Catalunya","County":"Barcelona","City":"Esplugues de Llobregat","Street":"Carrer de Santa Rosa","HouseNumber":"44","PostalCode":"08950","AdditionalData":[{"value":"Espanya","key":"CountryName"},{"value":"Catalunya","key":"StateName"},{"value":"Barcelona","key":"CountyName"}]},"MapReference":{"ReferenceId":"924289767","Spot":0.64,"SideOfStreet":"left","CountryId":"20215059","StateId":"20215741","CountyId":"20215742","CityId":"20222362","AddressId":"205716673","RoadLinkId":"279669823"}}},{"Relevance":1.0,"Distance":39.6,"MatchLevel":"street","MatchQuality":{"Country":1.0,"State":1.0,"County":1.0,"City":1.0,"Street":[1.0],"PostalCode":1.0},"Location":{"LocationId":"NT_kRyKq7m38KW1fZuhFhufrA_l_924289765_R","LocationType":"point","DisplayPosition":{"Latitude":41.38506,"Longitude":2.10191},"MapView":{"TopLeft":{"Latitude":41.38536,"Longitude":2.10152},"BottomRight":{"Latitude":41.38506,"Longitude":2.10191}},"Address":{"Label":"Carrer de Tenerife, 08950 Esplugues de Llobregat (Barcelona), Espanya","Country":"ESP","State":"Catalunya","County":"Barcelona","City":"Esplugues de Llobregat","Street":"Carrer de Tenerife","PostalCode":"08950","AdditionalData":[{"value":"Espanya","key":"CountryName"},{"value":"Catalunya","key":"StateName"},{"value":"Barcelona","key":"CountyName"}]},"MapReference":{"ReferenceId":"924289765","Spot":0.0,"SideOfStreet":"right","CountryId":"20215059","StateId":"20215741","CountyId":"20215742","CityId":"20222362"}}},{"Relevance":1.0,"Distance":50.9,"MatchLevel":"houseNumber","MatchQuality":{"Country":1.0,"State":1.0,"County":1.0,"City":1.0,"Street":[1.0],"HouseNumber":1.0,"PostalCode":1.0},"MatchType":"interpolated","Location":{"LocationId":"NT_H38y0YDzGVSQvRWYK8w1VB_zYD","LocationType":"point","DisplayPosition":{"Latitude":41.385,"Longitude":2.10175},"MapView":{"TopLeft":{"Latitude":41.3861242,"Longitude":2.1002517},"BottomRight":{"Latitude":41.3838758,"Longitude":2.1032483}},"Address":{"Label":"Carrer de Santa Rosa, 36, 08950 Esplugues de Llobregat (Barcelona), Espanya","Country":"ESP","State":"Catalunya","County":"Barcelona","City":"Esplugues de Llobregat","Street":"Carrer de Santa Rosa","HouseNumber":"36","PostalCode":"08950","AdditionalData":[{"value":"Espanya","key":"CountryName"},{"value":"Catalunya","key":"StateName"},{"value":"Barcelona","key":"CountyName"}]},"MapReference":{"ReferenceId":"553517107","Spot":0.88,"SideOfStreet":"right","CountryId":"20215059","StateId":"20215741","CountyId":"20215742","CityId":"20222362","AddressId":"206285051","RoadLinkId":"65427967"}}},{"Relevance":1.0,"Distance":68.0,"MatchLevel":"landmark","MatchQuality":{"Country":1.0,"State":1.0,"County":1.0,"City":1.0,"District":1.0,"PostalCode":1.0,"Name":1.0},"Location":{"LocationId":"NT_O15DfoM4ZAYKHal-jcYbcB_p_.j3CFNZr-R2SOp4NmnyGQA","LocationType":"park","Name":"Parc de Collserola","DisplayPosition":{"Latitude":41.41973,"Longitude":2.10023},"MapView":{"TopLeft":{"Latitude":41.4852,"Longitude":1.99917},"BottomRight":{"Latitude":41.38428,"Longitude":2.18708}},"Address":{"Label":"08017 Barcelona (Barcelona), Espanya","Country":"ESP","State":"Catalunya","County":"Barcelona","City":"Barcelona","District":"Vallvid. el Tibidabo i les Planes","PostalCode":"08017","AdditionalData":[{"value":"Espanya","key":"CountryName"},{"value":"Catalunya","key":"StateName"},{"value":"Barcelona","key":"CountyName"}]},"MapReference":{"CountryId":"20215059","StateId":"20215741","CountyId":"20215742","CityId":"20215774","PlaceId":"58526892"}}},{"Relevance":1.0,"Distance":77.6,"MatchLevel":"street","MatchQuality":{"Country":1.0,"State":1.0,"County":1.0,"City":1.0,"PostalCode":1.0},"Location":{"LocationId":"NT_FfLU8gHk9liPQt-LneC.AC_l_924289766_R","LocationType":"point","DisplayPosition":{"Latitude":41.38536,"Longitude":2.10152},"MapView":{"TopLeft":{"Latitude":41.38565,"Longitude":2.1012},"BottomRight":{"Latitude":41.38536,"Longitude":2.10152}},"Address":{"Label":"08950 Esplugues de Llobregat (Barcelona), Espanya","Country":"ESP","State":"Catalunya","County":"Barcelona","City":"Esplugues de Llobregat","PostalCode":"08950","AdditionalData":[{"value":"Espanya","key":"CountryName"},{"value":"Catalunya","key":"StateName"},{"value":"Barcelona","key":"CountyName"}]},"MapReference":{"ReferenceId":"924289766","Spot":0.0,"SideOfStreet":"right","CountryId":"20215059","StateId":"20215741","CountyId":"20215742","CityId":"20222362"}}},{"Relevance":1.0,"Distance":80.7,"MatchLevel":"houseNumber","MatchQuality":{"Country":1.0,"State":1.0,"County":1.0,"City":1.0,"Street":[1.0],"HouseNumber":1.0,"PostalCode":1.0},"MatchType":"interpolated","Location":{"LocationId":"NT_vfo1ZvChi9xcfR2QNobk0B_ygD","LocationType":"point","DisplayPosition":{"Latitude":41.38533,"Longitude":2.10143},"MapView":{"TopLeft":{"Latitude":41.3864542,"Longitude":2.0999317},"BottomRight":{"Latitude":41.3842058,"Longitude":2.1029283}},"Address":{"Label":"Carrer de Bonavista, 28, 08950 Esplugues de Llobregat (Barcelona), Espanya","Country":"ESP","State":"Catalunya","County":"Barcelona","City":"Esplugues de Llobregat","Street":"Carrer de Bonavista","HouseNumber":"28","PostalCode":"08950","AdditionalData":[{"value":"Espanya","key":"CountryName"},{"value":"Catalunya","key":"StateName"},{"value":"Barcelona","key":"CountyName"}]},"MapReference":{"ReferenceId":"553517101","Spot":0.92,"SideOfStreet":"right","CountryId":"20215059","StateId":"20215741","CountyId":"20215742","CityId":"20222362","AddressId":"206672398","RoadLinkId":"65693870"}}},{"Relevance":1.0,"Distance":102.4,"MatchLevel":"houseNumber","MatchQuality":{"Country":1.0,"State":1.0,"County":1.0,"City":1.0,"District":1.0,"Street":[1.0],"HouseNumber":1.0,"PostalCode":1.0},"MatchType":"interpolated","Location":{"LocationId":"NT_Pu2gAI97tx8tK-Q.jq5vJB_ykDR","LocationType":"point","DisplayPosition":{"Latitude":41.38506,"Longitude":2.10395},"MapView":{"TopLeft":{"Latitude":41.3861842,"Longitude":2.1024517},"BottomRight":{"Latitude":41.3839358,"Longitude":2.1054483}},"Address":{"Label":"Carrer Dalt B-20, 29D, 08034 Barcelona (Barcelona), Espanya","Country":"ESP","State":"Catalunya","County":"Barcelona","City":"Barcelona","District":"Pedralbes","Street":"Carrer Dalt B-20","HouseNumber":"29D","PostalCode":"08034","AdditionalData":[{"value":"Espanya","key":"CountryName"},{"value":"Catalunya","key":"StateName"},{"value":"Barcelona","key":"CountyName"}]},"MapReference":{"ReferenceId":"811796333","Spot":0.99,"SideOfStreet":"left","CountryId":"20215059","StateId":"20215741","CountyId":"20215742","CityId":"20215774","AddressId":"367276057","RoadLinkId":"199229262"}}},{"Relevance":1.0,"Distance":106.3,"MatchLevel":"street","MatchQuality":{"Country":1.0,"State":1.0,"County":1.0,"City":1.0,"District":1.0,"PostalCode":1.0},"Location":{"LocationId":"NT_shO4gAgVhjwQsxdJbcgKFA_l_811796332_L","LocationType":"point","DisplayPosition":{"Latitude":41.38439,"Longitude":2.10324},"MapView":{"TopLeft":{"Latitude":41.38453,"Longitude":2.10324},"BottomRight":{"Latitude":41.38439,"Longitude":2.1034}},"Address":{"Label":"08034 Barcelona (Barcelona), Espanya","Country":"ESP","State":"Catalunya","County":"Barcelona","City":"Barcelona","District":"Pedralbes","PostalCode":"08034","AdditionalData":[{"value":"Espanya","key":"CountryName"},{"value":"Catalunya","key":"StateName"},{"value":"Barcelona","key":"CountyName"}]},"MapReference":{"ReferenceId":"811796332","Spot":0.0,"SideOfStreet":"left","CountryId":"20215059","StateId":"20215741","CountyId":"20215742","CityId":"20215774"}}}]}]}}