{"Response":{"MetaInfo":{"Timestamp":"2020-03-28T11:03:23.008+0000","NextPageInformation":"2"},"View":[{"_type":"SearchResultsViewType","ViewId":0,"Result":[{"Relevance":1.0,"Distance":0.0,"Direction":0.0,"MatchLevel":"city","MatchQuality":{"Country":1.0,"State":1.0,"County":1.0,"City":1.0,"PostalCode":1.0},"Location":{"LocationId":"NT_866Erw9KI6U-xsVFyq0vmD","LocationType":"point","DisplayPosition":{"Latitude":41.3372538,"Longitude":1.9956399},"MapView":{"TopLeft":{"Latitude":41.35637,"Longitude":1.95547},"BottomRight":{"Latitude":41.31357,"Longitude":2.01252}},"Address":{"Label":"Sant Climent de Llobregat, Catalunya, Espanya","Country":"ESP","State":"Catalunya","County":"Barcelona","City":"Sant Climent de Llobregat","PostalCode":"08849","AdditionalData":[{"value":"Espanya","key":"CountryName"},{"value":"Catalunya","key":"StateName"},{"value":"Barcelona","key":"CountyName"}]},"MapReference":{"ReferenceId":"560864390","SideOfStreet":"neither","CountryId":"20215059","StateId":"20215741","CountyId":"20215742","CityId":"20222974"}}},{"Relevance":1.0,"Distance":28.7,"MatchLevel":"houseNumber","MatchQuality":{"Country":1.0,"State":1.0,"County":1.0,"City":1.0,"Street":[1.0],"HouseNumber":1.0,"PostalCode":1.0},"MatchType":"interpolated","Location":{"LocationId":"NT_nkhRxt2.Ldpj1s.rkJdSOD_l_560870405_L_yA","LocationType":"point","DisplayPosition":{"Latitude":41.3372697,"Longitude":1.9960497},"MapView":{"TopLeft":{"Latitude":41.3383938,"Longitude":1.9945525},"BottomRight":{"Latitude":41.3361455,"Longitude":1.9975469}},"Address":{"Label":"Plaça Lluís Companys, 2, 08849 Sant Climent de Llobregat (Barcelona), Espanya","Country":"ESP","State":"Catalunya","County":"Barcelona","City":"Sant Climent de Llobregat","Street":"Plaça Lluís Companys","HouseNumber":"2","PostalCode":"08849","AdditionalData":[{"value":"Espanya","key":"CountryName"},{"value":"Catalunya","key":"StateName"},{"value":"Barcelona","key":"CountyName"}]},"MapReference":{"ReferenceId":"560870405","Spot":0.49,"SideOfStreet":"left","CountryId":"20215059","StateId":"20215741","CountyId":"20215742","CityId":"20222974"}}},{"Relevance":1.0,"Distance":32.9,"MatchLevel":"street","MatchQuality":{"Country":1.0,"State":1.0,"County":1.0,"City":1.0,"Street":[1.0],"PostalCode":1.0},"Location":{"LocationId":"NT_aEoY42Wb39Ha770skwO0tC_l_71463114_L","LocationType":"point","DisplayPosition":{"Latitude":41.33754,"Longitude":1.99574},"MapView":{"TopLeft":{"Latitude":41.33763,"Longitude":1.99554},"BottomRight":{"Latitude":41.33746,"Longitude":1.99612}},"Address":{"Label":"Carrer dels Països Catalans, 08849 Sant Climent de Llobregat (Barcelona), Espanya","Country":"ESP","State":"Catalunya","County":"Barcelona","City":"Sant Climent de Llobregat","Street":"Carrer dels Països Catalans","PostalCode":"08849","AdditionalData":[{"value":"Espanya","key":"CountryName"},{"value":"Catalunya","key":"StateName"},{"value":"Barcelona","key":"CountyName"}]},"MapReference":{"ReferenceId":"71463114","Spot":0.64,"SideOfStreet":"left","CountryId":"20215059","StateId":"20215741","CountyId":"20215742","CityId":"20222974"}}},{"Relevance":1.0,"Distance":39.9,"MatchLevel":"street","MatchQuality":{"Country":1.0,"State":1.0,"County":1.0,"City":1.0,"Street":[1.0],"PostalCode":1.0},"Location":{"LocationId":"NT_JytMQ0I8dIttT.5UFAYvkA_l_560864377_R","LocationType":"point","DisplayPosition":{"Latitude":41.33755,"Longitude":1.99537},"MapView":{"TopLeft":{"Latitude":41.33755,"Longitude":1.99453},"BottomRight":{"Latitude":41.33738,"Longitude":1.99537}},"Address":{"Label":"Camí de C'al Marí, 08849 Sant Climent de Llobregat (Barcelona), Espanya","Country":"ESP","State":"Catalunya","County":"Barcelona","City":"Sant Climent de Llobregat","Street":"Camí de C'al Marí","PostalCode":"08849","AdditionalData":[{"value":"Espanya","key":"CountryName"},{"value":"Catalunya","key":"StateName"},{"value":"Barcelona","key":"CountyName"}]},"MapReference":{"ReferenceId":"560864377","Spot":1.0,"SideOfStreet":"right","CountryId":"20215059","StateId":"20215741","CountyId":"20215742","CityId":"20222974"}}},{"Relevance":1.0,"Distance":40.5,"MatchLevel":"houseNumber","MatchQuality":{"Country":1.0,"State":1.0,"County":1.0,"City":1.0,"Street":[1.0],"HouseNumber":1.0,"PostalCode":1.0},"MatchType":"interpolated","Location":{"LocationId":"NT_MsGyUe190tEO37DezK0O0A_l_560874773_L_xA","LocationType":"point","DisplayPosition":{"Latitude":41.3375918,"Longitude":1.9954588},"MapView":{"TopLeft":{"Latitude":41.3387159,"Longitude":1.9939616},"BottomRight":{"Latitude":41.3364676,"Longitude":1.996956}},"Address":{"Label":"Carrer de Sant Climent, 1, 08849 Sant Climent de Llobregat (Barcelona), Espanya","Country":"ESP","State":"Catalunya","County":"Barcelona","City":"Sant Climent de Llobregat","Street":"Carrer de Sant Climent","HouseNumber":"1","PostalCode":"08849","AdditionalData":[{"value":"Espanya","key":"CountryName"},{"value":"Catalunya","key":"StateName"},{"value":"Barcelona","key":"CountyName"}]},"MapReference":{"ReferenceId":"560874773","Spot":0.52,"SideOfStreet":"left","CountryId":"20215059","StateId":"20215741","CountyId":"20215742","CityId":"20222974"}}},{"Relevance":1.0,"Distance":42.0,"MatchLevel":"houseNumber","MatchQuality":{"Country":1.0,"State":1.0,"County":1.0,"City":1.0,"Street":[1.0],"HouseNumber":1.0,"PostalCode":1.0},"MatchType":"interpolated","Location":{"LocationId":"NT_UR2GIcglk7CzS3-nAkpv-D_xAD","LocationType":"point","DisplayPosition":{"Latitude":41.33696,"Longitude":1.99626},"MapView":{"TopLeft":{"Latitude":41.3380842,"Longitude":1.9947628},"BottomRight":{"Latitude":41.3358358,"Longitude":1.9977572}},"Address":{"Label":"Carrer de la Poca Farina, 10, 08849 Sant Climent de Llobregat (Barcelona), Espanya","Country":"ESP","State":"Catalunya","County":"Barcelona","City":"Sant Climent de Llobregat","Street":"Carrer de la Poca Farina","HouseNumber":"10","PostalCode":"08849","AdditionalData":[{"value":"Espanya","key":"CountryName"},{"value":"Catalunya","key":"StateName"},{"value":"Barcelona","key":"CountyName"}]},"MapReference":{"ReferenceId":"974730331","Spot":0.81,"SideOfStreet":"left","CountryId":"20215059","StateId":"20215741","CountyId":"20215742","CityId":"20222974","AddressId":"404132830","RoadLinkId":"310293073"}}},{"Relevance":1.0,"Distance":42.7,"MatchLevel":"street","MatchQuality":{"Country":1.0,"State":1.0,"County":1.0,"City":1.0,"Street":[1.0],"PostalCode":1.0},"Location":{"LocationId":"NT_MsGyUe190tEO37DezK0O0A_l_560874774_R","LocationType":"point","DisplayPosition":{"Latitude":41.33763,"Longitude":1.99554},"MapView":{"TopLeft":{"Latitude":41.33789,"Longitude":1.99554},"BottomRight":{"Latitude":41.33763,"Longitude":1.99579}},"Address":{"Label":"Carrer de Sant Climent, 08849 Sant Climent de Llobregat (Barcelona), Espanya","Country":"ESP","State":"Catalunya","County":"Barcelona","City":"Sant Climent de Llobregat","Street":"Carrer de Sant Climent","PostalCode":"08849","AdditionalData":[{"value":"Espanya","key":"CountryName"},{"value":"Catalunya","key":"StateName"},{"value":"Barcelona","key":"CountyName"}]},"MapReference":{"ReferenceId":"560874774","Spot":0.0,"SideOfStreet":"right","CountryId":"20215059","StateId":"20215741","CountyId":"20215742","CityId":"20222974"}}},{"Relevance":1.0,"Distance":44.4,"MatchLevel":"street","MatchQuality":{"Country":1.0,"State":1.0,"County":1.0,"City":1.0,"PostalCode":1.0},"Location":{"LocationId":"NT_nvR.ebbt-5wlnU.zzvp13B_l_974730333_L","LocationType":"point","DisplayPosition":{"Latitude":41.33722,"Longitude":1.99617},"MapView":{"TopLeft":{"Latitude":41.33722,"Longitude":1.99617},"BottomRight":{"Latitude":41.33701,"Longitude":1.99632}},"Address":{"Label":"08849 Sant Climent de Llobregat (Barcelona), Espanya","Country":"ESP","State":"Catalunya","County":"Barcelona","City":"Sant Climent de Llobregat","PostalCode":"08849","AdditionalData":[{"value":"Espanya","key":"CountryName"},{"value":"Catalunya","key":"StateName"},{"value":"Barcelona","key":"CountyName"}]},"MapReference":{"ReferenceId":"974730333","Spot":1.0,"SideOfStreet":"left","CountryId":"20215059","StateId":"20215741","CountyId":"20215742","CityId":"20222974"}}},{"Relevance":1.0,"Distance":45.5,"MatchLevel":"houseNumber","MatchQuality":{"Country":1.0,"State":1.0,"County":1.0,"City":1.0,"Street":[1.0],"HouseNumber":1.0,"PostalCode":1.0},"MatchType":"interpolated","Location":{"LocationId":"NT_UR2GIcglk7CzS3-nAkpv-D_0A","LocationType":"point","DisplayPosition":{"Latitude":41.33707,"Longitude":1.99637},"MapView":{"TopLeft":{"Latitude":41.3381942,"Longitude":1.9948728},"BottomRight":{"Latitude":41.3359458,"Longitude":1.9978672}},"Address":{"Label":"Carrer de la Poca Farina, 4, 08849 Sant Climent de Llobregat (Barcelona), Espanya","Country":"ESP","State":"Catalunya","County":"Barcelona","City":"Sant Climent de Llobregat","Street":"Carrer de la Poca Farina","HouseNumber":"4","PostalCode":"08849","AdditionalData":[{"value":"Espanya","key":"CountryName"},{"value":"Catalunya","key":"StateName"},{"value":"Barcelona","key":"CountyName"}]},"MapReference":{"ReferenceId":"974730332","Spot":0.24,"SideOfStreet":"left","CountryId":"20215059","StateId":"20215741","CountyId":"20215742","CityId":"20222974","AddressId":"404107146","RoadLinkId":"310293074"}}},{"Relevance":1.0,"Distance":46.2,"MatchLevel":"street","MatchQuality":{"Country":1.0,"State":1.0,"County":1.0,"City":1.0,"Street":[1.0],"PostalCode":1.0},"Location":{"LocationId":"NT_TggE6lf6-xTuxytmy.OqEC_l_985093487_L","LocationType":"point","DisplayPosition":{"Latitude":41.33746,"Longitude":1.99612},"MapView":{"TopLeft":{"Latitude":41.3377,"Longitude":1.99612},"BottomRight":{"Latitude":41.33746,"Longitude":1.99632}},"Address":{"Label":"Carrer de la Riera, 08849 Sant Climent de Llobregat (Barcelona), Espanya","Country":"ESP","State":"Catalunya","County":"Barcelona","City":"Sant Climent de Llobregat","Street":"Carrer de la Riera","PostalCode":"08849","AdditionalData":[{"value":"Espanya","key":"CountryName"},{"value":"Catalunya","key":"StateName"},{"value":"Barcelona","key":"CountyName"}]},"MapReference":{"ReferenceId":"985093487","Spot":0.0,"SideOfStreet":"left","CountryId":"20215059","StateId":"20215741","CountyId":"20215742","CityId":"20222974"}}}]}]}}