{"Response":{"MetaInfo":{"Timestamp":"2020-03-28T11:27:26.510+0000","NextPageInformation":"2"},"View":[{"_type":"SearchResultsViewType","ViewId":0,"Result":[{"Relevance":1.0,"Distance":0.0,"Direction":0.0,"MatchLevel":"city","MatchQuality":{"Country":1.0,"State":1.0,"County":1.0,"City":1.0,"PostalCode":1.0},"Location":{"LocationId":"NT_uAen1YyzVsxfR6Q6rpRslC","LocationType":"point","DisplayPosition":{"Latitude":41.3612678,"Longitude":13.4157815},"MapView":{"TopLeft":{"Latitude":41.40404,"Longitude":13.28121},"BottomRight":{"Latitude":41.27351,"Longitude":13.51288}},"Address":{"Label":"Fondi, Lazio, Italia","Country":"ITA","State":"Lazio","County":"LT","City":"Fondi","PostalCode":"04022","AdditionalData":[{"value":"Italia","key":"CountryName"},{"value":"Lazio","key":"StateName"},{"value":"Latina","key":"CountyName"}]},"MapReference":{"ReferenceId":"75130828","SideOfStreet":"neither","CountryId":"20110484","StateId":"20126288","CountyId":"20127224","CityId":"20127255"}}},{"Relevance":1.0,"Distance":43.8,"MatchLevel":"street","MatchQuality":{"Country":1.0,"State":1.0,"County":1.0,"City":1.0,"PostalCode":1.0},"Location":{"LocationId":"NT_gBhZUNKqlhOJ2lfGVvyVuC_l_1223821782_L","LocationType":"point","DisplayPosition":{"Latitude":41.36117,"Longitude":13.41629},"MapView":{"TopLeft":{"Latitude":41.36117,"Longitude":13.41629},"BottomRight":{"Latitude":41.36106,"Longitude":13.41652}},"Address":{"Label":"04022 Fondi LT, Italia","Country":"ITA","State":"Lazio","County":"LT","City":"Fondi","PostalCode":"04022","AdditionalData":[{"value":"Italia","key":"CountryName"},{"value":"Lazio","key":"StateName"},{"value":"Latina","key":"CountyName"}]},"MapReference":{"ReferenceId":"1223821782","Spot":1.0,"SideOfStreet":"left","CountryId":"20110484","StateId":"20126288","CountyId":"20127224","CityId":"20127255"}}},{"Relevance":1.0,"Distance":65.8,"MatchLevel":"street","MatchQuality":{"Country":1.0,"State":1.0,"County":1.0,"City":1.0,"PostalCode":1.0},"Location":{"LocationId":"NT_gBhZUNKqlhOJ2lfGVvyVuC_l_1223821781_L","LocationType":"point","DisplayPosition":{"Latitude":41.36106,"Longitude":13.41652},"MapView":{"TopLeft":{"Latitude":41.3611,"Longitude":13.41652},"BottomRight":{"Latitude":41.36106,"Longitude":13.41683}},"Address":{"Label":"04022 Fondi LT, Italia","Country":"ITA","State":"Lazio","County":"LT","City":"Fondi","PostalCode":"04022","AdditionalData":[{"value":"Italia","key":"CountryName"},{"value":"Lazio","key":"StateName"},{"value":"Latina","key":"CountyName"}]},"MapReference":{"ReferenceId":"1223821781","Spot":0.0,"SideOfStreet":"left","CountryId":"20110484","StateId":"20126288","CountyId":"20127224","CityId":"20127255"}}},{"Relevance":1.0,"Distance":85.1,"MatchLevel":"street","MatchQuality":{"Country":1.0,"State":1.0,"County":1.0,"City":1.0,"Street":[1.0],"PostalCode":1.0},"Location":{"LocationId":"NT_kS3SaNEQA3IVfAx13wHhQC_l_1204878786_L","LocationType":"point","DisplayPosition":{"Latitude":41.3613,"Longitude":13.4168},"MapView":{"TopLeft":{"Latitude":41.3613,"Longitude":13.4168},"BottomRight":{"Latitude":41.3611,"Longitude":13.41683}},"Address":{"Label":"Strada Regionale di Frosinone e Gaeta, 04022 Fondi LT, Italia","Country":"ITA","State":"Lazio","County":"LT","City":"Fondi","Street":"Strada Regionale di Frosinone e Gaeta","PostalCode":"04022","AdditionalData":[{"value":"Italia","key":"CountryName"},{"value":"Lazio","key":"StateName"},{"value":"Latina","key":"CountyName"}]},"MapReference":{"ReferenceId":"1204878786","Spot":1.0,"SideOfStreet":"left","CountryId":"20110484","StateId":"20126288","CountyId":"20127224","CityId":"20127255"}}},{"Relevance":1.0,"Distance":85.1,"MatchLevel":"street","MatchQuality":{"Country":1.0,"State":1.0,"County":1.0,"City":1.0,"Street":[1.0],"PostalCode":1.0},"Location":{"LocationId":"NT_6abno4BVkbAzTz37WxpkjD_l_1204878787_L","LocationType":"point","DisplayPosition":{"Latitude":41.3614534,"Longitude":13.4167712},"MapView":{"TopLeft":{"Latitude":41.36146,"Longitude":13.41677},"BottomRight":{"Latitude":41.3613,"Longitude":13.4168}},"Address":{"Label":"Strada Regionale di Frosinone e Gaeta, 04022 Fondi LT, Italia","Country":"ITA","State":"Lazio","County":"LT","City":"Fondi","Street":"Strada Regionale di Frosinone e Gaeta","PostalCode":"04022","AdditionalData":[{"value":"Italia","key":"CountryName"},{"value":"Lazio","key":"StateName"},{"value":"Latina","key":"CountyName"}]},"MapReference":{"ReferenceId":"1204878787","Spot":0.96,"SideOfStreet":"left","CountryId":"20110484","StateId":"20126288","CountyId":"20127224","CityId":"20127255"}}},{"Relevance":1.0,"Distance":85.2,"MatchLevel":"street","MatchQuality":{"Country":1.0,"State":1.0,"County":1.0,"City":1.0,"Street":[1.0],"PostalCode":1.0},"Location":{"LocationId":"NT_6abno4BVkbAzTz37WxpkjD_l_1204878788_L","LocationType":"point","DisplayPosition":{"Latitude":41.36146,"Longitude":13.41677},"MapView":{"TopLeft":{"Latitude":41.36162,"Longitude":13.41675},"BottomRight":{"Latitude":41.36146,"Longitude":13.41677}},"Address":{"Label":"Strada Regionale di Frosinone e Gaeta, 04022 Fondi LT, Italia","Country":"ITA","State":"Lazio","County":"LT","City":"Fondi","Street":"Strada Regionale di Frosinone e Gaeta","PostalCode":"04022","AdditionalData":[{"value":"Italia","key":"CountryName"},{"value":"Lazio","key":"StateName"},{"value":"Latina","key":"CountyName"}]},"MapReference":{"ReferenceId":"1204878788","Spot":0.0,"SideOfStreet":"left","CountryId":"20110484","StateId":"20126288","CountyId":"20127224","CityId":"20127255"}}},{"Relevance":1.0,"Distance":89.5,"MatchLevel":"street","MatchQuality":{"Country":1.0,"State":1.0,"County":1.0,"City":1.0,"Street":[1.0],"PostalCode":1.0},"Location":{"LocationId":"NT_6abno4BVkbAzTz37WxpkjD_l_1223614808_L","LocationType":"point","DisplayPosition":{"Latitude":41.3611,"Longitude":13.41683},"MapView":{"TopLeft":{"Latitude":41.3611,"Longitude":13.41683},"BottomRight":{"Latitude":41.36081,"Longitude":13.41687}},"Address":{"Label":"Strada Regionale di Frosinone e Gaeta, 04022 Fondi LT, Italia","Country":"ITA","State":"Lazio","County":"LT","City":"Fondi","Street":"Strada Regionale di Frosinone e Gaeta","PostalCode":"04022","AdditionalData":[{"value":"Italia","key":"CountryName"},{"value":"Lazio","key":"StateName"},{"value":"Latina","key":"CountyName"}]},"MapReference":{"ReferenceId":"1223614808","Spot":1.0,"SideOfStreet":"left","CountryId":"20110484","StateId":"20126288","CountyId":"20127224","CityId":"20127255"}}},{"Relevance":1.0,"Distance":104.1,"MatchLevel":"street","MatchQuality":{"Country":1.0,"State":1.0,"County":1.0,"City":1.0,"Street":[1.0],"PostalCode":1.0},"Location":{"LocationId":"NT_6abno4BVkbAzTz37WxpkjD_l_1223614807_L","LocationType":"point","DisplayPosition":{"Latitude":41.36081,"Longitude":13.41687},"MapView":{"TopLeft":{"Latitude":41.36081,"Longitude":13.41687},"BottomRight":{"Latitude":41.36055,"Longitude":13.41691}},"Address":{"Label":"Strada Regionale di Frosinone e Gaeta, 04022 Fondi LT, Italia","Country":"ITA","State":"Lazio","County":"LT","City":"Fondi","Street":"Strada Regionale di Frosinone e Gaeta","PostalCode":"04022","AdditionalData":[{"value":"Italia","key":"CountryName"},{"value":"Lazio","key":"StateName"},{"value":"Latina","key":"CountyName"}]},"MapReference":{"ReferenceId":"1223614807","Spot":1.0,"SideOfStreet":"left","CountryId":"20110484","StateId":"20126288","CountyId":"20127224","CityId":"20127255"}}},{"Relevance":1.0,"Distance":115.7,"MatchLevel":"houseNumber","MatchQuality":{"Country":1.0,"State":1.0,"County":1.0,"City":1.0,"Street":[1.0],"HouseNumber":1.0,"PostalCode":1.0},"MatchType":"interpolated","Location":{"LocationId":"NT_6abno4BVkbAzTz37WxpkjD_zgDM","LocationType":"point","DisplayPosition":{"Latitude":41.36206,"Longitude":13.41668},"MapView":{"TopLeft":{"Latitude":41.3631842,"Longitude":13.4151822},"BottomRight":{"Latitude":41.3609358,"Longitude":13.4181778}},"Address":{"Label":"Via Provinciale Per Lenola, 380, 04022 Fondi LT, Italia","Country":"ITA","State":"Lazio","County":"LT","City":"Fondi","Street":"Via Provinciale Per Lenola","HouseNumber":"380","PostalCode":"04022","AdditionalData":[{"value":"Italia","key":"CountryName"},{"value":"Lazio","key":"StateName"},{"value":"Latina","key":"CountyName"}]},"MapReference":{"ReferenceId":"865127990","Spot":0.77,"SideOfStreet":"right","CountryId":"20110484","StateId":"20126288","CountyId":"20127224","CityId":"20127255","AddressId":"373145043","RoadLinkId":"238450369"}}},{"Relevance":1.0,"Distance":123.5,"MatchLevel":"street","MatchQuality":{"Country":1.0,"State":1.0,"County":1.0,"City":1.0,"Street":[1.0],"PostalCode":1.0},"Location":{"LocationId":"NT_6abno4BVkbAzTz37WxpkjD_l_1204677865_L","LocationType":"point","DisplayPosition":{"Latitude":41.36055,"Longitude":13.41691},"MapView":{"TopLeft":{"Latitude":41.36055,"Longitude":13.41691},"BottomRight":{"Latitude":41.36031,"Longitude":13.41695}},"Address":{"Label":"Strada Regionale di Frosinone e Gaeta, 04022 Fondi LT, Italia","Country":"ITA","State":"Lazio","County":"LT","City":"Fondi","Street":"Strada Regionale di Frosinone e Gaeta","PostalCode":"04022","AdditionalData":[{"value":"Italia","key":"CountryName"},{"value":"Lazio","key":"StateName"},{"value":"Latina","key":"CountyName"}]},"MapReference":{"ReferenceId":"1204677865","Spot":1.0,"SideOfStreet":"left","CountryId":"20110484","StateId":"20126288","CountyId":"20127224","CityId":"20127255"}}}]}]}}