{"Response":{"MetaInfo":{"Timestamp":"2020-03-28T11:23:32.828+0000","NextPageInformation":"2"},"View":[{"_type":"SearchResultsViewType","ViewId":0,"Result":[{"Relevance":1.0,"Distance":0.0,"Direction":0.0,"MatchLevel":"city","MatchQuality":{"Country":1.0,"State":1.0,"County":1.0,"City":1.0,"PostalCode":1.0},"Location":{"LocationId":"NT_AyJNgalNT9bPqkUUvPrkIB","LocationType":"point","DisplayPosition":{"Latitude":41.4682505,"Longitude":15.524307},"MapView":{"TopLeft":{"Latitude":41.6115,"Longitude":15.42937},"BottomRight":{"Latitude":41.33031,"Longitude":15.78859}},"Address":{"Label":"Foggia, Puglia, Italia","Country":"ITA","State":"Puglia","County":"FG","City":"Foggia","PostalCode":"71121","AdditionalData":[{"value":"Italia","key":"CountryName"},{"value":"Puglia","key":"StateName"},{"value":"Foggia","key":"CountyName"}]},"MapReference":{"ReferenceId":"537135873","SideOfStreet":"neither","CountryId":"20110484","StateId":"20218506","CountyId":"20218507","CityId":"20238777"}}},{"Relevance":1.0,"Distance":16.1,"MatchLevel":"houseNumber","MatchQuality":{"Country":1.0,"State":1.0,"County":1.0,"City":1.0,"Street":[1.0],"HouseNumber":1.0,"PostalCode":1.0},"MatchType":"interpolated","Location":{"LocationId":"NT_sdw9bWqK53cxUPxGb.HJAD_yMTOBB","LocationType":"point","DisplayPosition":{"Latitude":41.46812,"Longitude":15.52439},"MapView":{"TopLeft":{"Latitude":41.4692442,"Longitude":15.5228898},"BottomRight":{"Latitude":41.4669958,"Longitude":15.5258902}},"Address":{"Label":"Via Lucera, 239A, 71122 Foggia FG, Italia","Country":"ITA","State":"Puglia","County":"FG","City":"Foggia","Street":"Via Lucera","HouseNumber":"239A","PostalCode":"71122","AdditionalData":[{"value":"Italia","key":"CountryName"},{"value":"Puglia","key":"StateName"},{"value":"Foggia","key":"CountyName"}]},"MapReference":{"ReferenceId":"554120343","Spot":0.77,"SideOfStreet":"left","CountryId":"20110484","StateId":"20218506","CountyId":"20218507","CityId":"20238777","AddressId":"764450176","RoadLinkId":"57223452"}}},{"Relevance":1.0,"Distance":24.0,"MatchLevel":"houseNumber","MatchQuality":{"Country":1.0,"State":1.0,"County":1.0,"City":1.0,"Street":[1.0],"HouseNumber":1.0,"PostalCode":1.0},"MatchType":"interpolated","Location":{"LocationId":"NT_sdw9bWqK53cxUPxGb.HJAD_yQzM","LocationType":"point","DisplayPosition":{"Latitude":41.46819,"Longitude":15.52403},"MapView":{"TopLeft":{"Latitude":41.4693142,"Longitude":15.5225298},"BottomRight":{"Latitude":41.4670658,"Longitude":15.5255302}},"Address":{"Label":"Via Lucera, 243, 71122 Foggia FG, Italia","Country":"ITA","State":"Puglia","County":"FG","City":"Foggia","Street":"Via Lucera","HouseNumber":"243","PostalCode":"71122","AdditionalData":[{"value":"Italia","key":"CountryName"},{"value":"Puglia","key":"StateName"},{"value":"Foggia","key":"CountyName"}]},"MapReference":{"ReferenceId":"554120327","Spot":0.37,"SideOfStreet":"left","CountryId":"20110484","StateId":"20218506","CountyId":"20218507","CityId":"20238777","AddressId":"574458846","RoadLinkId":"57504805"}}},{"Relevance":1.0,"Distance":38.7,"MatchLevel":"houseNumber","MatchQuality":{"Country":1.0,"State":1.0,"County":1.0,"City":1.0,"Street":[1.0],"HouseNumber":1.0,"PostalCode":1.0},"MatchType":"interpolated","Location":{"LocationId":"NT_sdw9bWqK53cxUPxGb.HJAD_yMzNBB","LocationType":"point","DisplayPosition":{"Latitude":41.46792,"Longitude":15.52416},"MapView":{"TopLeft":{"Latitude":41.4690442,"Longitude":15.5226598},"BottomRight":{"Latitude":41.4667958,"Longitude":15.5256602}},"Address":{"Label":"Via Lucera, 237A, 71122 Foggia FG, Italia","Country":"ITA","State":"Puglia","County":"FG","City":"Foggia","Street":"Via Lucera","HouseNumber":"237A","PostalCode":"71122","AdditionalData":[{"value":"Italia","key":"CountryName"},{"value":"Puglia","key":"StateName"},{"value":"Foggia","key":"CountyName"}]},"MapReference":{"ReferenceId":"554120344","Spot":0.59,"SideOfStreet":"right","CountryId":"20110484","StateId":"20218506","CountyId":"20218507","CityId":"20238777","AddressId":"764878223","RoadLinkId":"58263367"}}},{"Relevance":1.0,"Distance":49.9,"MatchLevel":"houseNumber","MatchQuality":{"Country":1.0,"State":1.0,"County":1.0,"City":1.0,"Street":[1.0],"HouseNumber":1.0,"PostalCode":1.0},"MatchType":"interpolated","Location":{"LocationId":"NT_sdw9bWqK53cxUPxGb.HJAD_yQTNBB","LocationType":"point","DisplayPosition":{"Latitude":41.46817,"Longitude":15.52363},"MapView":{"TopLeft":{"Latitude":41.4692942,"Longitude":15.5221298},"BottomRight":{"Latitude":41.4670458,"Longitude":15.5251302}},"Address":{"Label":"Via Lucera, 245A, 71122 Foggia FG, Italia","Country":"ITA","State":"Puglia","County":"FG","City":"Foggia","Street":"Via Lucera","HouseNumber":"245A","PostalCode":"71122","AdditionalData":[{"value":"Italia","key":"CountryName"},{"value":"Puglia","key":"StateName"},{"value":"Foggia","key":"CountyName"}]},"MapReference":{"ReferenceId":"554120346","Spot":0.85,"SideOfStreet":"right","CountryId":"20110484","StateId":"20218506","CountyId":"20218507","CityId":"20238777","AddressId":"765514120","RoadLinkId":"58031576"}}},{"Relevance":1.0,"Distance":53.9,"MatchLevel":"street","MatchQuality":{"Country":1.0,"State":1.0,"County":1.0,"City":1.0,"Street":[1.0],"PostalCode":1.0},"Location":{"LocationId":"NT_sdw9bWqK53cxUPxGb.HJAD_l_554120345_R","LocationType":"point","DisplayPosition":{"Latitude":41.46826,"Longitude":15.52366},"MapView":{"TopLeft":{"Latitude":41.46834,"Longitude":15.52328},"BottomRight":{"Latitude":41.46826,"Longitude":15.52366}},"Address":{"Label":"Via Lucera, 71122 Foggia FG, Italia","Country":"ITA","State":"Puglia","County":"FG","City":"Foggia","Street":"Via Lucera","PostalCode":"71122","AdditionalData":[{"value":"Italia","key":"CountryName"},{"value":"Puglia","key":"StateName"},{"value":"Foggia","key":"CountyName"}]},"MapReference":{"ReferenceId":"554120345","Spot":0.0,"SideOfStreet":"right","CountryId":"20110484","StateId":"20218506","CountyId":"20218507","CityId":"20238777"}}},{"Relevance":1.0,"Distance":61.0,"MatchLevel":"houseNumber","MatchQuality":{"Country":1.0,"State":1.0,"County":1.0,"City":1.0,"Street":[1.0],"HouseNumber":1.0,"PostalCode":1.0},"MatchType":"interpolated","Location":{"LocationId":"NT_sdw9bWqK53cxUPxGb.HJAD_yQTM","LocationType":"point","DisplayPosition":{"Latitude":41.46781,"Longitude":15.5248},"MapView":{"TopLeft":{"Latitude":41.4689342,"Longitude":15.5232998},"BottomRight":{"Latitude":41.4666858,"Longitude":15.5263002}},"Address":{"Label":"Via Lucera, 241, 71122 Foggia FG, Italia","Country":"ITA","State":"Puglia","County":"FG","City":"Foggia","Street":"Via Lucera","HouseNumber":"241","PostalCode":"71122","AdditionalData":[{"value":"Italia","key":"CountryName"},{"value":"Puglia","key":"StateName"},{"value":"Foggia","key":"CountyName"}]},"MapReference":{"ReferenceId":"554120342","Spot":0.61,"SideOfStreet":"left","CountryId":"20110484","StateId":"20218506","CountyId":"20218507","CityId":"20238777","AddressId":"574461736","RoadLinkId":"57981746"}}},{"Relevance":1.0,"Distance":71.1,"MatchLevel":"houseNumber","MatchQuality":{"Country":1.0,"State":1.0,"County":1.0,"City":1.0,"Street":[1.0],"HouseNumber":1.0,"PostalCode":1.0},"MatchType":"interpolated","Location":{"LocationId":"NT_sdw9bWqK53cxUPxGb.HJAD_yIzNCB","LocationType":"point","DisplayPosition":{"Latitude":41.46798,"Longitude":15.52508},"MapView":{"TopLeft":{"Latitude":41.4691042,"Longitude":15.5235798},"BottomRight":{"Latitude":41.4668558,"Longitude":15.5265802}},"Address":{"Label":"Via Lucera, 227B, 71122 Foggia FG, Italia","Country":"ITA","State":"Puglia","County":"FG","City":"Foggia","Street":"Via Lucera","HouseNumber":"227B","PostalCode":"71122","AdditionalData":[{"value":"Italia","key":"CountryName"},{"value":"Puglia","key":"StateName"},{"value":"Foggia","key":"CountyName"}]},"MapReference":{"ReferenceId":"554120341","Spot":0.74,"SideOfStreet":"left","CountryId":"20110484","StateId":"20218506","CountyId":"20218507","CityId":"20238777","AddressId":"764442094","RoadLinkId":"57401757"}}},{"Relevance":1.0,"Distance":89.0,"MatchLevel":"houseNumber","MatchQuality":{"Country":1.0,"State":1.0,"County":1.0,"City":1.0,"Street":[1.0],"HouseNumber":1.0,"PostalCode":1.0},"MatchType":"interpolated","Location":{"LocationId":"NT_sdw9bWqK53cxUPxGb.HJAD_yUzN","LocationType":"point","DisplayPosition":{"Latitude":41.46822,"Longitude":15.52323},"MapView":{"TopLeft":{"Latitude":41.4693442,"Longitude":15.5217298},"BottomRight":{"Latitude":41.4670958,"Longitude":15.5247302}},"Address":{"Label":"Via Lucera, 257, 71122 Foggia FG, Italia","Country":"ITA","State":"Puglia","County":"FG","City":"Foggia","Street":"Via Lucera","HouseNumber":"257","PostalCode":"71122","AdditionalData":[{"value":"Italia","key":"CountryName"},{"value":"Puglia","key":"StateName"},{"value":"Foggia","key":"CountyName"}]},"MapReference":{"ReferenceId":"554120347","Spot":0.82,"SideOfStreet":"right","CountryId":"20110484","StateId":"20218506","CountyId":"20218507","CityId":"20238777","AddressId":"574458587","RoadLinkId":"58022111"}}},{"Relevance":1.0,"Distance":104.7,"MatchLevel":"houseNumber","MatchQuality":{"Country":1.0,"State":1.0,"County":1.0,"City":1.0,"Street":[1.0],"HouseNumber":1.0,"PostalCode":1.0},"MatchType":"interpolated","Location":{"LocationId":"NT_sdw9bWqK53cxUPxGb.HJAD_yUTO","LocationType":"point","DisplayPosition":{"Latitude":41.46837,"Longitude":15.52306},"MapView":{"TopLeft":{"Latitude":41.4694942,"Longitude":15.5215598},"BottomRight":{"Latitude":41.4672458,"Longitude":15.5245602}},"Address":{"Label":"Via Lucera, 259, 71122 Foggia FG, Italia","Country":"ITA","State":"Puglia","County":"FG","City":"Foggia","Street":"Via Lucera","HouseNumber":"259","PostalCode":"71122","AdditionalData":[{"value":"Italia","key":"CountryName"},{"value":"Puglia","key":"StateName"},{"value":"Foggia","key":"CountyName"}]},"MapReference":{"ReferenceId":"772837254","Spot":1.0,"SideOfStreet":"left","CountryId":"20110484","StateId":"20218506","CountyId":"20218507","CityId":"20238777","AddressId":"765623436","RoadLinkId":"166445483"}}}]}]}}