{"Response":{"MetaInfo":{"Timestamp":"2020-03-28T09:38:14.091+0000","NextPageInformation":"2"},"View":[{"_type":"SearchResultsViewType","ViewId":0,"Result":[{"Relevance":1.0,"Distance":-53.3,"MatchLevel":"landmark","MatchQuality":{"Country":1.0,"State":1.0,"County":1.0,"City":1.0,"District":1.0,"PostalCode":1.0,"Name":1.0},"Location":{"LocationId":"NT_Gdc2BU3sGH-PlXZEc4Nd3A_p_Co7ne0wXx--z0rZTkBDTyB","LocationType":"hospital","Name":"Hospital Gen. Univ. Vall d'Hebron","DisplayPosition":{"Latitude":41.42761,"Longitude":2.14257},"MapView":{"TopLeft":{"Latitude":41.42999,"Longitude":2.13711},"BottomRight":{"Latitude":41.42668,"Longitude":2.14429}},"Address":{"Label":"08035 Barcelona (Barcelona), Espanya","Country":"ESP","State":"Catalunya","County":"Barcelona","City":"Barcelona","District":"Montbau","PostalCode":"08035","AdditionalData":[{"value":"Espanya","key":"CountryName"},{"value":"Catalunya","key":"StateName"},{"value":"Barcelona","key":"CountyName"}]},"MapReference":{"CountryId":"20215059","StateId":"20215741","CountyId":"20215742","CityId":"20215774","PlaceId":"55706759"}}},{"Relevance":1.0,"Distance":0.0,"Direction":0.0,"MatchLevel":"district","MatchQuality":{"Country":1.0,"State":1.0,"County":1.0,"City":1.0,"District":1.0,"PostalCode":1.0},"Location":{"LocationId":"NT_XpZLsf84XnXDrWG7P8ugNB","LocationType":"point","DisplayPosition":{"Latitude":41.4294262,"Longitude":2.1388563},"MapView":{"TopLeft":{"Latitude":41.44742,"Longitude":2.12653},"BottomRight":{"Latitude":41.42474,"Longitude":2.14855}},"Address":{"Label":"Montbau, Barcelona, Catalunya, Espanya","Country":"ESP","State":"Catalunya","County":"Barcelona","City":"Barcelona","District":"Montbau","PostalCode":"08035","AdditionalData":[{"value":"Espanya","key":"CountryName"},{"value":"Catalunya","key":"StateName"},{"value":"Barcelona","key":"CountyName"}]},"MapReference":{"ReferenceId":"821447846","SideOfStreet":"neither","CountryId":"20215059","StateId":"20215741","CountyId":"20215742","CityId":"20215774"}}},{"Relevance":1.0,"Distance":17.0,"MatchLevel":"street","MatchQuality":{"Country":1.0,"State":1.0,"County":1.0,"City":1.0,"District":1.0,"Street":[1.0],"PostalCode":1.0},"Location":{"LocationId":"NT_vlNBupCX5IixMlu8yVOhbC_l_64371369_L","LocationType":"point","DisplayPosition":{"Latitude":41.4295726,"Longitude":2.1389128},"MapView":{"TopLeft":{"Latitude":41.42978,"Longitude":2.13837},"BottomRight":{"Latitude":41.42935,"Longitude":2.13949}},"Address":{"Label":"Carrer de Natzaret, 08035 Barcelona (Barcelona), Espanya","Country":"ESP","State":"Catalunya","County":"Barcelona","City":"Barcelona","District":"Montbau","Street":"Carrer de Natzaret","PostalCode":"08035","AdditionalData":[{"value":"Espanya","key":"CountryName"},{"value":"Catalunya","key":"StateName"},{"value":"Barcelona","key":"CountyName"}]},"MapReference":{"ReferenceId":"64371369","Spot":0.42,"SideOfStreet":"left","CountryId":"20215059","StateId":"20215741","CountyId":"20215742","CityId":"20215774"}}},{"Relevance":1.0,"Distance":52.3,"MatchLevel":"houseNumber","MatchQuality":{"Country":1.0,"State":1.0,"County":1.0,"City":1.0,"District":1.0,"Street":[1.0],"HouseNumber":1.0,"PostalCode":1.0},"MatchType":"interpolated","Location":{"LocationId":"NT_dgnGtaYmmlylBNunoT5CJB_yYD","LocationType":"point","DisplayPosition":{"Latitude":41.42988,"Longitude":2.13902},"MapView":{"TopLeft":{"Latitude":41.4310042,"Longitude":2.1375207},"BottomRight":{"Latitude":41.4287558,"Longitude":2.1405193}},"Address":{"Label":"Carrer de l'Arquitectura, 26, 08035 Barcelona (Barcelona), Espanya","Country":"ESP","State":"Catalunya","County":"Barcelona","City":"Barcelona","District":"Montbau","Street":"Carrer de l'Arquitectura","HouseNumber":"26","PostalCode":"08035","AdditionalData":[{"value":"Espanya","key":"CountryName"},{"value":"Catalunya","key":"StateName"},{"value":"Barcelona","key":"CountyName"}]},"MapReference":{"ReferenceId":"64395484","Spot":0.79,"SideOfStreet":"right","CountryId":"20215059","StateId":"20215741","CountyId":"20215742","CityId":"20215774","AddressId":"205771950","RoadLinkId":"66041240"}}},{"Relevance":1.0,"Distance":53.4,"MatchLevel":"landmark","MatchQuality":{"Country":1.0,"State":1.0,"County":1.0,"City":1.0,"Street":[1.0],"PostalCode":1.0,"Name":1.0},"Location":{"LocationId":"NT_O15DfoM4ZAYKHal-jcYbcB_p_i7clCrCfaIxO45ptP4vUWA","LocationType":"park","Name":"Parc de Collserola","DisplayPosition":{"Latitude":41.43736,"Longitude":2.10542},"MapView":{"TopLeft":{"Latitude":41.4852,"Longitude":1.99917},"BottomRight":{"Latitude":41.38428,"Longitude":2.18708}},"Address":{"Label":"Carretera de l'Arrabassada, 08196 Sant Cugat del Vallès (Barcelona), Espanya","Country":"ESP","State":"Catalunya","County":"Barcelona","City":"Sant Cugat del Vallès","Street":"Carretera de l'Arrabassada","PostalCode":"08196","AdditionalData":[{"value":"Espanya","key":"CountryName"},{"value":"Catalunya","key":"StateName"},{"value":"Barcelona","key":"CountyName"}]},"MapReference":{"CountryId":"20215059","StateId":"20215741","CountyId":"20215742","CityId":"20222976","PlaceId":"1148632314"}}},{"Relevance":1.0,"Distance":53.5,"MatchLevel":"houseNumber","MatchQuality":{"Country":1.0,"State":1.0,"County":1.0,"City":1.0,"District":1.0,"Street":[1.0],"HouseNumber":1.0,"PostalCode":1.0},"MatchType":"interpolated","Location":{"LocationId":"NT_vlNBupCX5IixMlu8yVOhbC_xAjM","LocationType":"point","DisplayPosition":{"Latitude":41.42987,"Longitude":2.13842},"MapView":{"TopLeft":{"Latitude":41.4309942,"Longitude":2.1369207},"BottomRight":{"Latitude":41.4287458,"Longitude":2.1399193}},"Address":{"Label":"Carrer de Natzaret, 102, 08035 Barcelona (Barcelona), Espanya","Country":"ESP","State":"Catalunya","County":"Barcelona","City":"Barcelona","District":"Montbau","Street":"Carrer de Natzaret","HouseNumber":"102","PostalCode":"08035","AdditionalData":[{"value":"Espanya","key":"CountryName"},{"value":"Catalunya","key":"StateName"},{"value":"Barcelona","key":"CountyName"}]},"MapReference":{"ReferenceId":"64371781","Spot":0.34,"SideOfStreet":"right","CountryId":"20215059","StateId":"20215741","CountyId":"20215742","CityId":"20215774","AddressId":"221016671","RoadLinkId":"65559704"}}},{"Relevance":1.0,"Distance":53.5,"MatchLevel":"street","MatchQuality":{"Country":1.0,"State":1.0,"County":1.0,"City":1.0,"District":1.0,"PostalCode":1.0},"Location":{"LocationId":"NT_idlB-apqLLTZLR5cm0fhAC_l_64371370_L","LocationType":"point","DisplayPosition":{"Latitude":41.42935,"Longitude":2.13949},"MapView":{"TopLeft":{"Latitude":41.42935,"Longitude":2.13949},"BottomRight":{"Latitude":41.42913,"Longitude":2.14011}},"Address":{"Label":"08035 Barcelona (Barcelona), Espanya","Country":"ESP","State":"Catalunya","County":"Barcelona","City":"Barcelona","District":"Montbau","PostalCode":"08035","AdditionalData":[{"value":"Espanya","key":"CountryName"},{"value":"Catalunya","key":"StateName"},{"value":"Barcelona","key":"CountyName"}]},"MapReference":{"ReferenceId":"64371370","Spot":1.0,"SideOfStreet":"left","CountryId":"20215059","StateId":"20215741","CountyId":"20215742","CityId":"20215774"}}},{"Relevance":1.0,"Distance":53.5,"MatchLevel":"street","MatchQuality":{"Country":1.0,"State":1.0,"County":1.0,"City":1.0,"District":1.0,"PostalCode":1.0},"Location":{"LocationId":"NT_idlB-apqLLTZLR5cm0fhAC_l_64371368_L","LocationType":"point","DisplayPosition":{"Latitude":41.4291351,"Longitude":2.1393677},"MapView":{"TopLeft":{"Latitude":41.42935,"Longitude":2.13898},"BottomRight":{"Latitude":41.42846,"Longitude":2.13949}},"Address":{"Label":"08035 Barcelona (Barcelona), Espanya","Country":"ESP","State":"Catalunya","County":"Barcelona","City":"Barcelona","District":"Montbau","PostalCode":"08035","AdditionalData":[{"value":"Espanya","key":"CountryName"},{"value":"Catalunya","key":"StateName"},{"value":"Barcelona","key":"CountyName"}]},"MapReference":{"ReferenceId":"64371368","Spot":0.76,"SideOfStreet":"left","CountryId":"20215059","StateId":"20215741","CountyId":"20215742","CityId":"20215774"}}},{"Relevance":1.0,"Distance":54.1,"MatchLevel":"street","MatchQuality":{"Country":1.0,"State":1.0,"County":1.0,"City":1.0,"District":1.0,"Street":[1.0],"PostalCode":1.0},"Location":{"LocationId":"NT_dgnGtaYmmlylBNunoT5CJB_l_64395483_L","LocationType":"point","DisplayPosition":{"Latitude":41.42991,"Longitude":2.13893},"MapView":{"TopLeft":{"Latitude":41.42999,"Longitude":2.13857},"BottomRight":{"Latitude":41.42991,"Longitude":2.13893}},"Address":{"Label":"Carrer de l'Arquitectura, 08035 Barcelona (Barcelona), Espanya","Country":"ESP","State":"Catalunya","County":"Barcelona","City":"Barcelona","District":"Montbau","Street":"Carrer de l'Arquitectura","PostalCode":"08035","AdditionalData":[{"value":"Espanya","key":"CountryName"},{"value":"Catalunya","key":"StateName"},{"value":"Barcelona","key":"CountyName"}]},"MapReference":{"ReferenceId":"64395483","Spot":0.0,"SideOfStreet":"left","CountryId":"20215059","StateId":"20215741","CountyId":"20215742","CityId":"20215774"}}},{"Relevance":1.0,"Distance":56.5,"MatchLevel":"houseNumber","MatchQuality":{"Country":1.0,"State":1.0,"County":1.0,"City":1.0,"District":1.0,"Street":[1.0],"HouseNumber":1.0,"PostalCode":1.0},"MatchType":"interpolated","Location":{"LocationId":"NT_vlNBupCX5IixMlu8yVOhbC_xITOWB","LocationType":"point","DisplayPosition":{"Latitude":41.42978,"Longitude":2.13837},"MapView":{"TopLeft":{"Latitude":41.4309042,"Longitude":2.1368707},"BottomRight":{"Latitude":41.4286558,"Longitude":2.1398693}},"Address":{"Label":"Carrer de Natzaret, 129V, 08035 Barcelona (Barcelona), Espanya","Country":"ESP","State":"Catalunya","County":"Barcelona","City":"Barcelona","District":"Montbau","Street":"Carrer de Natzaret","HouseNumber":"129V","PostalCode":"08035","AdditionalData":[{"value":"Espanya","key":"CountryName"},{"value":"Catalunya","key":"StateName"},{"value":"Barcelona","key":"CountyName"}]},"MapReference":{"ReferenceId":"743944125","Spot":1.0,"SideOfStreet":"left","CountryId":"20215059","StateId":"20215741","CountyId":"20215742","CityId":"20215774","AddressId":"206735744","RoadLinkId":"142014557"}}}]}]}}