{"Response":{"MetaInfo":{"Timestamp":"2020-03-28T11:26:15.963+0000","NextPageInformation":"2"},"View":[{"_type":"SearchResultsViewType","ViewId":0,"Result":[{"Relevance":1.0,"Distance":-1.4,"MatchLevel":"landmark","MatchQuality":{"Country":1.0,"State":1.0,"County":1.0,"City":1.0,"Street":[1.0],"PostalCode":1.0,"Name":1.0},"Location":{"LocationId":"NT_S-i1kq5BOKcWDG.BIhwtxB_p_bMg-NdP2JQG-D9nsBAj5cB","LocationType":"hospital","Name":"Santa Maria Goretti","DisplayPosition":{"Latitude":41.46107,"Longitude":12.90781},"MapView":{"TopLeft":{"Latitude":41.46261,"Longitude":12.90742},"BottomRight":{"Latitude":41.46002,"Longitude":12.91132}},"Address":{"Label":"Via Antonio Canova, 04100 Latina LT, Italia","Country":"ITA","State":"Lazio","County":"LT","City":"Latina","Street":"Via Antonio Canova","PostalCode":"04100","AdditionalData":[{"value":"Italia","key":"CountryName"},{"value":"Lazio","key":"StateName"},{"value":"Latina","key":"CountyName"}]},"MapReference":{"CountryId":"20110484","StateId":"20126288","CountyId":"20127224","CityId":"20127269","PlaceId":"60031083"}}},{"Relevance":1.0,"Distance":0.0,"Direction":0.0,"MatchLevel":"city","MatchQuality":{"Country":1.0,"State":1.0,"County":1.0,"City":1.0,"PostalCode":1.0},"Location":{"LocationId":"NT_gKXcggMr4vffetsCIlJg0C","LocationType":"point","DisplayPosition":{"Latitude":41.4600454,"Longitude":12.9079238},"MapView":{"TopLeft":{"Latitude":41.56177,"Longitude":12.72009},"BottomRight":{"Latitude":41.38297,"Longitude":13.02464}},"Address":{"Label":"Latina, Lazio, Italia","Country":"ITA","State":"Lazio","County":"LT","City":"Latina","PostalCode":"04100","AdditionalData":[{"value":"Italia","key":"CountryName"},{"value":"Lazio","key":"StateName"},{"value":"Latina","key":"CountyName"}]},"MapReference":{"ReferenceId":"1204572726","SideOfStreet":"neither","CountryId":"20110484","StateId":"20126288","CountyId":"20127224","CityId":"20127269"}}},{"Relevance":1.0,"Distance":1.5,"MatchLevel":"landmark","MatchQuality":{"Country":1.0,"State":1.0,"County":1.0,"City":1.0,"Street":[1.0],"PostalCode":1.0,"Name":1.0},"Location":{"LocationId":"NT_A3.z44DCuio5vY.6QLGP6B_p_ESS69oGFq69U4YXto6E8jD","LocationType":"park","Name":"Parco San Marco","DisplayPosition":{"Latitude":41.46011,"Longitude":12.90872},"MapView":{"TopLeft":{"Latitude":41.46041,"Longitude":12.90781},"BottomRight":{"Latitude":41.45797,"Longitude":12.91128}},"Address":{"Label":"Via Achille Porfiri, 04100 Latina LT, Italia","Country":"ITA","State":"Lazio","County":"LT","City":"Latina","Street":"Via Achille Porfiri","PostalCode":"04100","AdditionalData":[{"value":"Italia","key":"CountryName"},{"value":"Lazio","key":"StateName"},{"value":"Latina","key":"CountyName"}]},"MapReference":{"CountryId":"20110484","StateId":"20126288","CountyId":"20127224","CityId":"20127269","PlaceId":"1148708122"}}},{"Relevance":1.0,"Distance":1.5,"MatchLevel":"street","MatchQuality":{"Country":1.0,"State":1.0,"County":1.0,"City":1.0,"Street":[1.0],"PostalCode":1.0},"Location":{"LocationId":"NT_ZnapZ3qaqWnnBG-FFndoYD_l_1119153337_L","LocationType":"point","DisplayPosition":{"Latitude":41.4600319,"Longitude":12.9079252},"MapView":{"TopLeft":{"Latitude":41.46011,"Longitude":12.90781},"BottomRight":{"Latitude":41.46002,"Longitude":12.90868}},"Address":{"Label":"Via Achille Porfiri, 04100 Latina LT, Italia","Country":"ITA","State":"Lazio","County":"LT","City":"Latina","Street":"Via Achille Porfiri","PostalCode":"04100","AdditionalData":[{"value":"Italia","key":"CountryName"},{"value":"Lazio","key":"StateName"},{"value":"Latina","key":"CountyName"}]},"MapReference":{"ReferenceId":"1119153337","Spot":0.13,"SideOfStreet":"neither","CountryId":"20110484","StateId":"20126288","CountyId":"20127224","CityId":"20127269"}}},{"Relevance":1.0,"Distance":16.7,"MatchLevel":"houseNumber","MatchQuality":{"Country":1.0,"State":1.0,"County":1.0,"City":1.0,"Street":[1.0],"HouseNumber":1.0,"PostalCode":1.0},"MatchType":"interpolated","Location":{"LocationId":"NT_yfLDbPvOKeHss32B8WVuGB_l_69927666_L_xQD","LocationType":"point","DisplayPosition":{"Latitude":41.46015,"Longitude":12.90778},"MapView":{"TopLeft":{"Latitude":41.4612742,"Longitude":12.90628},"BottomRight":{"Latitude":41.4590259,"Longitude":12.90928}},"Address":{"Label":"Via Antonio Canova, 14, 04100 Latina LT, Italia","Country":"ITA","State":"Lazio","County":"LT","City":"Latina","Street":"Via Antonio Canova","HouseNumber":"14","PostalCode":"04100","AdditionalData":[{"value":"Italia","key":"CountryName"},{"value":"Lazio","key":"StateName"},{"value":"Latina","key":"CountyName"}]},"MapReference":{"ReferenceId":"69927666","Spot":0.13,"SideOfStreet":"left","CountryId":"20110484","StateId":"20126288","CountyId":"20127224","CityId":"20127269"}}},{"Relevance":1.0,"Distance":34.5,"MatchLevel":"houseNumber","MatchQuality":{"Country":1.0,"State":1.0,"County":1.0,"City":1.0,"Street":[1.0],"HouseNumber":1.0,"PostalCode":1.0},"MatchType":"interpolated","Location":{"LocationId":"NT_kH1rgULqh-3K-xlbPETkjB_2A","LocationType":"point","DisplayPosition":{"Latitude":41.45974,"Longitude":12.90785},"MapView":{"TopLeft":{"Latitude":41.4608642,"Longitude":12.90635},"BottomRight":{"Latitude":41.4586158,"Longitude":12.90935}},"Address":{"Label":"Via Aprilia, 6, 04100 Latina LT, Italia","Country":"ITA","State":"Lazio","County":"LT","City":"Latina","Street":"Via Aprilia","HouseNumber":"6","PostalCode":"04100","AdditionalData":[{"value":"Italia","key":"CountryName"},{"value":"Lazio","key":"StateName"},{"value":"Latina","key":"CountyName"}]},"MapReference":{"ReferenceId":"69927708","Spot":0.58,"SideOfStreet":"left","CountryId":"20110484","StateId":"20126288","CountyId":"20127224","CityId":"20127269","AddressId":"336919718","RoadLinkId":"56099310"}}},{"Relevance":1.0,"Distance":51.2,"MatchLevel":"houseNumber","MatchQuality":{"Country":1.0,"State":1.0,"County":1.0,"City":1.0,"Street":[1.0],"HouseNumber":1.0,"PostalCode":1.0},"MatchType":"interpolated","Location":{"LocationId":"NT_LY2ipWa.K0dCQd5C7K93XD_3A","LocationType":"point","DisplayPosition":{"Latitude":41.45996,"Longitude":12.90732},"MapView":{"TopLeft":{"Latitude":41.4610842,"Longitude":12.90582},"BottomRight":{"Latitude":41.4588358,"Longitude":12.90882}},"Address":{"Label":"Via Giotto, 7, 04100 Latina LT, Italia","Country":"ITA","State":"Lazio","County":"LT","City":"Latina","Street":"Via Giotto","HouseNumber":"7","PostalCode":"04100","AdditionalData":[{"value":"Italia","key":"CountryName"},{"value":"Lazio","key":"StateName"},{"value":"Latina","key":"CountyName"}]},"MapReference":{"ReferenceId":"69929278","Spot":0.2,"SideOfStreet":"left","CountryId":"20110484","StateId":"20126288","CountyId":"20127224","CityId":"20127269","AddressId":"336703961","RoadLinkId":"57185063"}}},{"Relevance":1.0,"Distance":58.5,"MatchLevel":"street","MatchQuality":{"Country":1.0,"State":1.0,"County":1.0,"City":1.0,"PostalCode":1.0},"Location":{"LocationId":"NT_cFqJxKuK-ElwOneLaBnlFC_l_1119153316_L","LocationType":"point","DisplayPosition":{"Latitude":41.45955,"Longitude":12.90816},"MapView":{"TopLeft":{"Latitude":41.45956,"Longitude":12.90809},"BottomRight":{"Latitude":41.45836,"Longitude":12.90848}},"Address":{"Label":"04100 Latina LT, Italia","Country":"ITA","State":"Lazio","County":"LT","City":"Latina","PostalCode":"04100","AdditionalData":[{"value":"Italia","key":"CountryName"},{"value":"Lazio","key":"StateName"},{"value":"Latina","key":"CountyName"}]},"MapReference":{"ReferenceId":"1119153316","Spot":0.96,"SideOfStreet":"left","CountryId":"20110484","StateId":"20126288","CountyId":"20127224","CityId":"20127269"}}},{"Relevance":1.0,"Distance":59.4,"MatchLevel":"street","MatchQuality":{"Country":1.0,"State":1.0,"County":1.0,"City":1.0,"PostalCode":1.0},"Location":{"LocationId":"NT_cFqJxKuK-ElwOneLaBnlFC_l_1119153335_L","LocationType":"point","DisplayPosition":{"Latitude":41.45956,"Longitude":12.90822},"MapView":{"TopLeft":{"Latitude":41.45981,"Longitude":12.90822},"BottomRight":{"Latitude":41.45955,"Longitude":12.909}},"Address":{"Label":"04100 Latina LT, Italia","Country":"ITA","State":"Lazio","County":"LT","City":"Latina","PostalCode":"04100","AdditionalData":[{"value":"Italia","key":"CountryName"},{"value":"Lazio","key":"StateName"},{"value":"Latina","key":"CountyName"}]},"MapReference":{"ReferenceId":"1119153335","Spot":0.0,"SideOfStreet":"left","CountryId":"20110484","StateId":"20126288","CountyId":"20127224","CityId":"20127269"}}},{"Relevance":1.0,"Distance":61.2,"MatchLevel":"street","MatchQuality":{"Country":1.0,"State":1.0,"County":1.0,"City":1.0,"Street":[1.0],"PostalCode":1.0},"Location":{"LocationId":"NT_XeIyWIkPydrNPL7ihsR6iD_l_69929284_R","LocationType":"point","DisplayPosition":{"Latitude":41.45995,"Longitude":12.9072},"MapView":{"TopLeft":{"Latitude":41.46008,"Longitude":12.90718},"BottomRight":{"Latitude":41.45995,"Longitude":12.9072}},"Address":{"Label":"Piazza Arturo Toscanini, 04100 Latina LT, Italia","Country":"ITA","State":"Lazio","County":"LT","City":"Latina","Street":"Piazza Arturo Toscanini","PostalCode":"04100","AdditionalData":[{"value":"Italia","key":"CountryName"},{"value":"Lazio","key":"StateName"},{"value":"Latina","key":"CountyName"}]},"MapReference":{"ReferenceId":"69929284","Spot":0.0,"SideOfStreet":"right","CountryId":"20110484","StateId":"20126288","CountyId":"20127224","CityId":"20127269"}}}]}]}}