{"Response":{"MetaInfo":{"Timestamp":"2020-03-28T09:38:23.851+0000","NextPageInformation":"2"},"View":[{"_type":"SearchResultsViewType","ViewId":0,"Result":[{"Relevance":1.0,"Distance":0.0,"Direction":0.0,"MatchLevel":"city","MatchQuality":{"Country":1.0,"State":1.0,"County":1.0,"City":1.0,"PostalCode":1.0},"Location":{"LocationId":"NT_fNixdHHEBWbO1b5QZs10uC","LocationType":"point","DisplayPosition":{"Latitude":41.4374641,"Longitude":2.2197342},"MapView":{"TopLeft":{"Latitude":41.49243,"Longitude":2.2119},"BottomRight":{"Latitude":41.42637,"Longitude":2.26999}},"Address":{"Label":"Badalona, Catalunya, Espanya","Country":"ESP","State":"Catalunya","County":"Barcelona","City":"Badalona","PostalCode":"08911","AdditionalData":[{"value":"Espanya","key":"CountryName"},{"value":"Catalunya","key":"StateName"},{"value":"Barcelona","key":"CountyName"}]},"MapReference":{"ReferenceId":"1120258942","SideOfStreet":"neither","CountryId":"20215059","StateId":"20215741","CountyId":"20215742","CityId":"20222014"}}},{"Relevance":1.0,"Distance":2.2,"MatchLevel":"street","MatchQuality":{"Country":1.0,"State":1.0,"County":1.0,"City":1.0,"PostalCode":1.0},"Location":{"LocationId":"NT_QzbD68pa.cOL8r7jCClDqB_l_1034636597_L","LocationType":"point","DisplayPosition":{"Latitude":41.4374536,"Longitude":2.2197121},"MapView":{"TopLeft":{"Latitude":41.43771,"Longitude":2.21959},"BottomRight":{"Latitude":41.43729,"Longitude":2.21979}},"Address":{"Label":"08913 Badalona (Barcelona), Espanya","Country":"ESP","State":"Catalunya","County":"Barcelona","City":"Badalona","PostalCode":"08913","AdditionalData":[{"value":"Espanya","key":"CountryName"},{"value":"Catalunya","key":"StateName"},{"value":"Barcelona","key":"CountyName"}]},"MapReference":{"ReferenceId":"1034636597","Spot":0.39,"SideOfStreet":"neither","CountryId":"20215059","StateId":"20215741","CountyId":"20215742","CityId":"20222014"}}},{"Relevance":1.0,"Distance":17.3,"MatchLevel":"houseNumber","MatchQuality":{"Country":1.0,"State":1.0,"County":1.0,"City":1.0,"Street":[1.0],"HouseNumber":1.0,"PostalCode":1.0},"MatchType":"interpolated","Location":{"LocationId":"NT_ORO5nEVVB.hq-O.AaxrNpD_4ID","LocationType":"point","DisplayPosition":{"Latitude":41.43726,"Longitude":2.21967},"MapView":{"TopLeft":{"Latitude":41.4383842,"Longitude":2.2181705},"BottomRight":{"Latitude":41.4361358,"Longitude":2.2211695}},"Address":{"Label":"Carretera Antiga de València, 82, 08913 Badalona (Barcelona), Espanya","Country":"ESP","State":"Catalunya","County":"Barcelona","City":"Badalona","Street":"Carretera Antiga de València","HouseNumber":"82","PostalCode":"08913","AdditionalData":[{"value":"Espanya","key":"CountryName"},{"value":"Catalunya","key":"StateName"},{"value":"Barcelona","key":"CountyName"}]},"MapReference":{"ReferenceId":"1034636581","Spot":0.43,"SideOfStreet":"left","CountryId":"20215059","StateId":"20215741","CountyId":"20215742","CityId":"20222014","AddressId":"206300365","RoadLinkId":"356562461"}}},{"Relevance":1.0,"Distance":22.0,"MatchLevel":"houseNumber","MatchQuality":{"Country":1.0,"State":1.0,"County":1.0,"City":1.0,"Street":[1.0],"HouseNumber":1.0,"PostalCode":1.0},"MatchType":"interpolated","Location":{"LocationId":"NT_ORO5nEVVB.hq-O.AaxrNpD_xAzN","LocationType":"point","DisplayPosition":{"Latitude":41.43734,"Longitude":2.21994},"MapView":{"TopLeft":{"Latitude":41.4384642,"Longitude":2.2184405},"BottomRight":{"Latitude":41.4362158,"Longitude":2.2214395}},"Address":{"Label":"Carretera Antiga de València, 107, 08913 Badalona (Barcelona), Espanya","Country":"ESP","State":"Catalunya","County":"Barcelona","City":"Badalona","Street":"Carretera Antiga de València","HouseNumber":"107","PostalCode":"08913","AdditionalData":[{"value":"Espanya","key":"CountryName"},{"value":"Catalunya","key":"StateName"},{"value":"Barcelona","key":"CountyName"}]},"MapReference":{"ReferenceId":"1034636582","Spot":0.5,"SideOfStreet":"right","CountryId":"20215059","StateId":"20215741","CountyId":"20215742","CityId":"20222014","AddressId":"206300366","RoadLinkId":"356562462"}}},{"Relevance":1.0,"Distance":29.0,"MatchLevel":"street","MatchQuality":{"Country":1.0,"State":1.0,"County":1.0,"City":1.0,"Street":[1.0],"PostalCode":1.0},"Location":{"LocationId":"NT_IFnTwlL-4sF8lmEoJtyn-B_l_1034636584_R","LocationType":"point","DisplayPosition":{"Latitude":41.43723,"Longitude":2.21958},"MapView":{"TopLeft":{"Latitude":41.43744,"Longitude":2.21931},"BottomRight":{"Latitude":41.43723,"Longitude":2.21958}},"Address":{"Label":"Carretera Mena, 08913 Badalona (Barcelona), Espanya","Country":"ESP","State":"Catalunya","County":"Barcelona","City":"Badalona","Street":"Carretera Mena","PostalCode":"08913","AdditionalData":[{"value":"Espanya","key":"CountryName"},{"value":"Catalunya","key":"StateName"},{"value":"Barcelona","key":"CountyName"}]},"MapReference":{"ReferenceId":"1034636584","Spot":0.0,"SideOfStreet":"right","CountryId":"20215059","StateId":"20215741","CountyId":"20215742","CityId":"20222014"}}},{"Relevance":1.0,"Distance":29.9,"MatchLevel":"street","MatchQuality":{"Country":1.0,"State":1.0,"County":1.0,"City":1.0,"PostalCode":1.0},"Location":{"LocationId":"NT_QzbD68pa.cOL8r7jCClDqB_l_1034636598_R","LocationType":"point","DisplayPosition":{"Latitude":41.43771,"Longitude":2.21959},"MapView":{"TopLeft":{"Latitude":41.43771,"Longitude":2.21922},"BottomRight":{"Latitude":41.43751,"Longitude":2.21959}},"Address":{"Label":"08913 Badalona (Barcelona), Espanya","Country":"ESP","State":"Catalunya","County":"Barcelona","City":"Badalona","PostalCode":"08913","AdditionalData":[{"value":"Espanya","key":"CountryName"},{"value":"Catalunya","key":"StateName"},{"value":"Barcelona","key":"CountyName"}]},"MapReference":{"ReferenceId":"1034636598","Spot":1.0,"SideOfStreet":"right","CountryId":"20215059","StateId":"20215741","CountyId":"20215742","CityId":"20222014"}}},{"Relevance":1.0,"Distance":30.1,"MatchLevel":"street","MatchQuality":{"Country":1.0,"State":1.0,"County":1.0,"City":1.0,"PostalCode":1.0},"Location":{"LocationId":"NT_QzbD68pa.cOL8r7jCClDqB_l_1034636599_R","LocationType":"point","DisplayPosition":{"Latitude":41.4377158,"Longitude":2.2196009},"MapView":{"TopLeft":{"Latitude":41.4378,"Longitude":2.21959},"BottomRight":{"Latitude":41.43771,"Longitude":2.21976}},"Address":{"Label":"08913 Badalona (Barcelona), Espanya","Country":"ESP","State":"Catalunya","County":"Barcelona","City":"Badalona","PostalCode":"08913","AdditionalData":[{"value":"Espanya","key":"CountryName"},{"value":"Catalunya","key":"StateName"},{"value":"Barcelona","key":"CountyName"}]},"MapReference":{"ReferenceId":"1034636599","Spot":0.06,"SideOfStreet":"right","CountryId":"20215059","StateId":"20215741","CountyId":"20215742","CityId":"20222014"}}},{"Relevance":1.0,"Distance":32.0,"MatchLevel":"houseNumber","MatchQuality":{"Country":1.0,"State":1.0,"County":1.0,"City":1.0,"Street":[1.0],"HouseNumber":1.0,"PostalCode":1.0},"MatchType":"interpolated","Location":{"LocationId":"NT_hIYnWAvD-A.5iS4SQIz4MD_zID","LocationType":"point","DisplayPosition":{"Latitude":41.43722,"Longitude":2.21953},"MapView":{"TopLeft":{"Latitude":41.4383442,"Longitude":2.2180305},"BottomRight":{"Latitude":41.4360958,"Longitude":2.2210295}},"Address":{"Label":"Plaça de Trafalgar, 32, 08913 Badalona (Barcelona), Espanya","Country":"ESP","State":"Catalunya","County":"Barcelona","City":"Badalona","Street":"Plaça de Trafalgar","HouseNumber":"32","PostalCode":"08913","AdditionalData":[{"value":"Espanya","key":"CountryName"},{"value":"Catalunya","key":"StateName"},{"value":"Barcelona","key":"CountyName"}]},"MapReference":{"ReferenceId":"1034636585","Spot":0.93,"SideOfStreet":"right","CountryId":"20215059","StateId":"20215741","CountyId":"20215742","CityId":"20222014","AddressId":"206247076","RoadLinkId":"356562465"}}},{"Relevance":1.0,"Distance":35.5,"MatchLevel":"street","MatchQuality":{"Country":1.0,"State":1.0,"County":1.0,"City":1.0,"PostalCode":1.0},"Location":{"LocationId":"NT_QzbD68pa.cOL8r7jCClDqB_l_1034636603_R","LocationType":"point","DisplayPosition":{"Latitude":41.43744,"Longitude":2.21931},"MapView":{"TopLeft":{"Latitude":41.43751,"Longitude":2.21922},"BottomRight":{"Latitude":41.43744,"Longitude":2.21931}},"Address":{"Label":"08913 Badalona (Barcelona), Espanya","Country":"ESP","State":"Catalunya","County":"Barcelona","City":"Badalona","PostalCode":"08913","AdditionalData":[{"value":"Espanya","key":"CountryName"},{"value":"Catalunya","key":"StateName"},{"value":"Barcelona","key":"CountyName"}]},"MapReference":{"ReferenceId":"1034636603","Spot":0.0,"SideOfStreet":"right","CountryId":"20215059","StateId":"20215741","CountyId":"20215742","CityId":"20222014"}}},{"Relevance":1.0,"Distance":35.5,"MatchLevel":"street","MatchQuality":{"Country":1.0,"State":1.0,"County":1.0,"City":1.0,"PostalCode":1.0},"Location":{"LocationId":"NT_QzbD68pa.cOL8r7jCClDqB_l_1034636587_R","LocationType":"point","DisplayPosition":{"Latitude":41.43744,"Longitude":2.21931},"MapView":{"TopLeft":{"Latitude":41.43744,"Longitude":2.21884},"BottomRight":{"Latitude":41.43718,"Longitude":2.21931}},"Address":{"Label":"08913 Badalona (Barcelona), Espanya","Country":"ESP","State":"Catalunya","County":"Barcelona","City":"Badalona","PostalCode":"08913","AdditionalData":[{"value":"Espanya","key":"CountryName"},{"value":"Catalunya","key":"StateName"},{"value":"Barcelona","key":"CountyName"}]},"MapReference":{"ReferenceId":"1034636587","Spot":1.0,"SideOfStreet":"right","CountryId":"20215059","StateId":"20215741","CountyId":"20215742","CityId":"20222014"}}}]}]}}