{"Response":{"MetaInfo":{"Timestamp":"2020-03-28T09:39:17.091+0000","NextPageInformation":"2"},"View":[{"_type":"SearchResultsViewType","ViewId":0,"Result":[{"Relevance":1.0,"Distance":0.0,"Direction":0.0,"MatchLevel":"city","MatchQuality":{"Country":1.0,"State":1.0,"County":1.0,"City":1.0,"PostalCode":1.0},"Location":{"LocationId":"NT_fNixdHHEBWbO1b5QZs10uC","LocationType":"point","DisplayPosition":{"Latitude":41.4410315,"Longitude":2.2409395},"MapView":{"TopLeft":{"Latitude":41.49243,"Longitude":2.2119},"BottomRight":{"Latitude":41.42637,"Longitude":2.26999}},"Address":{"Label":"Badalona, Catalunya, Espanya","Country":"ESP","State":"Catalunya","County":"Barcelona","City":"Badalona","PostalCode":"08911","AdditionalData":[{"value":"Espanya","key":"CountryName"},{"value":"Catalunya","key":"StateName"},{"value":"Barcelona","key":"CountyName"}]},"MapReference":{"ReferenceId":"1120258942","SideOfStreet":"neither","CountryId":"20215059","StateId":"20215741","CountyId":"20215742","CityId":"20222014"}}},{"Relevance":1.0,"Distance":0.9,"MatchLevel":"houseNumber","MatchQuality":{"Country":1.0,"State":1.0,"County":1.0,"City":1.0,"Street":[1.0],"HouseNumber":1.0,"PostalCode":1.0},"MatchType":"interpolated","Location":{"LocationId":"NT_Rzhi7xeOlAJD2y5lUOECFD_0kD","LocationType":"point","DisplayPosition":{"Latitude":41.44104,"Longitude":2.24094},"MapView":{"TopLeft":{"Latitude":41.4421642,"Longitude":2.2394404},"BottomRight":{"Latitude":41.4399158,"Longitude":2.2424396}},"Address":{"Label":"Carrer de Garriga, 49, 08912 Badalona (Barcelona), Espanya","Country":"ESP","State":"Catalunya","County":"Barcelona","City":"Badalona","Street":"Carrer de Garriga","HouseNumber":"49","PostalCode":"08912","AdditionalData":[{"value":"Espanya","key":"CountryName"},{"value":"Catalunya","key":"StateName"},{"value":"Barcelona","key":"CountyName"}]},"MapReference":{"ReferenceId":"1027902289","Spot":0.3,"SideOfStreet":"left","CountryId":"20215059","StateId":"20215741","CountyId":"20215742","CityId":"20222014","AddressId":"206672777","RoadLinkId":"350543384"}}},{"Relevance":1.0,"Distance":18.9,"MatchLevel":"street","MatchQuality":{"Country":1.0,"State":1.0,"County":1.0,"City":1.0,"Street":[1.0],"PostalCode":1.0},"Location":{"LocationId":"NT_6fa0iLfGC4Ms5osRrUY1YA_l_1205140959_L","LocationType":"point","DisplayPosition":{"Latitude":41.4408942,"Longitude":2.2410732},"MapView":{"TopLeft":{"Latitude":41.44093,"Longitude":2.24073},"BottomRight":{"Latitude":41.44056,"Longitude":2.24111}},"Address":{"Label":"Plaça Ovidi Montllor, 08912 Badalona (Barcelona), Espanya","Country":"ESP","State":"Catalunya","County":"Barcelona","City":"Badalona","Street":"Plaça Ovidi Montllor","PostalCode":"08912","AdditionalData":[{"value":"Espanya","key":"CountryName"},{"value":"Catalunya","key":"StateName"},{"value":"Barcelona","key":"CountyName"}]},"MapReference":{"ReferenceId":"1205140959","Spot":0.9,"SideOfStreet":"left","CountryId":"20215059","StateId":"20215741","CountyId":"20215742","CityId":"20222014"}}},{"Relevance":1.0,"Distance":34.0,"MatchLevel":"houseNumber","MatchQuality":{"Country":1.0,"State":1.0,"County":1.0,"City":1.0,"Street":[1.0],"HouseNumber":1.0,"PostalCode":1.0},"MatchType":"interpolated","Location":{"LocationId":"NT_6fa0iLfGC4Ms5osRrUY1YA_l_1027902295_R_zID","LocationType":"point","DisplayPosition":{"Latitude":41.4408325,"Longitude":2.2412508},"MapView":{"TopLeft":{"Latitude":41.4419567,"Longitude":2.2397512},"BottomRight":{"Latitude":41.4397084,"Longitude":2.2427504}},"Address":{"Label":"Carrer de Garriga, 32, 08912 Badalona (Barcelona), Espanya","Country":"ESP","State":"Catalunya","County":"Barcelona","City":"Badalona","Street":"Carrer de Garriga","HouseNumber":"32","PostalCode":"08912","AdditionalData":[{"value":"Espanya","key":"CountryName"},{"value":"Catalunya","key":"StateName"},{"value":"Barcelona","key":"CountyName"}]},"MapReference":{"ReferenceId":"1027902295","Spot":0.64,"SideOfStreet":"right","CountryId":"20215059","StateId":"20215741","CountyId":"20215742","CityId":"20222014"}}},{"Relevance":1.0,"Distance":36.0,"MatchLevel":"houseNumber","MatchQuality":{"Country":1.0,"State":1.0,"County":1.0,"City":1.0,"Street":[1.0],"HouseNumber":1.0,"PostalCode":1.0},"MatchType":"interpolated","Location":{"LocationId":"NT_Y3iIjl4MH-RYTWHVhCItOC_xMTO","LocationType":"point","DisplayPosition":{"Latitude":41.44142,"Longitude":2.24068},"MapView":{"TopLeft":{"Latitude":41.4425442,"Longitude":2.2391804},"BottomRight":{"Latitude":41.4402958,"Longitude":2.2421796}},"Address":{"Label":"Carrer Progrés, 139, 08912 Badalona (Barcelona), Espanya","Country":"ESP","State":"Catalunya","County":"Barcelona","City":"Badalona","Street":"Carrer Progrés","HouseNumber":"139","PostalCode":"08912","AdditionalData":[{"value":"Espanya","key":"CountryName"},{"value":"Catalunya","key":"StateName"},{"value":"Barcelona","key":"CountyName"}]},"MapReference":{"ReferenceId":"542575084","Spot":0.29,"SideOfStreet":"right","CountryId":"20215059","StateId":"20215741","CountyId":"20215742","CityId":"20222014","AddressId":"416948981","RoadLinkId":"65823573"}}},{"Relevance":1.0,"Distance":39.3,"MatchLevel":"houseNumber","MatchQuality":{"Country":1.0,"State":1.0,"County":1.0,"City":1.0,"Street":[1.0],"HouseNumber":1.0,"PostalCode":1.0},"MatchType":"interpolated","Location":{"LocationId":"NT_Y3iIjl4MH-RYTWHVhCItOC_xQTM","LocationType":"point","DisplayPosition":{"Latitude":41.44129,"Longitude":2.24052},"MapView":{"TopLeft":{"Latitude":41.4424142,"Longitude":2.2390204},"BottomRight":{"Latitude":41.4401658,"Longitude":2.2420196}},"Address":{"Label":"Carrer Progrés, 141, 08912 Badalona (Barcelona), Espanya","Country":"ESP","State":"Catalunya","County":"Barcelona","City":"Badalona","Street":"Carrer Progrés","HouseNumber":"141","PostalCode":"08912","AdditionalData":[{"value":"Espanya","key":"CountryName"},{"value":"Catalunya","key":"StateName"},{"value":"Barcelona","key":"CountyName"}]},"MapReference":{"ReferenceId":"542575107","Spot":0.94,"SideOfStreet":"right","CountryId":"20215059","StateId":"20215741","CountyId":"20215742","CityId":"20222014","AddressId":"416956964","RoadLinkId":"66158024"}}},{"Relevance":1.0,"Distance":47.1,"MatchLevel":"houseNumber","MatchQuality":{"Country":1.0,"State":1.0,"County":1.0,"City":1.0,"Street":[1.0],"HouseNumber":1.0,"PostalCode":1.0},"MatchType":"interpolated","Location":{"LocationId":"NT_lm1Bd.mJagi04ep5567PsD_5gD","LocationType":"point","DisplayPosition":{"Latitude":41.44137,"Longitude":2.24139},"MapView":{"TopLeft":{"Latitude":41.4424942,"Longitude":2.2398904},"BottomRight":{"Latitude":41.4402458,"Longitude":2.2428896}},"Address":{"Label":"Carrer de Maria Auxiliadora, 98, 08912 Badalona (Barcelona), Espanya","Country":"ESP","State":"Catalunya","County":"Barcelona","City":"Badalona","Street":"Carrer de Maria Auxiliadora","HouseNumber":"98","PostalCode":"08912","AdditionalData":[{"value":"Espanya","key":"CountryName"},{"value":"Catalunya","key":"StateName"},{"value":"Barcelona","key":"CountyName"}]},"MapReference":{"ReferenceId":"542576146","Spot":0.67,"SideOfStreet":"left","CountryId":"20215059","StateId":"20215741","CountyId":"20215742","CityId":"20222014","AddressId":"206326914","RoadLinkId":"65412557"}}},{"Relevance":1.0,"Distance":48.2,"MatchLevel":"houseNumber","MatchQuality":{"Country":1.0,"State":1.0,"County":1.0,"City":1.0,"Street":[1.0],"HouseNumber":1.0,"PostalCode":1.0},"MatchType":"interpolated","Location":{"LocationId":"NT_wte3Dvo9w7bA8QJ7sMCQ2C_0QD","LocationType":"point","DisplayPosition":{"Latitude":41.4406,"Longitude":2.24065},"MapView":{"TopLeft":{"Latitude":41.4417242,"Longitude":2.2391504},"BottomRight":{"Latitude":41.4394758,"Longitude":2.2421496}},"Address":{"Label":"Carrer del General Weyler, 44, 08912 Badalona (Barcelona), Espanya","Country":"ESP","State":"Catalunya","County":"Barcelona","City":"Badalona","Street":"Carrer del General Weyler","HouseNumber":"44","PostalCode":"08912","AdditionalData":[{"value":"Espanya","key":"CountryName"},{"value":"Catalunya","key":"StateName"},{"value":"Barcelona","key":"CountyName"}]},"MapReference":{"ReferenceId":"1027902290","Spot":0.13,"SideOfStreet":"right","CountryId":"20215059","StateId":"20215741","CountyId":"20215742","CityId":"20222014","AddressId":"206376527","RoadLinkId":"350543385"}}},{"Relevance":1.0,"Distance":49.3,"MatchLevel":"houseNumber","MatchQuality":{"Country":1.0,"State":1.0,"County":1.0,"City":1.0,"Street":[1.0],"HouseNumber":1.0,"PostalCode":1.0},"MatchType":"interpolated","Location":{"LocationId":"NT_6fa0iLfGC4Ms5osRrUY1YA_l_1027902293_R_0QD","LocationType":"point","DisplayPosition":{"Latitude":41.4404643,"Longitude":2.24088},"MapView":{"TopLeft":{"Latitude":41.4415884,"Longitude":2.2393804},"BottomRight":{"Latitude":41.4393401,"Longitude":2.2423796}},"Address":{"Label":"Carrer del General Weyler, 44, 08912 Badalona (Barcelona), Espanya","Country":"ESP","State":"Catalunya","County":"Barcelona","City":"Badalona","Street":"Carrer del General Weyler","HouseNumber":"44","PostalCode":"08912","AdditionalData":[{"value":"Espanya","key":"CountryName"},{"value":"Catalunya","key":"StateName"},{"value":"Barcelona","key":"CountyName"}]},"MapReference":{"ReferenceId":"1027902293","Spot":0.64,"SideOfStreet":"right","CountryId":"20215059","StateId":"20215741","CountyId":"20215742","CityId":"20222014"}}},{"Relevance":1.0,"Distance":53.5,"MatchLevel":"houseNumber","MatchQuality":{"Country":1.0,"State":1.0,"County":1.0,"City":1.0,"Street":[1.0],"HouseNumber":1.0,"PostalCode":1.0},"MatchType":"interpolated","Location":{"LocationId":"NT_Rzhi7xeOlAJD2y5lUOECFD_1kD","LocationType":"point","DisplayPosition":{"Latitude":41.44136,"Longitude":2.24047},"MapView":{"TopLeft":{"Latitude":41.4424842,"Longitude":2.2389704},"BottomRight":{"Latitude":41.4402358,"Longitude":2.2419696}},"Address":{"Label":"Carrer de Garriga, 59, 08912 Badalona (Barcelona), Espanya","Country":"ESP","State":"Catalunya","County":"Barcelona","City":"Badalona","Street":"Carrer de Garriga","HouseNumber":"59","PostalCode":"08912","AdditionalData":[{"value":"Espanya","key":"CountryName"},{"value":"Catalunya","key":"StateName"},{"value":"Barcelona","key":"CountyName"}]},"MapReference":{"ReferenceId":"542575085","Spot":0.08,"SideOfStreet":"left","CountryId":"20215059","StateId":"20215741","CountyId":"20215742","CityId":"20222014","AddressId":"206432466","RoadLinkId":"65786424"}}}]}]}}