{"Response":{"MetaInfo":{"Timestamp":"2020-03-28T12:03:39.335+0000","NextPageInformation":"2"},"View":[{"_type":"SearchResultsViewType","ViewId":0,"Result":[{"Relevance":1.0,"Distance":0.0,"Direction":0.0,"MatchLevel":"city","MatchQuality":{"Country":1.0,"State":1.0,"County":1.0,"City":1.0,"PostalCode":1.0},"Location":{"LocationId":"NT_OCYw86rXZFzvUf73P-sg7B","LocationType":"point","DisplayPosition":{"Latitude":41.4060998,"Longitude":13.0409051},"MapView":{"TopLeft":{"Latitude":41.4599,"Longitude":12.9986},"BottomRight":{"Latitude":41.32841,"Longitude":13.1934}},"Address":{"Label":"Pontinia, Lazio, Italia","Country":"ITA","State":"Lazio","County":"LT","City":"Pontinia","PostalCode":"04014","AdditionalData":[{"value":"Italia","key":"CountryName"},{"value":"Lazio","key":"StateName"},{"value":"Latina","key":"CountyName"}]},"MapReference":{"ReferenceId":"865183444","SideOfStreet":"neither","CountryId":"20110484","StateId":"20126288","CountyId":"20127224","CityId":"20127302"}}},{"Relevance":1.0,"Distance":17.3,"MatchLevel":"houseNumber","MatchQuality":{"Country":1.0,"State":1.0,"County":1.0,"City":1.0,"Street":[1.0],"HouseNumber":1.0,"PostalCode":1.0},"MatchType":"interpolated","Location":{"LocationId":"NT_doKcaSKfwSG0PaF8bXfeuA_zA","LocationType":"point","DisplayPosition":{"Latitude":41.40633,"Longitude":13.04128},"MapView":{"TopLeft":{"Latitude":41.4074542,"Longitude":13.0397812},"BottomRight":{"Latitude":41.4052058,"Longitude":13.0427788}},"Address":{"Label":"Piazza Roma, 3, 04014 Pontinia LT, Italia","Country":"ITA","State":"Lazio","County":"LT","City":"Pontinia","Street":"Piazza Roma","HouseNumber":"3","PostalCode":"04014","AdditionalData":[{"value":"Italia","key":"CountryName"},{"value":"Lazio","key":"StateName"},{"value":"Latina","key":"CountyName"}]},"MapReference":{"ReferenceId":"75162045","Spot":0.0,"SideOfStreet":"left","CountryId":"20110484","StateId":"20126288","CountyId":"20127224","CityId":"20127302","AddressId":"336701205","RoadLinkId":"56917635"}}},{"Relevance":1.0,"Distance":40.2,"MatchLevel":"houseNumber","MatchQuality":{"Country":1.0,"State":1.0,"County":1.0,"City":1.0,"Street":[1.0],"HouseNumber":1.0,"PostalCode":1.0},"MatchType":"interpolated","Location":{"LocationId":"NT_xcZQ3BEQErneYSseMzXiGD_yED","LocationType":"point","DisplayPosition":{"Latitude":41.40616,"Longitude":13.04138},"MapView":{"TopLeft":{"Latitude":41.4072842,"Longitude":13.0398812},"BottomRight":{"Latitude":41.4050358,"Longitude":13.0428788}},"Address":{"Label":"Viale della Libertà, 21, 04014 Pontinia LT, Italia","Country":"ITA","State":"Lazio","County":"LT","City":"Pontinia","Street":"Viale della Libertà","HouseNumber":"21","PostalCode":"04014","AdditionalData":[{"value":"Italia","key":"CountryName"},{"value":"Lazio","key":"StateName"},{"value":"Latina","key":"CountyName"}]},"MapReference":{"ReferenceId":"75162243","Spot":0.88,"SideOfStreet":"right","CountryId":"20110484","StateId":"20126288","CountyId":"20127224","CityId":"20127302","AddressId":"336663425","RoadLinkId":"56701133"}}},{"Relevance":1.0,"Distance":47.3,"MatchLevel":"landmark","MatchQuality":{"Country":1.0,"State":1.0,"County":1.0,"Name":1.0},"Location":{"LocationId":"NT_dyyL.udaSF83zX7qNX2ioD","LocationType":"river","Name":"Sisto","DisplayPosition":{"Latitude":41.42311,"Longitude":13.00433},"MapView":{"TopLeft":{"Latitude":41.54116,"Longitude":12.94733},"BottomRight":{"Latitude":41.34146,"Longitude":13.10857}},"Address":{"Label":"LT, Italia","Country":"ITA","State":"Lazio","County":"LT","AdditionalData":[{"value":"Italia","key":"CountryName"},{"value":"Lazio","key":"StateName"},{"value":"Latina","key":"CountyName"}]},"MapReference":{"CountryId":"20110484","StateId":"20126288","CountyId":"20127224","PlaceId":"1521145266"}}},{"Relevance":1.0,"Distance":70.3,"MatchLevel":"houseNumber","MatchQuality":{"Country":1.0,"State":1.0,"County":1.0,"City":1.0,"Street":[1.0],"HouseNumber":1.0,"PostalCode":1.0},"MatchType":"interpolated","Location":{"LocationId":"NT_rvlu4M6.frNFJygM-DqAHC_0MD","LocationType":"point","DisplayPosition":{"Latitude":41.40638,"Longitude":13.04168},"MapView":{"TopLeft":{"Latitude":41.4075042,"Longitude":13.0401812},"BottomRight":{"Latitude":41.4052558,"Longitude":13.0431788}},"Address":{"Label":"Via Dante Alighieri, 43, 04014 Pontinia LT, Italia","Country":"ITA","State":"Lazio","County":"LT","City":"Pontinia","Street":"Via Dante Alighieri","HouseNumber":"43","PostalCode":"04014","AdditionalData":[{"value":"Italia","key":"CountryName"},{"value":"Lazio","key":"StateName"},{"value":"Latina","key":"CountyName"}]},"MapReference":{"ReferenceId":"75162035","Spot":0.49,"SideOfStreet":"right","CountryId":"20110484","StateId":"20126288","CountyId":"20127224","CityId":"20127302","AddressId":"336829709","RoadLinkId":"57104678"}}},{"Relevance":1.0,"Distance":74.3,"MatchLevel":"street","MatchQuality":{"Country":1.0,"State":1.0,"County":1.0,"City":1.0,"Street":[1.0],"PostalCode":1.0},"Location":{"LocationId":"NT_xcZQ3BEQErneYSseMzXiGD_l_75162155_L","LocationType":"point","DisplayPosition":{"Latitude":41.40676,"Longitude":13.04104},"MapView":{"TopLeft":{"Latitude":41.40712,"Longitude":13.04078},"BottomRight":{"Latitude":41.40676,"Longitude":13.04104}},"Address":{"Label":"Viale della Libertà, 04014 Pontinia LT, Italia","Country":"ITA","State":"Lazio","County":"LT","City":"Pontinia","Street":"Viale della Libertà","PostalCode":"04014","AdditionalData":[{"value":"Italia","key":"CountryName"},{"value":"Lazio","key":"StateName"},{"value":"Latina","key":"CountyName"}]},"MapReference":{"ReferenceId":"75162155","Spot":0.0,"SideOfStreet":"left","CountryId":"20110484","StateId":"20126288","CountyId":"20127224","CityId":"20127302"}}},{"Relevance":1.0,"Distance":90.3,"MatchLevel":"houseNumber","MatchQuality":{"Country":1.0,"State":1.0,"County":1.0,"City":1.0,"Street":[1.0],"HouseNumber":1.0,"PostalCode":1.0},"MatchType":"interpolated","Location":{"LocationId":"NT_i77XhXfWB-N0IE77mtL5oA_xkD","LocationType":"point","DisplayPosition":{"Latitude":41.4069,"Longitude":13.04119},"MapView":{"TopLeft":{"Latitude":41.4080242,"Longitude":13.0396912},"BottomRight":{"Latitude":41.4057758,"Longitude":13.0426888}},"Address":{"Label":"Via Leone X, 19, 04014 Pontinia LT, Italia","Country":"ITA","State":"Lazio","County":"LT","City":"Pontinia","Street":"Via Leone X","HouseNumber":"19","PostalCode":"04014","AdditionalData":[{"value":"Italia","key":"CountryName"},{"value":"Lazio","key":"StateName"},{"value":"Latina","key":"CountyName"}]},"MapReference":{"ReferenceId":"75162142","Spot":0.13,"SideOfStreet":"right","CountryId":"20110484","StateId":"20126288","CountyId":"20127224","CityId":"20127302","AddressId":"336664858","RoadLinkId":"55987142"}}},{"Relevance":1.0,"Distance":99.2,"MatchLevel":"houseNumber","MatchQuality":{"Country":1.0,"State":1.0,"County":1.0,"City":1.0,"Street":[1.0],"HouseNumber":1.0,"PostalCode":1.0},"MatchType":"interpolated","Location":{"LocationId":"NT_RUSprIF0ZuCvcW6PM7a6kA_yA","LocationType":"point","DisplayPosition":{"Latitude":41.4062,"Longitude":13.04217},"MapView":{"TopLeft":{"Latitude":41.4073242,"Longitude":13.0406712},"BottomRight":{"Latitude":41.4050758,"Longitude":13.0436688}},"Address":{"Label":"Via Fiume, 2, 04014 Pontinia LT, Italia","Country":"ITA","State":"Lazio","County":"LT","City":"Pontinia","Street":"Via Fiume","HouseNumber":"2","PostalCode":"04014","AdditionalData":[{"value":"Italia","key":"CountryName"},{"value":"Lazio","key":"StateName"},{"value":"Latina","key":"CountyName"}]},"MapReference":{"ReferenceId":"75162231","Spot":0.79,"SideOfStreet":"left","CountryId":"20110484","StateId":"20126288","CountyId":"20127224","CityId":"20127302","AddressId":"336972364","RoadLinkId":"57145276"}}},{"Relevance":1.0,"Distance":109.5,"MatchLevel":"houseNumber","MatchQuality":{"Country":1.0,"State":1.0,"County":1.0,"City":1.0,"Street":[1.0],"HouseNumber":1.0,"PostalCode":1.0},"MatchType":"interpolated","Location":{"LocationId":"NT_rvlu4M6.frNFJygM-DqAHC_zUD","LocationType":"point","DisplayPosition":{"Latitude":41.40644,"Longitude":13.04215},"MapView":{"TopLeft":{"Latitude":41.4075642,"Longitude":13.0406512},"BottomRight":{"Latitude":41.4053158,"Longitude":13.0436488}},"Address":{"Label":"Via Dante Alighieri, 35, 04014 Pontinia LT, Italia","Country":"ITA","State":"Lazio","County":"LT","City":"Pontinia","Street":"Via Dante Alighieri","HouseNumber":"35","PostalCode":"04014","AdditionalData":[{"value":"Italia","key":"CountryName"},{"value":"Lazio","key":"StateName"},{"value":"Latina","key":"CountyName"}]},"MapReference":{"ReferenceId":"75162244","Spot":0.07,"SideOfStreet":"right","CountryId":"20110484","StateId":"20126288","CountyId":"20127224","CityId":"20127302","AddressId":"336996339","RoadLinkId":"57064085"}}},{"Relevance":1.0,"Distance":127.9,"MatchLevel":"houseNumber","MatchQuality":{"Country":1.0,"State":1.0,"County":1.0,"City":1.0,"Street":[1.0],"HouseNumber":1.0,"PostalCode":1.0},"MatchType":"interpolated","Location":{"LocationId":"NT_xcZQ3BEQErneYSseMzXiGD_1gD","LocationType":"point","DisplayPosition":{"Latitude":41.40726,"Longitude":13.04067},"MapView":{"TopLeft":{"Latitude":41.4083842,"Longitude":13.0391712},"BottomRight":{"Latitude":41.4061358,"Longitude":13.0421688}},"Address":{"Label":"Viale della Libertà, 58, 04014 Pontinia LT, Italia","Country":"ITA","State":"Lazio","County":"LT","City":"Pontinia","Street":"Viale della Libertà","HouseNumber":"58","PostalCode":"04014","AdditionalData":[{"value":"Italia","key":"CountryName"},{"value":"Lazio","key":"StateName"},{"value":"Latina","key":"CountyName"}]},"MapReference":{"ReferenceId":"75162232","Spot":0.12,"SideOfStreet":"left","CountryId":"20110484","StateId":"20126288","CountyId":"20127224","CityId":"20127302","AddressId":"336663410","RoadLinkId":"56671298"}}}]}]}}