{"Response":{"MetaInfo":{"Timestamp":"2020-03-28T09:38:01.803+0000","NextPageInformation":"2"},"View":[{"_type":"SearchResultsViewType","ViewId":0,"Result":[{"Relevance":1.0,"Distance":0.0,"Direction":0.0,"MatchLevel":"city","MatchQuality":{"Country":1.0,"State":1.0,"County":1.0,"City":1.0,"PostalCode":1.0},"Location":{"LocationId":"NT_qKxZ-XC27CsMjziXeeaoxA","LocationType":"point","DisplayPosition":{"Latitude":41.4288337,"Longitude":1.7887085},"MapView":{"TopLeft":{"Latitude":41.46829,"Longitude":1.75079},"BottomRight":{"Latitude":41.41009,"Longitude":1.81551}},"Address":{"Label":"Sant Sadurní d'Anoia, Catalunya, Espanya","Country":"ESP","State":"Catalunya","County":"Barcelona","City":"Sant Sadurní d'Anoia","PostalCode":"08770","AdditionalData":[{"value":"Espanya","key":"CountryName"},{"value":"Catalunya","key":"StateName"},{"value":"Barcelona","key":"CountyName"}]},"MapReference":{"ReferenceId":"537460592","SideOfStreet":"neither","CountryId":"20215059","StateId":"20215741","CountyId":"20215742","CityId":"20223171"}}},{"Relevance":1.0,"Distance":10.5,"MatchLevel":"houseNumber","MatchQuality":{"Country":1.0,"State":1.0,"County":1.0,"City":1.0,"Street":[1.0],"HouseNumber":1.0,"PostalCode":1.0},"MatchType":"interpolated","Location":{"LocationId":"NT_GBYKOVZdLR9qReLWpkmJ5A_0cD","LocationType":"point","DisplayPosition":{"Latitude":41.42876,"Longitude":1.78888},"MapView":{"TopLeft":{"Latitude":41.4298842,"Longitude":1.7873807},"BottomRight":{"Latitude":41.4276358,"Longitude":1.7903793}},"Address":{"Label":"Carrer Doctor Barraquer, 47, 08770 Sant Sadurní d'Anoia (Barcelona), Espanya","Country":"ESP","State":"Catalunya","County":"Barcelona","City":"Sant Sadurní d'Anoia","Street":"Carrer Doctor Barraquer","HouseNumber":"47","PostalCode":"08770","AdditionalData":[{"value":"Espanya","key":"CountryName"},{"value":"Catalunya","key":"StateName"},{"value":"Barcelona","key":"CountyName"}]},"MapReference":{"ReferenceId":"537460651","Spot":0.21,"SideOfStreet":"left","CountryId":"20215059","StateId":"20215741","CountyId":"20215742","CityId":"20223171","AddressId":"349842332","RoadLinkId":"65468000"}}},{"Relevance":1.0,"Distance":22.8,"MatchLevel":"houseNumber","MatchQuality":{"Country":1.0,"State":1.0,"County":1.0,"City":1.0,"Street":[1.0],"HouseNumber":1.0,"PostalCode":1.0},"MatchType":"interpolated","Location":{"LocationId":"NT_dA9Tt3k8XiIplUfVL3wAGD_0AD","LocationType":"point","DisplayPosition":{"Latitude":41.42863,"Longitude":1.78845},"MapView":{"TopLeft":{"Latitude":41.4297542,"Longitude":1.7869507},"BottomRight":{"Latitude":41.4275058,"Longitude":1.7899493}},"Address":{"Label":"Carrer Gelida, 40, 08770 Sant Sadurní d'Anoia (Barcelona), Espanya","Country":"ESP","State":"Catalunya","County":"Barcelona","City":"Sant Sadurní d'Anoia","Street":"Carrer Gelida","HouseNumber":"40","PostalCode":"08770","AdditionalData":[{"value":"Espanya","key":"CountryName"},{"value":"Catalunya","key":"StateName"},{"value":"Barcelona","key":"CountyName"}]},"MapReference":{"ReferenceId":"537460653","Spot":0.67,"SideOfStreet":"right","CountryId":"20215059","StateId":"20215741","CountyId":"20215742","CityId":"20223171","AddressId":"349915801","RoadLinkId":"65982909"}}},{"Relevance":1.0,"Distance":37.9,"MatchLevel":"street","MatchQuality":{"Country":1.0,"State":1.0,"County":1.0,"City":1.0,"Street":[1.0],"PostalCode":1.0},"Location":{"LocationId":"NT_MZQnb6eEAfoDgMFuRvPuwB_l_1168137566_R","LocationType":"point","DisplayPosition":{"Latitude":41.42867,"Longitude":1.78831},"MapView":{"TopLeft":{"Latitude":41.42867,"Longitude":1.7879},"BottomRight":{"Latitude":41.42806,"Longitude":1.78831}},"Address":{"Label":"Carrer Doctor Puigvert, 08770 Sant Sadurní d'Anoia (Barcelona), Espanya","Country":"ESP","State":"Catalunya","County":"Barcelona","City":"Sant Sadurní d'Anoia","Street":"Carrer Doctor Puigvert","PostalCode":"08770","AdditionalData":[{"value":"Espanya","key":"CountryName"},{"value":"Catalunya","key":"StateName"},{"value":"Barcelona","key":"CountyName"}]},"MapReference":{"ReferenceId":"1168137566","Spot":1.0,"SideOfStreet":"right","CountryId":"20215059","StateId":"20215741","CountyId":"20215742","CityId":"20223171"}}},{"Relevance":1.0,"Distance":44.0,"MatchLevel":"houseNumber","MatchQuality":{"Country":1.0,"State":1.0,"County":1.0,"City":1.0,"Street":[1.0],"HouseNumber":1.0,"PostalCode":1.0},"MatchType":"interpolated","Location":{"LocationId":"NT_GBYKOVZdLR9qReLWpkmJ5A_0UD","LocationType":"point","DisplayPosition":{"Latitude":41.42842,"Longitude":1.78865},"MapView":{"TopLeft":{"Latitude":41.4295442,"Longitude":1.7871507},"BottomRight":{"Latitude":41.4272958,"Longitude":1.7901493}},"Address":{"Label":"Carrer Doctor Barraquer, 45, 08770 Sant Sadurní d'Anoia (Barcelona), Espanya","Country":"ESP","State":"Catalunya","County":"Barcelona","City":"Sant Sadurní d'Anoia","Street":"Carrer Doctor Barraquer","HouseNumber":"45","PostalCode":"08770","AdditionalData":[{"value":"Espanya","key":"CountryName"},{"value":"Catalunya","key":"StateName"},{"value":"Barcelona","key":"CountyName"}]},"MapReference":{"ReferenceId":"1168137564","Spot":0.81,"SideOfStreet":"left","CountryId":"20215059","StateId":"20215741","CountyId":"20215742","CityId":"20223171","AddressId":"349592589","RoadLinkId":"474828909"}}},{"Relevance":1.0,"Distance":44.2,"MatchLevel":"houseNumber","MatchQuality":{"Country":1.0,"State":1.0,"County":1.0,"City":1.0,"Street":[1.0],"HouseNumber":1.0,"PostalCode":1.0},"MatchType":"interpolated","Location":{"LocationId":"NT_dA9Tt3k8XiIplUfVL3wAGD_zYD","LocationType":"point","DisplayPosition":{"Latitude":41.42846,"Longitude":1.78904},"MapView":{"TopLeft":{"Latitude":41.4295842,"Longitude":1.7875407},"BottomRight":{"Latitude":41.4273358,"Longitude":1.7905393}},"Address":{"Label":"Carrer Gelida, 36, 08770 Sant Sadurní d'Anoia (Barcelona), Espanya","Country":"ESP","State":"Catalunya","County":"Barcelona","City":"Sant Sadurní d'Anoia","Street":"Carrer Gelida","HouseNumber":"36","PostalCode":"08770","AdditionalData":[{"value":"Espanya","key":"CountryName"},{"value":"Catalunya","key":"StateName"},{"value":"Barcelona","key":"CountyName"}]},"MapReference":{"ReferenceId":"537460639","Spot":0.56,"SideOfStreet":"right","CountryId":"20215059","StateId":"20215741","CountyId":"20215742","CityId":"20223171","AddressId":"349981446","RoadLinkId":"66008933"}}},{"Relevance":1.0,"Distance":62.5,"MatchLevel":"houseNumber","MatchQuality":{"Country":1.0,"State":1.0,"County":1.0,"City":1.0,"Street":[1.0],"HouseNumber":1.0,"PostalCode":1.0},"MatchType":"interpolated","Location":{"LocationId":"NT_dA9Tt3k8XiIplUfVL3wAGD_0QD","LocationType":"point","DisplayPosition":{"Latitude":41.42882,"Longitude":1.78793},"MapView":{"TopLeft":{"Latitude":41.4299442,"Longitude":1.7864307},"BottomRight":{"Latitude":41.4276958,"Longitude":1.7894293}},"Address":{"Label":"Carrer Gelida, 44, 08770 Sant Sadurní d'Anoia (Barcelona), Espanya","Country":"ESP","State":"Catalunya","County":"Barcelona","City":"Sant Sadurní d'Anoia","Street":"Carrer Gelida","HouseNumber":"44","PostalCode":"08770","AdditionalData":[{"value":"Espanya","key":"CountryName"},{"value":"Catalunya","key":"StateName"},{"value":"Barcelona","key":"CountyName"}]},"MapReference":{"ReferenceId":"537460572","Spot":0.14,"SideOfStreet":"right","CountryId":"20215059","StateId":"20215741","CountyId":"20215742","CityId":"20223171","AddressId":"349869679","RoadLinkId":"65970711"}}},{"Relevance":1.0,"Distance":69.0,"MatchLevel":"houseNumber","MatchQuality":{"Country":1.0,"State":1.0,"County":1.0,"City":1.0,"Street":[1.0],"HouseNumber":1.0,"PostalCode":1.0},"MatchType":"interpolated","Location":{"LocationId":"NT_WD1yT.i0b5cu7.xpXTsEPB_0MD","LocationType":"point","DisplayPosition":{"Latitude":41.42858,"Longitude":1.78957},"MapView":{"TopLeft":{"Latitude":41.4297042,"Longitude":1.7880707},"BottomRight":{"Latitude":41.4274558,"Longitude":1.7910693}},"Address":{"Label":"Carrer Doctor Pedro Pons, 43, 08770 Sant Sadurní d'Anoia (Barcelona), Espanya","Country":"ESP","State":"Catalunya","County":"Barcelona","City":"Sant Sadurní d'Anoia","Street":"Carrer Doctor Pedro Pons","HouseNumber":"43","PostalCode":"08770","AdditionalData":[{"value":"Espanya","key":"CountryName"},{"value":"Catalunya","key":"StateName"},{"value":"Barcelona","key":"CountyName"}]},"MapReference":{"ReferenceId":"537460637","Spot":0.26,"SideOfStreet":"left","CountryId":"20215059","StateId":"20215741","CountyId":"20215742","CityId":"20223171","AddressId":"349968577","RoadLinkId":"66067266"}}},{"Relevance":1.0,"Distance":76.0,"MatchLevel":"houseNumber","MatchQuality":{"Country":1.0,"State":1.0,"County":1.0,"City":1.0,"Street":[1.0],"HouseNumber":1.0,"PostalCode":1.0},"MatchType":"interpolated","Location":{"LocationId":"NT_WD1yT.i0b5cu7.xpXTsEPB_0ED","LocationType":"point","DisplayPosition":{"Latitude":41.42825,"Longitude":1.78933},"MapView":{"TopLeft":{"Latitude":41.4293742,"Longitude":1.7878307},"BottomRight":{"Latitude":41.4271258,"Longitude":1.7908293}},"Address":{"Label":"Carrer Doctor Pedro Pons, 41, 08770 Sant Sadurní d'Anoia (Barcelona), Espanya","Country":"ESP","State":"Catalunya","County":"Barcelona","City":"Sant Sadurní d'Anoia","Street":"Carrer Doctor Pedro Pons","HouseNumber":"41","PostalCode":"08770","AdditionalData":[{"value":"Espanya","key":"CountryName"},{"value":"Catalunya","key":"StateName"},{"value":"Barcelona","key":"CountyName"}]},"MapReference":{"ReferenceId":"1168137570","Spot":0.77,"SideOfStreet":"left","CountryId":"20215059","StateId":"20215741","CountyId":"20215742","CityId":"20223171","AddressId":"349795458","RoadLinkId":"474828915"}}},{"Relevance":1.0,"Distance":80.6,"MatchLevel":"street","MatchQuality":{"Country":1.0,"State":1.0,"County":1.0,"City":1.0,"Street":[1.0],"PostalCode":1.0},"Location":{"LocationId":"NT_dA9Tt3k8XiIplUfVL3wAGD_l_1168137616_R","LocationType":"point","DisplayPosition":{"Latitude":41.42836,"Longitude":1.78944},"MapView":{"TopLeft":{"Latitude":41.42836,"Longitude":1.78944},"BottomRight":{"Latitude":41.4283,"Longitude":1.78968}},"Address":{"Label":"Carrer Gelida, 08770 Sant Sadurní d'Anoia (Barcelona), Espanya","Country":"ESP","State":"Catalunya","County":"Barcelona","City":"Sant Sadurní d'Anoia","Street":"Carrer Gelida","PostalCode":"08770","AdditionalData":[{"value":"Espanya","key":"CountryName"},{"value":"Catalunya","key":"StateName"},{"value":"Barcelona","key":"CountyName"}]},"MapReference":{"ReferenceId":"1168137616","Spot":1.0,"SideOfStreet":"right","CountryId":"20215059","StateId":"20215741","CountyId":"20215742","CityId":"20223171"}}}]}]}}