{"Response":{"MetaInfo":{"Timestamp":"2020-03-28T09:37:54.033+0000","NextPageInformation":"2"},"View":[{"_type":"SearchResultsViewType","ViewId":0,"Result":[{"Relevance":1.0,"Distance":0.0,"Direction":0.0,"MatchLevel":"city","MatchQuality":{"Country":1.0,"State":1.0,"County":1.0,"City":1.0,"PostalCode":1.0},"Location":{"LocationId":"NT_w1GLRPWRtSoncur2-GXv9D","LocationType":"point","DisplayPosition":{"Latitude":41.5968983,"Longitude":2.026057},"MapView":{"TopLeft":{"Latitude":41.65799,"Longitude":1.98004},"BottomRight":{"Latitude":41.59341,"Longitude":2.04621}},"Address":{"Label":"Matadepera, Catalunya, Espanya","Country":"ESP","State":"Catalunya","County":"Barcelona","City":"Matadepera","PostalCode":"08230","AdditionalData":[{"value":"Espanya","key":"CountryName"},{"value":"Catalunya","key":"StateName"},{"value":"Barcelona","key":"CountyName"}]},"MapReference":{"ReferenceId":"537446982","SideOfStreet":"neither","CountryId":"20215059","StateId":"20215741","CountyId":"20215742","CityId":"20222586"}}},{"Relevance":1.0,"Distance":8.0,"MatchLevel":"street","MatchQuality":{"Country":1.0,"State":1.0,"County":1.0,"City":1.0,"Street":[1.0],"PostalCode":1.0},"Location":{"LocationId":"NT_aQQ7L7c-rBdP.-ADhJVmXD_l_985422108_L","LocationType":"point","DisplayPosition":{"Latitude":41.59688,"Longitude":2.02615},"MapView":{"TopLeft":{"Latitude":41.59707,"Longitude":2.02615},"BottomRight":{"Latitude":41.59688,"Longitude":2.02637}},"Address":{"Label":"Carrer Joan Paloma, 08230 Matadepera (Barcelona), Espanya","Country":"ESP","State":"Catalunya","County":"Barcelona","City":"Matadepera","Street":"Carrer Joan Paloma","PostalCode":"08230","AdditionalData":[{"value":"Espanya","key":"CountryName"},{"value":"Catalunya","key":"StateName"},{"value":"Barcelona","key":"CountyName"}]},"MapReference":{"ReferenceId":"985422108","Spot":0.0,"SideOfStreet":"left","CountryId":"20215059","StateId":"20215741","CountyId":"20215742","CityId":"20222586"}}},{"Relevance":1.0,"Distance":26.6,"MatchLevel":"houseNumber","MatchQuality":{"Country":1.0,"State":1.0,"County":1.0,"City":1.0,"Street":[1.0],"HouseNumber":1.0,"PostalCode":1.0},"MatchType":"interpolated","Location":{"LocationId":"NT_aQQ7L7c-rBdP.-ADhJVmXD_0A","LocationType":"point","DisplayPosition":{"Latitude":41.59676,"Longitude":2.02632},"MapView":{"TopLeft":{"Latitude":41.5978842,"Longitude":2.0248168},"BottomRight":{"Latitude":41.5956358,"Longitude":2.0278232}},"Address":{"Label":"Carrer Joan Paloma, 4, 08230 Matadepera (Barcelona), Espanya","Country":"ESP","State":"Catalunya","County":"Barcelona","City":"Matadepera","Street":"Carrer Joan Paloma","HouseNumber":"4","PostalCode":"08230","AdditionalData":[{"value":"Espanya","key":"CountryName"},{"value":"Catalunya","key":"StateName"},{"value":"Barcelona","key":"CountyName"}]},"MapReference":{"ReferenceId":"985422107","Spot":0.06,"SideOfStreet":"left","CountryId":"20215059","StateId":"20215741","CountyId":"20215742","CityId":"20222586","AddressId":"349520631","RoadLinkId":"316284712"}}},{"Relevance":1.0,"Distance":30.6,"MatchLevel":"houseNumber","MatchQuality":{"Country":1.0,"State":1.0,"County":1.0,"City":1.0,"Street":[1.0],"HouseNumber":1.0,"PostalCode":1.0},"MatchType":"interpolated","Location":{"LocationId":"NT_aQQ7L7c-rBdP.-ADhJVmXD_yA","LocationType":"point","DisplayPosition":{"Latitude":41.59724,"Longitude":2.02607},"MapView":{"TopLeft":{"Latitude":41.5983642,"Longitude":2.0245668},"BottomRight":{"Latitude":41.5961158,"Longitude":2.0275732}},"Address":{"Label":"Carrer Joan Paloma, 2, 08230 Matadepera (Barcelona), Espanya","Country":"ESP","State":"Catalunya","County":"Barcelona","City":"Matadepera","Street":"Carrer Joan Paloma","HouseNumber":"2","PostalCode":"08230","AdditionalData":[{"value":"Espanya","key":"CountryName"},{"value":"Catalunya","key":"StateName"},{"value":"Barcelona","key":"CountyName"}]},"MapReference":{"ReferenceId":"537447420","Spot":0.7,"SideOfStreet":"left","CountryId":"20215059","StateId":"20215741","CountyId":"20215742","CityId":"20222586","AddressId":"349490676","RoadLinkId":"66161637"}}},{"Relevance":1.0,"Distance":31.3,"MatchLevel":"houseNumber","MatchQuality":{"Country":1.0,"State":1.0,"County":1.0,"City":1.0,"Street":[1.0],"HouseNumber":1.0,"PostalCode":1.0},"MatchType":"interpolated","Location":{"LocationId":"NT_ZJKKnw4qNL6Znd1u0ufxKC_0MD","LocationType":"point","DisplayPosition":{"Latitude":41.59699,"Longitude":2.02563},"MapView":{"TopLeft":{"Latitude":41.5981142,"Longitude":2.0241268},"BottomRight":{"Latitude":41.5958658,"Longitude":2.0271332}},"Address":{"Label":"Carretera de Terrassa, 43, 08230 Matadepera (Barcelona), Espanya","Country":"ESP","State":"Catalunya","County":"Barcelona","City":"Matadepera","Street":"Carretera de Terrassa","HouseNumber":"43","PostalCode":"08230","AdditionalData":[{"value":"Espanya","key":"CountryName"},{"value":"Catalunya","key":"StateName"},{"value":"Barcelona","key":"CountyName"}]},"MapReference":{"ReferenceId":"537449691","Spot":0.88,"SideOfStreet":"right","CountryId":"20215059","StateId":"20215741","CountyId":"20215742","CityId":"20222586","AddressId":"350069920","RoadLinkId":"65827332"}}},{"Relevance":1.0,"Distance":35.1,"MatchLevel":"street","MatchQuality":{"Country":1.0,"State":1.0,"County":1.0,"City":1.0,"PostalCode":1.0},"Location":{"LocationId":"NT_3rhBRbARhdJcOyyBYqCpdC_l_537447445_L","LocationType":"point","DisplayPosition":{"Latitude":41.59704,"Longitude":2.02568},"MapView":{"TopLeft":{"Latitude":41.59715,"Longitude":2.02538},"BottomRight":{"Latitude":41.59704,"Longitude":2.02568}},"Address":{"Label":"08230 Matadepera (Barcelona), Espanya","Country":"ESP","State":"Catalunya","County":"Barcelona","City":"Matadepera","PostalCode":"08230","AdditionalData":[{"value":"Espanya","key":"CountryName"},{"value":"Catalunya","key":"StateName"},{"value":"Barcelona","key":"CountyName"}]},"MapReference":{"ReferenceId":"537447445","Spot":0.0,"SideOfStreet":"left","CountryId":"20215059","StateId":"20215741","CountyId":"20215742","CityId":"20222586"}}},{"Relevance":1.0,"Distance":36.1,"MatchLevel":"street","MatchQuality":{"Country":1.0,"State":1.0,"County":1.0,"City":1.0,"Street":[1.0],"PostalCode":1.0},"Location":{"LocationId":"NT_ZJKKnw4qNL6Znd1u0ufxKC_l_537449692_R","LocationType":"point","DisplayPosition":{"Latitude":41.5971548,"Longitude":2.0257906},"MapView":{"TopLeft":{"Latitude":41.59731,"Longitude":2.02568},"BottomRight":{"Latitude":41.59704,"Longitude":2.02594}},"Address":{"Label":"Carretera de Terrassa, 08230 Matadepera (Barcelona), Espanya","Country":"ESP","State":"Catalunya","County":"Barcelona","City":"Matadepera","Street":"Carretera de Terrassa","PostalCode":"08230","AdditionalData":[{"value":"Espanya","key":"CountryName"},{"value":"Catalunya","key":"StateName"},{"value":"Barcelona","key":"CountyName"}]},"MapReference":{"ReferenceId":"537449692","Spot":0.43,"SideOfStreet":"right","CountryId":"20215059","StateId":"20215741","CountyId":"20215742","CityId":"20222586"}}},{"Relevance":1.0,"Distance":42.2,"MatchLevel":"houseNumber","MatchQuality":{"Country":1.0,"State":1.0,"County":1.0,"City":1.0,"Street":[1.0],"HouseNumber":1.0,"PostalCode":1.0},"MatchType":"interpolated","Location":{"LocationId":"NT_aQQ7L7c-rBdP.-ADhJVmXD_1A","LocationType":"point","DisplayPosition":{"Latitude":41.59695,"Longitude":2.02656},"MapView":{"TopLeft":{"Latitude":41.5980742,"Longitude":2.0250568},"BottomRight":{"Latitude":41.5958258,"Longitude":2.0280632}},"Address":{"Label":"Carrer Joan Paloma, 5, 08230 Matadepera (Barcelona), Espanya","Country":"ESP","State":"Catalunya","County":"Barcelona","City":"Matadepera","Street":"Carrer Joan Paloma","HouseNumber":"5","PostalCode":"08230","AdditionalData":[{"value":"Espanya","key":"CountryName"},{"value":"Catalunya","key":"StateName"},{"value":"Barcelona","key":"CountyName"}]},"MapReference":{"ReferenceId":"537447365","Spot":0.41,"SideOfStreet":"right","CountryId":"20215059","StateId":"20215741","CountyId":"20215742","CityId":"20222586","AddressId":"349445233","RoadLinkId":"65760355"}}},{"Relevance":1.0,"Distance":43.8,"MatchLevel":"houseNumber","MatchQuality":{"Country":1.0,"State":1.0,"County":1.0,"City":1.0,"Street":[1.0],"HouseNumber":1.0,"PostalCode":1.0},"MatchType":"interpolated","Location":{"LocationId":"NT_vrAWHXGILoLPMEtJ46J5bB_0A","LocationType":"point","DisplayPosition":{"Latitude":41.59666,"Longitude":2.02648},"MapView":{"TopLeft":{"Latitude":41.5977842,"Longitude":2.0249768},"BottomRight":{"Latitude":41.5955358,"Longitude":2.0279832}},"Address":{"Label":"Plaça l'Ajuntament, 4, 08230 Matadepera (Barcelona), Espanya","Country":"ESP","State":"Catalunya","County":"Barcelona","City":"Matadepera","Street":"Plaça l'Ajuntament","HouseNumber":"4","PostalCode":"08230","AdditionalData":[{"value":"Espanya","key":"CountryName"},{"value":"Catalunya","key":"StateName"},{"value":"Barcelona","key":"CountyName"}]},"MapReference":{"ReferenceId":"537447358","Spot":1.0,"SideOfStreet":"left","CountryId":"20215059","StateId":"20215741","CountyId":"20215742","CityId":"20222586","AddressId":"349629303","RoadLinkId":"65157412"}}},{"Relevance":1.0,"Distance":46.1,"MatchLevel":"houseNumber","MatchQuality":{"Country":1.0,"State":1.0,"County":1.0,"City":1.0,"Street":[1.0],"HouseNumber":1.0,"PostalCode":1.0},"MatchType":"interpolated","Location":{"LocationId":"NT_vrAWHXGILoLPMEtJ46J5bB_xA","LocationType":"point","DisplayPosition":{"Latitude":41.59676,"Longitude":2.02658},"MapView":{"TopLeft":{"Latitude":41.5978842,"Longitude":2.0250768},"BottomRight":{"Latitude":41.5956358,"Longitude":2.0280832}},"Address":{"Label":"Plaça l'Ajuntament, 1, 08230 Matadepera (Barcelona), Espanya","Country":"ESP","State":"Catalunya","County":"Barcelona","City":"Matadepera","Street":"Plaça l'Ajuntament","HouseNumber":"1","PostalCode":"08230","AdditionalData":[{"value":"Espanya","key":"CountryName"},{"value":"Catalunya","key":"StateName"},{"value":"Barcelona","key":"CountyName"}]},"MapReference":{"ReferenceId":"537447362","Spot":0.45,"SideOfStreet":"right","CountryId":"20215059","StateId":"20215741","CountyId":"20215742","CityId":"20222586","AddressId":"349687234","RoadLinkId":"66075504"}}}]}]}}