{"Response":{"MetaInfo":{"Timestamp":"2020-03-28T11:33:26.207+0000","NextPageInformation":"2"},"View":[{"_type":"SearchResultsViewType","ViewId":0,"Result":[{"Relevance":1.0,"Distance":0.0,"Direction":0.0,"MatchLevel":"district","MatchQuality":{"Country":1.0,"County":1.0,"City":1.0,"District":1.0,"PostalCode":1.0},"Location":{"LocationId":"NT_bTx-CPrwTrVo4YwDXfVLaA","LocationType":"point","DisplayPosition":{"Latitude":41.5317809,"Longitude":-8.4910028},"MapView":{"TopLeft":{"Latitude":41.53635,"Longitude":-8.50284},"BottomRight":{"Latitude":41.52696,"Longitude":-8.48976}},"Address":{"Label":"Cabreiros, Braga, Portugal","Country":"PRT","County":"Braga","City":"Braga","District":"Cabreiros","PostalCode":"4705","AdditionalData":[{"value":"Portugal","key":"CountryName"},{"value":"Braga","key":"CountyName"}]},"MapReference":{"ReferenceId":"919957087","SideOfStreet":"neither","CountryId":"20317122","CountyId":"20317490","CityId":"20317606","DistrictId":"20503716"}}},{"Relevance":1.0,"Distance":9.1,"MatchLevel":"street","MatchQuality":{"Country":1.0,"County":1.0,"City":1.0,"District":1.0,"Street":[1.0],"PostalCode":1.0},"Location":{"LocationId":"NT_pyZAkfIQmJgXWcVpcyo6TA_l_919957086_R","LocationType":"point","DisplayPosition":{"Latitude":41.5317074,"Longitude":-8.4910516},"MapView":{"TopLeft":{"Latitude":41.53239,"Longitude":-8.49208},"BottomRight":{"Latitude":41.53164,"Longitude":-8.49095}},"Address":{"Label":"Avenida de Sequeira, 4705 Braga, Portugal","Country":"PRT","County":"Braga","City":"Braga","District":"Cabreiros","Street":"Avenida de Sequeira","PostalCode":"4705","AdditionalData":[{"value":"Portugal","key":"CountryName"},{"value":"Braga","key":"CountyName"}]},"MapReference":{"ReferenceId":"919957086","Spot":0.09,"SideOfStreet":"right","CountryId":"20317122","CountyId":"20317490","CityId":"20317606","DistrictId":"20503716"}}},{"Relevance":1.0,"Distance":16.3,"MatchLevel":"street","MatchQuality":{"Country":1.0,"County":1.0,"City":1.0,"District":1.0,"Street":[1.0],"PostalCode":1.0},"Location":{"LocationId":"NT_pyZAkfIQmJgXWcVpcyo6TA_l_1222145351_R","LocationType":"point","DisplayPosition":{"Latitude":41.53164,"Longitude":-8.49095},"MapView":{"TopLeft":{"Latitude":41.53164,"Longitude":-8.49095},"BottomRight":{"Latitude":41.53118,"Longitude":-8.49025}},"Address":{"Label":"Avenida de Sequeira, 4705 Braga, Portugal","Country":"PRT","County":"Braga","City":"Braga","District":"Cabreiros","Street":"Avenida de Sequeira","PostalCode":"4705","AdditionalData":[{"value":"Portugal","key":"CountryName"},{"value":"Braga","key":"CountyName"}]},"MapReference":{"ReferenceId":"1222145351","Spot":1.0,"SideOfStreet":"right","CountryId":"20317122","CountyId":"20317490","CityId":"20317606","DistrictId":"20503716"}}},{"Relevance":1.0,"Distance":81.5,"MatchLevel":"street","MatchQuality":{"Country":1.0,"County":1.0,"City":1.0,"District":1.0,"PostalCode":1.0},"Location":{"LocationId":"NT_MYAxzBhdtN9DoztiiX7iWD_l_943641487_L","LocationType":"point","DisplayPosition":{"Latitude":41.5324303,"Longitude":-8.4905497},"MapView":{"TopLeft":{"Latitude":41.53257,"Longitude":-8.49075},"BottomRight":{"Latitude":41.53117,"Longitude":-8.48762}},"Address":{"Label":"4705-629 Braga, Portugal","Country":"PRT","County":"Braga","City":"Braga","District":"Sequeira","PostalCode":"4705-629","AdditionalData":[{"value":"Portugal","key":"CountryName"},{"value":"Braga","key":"CountyName"}]},"MapReference":{"ReferenceId":"943641487","Spot":0.93,"SideOfStreet":"left","CountryId":"20317122","CountyId":"20317490","CityId":"20317606","DistrictId":"20317660"}}},{"Relevance":1.0,"Distance":90.2,"MatchLevel":"street","MatchQuality":{"Country":1.0,"County":1.0,"City":1.0,"District":1.0,"PostalCode":1.0},"Location":{"LocationId":"NT_10I0McIr4qlEuQbpQr2PaD_l_943641488_L","LocationType":"point","DisplayPosition":{"Latitude":41.53257,"Longitude":-8.49075},"MapView":{"TopLeft":{"Latitude":41.53313,"Longitude":-8.49151},"BottomRight":{"Latitude":41.53257,"Longitude":-8.49075}},"Address":{"Label":"4705 Braga, Portugal","Country":"PRT","County":"Braga","City":"Braga","District":"Cabreiros","PostalCode":"4705","AdditionalData":[{"value":"Portugal","key":"CountryName"},{"value":"Braga","key":"CountyName"}]},"MapReference":{"ReferenceId":"943641488","Spot":0.0,"SideOfStreet":"left","CountryId":"20317122","CountyId":"20317490","CityId":"20317606","DistrictId":"20503716"}}},{"Relevance":1.0,"Distance":91.6,"MatchLevel":"street","MatchQuality":{"Country":1.0,"County":1.0,"City":1.0,"District":1.0,"Street":[1.0],"PostalCode":1.0},"Location":{"LocationId":"NT_pyZAkfIQmJgXWcVpcyo6TA_l_1222145350_R","LocationType":"point","DisplayPosition":{"Latitude":41.53118,"Longitude":-8.49025},"MapView":{"TopLeft":{"Latitude":41.53118,"Longitude":-8.49025},"BottomRight":{"Latitude":41.53097,"Longitude":-8.48993}},"Address":{"Label":"Avenida de Sequeira, 4705 Braga, Portugal","Country":"PRT","County":"Braga","City":"Braga","District":"Cabreiros","Street":"Avenida de Sequeira","PostalCode":"4705","AdditionalData":[{"value":"Portugal","key":"CountryName"},{"value":"Braga","key":"CountyName"}]},"MapReference":{"ReferenceId":"1222145350","Spot":1.0,"SideOfStreet":"right","CountryId":"20317122","CountyId":"20317490","CityId":"20317606","DistrictId":"20503716"}}},{"Relevance":1.0,"Distance":112.4,"MatchLevel":"street","MatchQuality":{"Country":1.0,"County":1.0,"City":1.0,"District":1.0,"Street":[1.0],"PostalCode":1.0},"Location":{"LocationId":"NT_pyZAkfIQmJgXWcVpcyo6TA_l_919957087_R","LocationType":"point","DisplayPosition":{"Latitude":41.53239,"Longitude":-8.49208},"MapView":{"TopLeft":{"Latitude":41.5326,"Longitude":-8.4924},"BottomRight":{"Latitude":41.53239,"Longitude":-8.49208}},"Address":{"Label":"Avenida de Sequeira, 4705 Braga, Portugal","Country":"PRT","County":"Braga","City":"Braga","District":"Cabreiros","Street":"Avenida de Sequeira","PostalCode":"4705","AdditionalData":[{"value":"Portugal","key":"CountryName"},{"value":"Braga","key":"CountyName"}]},"MapReference":{"ReferenceId":"919957087","Spot":0.0,"SideOfStreet":"right","CountryId":"20317122","CountyId":"20317490","CityId":"20317606","DistrictId":"20503716"}}},{"Relevance":1.0,"Distance":126.9,"MatchLevel":"street","MatchQuality":{"Country":1.0,"County":1.0,"City":1.0,"District":1.0,"Street":[1.0],"PostalCode":1.0},"Location":{"LocationId":"NT_naVLe1pd8raXUasM2fNN4B_l_1222144315_R","LocationType":"point","DisplayPosition":{"Latitude":41.53097,"Longitude":-8.48993},"MapView":{"TopLeft":{"Latitude":41.53097,"Longitude":-8.48993},"BottomRight":{"Latitude":41.53085,"Longitude":-8.48975}},"Address":{"Label":"Avenida de Sequeira, 4705-629 Braga, Portugal","Country":"PRT","County":"Braga","City":"Braga","District":"Sequeira","Street":"Avenida de Sequeira","PostalCode":"4705-629","AdditionalData":[{"value":"Portugal","key":"CountryName"},{"value":"Braga","key":"CountyName"}]},"MapReference":{"ReferenceId":"1222144315","Spot":1.0,"SideOfStreet":"right","CountryId":"20317122","CountyId":"20317490","CityId":"20317606","DistrictId":"20317660"}}},{"Relevance":1.0,"Distance":131.6,"MatchLevel":"street","MatchQuality":{"Country":1.0,"County":1.0,"City":1.0,"District":1.0,"Street":[1.0],"PostalCode":1.0},"Location":{"LocationId":"NT_FU17aF2-y5Pvvq117yKabD_l_906550450_L","LocationType":"point","DisplayPosition":{"Latitude":41.5328702,"Longitude":-8.4903839},"MapView":{"TopLeft":{"Latitude":41.53301,"Longitude":-8.49063},"BottomRight":{"Latitude":41.5305,"Longitude":-8.47166}},"Address":{"Label":"Autoestrada do Baixo Minho, 4705-629 Braga, Portugal","Country":"PRT","County":"Braga","City":"Braga","District":"Sequeira","Street":"Autoestrada do Baixo Minho","PostalCode":"4705-629","AdditionalData":[{"value":"Portugal","key":"CountryName"},{"value":"Braga","key":"CountyName"}]},"MapReference":{"ReferenceId":"906550450","Spot":0.99,"SideOfStreet":"left","CountryId":"20317122","CountyId":"20317490","CityId":"20317606","DistrictId":"20317660"}}},{"Relevance":1.0,"Distance":140.1,"MatchLevel":"street","MatchQuality":{"Country":1.0,"County":1.0,"City":1.0,"District":1.0,"Street":[1.0],"PostalCode":1.0},"Location":{"LocationId":"NT_d0Yvet6ckt7n3Fw0qs8wQB_l_901103248_L","LocationType":"point","DisplayPosition":{"Latitude":41.53301,"Longitude":-8.49063},"MapView":{"TopLeft":{"Latitude":41.53474,"Longitude":-8.49362},"BottomRight":{"Latitude":41.53301,"Longitude":-8.49063}},"Address":{"Label":"Autoestrada do Baixo Minho, 4705 Braga, Portugal","Country":"PRT","County":"Braga","City":"Braga","District":"Cabreiros","Street":"Autoestrada do Baixo Minho","PostalCode":"4705","AdditionalData":[{"value":"Portugal","key":"CountryName"},{"value":"Braga","key":"CountyName"}]},"MapReference":{"ReferenceId":"901103248","Spot":0.0,"SideOfStreet":"left","CountryId":"20317122","CountyId":"20317490","CityId":"20317606","DistrictId":"20503716"}}}]}]}}