{"Response":{"MetaInfo":{"Timestamp":"2020-03-28T09:41:16.249+0000","NextPageInformation":"2"},"View":[{"_type":"SearchResultsViewType","ViewId":0,"Result":[{"Relevance":1.0,"Distance":0.0,"Direction":0.0,"MatchLevel":"city","MatchQuality":{"Country":1.0,"State":1.0,"County":1.0,"City":1.0,"PostalCode":1.0},"Location":{"LocationId":"NT_xGbAoqTEETwoQE2z1LyERB","LocationType":"point","DisplayPosition":{"Latitude":41.5115435,"Longitude":-5.7459977},"MapView":{"TopLeft":{"Latitude":41.57407,"Longitude":-5.97741},"BottomRight":{"Latitude":41.45806,"Longitude":-5.63526}},"Address":{"Label":"Zamora, Castilla y León, España","Country":"ESP","State":"Castilla y León","County":"Zamora","City":"Zamora","PostalCode":"49016","AdditionalData":[{"value":"España","key":"CountryName"},{"value":"Castilla y León","key":"StateName"},{"value":"Zamora","key":"CountyName"}]},"MapReference":{"ReferenceId":"948116266","SideOfStreet":"neither","CountryId":"20215059","StateId":"20221909","CountyId":"20221918","CityId":"20314768"}}},{"Relevance":1.0,"Distance":18.2,"MatchLevel":"houseNumber","MatchQuality":{"Country":1.0,"State":1.0,"County":1.0,"City":1.0,"Street":[1.0],"HouseNumber":1.0,"PostalCode":1.0},"MatchType":"interpolated","Location":{"LocationId":"NT_YAqA8XuOaq3P-EKh50TSwC_xYD","LocationType":"point","DisplayPosition":{"Latitude":41.51137,"Longitude":-5.74615},"MapView":{"TopLeft":{"Latitude":41.5124942,"Longitude":-5.7476512},"BottomRight":{"Latitude":41.5102458,"Longitude":-5.7446488}},"Address":{"Label":"Calle Ángel Nieto, 16, 49007 Zamora (Zamora), España","Country":"ESP","State":"Castilla y León","County":"Zamora","City":"Zamora","Street":"Calle Ángel Nieto","HouseNumber":"16","PostalCode":"49007","AdditionalData":[{"value":"España","key":"CountryName"},{"value":"Castilla y León","key":"StateName"},{"value":"Zamora","key":"CountyName"}]},"MapReference":{"ReferenceId":"575736181","Spot":0.57,"SideOfStreet":"right","CountryId":"20215059","StateId":"20221909","CountyId":"20221918","CityId":"20314768","AddressId":"782225198","RoadLinkId":"68195334"}}},{"Relevance":1.0,"Distance":20.5,"MatchLevel":"street","MatchQuality":{"Country":1.0,"State":1.0,"County":1.0,"City":1.0,"Street":[1.0],"PostalCode":1.0},"Location":{"LocationId":"NT_TxpgYi6FClRYJC5TUAaFED_l_878385492_R","LocationType":"point","DisplayPosition":{"Latitude":41.51136,"Longitude":-5.74598},"MapView":{"TopLeft":{"Latitude":41.51139,"Longitude":-5.74598},"BottomRight":{"Latitude":41.51108,"Longitude":-5.74544}},"Address":{"Label":"Calle Santa Elena, 49007 Zamora (Zamora), España","Country":"ESP","State":"Castilla y León","County":"Zamora","City":"Zamora","Street":"Calle Santa Elena","PostalCode":"49007","AdditionalData":[{"value":"España","key":"CountryName"},{"value":"Castilla y León","key":"StateName"},{"value":"Zamora","key":"CountyName"}]},"MapReference":{"ReferenceId":"878385492","Spot":1.0,"SideOfStreet":"right","CountryId":"20215059","StateId":"20221909","CountyId":"20221918","CityId":"20314768"}}},{"Relevance":1.0,"Distance":41.3,"MatchLevel":"street","MatchQuality":{"Country":1.0,"State":1.0,"County":1.0,"City":1.0,"Street":[1.0],"PostalCode":1.0},"Location":{"LocationId":"NT_bc.WbYTH.CD-FjXsN-YcqC_l_575735033_R","LocationType":"point","DisplayPosition":{"Latitude":41.51191,"Longitude":-5.74592},"MapView":{"TopLeft":{"Latitude":41.51228,"Longitude":-5.74628},"BottomRight":{"Latitude":41.51191,"Longitude":-5.74492}},"Address":{"Label":"Calle Fuentecilla, 49023 Zamora (Zamora), España","Country":"ESP","State":"Castilla y León","County":"Zamora","City":"Zamora","Street":"Calle Fuentecilla","PostalCode":"49023","AdditionalData":[{"value":"España","key":"CountryName"},{"value":"Castilla y León","key":"StateName"},{"value":"Zamora","key":"CountyName"}]},"MapReference":{"ReferenceId":"575735033","Spot":0.24,"SideOfStreet":"right","CountryId":"20215059","StateId":"20221909","CountyId":"20221918","CityId":"20314768"}}},{"Relevance":1.0,"Distance":48.5,"MatchLevel":"houseNumber","MatchQuality":{"Country":1.0,"State":1.0,"County":1.0,"City":1.0,"Street":[1.0],"HouseNumber":1.0,"PostalCode":1.0},"MatchType":"interpolated","Location":{"LocationId":"NT_YpLwZ4B9fi5H44512yF82C_0gD","LocationType":"point","DisplayPosition":{"Latitude":41.51161,"Longitude":-5.74675},"MapView":{"TopLeft":{"Latitude":41.5127342,"Longitude":-5.7482512},"BottomRight":{"Latitude":41.5104858,"Longitude":-5.7452488}},"Address":{"Label":"Calle de Villalpando, 48, 49023 Zamora (Zamora), España","Country":"ESP","State":"Castilla y León","County":"Zamora","City":"Zamora","Street":"Calle de Villalpando","HouseNumber":"48","PostalCode":"49023","AdditionalData":[{"value":"España","key":"CountryName"},{"value":"Castilla y León","key":"StateName"},{"value":"Zamora","key":"CountyName"}]},"MapReference":{"ReferenceId":"878377467","Spot":0.59,"SideOfStreet":"right","CountryId":"20215059","StateId":"20221909","CountyId":"20221918","CityId":"20314768","AddressId":"348892125","RoadLinkId":"248405483"}}},{"Relevance":1.0,"Distance":54.1,"MatchLevel":"houseNumber","MatchQuality":{"Country":1.0,"State":1.0,"County":1.0,"City":1.0,"Street":[1.0],"HouseNumber":1.0,"PostalCode":1.0},"MatchType":"interpolated","Location":{"LocationId":"NT_TxpgYi6FClRYJC5TUAaFED_xMD","LocationType":"point","DisplayPosition":{"Latitude":41.5111,"Longitude":-5.74573},"MapView":{"TopLeft":{"Latitude":41.5122242,"Longitude":-5.7472312},"BottomRight":{"Latitude":41.5099758,"Longitude":-5.7442288}},"Address":{"Label":"Calle Santa Elena, 13, 49007 Zamora (Zamora), España","Country":"ESP","State":"Castilla y León","County":"Zamora","City":"Zamora","Street":"Calle Santa Elena","HouseNumber":"13","PostalCode":"49007","AdditionalData":[{"value":"España","key":"CountryName"},{"value":"Castilla y León","key":"StateName"},{"value":"Zamora","key":"CountyName"}]},"MapReference":{"ReferenceId":"878385491","Spot":0.55,"SideOfStreet":"left","CountryId":"20215059","StateId":"20221909","CountyId":"20221918","CityId":"20314768","AddressId":"349170127","RoadLinkId":"248414972"}}},{"Relevance":1.0,"Distance":56.7,"MatchLevel":"houseNumber","MatchQuality":{"Country":1.0,"State":1.0,"County":1.0,"City":1.0,"Street":[1.0],"HouseNumber":1.0,"PostalCode":1.0},"MatchType":"interpolated","Location":{"LocationId":"NT_YpLwZ4B9fi5H44512yF82C_xkD","LocationType":"point","DisplayPosition":{"Latitude":41.51198,"Longitude":-5.74635},"MapView":{"TopLeft":{"Latitude":41.5131042,"Longitude":-5.7478512},"BottomRight":{"Latitude":41.5108558,"Longitude":-5.7448488}},"Address":{"Label":"Calle de Villalpando, 19, 49023 Zamora (Zamora), España","Country":"ESP","State":"Castilla y León","County":"Zamora","City":"Zamora","Street":"Calle de Villalpando","HouseNumber":"19","PostalCode":"49023","AdditionalData":[{"value":"España","key":"CountryName"},{"value":"Castilla y León","key":"StateName"},{"value":"Zamora","key":"CountyName"}]},"MapReference":{"ReferenceId":"878377462","Spot":0.68,"SideOfStreet":"left","CountryId":"20215059","StateId":"20221909","CountyId":"20221918","CityId":"20314768","AddressId":"349128043","RoadLinkId":"248405481"}}},{"Relevance":1.0,"Distance":69.9,"MatchLevel":"houseNumber","MatchQuality":{"Country":1.0,"State":1.0,"County":1.0,"City":1.0,"Street":[1.0],"HouseNumber":1.0,"PostalCode":1.0},"MatchType":"interpolated","Location":{"LocationId":"NT_YpLwZ4B9fi5H44512yF82C_xkDR","LocationType":"point","DisplayPosition":{"Latitude":41.51193,"Longitude":-5.74666},"MapView":{"TopLeft":{"Latitude":41.5130542,"Longitude":-5.7481612},"BottomRight":{"Latitude":41.5108058,"Longitude":-5.7451588}},"Address":{"Label":"Calle de Villalpando, 19D, 49023 Zamora (Zamora), España","Country":"ESP","State":"Castilla y León","County":"Zamora","City":"Zamora","Street":"Calle de Villalpando","HouseNumber":"19D","PostalCode":"49023","AdditionalData":[{"value":"España","key":"CountryName"},{"value":"Castilla y León","key":"StateName"},{"value":"Zamora","key":"CountyName"}]},"MapReference":{"ReferenceId":"878377464","Spot":1.0,"SideOfStreet":"right","CountryId":"20215059","StateId":"20221909","CountyId":"20221918","CityId":"20314768","AddressId":"349053590","RoadLinkId":"248405484"}}},{"Relevance":1.0,"Distance":69.9,"MatchLevel":"street","MatchQuality":{"Country":1.0,"State":1.0,"County":1.0,"City":1.0,"Street":[1.0],"PostalCode":1.0},"Location":{"LocationId":"NT_YpLwZ4B9fi5H44512yF82C_l_878377463_R","LocationType":"point","DisplayPosition":{"Latitude":41.51193,"Longitude":-5.74666},"MapView":{"TopLeft":{"Latitude":41.51215,"Longitude":-5.74745},"BottomRight":{"Latitude":41.51176,"Longitude":-5.74666}},"Address":{"Label":"Calle de Villalpando, 49023 Zamora (Zamora), España","Country":"ESP","State":"Castilla y León","County":"Zamora","City":"Zamora","Street":"Calle de Villalpando","PostalCode":"49023","AdditionalData":[{"value":"España","key":"CountryName"},{"value":"Castilla y León","key":"StateName"},{"value":"Zamora","key":"CountyName"}]},"MapReference":{"ReferenceId":"878377463","Spot":1.0,"SideOfStreet":"right","CountryId":"20215059","StateId":"20221909","CountyId":"20221918","CityId":"20314768"}}},{"Relevance":1.0,"Distance":70.0,"MatchLevel":"houseNumber","MatchQuality":{"Country":1.0,"State":1.0,"County":1.0,"City":1.0,"Street":[1.0],"HouseNumber":1.0,"PostalCode":1.0},"MatchType":"interpolated","Location":{"LocationId":"NT_TxpgYi6FClRYJC5TUAaFED_xED","LocationType":"point","DisplayPosition":{"Latitude":41.51108,"Longitude":-5.74544},"MapView":{"TopLeft":{"Latitude":41.5122042,"Longitude":-5.7469412},"BottomRight":{"Latitude":41.5099558,"Longitude":-5.7439388}},"Address":{"Label":"Calle Santa Elena, 11, 49007 Zamora (Zamora), España","Country":"ESP","State":"Castilla y León","County":"Zamora","City":"Zamora","Street":"Calle Santa Elena","HouseNumber":"11","PostalCode":"49007","AdditionalData":[{"value":"España","key":"CountryName"},{"value":"Castilla y León","key":"StateName"},{"value":"Zamora","key":"CountyName"}]},"MapReference":{"ReferenceId":"878385494","Spot":1.0,"SideOfStreet":"left","CountryId":"20215059","StateId":"20221909","CountyId":"20221918","CityId":"20314768","AddressId":"348961484","RoadLinkId":"248414975"}}}]}]}}