{"Response":{"MetaInfo":{"Timestamp":"2020-03-28T10:50:10.462+0000","NextPageInformation":"2"},"View":[{"_type":"SearchResultsViewType","ViewId":0,"Result":[{"Relevance":1.0,"Distance":0.0,"Direction":0.0,"MatchLevel":"district","MatchQuality":{"Country":1.0,"County":1.0,"City":1.0,"District":1.0,"PostalCode":1.0},"Location":{"LocationId":"NT_97NwEGpIvDFK2xlOu8vJsC","LocationType":"point","DisplayPosition":{"Latitude":41.5098579,"Longitude":-8.7695754},"MapView":{"TopLeft":{"Latitude":41.51543,"Longitude":-8.77837},"BottomRight":{"Latitude":41.50646,"Longitude":-8.76501}},"Address":{"Label":"Fão, Esposende, Portugal","Country":"PRT","County":"Braga","City":"Esposende","District":"Fão","PostalCode":"4740-325","AdditionalData":[{"value":"Portugal","key":"CountryName"},{"value":"Braga","key":"CountyName"}]},"MapReference":{"ReferenceId":"865571439","SideOfStreet":"neither","CountryId":"20317122","CountyId":"20317490","CityId":"20317710","DistrictId":"20317716"}}},{"Relevance":1.0,"Distance":13.4,"MatchLevel":"street","MatchQuality":{"Country":1.0,"County":1.0,"City":1.0,"District":1.0,"Street":[1.0],"PostalCode":1.0},"Location":{"LocationId":"NT_zlf25mefrRknO3iJwC3q8C_l_590565256_R","LocationType":"point","DisplayPosition":{"Latitude":41.5098679,"Longitude":-8.7697358},"MapView":{"TopLeft":{"Latitude":41.51061,"Longitude":-8.76982},"BottomRight":{"Latitude":41.50945,"Longitude":-8.76973}},"Address":{"Label":"Rua Dr. Moreira Pinto, 4740-371 Esposende, Portugal","Country":"PRT","County":"Braga","City":"Esposende","District":"Fão","Street":"Rua Dr. Moreira Pinto","PostalCode":"4740-371","AdditionalData":[{"value":"Portugal","key":"CountryName"},{"value":"Braga","key":"CountyName"}]},"MapReference":{"ReferenceId":"590565256","Spot":0.36,"SideOfStreet":"right","CountryId":"20317122","CountyId":"20317490","CityId":"20317710","DistrictId":"20317716"}}},{"Relevance":1.0,"Distance":43.1,"MatchLevel":"street","MatchQuality":{"Country":1.0,"County":1.0,"City":1.0,"District":1.0,"PostalCode":1.0},"Location":{"LocationId":"NT_MmZF1mtt9l1Mj1K8o6JaAC_l_1227954556_L","LocationType":"point","DisplayPosition":{"Latitude":41.5094708,"Longitude":-8.769545},"MapView":{"TopLeft":{"Latitude":41.50953,"Longitude":-8.76981},"BottomRight":{"Latitude":41.50945,"Longitude":-8.76879}},"Address":{"Label":"4740-371 Esposende, Portugal","Country":"PRT","County":"Braga","City":"Esposende","District":"Fão","PostalCode":"4740-371","AdditionalData":[{"value":"Portugal","key":"CountryName"},{"value":"Braga","key":"CountyName"}]},"MapReference":{"ReferenceId":"1227954556","Spot":0.26,"SideOfStreet":"left","CountryId":"20317122","CountyId":"20317490","CityId":"20317710","DistrictId":"20317716"}}},{"Relevance":1.0,"Distance":62.4,"MatchLevel":"houseNumber","MatchQuality":{"Country":1.0,"County":1.0,"City":1.0,"District":1.0,"Street":[1.0],"HouseNumber":1.0,"PostalCode":1.0},"MatchType":"interpolated","Location":{"LocationId":"NT_FF8KB-JoxkfTN4xHh3oqsB_3EE","LocationType":"point","DisplayPosition":{"Latitude":41.50943,"Longitude":-8.77006},"MapView":{"TopLeft":{"Latitude":41.5105542,"Longitude":-8.7715612},"BottomRight":{"Latitude":41.5083058,"Longitude":-8.7685588}},"Address":{"Label":"Rua das Escolas 7A, 4740-352 Esposende, Portugal","Country":"PRT","County":"Braga","City":"Esposende","District":"Fão","Street":"Rua das Escolas","HouseNumber":"7A","PostalCode":"4740-352","AdditionalData":[{"value":"Portugal","key":"CountryName"},{"value":"Braga","key":"CountyName"}]},"MapReference":{"ReferenceId":"590565443","Spot":0.76,"SideOfStreet":"right","CountryId":"20317122","CountyId":"20317490","CityId":"20317710","DistrictId":"20317716","AddressId":"366563144","RoadLinkId":"70047450"}}},{"Relevance":1.0,"Distance":73.3,"MatchLevel":"houseNumber","MatchQuality":{"Country":1.0,"County":1.0,"City":1.0,"District":1.0,"Street":[1.0],"HouseNumber":1.0,"PostalCode":1.0},"MatchType":"interpolated","Location":{"LocationId":"NT_zlf25mefrRknO3iJwC3q8C_xUD","LocationType":"point","DisplayPosition":{"Latitude":41.50924,"Longitude":-8.76988},"MapView":{"TopLeft":{"Latitude":41.5103642,"Longitude":-8.7713812},"BottomRight":{"Latitude":41.5081158,"Longitude":-8.7683788}},"Address":{"Label":"Rua Dr. Moreira Pinto 15, 4740-371 Esposende, Portugal","Country":"PRT","County":"Braga","City":"Esposende","District":"Fão","Street":"Rua Dr. Moreira Pinto","HouseNumber":"15","PostalCode":"4740-371","AdditionalData":[{"value":"Portugal","key":"CountryName"},{"value":"Braga","key":"CountyName"}]},"MapReference":{"ReferenceId":"590565577","Spot":0.75,"SideOfStreet":"right","CountryId":"20317122","CountyId":"20317490","CityId":"20317710","DistrictId":"20317716","AddressId":"366545794","RoadLinkId":"70291609"}}},{"Relevance":1.0,"Distance":74.9,"MatchLevel":"houseNumber","MatchQuality":{"Country":1.0,"County":1.0,"City":1.0,"District":1.0,"Street":[1.0],"HouseNumber":1.0,"PostalCode":1.0},"MatchType":"interpolated","Location":{"LocationId":"NT_yMFIQS8nnPqta5KhI3WdPD_l_1154903710_R_0MD","LocationType":"point","DisplayPosition":{"Latitude":41.5104573,"Longitude":-8.7691655},"MapView":{"TopLeft":{"Latitude":41.5115814,"Longitude":-8.7706667},"BottomRight":{"Latitude":41.5093331,"Longitude":-8.7676643}},"Address":{"Label":"Avenida Visconde São Januário 43, 4740-571 Esposende, Portugal","Country":"PRT","County":"Braga","City":"Esposende","District":"Fão","Street":"Avenida Visconde São Januário","HouseNumber":"43","PostalCode":"4740-571","AdditionalData":[{"value":"Portugal","key":"CountryName"},{"value":"Braga","key":"CountyName"}]},"MapReference":{"ReferenceId":"1154903710","Spot":0.5,"SideOfStreet":"right","CountryId":"20317122","CountyId":"20317490","CityId":"20317710","DistrictId":"20317716"}}},{"Relevance":1.0,"Distance":86.1,"MatchLevel":"street","MatchQuality":{"Country":1.0,"County":1.0,"City":1.0,"District":1.0,"Street":[1.0],"PostalCode":1.0},"Location":{"LocationId":"NT_sdGD9wIYfsobHc5gpbRZ6A_l_590565285_L","LocationType":"point","DisplayPosition":{"Latitude":41.51061,"Longitude":-8.76982},"MapView":{"TopLeft":{"Latitude":41.51085,"Longitude":-8.77},"BottomRight":{"Latitude":41.51061,"Longitude":-8.76982}},"Address":{"Label":"Rua Poeta Vinha dos Santos, 4740-374 Esposende, Portugal","Country":"PRT","County":"Braga","City":"Esposende","District":"Fão","Street":"Rua Poeta Vinha dos Santos","PostalCode":"4740-374","AdditionalData":[{"value":"Portugal","key":"CountryName"},{"value":"Braga","key":"CountyName"}]},"MapReference":{"ReferenceId":"590565285","Spot":0.0,"SideOfStreet":"left","CountryId":"20317122","CountyId":"20317490","CityId":"20317710","DistrictId":"20317716"}}},{"Relevance":1.0,"Distance":86.3,"MatchLevel":"houseNumber","MatchQuality":{"Country":1.0,"County":1.0,"City":1.0,"District":1.0,"Street":[1.0],"HouseNumber":1.0,"PostalCode":1.0},"MatchType":"interpolated","Location":{"LocationId":"NT_PVueGgh30zOvpuwafGPeUB_0ED","LocationType":"point","DisplayPosition":{"Latitude":41.51061,"Longitude":-8.76983},"MapView":{"TopLeft":{"Latitude":41.5117342,"Longitude":-8.7713312},"BottomRight":{"Latitude":41.5094858,"Longitude":-8.7683288}},"Address":{"Label":"Avenida Visconde São Januário 41, 4740-571 Esposende, Portugal","Country":"PRT","County":"Braga","City":"Esposende","District":"Fão","Street":"Avenida Visconde São Januário","HouseNumber":"41","PostalCode":"4740-571","AdditionalData":[{"value":"Portugal","key":"CountryName"},{"value":"Braga","key":"CountyName"}]},"MapReference":{"ReferenceId":"1154903711","Spot":1.0,"SideOfStreet":"right","CountryId":"20317122","CountyId":"20317490","CityId":"20317710","DistrictId":"20317716","AddressId":"366603460","RoadLinkId":"461057133"}}},{"Relevance":1.0,"Distance":86.7,"MatchLevel":"houseNumber","MatchQuality":{"Country":1.0,"County":1.0,"City":1.0,"District":1.0,"Street":[1.0],"HouseNumber":1.0,"PostalCode":1.0},"MatchType":"interpolated","Location":{"LocationId":"NT_PVueGgh30zOvpuwafGPeUB_2MD","LocationType":"point","DisplayPosition":{"Latitude":41.51035,"Longitude":-8.76864},"MapView":{"TopLeft":{"Latitude":41.5114742,"Longitude":-8.7701412},"BottomRight":{"Latitude":41.5092258,"Longitude":-8.7671388}},"Address":{"Label":"Avenida Visconde São Januário 63, 4740-571 Esposende, Portugal","Country":"PRT","County":"Braga","City":"Esposende","District":"Fão","Street":"Avenida Visconde São Januário","HouseNumber":"63","PostalCode":"4740-571","AdditionalData":[{"value":"Portugal","key":"CountryName"},{"value":"Braga","key":"CountyName"}]},"MapReference":{"ReferenceId":"916505752","Spot":1.0,"SideOfStreet":"right","CountryId":"20317122","CountyId":"20317490","CityId":"20317710","DistrictId":"20317716","AddressId":"366595487","RoadLinkId":"274002063"}}},{"Relevance":1.0,"Distance":103.2,"MatchLevel":"street","MatchQuality":{"Country":1.0,"County":1.0,"City":1.0,"District":1.0,"Street":[1.0],"PostalCode":1.0},"Location":{"LocationId":"NT_pStRz6obXxf46.epAp7BdC_l_590565259_R","LocationType":"point","DisplayPosition":{"Latitude":41.5107778,"Longitude":-8.7694081},"MapView":{"TopLeft":{"Latitude":41.51097,"Longitude":-8.76975},"BottomRight":{"Latitude":41.51064,"Longitude":-8.76865}},"Address":{"Label":"Praceta do Chalé, 4740 Esposende, Portugal","Country":"PRT","County":"Braga","City":"Esposende","District":"Fão","Street":"Praceta do Chalé","PostalCode":"4740","AdditionalData":[{"value":"Portugal","key":"CountryName"},{"value":"Braga","key":"CountyName"}]},"MapReference":{"ReferenceId":"590565259","Spot":0.23,"SideOfStreet":"right","CountryId":"20317122","CountyId":"20317490","CityId":"20317710","DistrictId":"20317716"}}}]}]}}