{"Response":{"MetaInfo":{"Timestamp":"2020-03-28T09:39:19.034+0000","NextPageInformation":"2"},"View":[{"_type":"SearchResultsViewType","ViewId":0,"Result":[{"Relevance":1.0,"Distance":0.0,"Direction":0.0,"MatchLevel":"city","MatchQuality":{"Country":1.0,"State":1.0,"County":1.0,"City":1.0,"PostalCode":1.0},"Location":{"LocationId":"NT_ZP0rp-.dM96OCTE2q1R2cD","LocationType":"point","DisplayPosition":{"Latitude":41.5984524,"Longitude":-4.1269586},"MapView":{"TopLeft":{"Latitude":41.64237,"Longitude":-4.22421},"BottomRight":{"Latitude":41.54939,"Longitude":-4.04235}},"Address":{"Label":"Peñafiel, Castilla y León, España","Country":"ESP","State":"Castilla y León","County":"Valladolid","City":"Peñafiel","PostalCode":"47300","AdditionalData":[{"value":"España","key":"CountryName"},{"value":"Castilla y León","key":"StateName"},{"value":"Valladolid","key":"CountyName"}]},"MapReference":{"ReferenceId":"842357652","SideOfStreet":"neither","CountryId":"20215059","StateId":"20221909","CountyId":"20221917","CityId":"20313086"}}},{"Relevance":1.0,"Distance":13.8,"MatchLevel":"houseNumber","MatchQuality":{"Country":1.0,"State":1.0,"County":1.0,"City":1.0,"Street":[1.0],"HouseNumber":1.0,"PostalCode":1.0},"MatchType":"interpolated","Location":{"LocationId":"NT_YglQsO5Hw9GRgXQz7KZ5IC_0A","LocationType":"point","DisplayPosition":{"Latitude":41.59834,"Longitude":-4.12709},"MapView":{"TopLeft":{"Latitude":41.5994642,"Longitude":-4.1285932},"BottomRight":{"Latitude":41.5972158,"Longitude":-4.1255868}},"Address":{"Label":"Avenida Cruz Roja, 4, 47300 Peñafiel (Valladolid), España","Country":"ESP","State":"Castilla y León","County":"Valladolid","City":"Peñafiel","Street":"Avenida Cruz Roja","HouseNumber":"4","PostalCode":"47300","AdditionalData":[{"value":"España","key":"CountryName"},{"value":"Castilla y León","key":"StateName"},{"value":"Valladolid","key":"CountyName"}]},"MapReference":{"ReferenceId":"539371745","Spot":0.34,"SideOfStreet":"right","CountryId":"20215059","StateId":"20221909","CountyId":"20221917","CityId":"20313086","AddressId":"206619636","RoadLinkId":"68384407"}}},{"Relevance":1.0,"Distance":36.2,"MatchLevel":"street","MatchQuality":{"Country":1.0,"State":1.0,"County":1.0,"City":1.0,"Street":[1.0],"PostalCode":1.0},"Location":{"LocationId":"NT_gwMhwpCOuzx-asSXik-u0A_l_733692357_R","LocationType":"point","DisplayPosition":{"Latitude":41.5987776,"Longitude":-4.126949},"MapView":{"TopLeft":{"Latitude":41.5988,"Longitude":-4.12703},"BottomRight":{"Latitude":41.59877,"Longitude":-4.12577}},"Address":{"Label":"Carretera de Soria, 47300 Peñafiel (Valladolid), España","Country":"ESP","State":"Castilla y León","County":"Valladolid","City":"Peñafiel","Street":"Carretera de Soria","PostalCode":"47300","AdditionalData":[{"value":"España","key":"CountryName"},{"value":"Castilla y León","key":"StateName"},{"value":"Valladolid","key":"CountyName"}]},"MapReference":{"ReferenceId":"733692357","Spot":0.06,"SideOfStreet":"right","CountryId":"20215059","StateId":"20221909","CountyId":"20221917","CityId":"20313086"}}},{"Relevance":1.0,"Distance":36.9,"MatchLevel":"street","MatchQuality":{"Country":1.0,"State":1.0,"County":1.0,"City":1.0,"Street":[1.0],"PostalCode":1.0},"Location":{"LocationId":"NT_gwMhwpCOuzx-asSXik-u0A_l_539368004_L","LocationType":"point","DisplayPosition":{"Latitude":41.59878,"Longitude":-4.12703},"MapView":{"TopLeft":{"Latitude":41.59879,"Longitude":-4.12715},"BottomRight":{"Latitude":41.59878,"Longitude":-4.12703}},"Address":{"Label":"Carretera de Soria, 47300 Peñafiel (Valladolid), España","Country":"ESP","State":"Castilla y León","County":"Valladolid","City":"Peñafiel","Street":"Carretera de Soria","PostalCode":"47300","AdditionalData":[{"value":"España","key":"CountryName"},{"value":"Castilla y León","key":"StateName"},{"value":"Valladolid","key":"CountyName"}]},"MapReference":{"ReferenceId":"539368004","Spot":0.0,"SideOfStreet":"left","CountryId":"20215059","StateId":"20221909","CountyId":"20221917","CityId":"20313086"}}},{"Relevance":1.0,"Distance":40.8,"MatchLevel":"street","MatchQuality":{"Country":1.0,"State":1.0,"County":1.0,"City":1.0,"Street":[1.0],"PostalCode":1.0},"Location":{"LocationId":"NT_ylo.pn243Max61ih5nfkLA_l_709765572_L","LocationType":"point","DisplayPosition":{"Latitude":41.59879,"Longitude":-4.12715},"MapView":{"TopLeft":{"Latitude":41.59882,"Longitude":-4.12758},"BottomRight":{"Latitude":41.59879,"Longitude":-4.12715}},"Address":{"Label":"Carretera de Soria, 47300 Peñafiel (Valladolid), España","Country":"ESP","State":"Castilla y León","County":"Valladolid","City":"Peñafiel","Street":"Carretera de Soria","PostalCode":"47300","AdditionalData":[{"value":"España","key":"CountryName"},{"value":"Castilla y León","key":"StateName"},{"value":"Valladolid","key":"CountyName"}]},"MapReference":{"ReferenceId":"709765572","Spot":0.0,"SideOfStreet":"left","CountryId":"20215059","StateId":"20221909","CountyId":"20221917","CityId":"20313086"}}},{"Relevance":1.0,"Distance":50.7,"MatchLevel":"houseNumber","MatchQuality":{"Country":1.0,"State":1.0,"County":1.0,"City":1.0,"Street":[1.0],"HouseNumber":1.0,"PostalCode":1.0},"MatchType":"interpolated","Location":{"LocationId":"NT_rrFr0CZqaQtv5VqjY7n1dC_xEE","LocationType":"point","DisplayPosition":{"Latitude":41.59814,"Longitude":-4.12646},"MapView":{"TopLeft":{"Latitude":41.5992642,"Longitude":-4.1279632},"BottomRight":{"Latitude":41.5970158,"Longitude":-4.1249568}},"Address":{"Label":"Calle Duque de Ahumada, 1A, 47300 Peñafiel (Valladolid), España","Country":"ESP","State":"Castilla y León","County":"Valladolid","City":"Peñafiel","Street":"Calle Duque de Ahumada","HouseNumber":"1A","PostalCode":"47300","AdditionalData":[{"value":"España","key":"CountryName"},{"value":"Castilla y León","key":"StateName"},{"value":"Valladolid","key":"CountyName"}]},"MapReference":{"ReferenceId":"539371738","Spot":0.36,"SideOfStreet":"right","CountryId":"20215059","StateId":"20221909","CountyId":"20221917","CityId":"20313086","AddressId":"206046503","RoadLinkId":"68112204"}}},{"Relevance":1.0,"Distance":51.5,"MatchLevel":"houseNumber","MatchQuality":{"Country":1.0,"State":1.0,"County":1.0,"City":1.0,"Street":[1.0],"HouseNumber":1.0,"PostalCode":1.0},"MatchType":"interpolated","Location":{"LocationId":"NT_yJph5zNBv6wd059Y0zYdLD_xUD","LocationType":"point","DisplayPosition":{"Latitude":41.59863,"Longitude":-4.12634},"MapView":{"TopLeft":{"Latitude":41.5997542,"Longitude":-4.1278433},"BottomRight":{"Latitude":41.5975058,"Longitude":-4.1248367}},"Address":{"Label":"Avenida Valladolid Soria, 15, 47300 Peñafiel (Valladolid), España","Country":"ESP","State":"Castilla y León","County":"Valladolid","City":"Peñafiel","Street":"Avenida Valladolid Soria","HouseNumber":"15","PostalCode":"47300","AdditionalData":[{"value":"España","key":"CountryName"},{"value":"Castilla y León","key":"StateName"},{"value":"Valladolid","key":"CountyName"}]},"MapReference":{"ReferenceId":"539371747","Spot":0.33,"SideOfStreet":"right","CountryId":"20215059","StateId":"20221909","CountyId":"20221917","CityId":"20313086","AddressId":"783158495","RoadLinkId":"283162814"}}},{"Relevance":1.0,"Distance":56.8,"MatchLevel":"street","MatchQuality":{"Country":1.0,"State":1.0,"County":1.0,"City":1.0,"Street":[1.0],"PostalCode":1.0},"Location":{"LocationId":"NT_yJph5zNBv6wd059Y0zYdLD_l_841628300_L","LocationType":"point","DisplayPosition":{"Latitude":41.59896,"Longitude":-4.12704},"MapView":{"TopLeft":{"Latitude":41.59897,"Longitude":-4.12723},"BottomRight":{"Latitude":41.59896,"Longitude":-4.12704}},"Address":{"Label":"Avenida Valladolid Soria, 47300 Peñafiel (Valladolid), España","Country":"ESP","State":"Castilla y León","County":"Valladolid","City":"Peñafiel","Street":"Avenida Valladolid Soria","PostalCode":"47300","AdditionalData":[{"value":"España","key":"CountryName"},{"value":"Castilla y León","key":"StateName"},{"value":"Valladolid","key":"CountyName"}]},"MapReference":{"ReferenceId":"841628300","Spot":0.0,"SideOfStreet":"left","CountryId":"20215059","StateId":"20221909","CountyId":"20221917","CityId":"20313086"}}},{"Relevance":1.0,"Distance":60.2,"MatchLevel":"houseNumber","MatchQuality":{"Country":1.0,"State":1.0,"County":1.0,"City":1.0,"Street":[1.0],"HouseNumber":1.0,"PostalCode":1.0},"MatchType":"interpolated","Location":{"LocationId":"NT_YglQsO5Hw9GRgXQz7KZ5IC_yEE","LocationType":"point","DisplayPosition":{"Latitude":41.59792,"Longitude":-4.12716},"MapView":{"TopLeft":{"Latitude":41.5990442,"Longitude":-4.1286632},"BottomRight":{"Latitude":41.5967958,"Longitude":-4.1256568}},"Address":{"Label":"Avenida Cruz Roja, 2A, 47300 Peñafiel (Valladolid), España","Country":"ESP","State":"Castilla y León","County":"Valladolid","City":"Peñafiel","Street":"Avenida Cruz Roja","HouseNumber":"2A","PostalCode":"47300","AdditionalData":[{"value":"España","key":"CountryName"},{"value":"Castilla y León","key":"StateName"},{"value":"Valladolid","key":"CountyName"}]},"MapReference":{"ReferenceId":"539371739","Spot":0.48,"SideOfStreet":"right","CountryId":"20215059","StateId":"20221909","CountyId":"20221917","CityId":"20313086","AddressId":"206025165","RoadLinkId":"68401140"}}},{"Relevance":1.0,"Distance":60.3,"MatchLevel":"houseNumber","MatchQuality":{"Country":1.0,"State":1.0,"County":1.0,"City":1.0,"Street":[1.0],"HouseNumber":1.0,"PostalCode":1.0},"MatchType":"interpolated","Location":{"LocationId":"NT_yJph5zNBv6wd059Y0zYdLD_2ADR","LocationType":"point","DisplayPosition":{"Latitude":41.59895,"Longitude":-4.12667},"MapView":{"TopLeft":{"Latitude":41.6000742,"Longitude":-4.1281733},"BottomRight":{"Latitude":41.5978258,"Longitude":-4.1251667}},"Address":{"Label":"Avenida Valladolid Soria, 60D, 47300 Peñafiel (Valladolid), España","Country":"ESP","State":"Castilla y León","County":"Valladolid","City":"Peñafiel","Street":"Avenida Valladolid Soria","HouseNumber":"60D","PostalCode":"47300","AdditionalData":[{"value":"España","key":"CountryName"},{"value":"Castilla y León","key":"StateName"},{"value":"Valladolid","key":"CountyName"}]},"MapReference":{"ReferenceId":"841628301","Spot":0.19,"SideOfStreet":"left","CountryId":"20215059","StateId":"20221909","CountyId":"20221917","CityId":"20313086","AddressId":"783165938","RoadLinkId":"283162823"}}}]}]}}