{"Response":{"MetaInfo":{"Timestamp":"2020-03-28T10:26:36.190+0000","NextPageInformation":"2"},"View":[{"_type":"SearchResultsViewType","ViewId":0,"Result":[{"Relevance":1.0,"Distance":0.0,"Direction":0.0,"MatchLevel":"city","MatchQuality":{"Country":1.0,"State":1.0,"County":1.0,"City":1.0,"PostalCode":1.0},"Location":{"LocationId":"NT_MQBbegpzAsrfK0CKOX1maC","LocationType":"point","DisplayPosition":{"Latitude":41.5853654,"Longitude":-4.7196501},"MapView":{"TopLeft":{"Latitude":41.59674,"Longitude":-4.77275},"BottomRight":{"Latitude":41.54741,"Longitude":-4.66875}},"Address":{"Label":"Laguna de Duero, Castilla y León, España","Country":"ESP","State":"Castilla y León","County":"Valladolid","City":"Laguna de Duero","PostalCode":"47140","AdditionalData":[{"value":"España","key":"CountryName"},{"value":"Castilla y León","key":"StateName"},{"value":"Valladolid","key":"CountyName"}]},"MapReference":{"ReferenceId":"888430425","SideOfStreet":"neither","CountryId":"20215059","StateId":"20221909","CountyId":"20221917","CityId":"20312954"}}},{"Relevance":1.0,"Distance":24.0,"MatchLevel":"houseNumber","MatchQuality":{"Country":1.0,"State":1.0,"County":1.0,"City":1.0,"Street":[1.0],"HouseNumber":1.0,"PostalCode":1.0},"MatchType":"interpolated","Location":{"LocationId":"NT_5EK36ULwXAD1GLE93lOKJC_xEE","LocationType":"point","DisplayPosition":{"Latitude":41.58561,"Longitude":-4.71978},"MapView":{"TopLeft":{"Latitude":41.5867342,"Longitude":-4.7212829},"BottomRight":{"Latitude":41.5844858,"Longitude":-4.7182771}},"Address":{"Label":"Avenida de la Laguna, 1A, 47140 Laguna de Duero (Valladolid), España","Country":"ESP","State":"Castilla y León","County":"Valladolid","City":"Laguna de Duero","Street":"Avenida de la Laguna","HouseNumber":"1A","PostalCode":"47140","AdditionalData":[{"value":"España","key":"CountryName"},{"value":"Castilla y León","key":"StateName"},{"value":"Valladolid","key":"CountyName"}]},"MapReference":{"ReferenceId":"867587419","Spot":0.46,"SideOfStreet":"right","CountryId":"20215059","StateId":"20221909","CountyId":"20221917","CityId":"20312954","AddressId":"266402603","RoadLinkId":"240232271"}}},{"Relevance":1.0,"Distance":25.9,"MatchLevel":"houseNumber","MatchQuality":{"Country":1.0,"State":1.0,"County":1.0,"City":1.0,"Street":[1.0],"HouseNumber":1.0,"PostalCode":1.0},"MatchType":"interpolated","Location":{"LocationId":"NT_e7raOtVG3ZIgTJ9lijBxFC_yQF","LocationType":"point","DisplayPosition":{"Latitude":41.58539,"Longitude":-4.71934},"MapView":{"TopLeft":{"Latitude":41.5865142,"Longitude":-4.7208429},"BottomRight":{"Latitude":41.5842658,"Longitude":-4.7178371}},"Address":{"Label":"Avenida de Madrid, 2T, 47140 Laguna de Duero (Valladolid), España","Country":"ESP","State":"Castilla y León","County":"Valladolid","City":"Laguna de Duero","Street":"Avenida de Madrid","HouseNumber":"2T","PostalCode":"47140","AdditionalData":[{"value":"España","key":"CountryName"},{"value":"Castilla y León","key":"StateName"},{"value":"Valladolid","key":"CountyName"}]},"MapReference":{"ReferenceId":"845957897","Spot":0.98,"SideOfStreet":"right","CountryId":"20215059","StateId":"20221909","CountyId":"20221917","CityId":"20312954","AddressId":"266409270","RoadLinkId":"227240642"}}},{"Relevance":1.0,"Distance":28.4,"MatchLevel":"houseNumber","MatchQuality":{"Country":1.0,"State":1.0,"County":1.0,"City":1.0,"Street":[1.0],"HouseNumber":1.0,"PostalCode":1.0},"MatchType":"interpolated","Location":{"LocationId":"NT_5EK36ULwXAD1GLE93lOKJC_0QD","LocationType":"point","DisplayPosition":{"Latitude":41.58554,"Longitude":-4.7199},"MapView":{"TopLeft":{"Latitude":41.5866642,"Longitude":-4.7214029},"BottomRight":{"Latitude":41.5844158,"Longitude":-4.7183971}},"Address":{"Label":"Avenida de la Laguna, 44, 47140 Laguna de Duero (Valladolid), España","Country":"ESP","State":"Castilla y León","County":"Valladolid","City":"Laguna de Duero","Street":"Avenida de la Laguna","HouseNumber":"44","PostalCode":"47140","AdditionalData":[{"value":"España","key":"CountryName"},{"value":"Castilla y León","key":"StateName"},{"value":"Valladolid","key":"CountyName"}]},"MapReference":{"ReferenceId":"867587422","Spot":0.36,"SideOfStreet":"left","CountryId":"20215059","StateId":"20221909","CountyId":"20221917","CityId":"20312954","AddressId":"266383939","RoadLinkId":"240232274"}}},{"Relevance":1.0,"Distance":28.5,"MatchLevel":"landmark","MatchQuality":{"Country":1.0,"State":1.0,"County":1.0,"City":1.0,"PostalCode":1.0,"Name":1.0},"Location":{"LocationId":"NT_nu0qr35I182aTkxfiwaoUD","LocationType":"park","Name":"Parque Torrelago","DisplayPosition":{"Latitude":41.58551,"Longitude":-4.72222},"MapView":{"TopLeft":{"Latitude":41.58692,"Longitude":-4.72459},"BottomRight":{"Latitude":41.58409,"Longitude":-4.71944}},"Address":{"Label":"47140 Laguna de Duero (Valladolid), España","Country":"ESP","State":"Castilla y León","County":"Valladolid","City":"Laguna de Duero","PostalCode":"47140","AdditionalData":[{"value":"España","key":"CountryName"},{"value":"Castilla y León","key":"StateName"},{"value":"Valladolid","key":"CountyName"}]},"MapReference":{"CountryId":"20215059","StateId":"20221909","CountyId":"20221917","CityId":"20312954","PlaceId":"1423123809"}}},{"Relevance":1.0,"Distance":36.0,"MatchLevel":"houseNumber","MatchQuality":{"Country":1.0,"State":1.0,"County":1.0,"City":1.0,"Street":[1.0],"HouseNumber":1.0,"PostalCode":1.0},"MatchType":"interpolated","Location":{"LocationId":"NT_e7raOtVG3ZIgTJ9lijBxFC_2A","LocationType":"point","DisplayPosition":{"Latitude":41.58551,"Longitude":-4.71912},"MapView":{"TopLeft":{"Latitude":41.5866342,"Longitude":-4.7206229},"BottomRight":{"Latitude":41.5843858,"Longitude":-4.7176171}},"Address":{"Label":"Avenida de Madrid, 6, 47140 Laguna de Duero (Valladolid), España","Country":"ESP","State":"Castilla y León","County":"Valladolid","City":"Laguna de Duero","Street":"Avenida de Madrid","HouseNumber":"6","PostalCode":"47140","AdditionalData":[{"value":"España","key":"CountryName"},{"value":"Castilla y León","key":"StateName"},{"value":"Valladolid","key":"CountyName"}]},"MapReference":{"ReferenceId":"1269648036","Spot":0.22,"SideOfStreet":"left","CountryId":"20215059","StateId":"20221909","CountyId":"20221917","CityId":"20312954","AddressId":"782332312","RoadLinkId":"596943927"}}},{"Relevance":1.0,"Distance":42.8,"MatchLevel":"street","MatchQuality":{"Country":1.0,"State":1.0,"County":1.0,"City":1.0,"Street":[1.0],"PostalCode":1.0},"Location":{"LocationId":"NT_e7raOtVG3ZIgTJ9lijBxFC_l_888423610_L","LocationType":"point","DisplayPosition":{"Latitude":41.5853089,"Longitude":-4.7191412},"MapView":{"TopLeft":{"Latitude":41.58541,"Longitude":-4.71916},"BottomRight":{"Latitude":41.58514,"Longitude":-4.71913}},"Address":{"Label":"Avenida de Madrid, 47140 Laguna de Duero (Valladolid), España","Country":"ESP","State":"Castilla y León","County":"Valladolid","City":"Laguna de Duero","Street":"Avenida de Madrid","PostalCode":"47140","AdditionalData":[{"value":"España","key":"CountryName"},{"value":"Castilla y León","key":"StateName"},{"value":"Valladolid","key":"CountyName"}]},"MapReference":{"ReferenceId":"888423610","Spot":0.63,"SideOfStreet":"left","CountryId":"20215059","StateId":"20221909","CountyId":"20221917","CityId":"20312954"}}},{"Relevance":1.0,"Distance":45.7,"MatchLevel":"street","MatchQuality":{"Country":1.0,"State":1.0,"County":1.0,"City":1.0,"Street":[1.0],"PostalCode":1.0},"Location":{"LocationId":"NT_5EK36ULwXAD1GLE93lOKJC_l_888430271_R","LocationType":"point","DisplayPosition":{"Latitude":41.58513,"Longitude":-4.7201},"MapView":{"TopLeft":{"Latitude":41.58513,"Longitude":-4.72016},"BottomRight":{"Latitude":41.58504,"Longitude":-4.7201}},"Address":{"Label":"Avenida de la Laguna, 47140 Laguna de Duero (Valladolid), España","Country":"ESP","State":"Castilla y León","County":"Valladolid","City":"Laguna de Duero","Street":"Avenida de la Laguna","PostalCode":"47140","AdditionalData":[{"value":"España","key":"CountryName"},{"value":"Castilla y León","key":"StateName"},{"value":"Valladolid","key":"CountyName"}]},"MapReference":{"ReferenceId":"888430271","Spot":1.0,"SideOfStreet":"right","CountryId":"20215059","StateId":"20221909","CountyId":"20221917","CityId":"20312954"}}},{"Relevance":1.0,"Distance":45.9,"MatchLevel":"street","MatchQuality":{"Country":1.0,"State":1.0,"County":1.0,"City":1.0,"Street":[1.0],"PostalCode":1.0},"Location":{"LocationId":"NT_5EK36ULwXAD1GLE93lOKJC_l_888430269_R","LocationType":"point","DisplayPosition":{"Latitude":41.58519,"Longitude":-4.72015},"MapView":{"TopLeft":{"Latitude":41.58519,"Longitude":-4.72021},"BottomRight":{"Latitude":41.5851,"Longitude":-4.72015}},"Address":{"Label":"Avenida de la Laguna, 47140 Laguna de Duero (Valladolid), España","Country":"ESP","State":"Castilla y León","County":"Valladolid","City":"Laguna de Duero","Street":"Avenida de la Laguna","PostalCode":"47140","AdditionalData":[{"value":"España","key":"CountryName"},{"value":"Castilla y León","key":"StateName"},{"value":"Valladolid","key":"CountyName"}]},"MapReference":{"ReferenceId":"888430269","Spot":1.0,"SideOfStreet":"right","CountryId":"20215059","StateId":"20221909","CountyId":"20221917","CityId":"20312954"}}},{"Relevance":1.0,"Distance":47.9,"MatchLevel":"street","MatchQuality":{"Country":1.0,"State":1.0,"County":1.0,"City":1.0,"Street":[1.0],"PostalCode":1.0},"Location":{"LocationId":"NT_e7raOtVG3ZIgTJ9lijBxFC_l_845957895_L","LocationType":"point","DisplayPosition":{"Latitude":41.58514,"Longitude":-4.71916},"MapView":{"TopLeft":{"Latitude":41.58514,"Longitude":-4.71918},"BottomRight":{"Latitude":41.58494,"Longitude":-4.71916}},"Address":{"Label":"Avenida de Madrid, 47140 Laguna de Duero (Valladolid), España","Country":"ESP","State":"Castilla y León","County":"Valladolid","City":"Laguna de Duero","Street":"Avenida de Madrid","PostalCode":"47140","AdditionalData":[{"value":"España","key":"CountryName"},{"value":"Castilla y León","key":"StateName"},{"value":"Valladolid","key":"CountyName"}]},"MapReference":{"ReferenceId":"845957895","Spot":1.0,"SideOfStreet":"left","CountryId":"20215059","StateId":"20221909","CountyId":"20221917","CityId":"20312954"}}}]}]}}