{"Response":{"MetaInfo":{"Timestamp":"2020-03-28T09:37:42.864+0000","NextPageInformation":"2"},"View":[{"_type":"SearchResultsViewType","ViewId":0,"Result":[{"Relevance":1.0,"Distance":0.0,"Direction":0.0,"MatchLevel":"city","MatchQuality":{"Country":1.0,"State":1.0,"County":1.0,"City":1.0,"PostalCode":1.0},"Location":{"LocationId":"NT_F.WX-mVd8jCooBrmKSqZcB","LocationType":"point","DisplayPosition":{"Latitude":41.5534044,"Longitude":2.0847913},"MapView":{"TopLeft":{"Latitude":41.59243,"Longitude":2.04775},"BottomRight":{"Latitude":41.50671,"Longitude":2.15161}},"Address":{"Label":"Sabadell, Catalunya, Espanya","Country":"ESP","State":"Catalunya","County":"Barcelona","City":"Sabadell","PostalCode":"08201","AdditionalData":[{"value":"Espanya","key":"CountryName"},{"value":"Catalunya","key":"StateName"},{"value":"Barcelona","key":"CountyName"}]},"MapReference":{"ReferenceId":"538052180","SideOfStreet":"neither","CountryId":"20215059","StateId":"20215741","CountyId":"20215742","CityId":"20215989"}}},{"Relevance":1.0,"Distance":17.6,"MatchLevel":"houseNumber","MatchQuality":{"Country":1.0,"State":1.0,"County":1.0,"City":1.0,"Street":[1.0],"HouseNumber":1.0,"PostalCode":1.0},"MatchType":"interpolated","Location":{"LocationId":"NT_L3J47SA5N4YKiPgFPgLrVB_3gD","LocationType":"point","DisplayPosition":{"Latitude":41.55318,"Longitude":2.0846},"MapView":{"TopLeft":{"Latitude":41.5543042,"Longitude":2.0830978},"BottomRight":{"Latitude":41.5520558,"Longitude":2.0861022}},"Address":{"Label":"Avinguda de Lluís Companys, 78, 08206 Sabadell (Barcelona), Espanya","Country":"ESP","State":"Catalunya","County":"Barcelona","City":"Sabadell","Street":"Avinguda de Lluís Companys","HouseNumber":"78","PostalCode":"08206","AdditionalData":[{"value":"Espanya","key":"CountryName"},{"value":"Catalunya","key":"StateName"},{"value":"Barcelona","key":"CountyName"}]},"MapReference":{"ReferenceId":"1025510266","Spot":0.87,"SideOfStreet":"right","CountryId":"20215059","StateId":"20215741","CountyId":"20215742","CityId":"20215989","AddressId":"594971222","RoadLinkId":"348711061"}}},{"Relevance":1.0,"Distance":26.7,"MatchLevel":"street","MatchQuality":{"Country":1.0,"State":1.0,"County":1.0,"City":1.0,"PostalCode":1.0},"Location":{"LocationId":"NT_Ud1jMc0E0YiYBjo1AWxeuA_l_1025510268_R","LocationType":"point","DisplayPosition":{"Latitude":41.55341,"Longitude":2.08447},"MapView":{"TopLeft":{"Latitude":41.5537,"Longitude":2.0842},"BottomRight":{"Latitude":41.55325,"Longitude":2.08448}},"Address":{"Label":"08206 Sabadell (Barcelona), Espanya","Country":"ESP","State":"Catalunya","County":"Barcelona","City":"Sabadell","PostalCode":"08206","AdditionalData":[{"value":"Espanya","key":"CountryName"},{"value":"Catalunya","key":"StateName"},{"value":"Barcelona","key":"CountyName"}]},"MapReference":{"ReferenceId":"1025510268","Spot":0.23,"SideOfStreet":"right","CountryId":"20215059","StateId":"20215741","CountyId":"20215742","CityId":"20215989"}}},{"Relevance":1.0,"Distance":29.1,"MatchLevel":"landmark","MatchQuality":{"Country":1.0,"State":1.0,"County":1.0,"City":1.0,"Street":[1.0],"PostalCode":1.0,"Name":1.0},"Location":{"LocationId":"NT_HGLrySpPKk3os24mWkQ21A_p_4W2-EOkon9uR.YQcHa3zFA","LocationType":"park","Name":"Parc de Catalunya","DisplayPosition":{"Latitude":41.55032,"Longitude":2.09755},"MapView":{"TopLeft":{"Latitude":41.55395,"Longitude":2.08347},"BottomRight":{"Latitude":41.54923,"Longitude":2.09811}},"Address":{"Label":"Carrer de Prat de la Riba, 08206 Sabadell (Barcelona), Espanya","Country":"ESP","State":"Catalunya","County":"Barcelona","City":"Sabadell","Street":"Carrer de Prat de la Riba","PostalCode":"08206","AdditionalData":[{"value":"Espanya","key":"CountryName"},{"value":"Catalunya","key":"StateName"},{"value":"Barcelona","key":"CountyName"}]},"MapReference":{"CountryId":"20215059","StateId":"20215741","CountyId":"20215742","CityId":"20215989","PlaceId":"58525271"}}},{"Relevance":1.0,"Distance":38.6,"MatchLevel":"street","MatchQuality":{"Country":1.0,"State":1.0,"County":1.0,"City":1.0,"PostalCode":1.0},"Location":{"LocationId":"NT_Ud1jMc0E0YiYBjo1AWxeuA_l_1025510253_R","LocationType":"point","DisplayPosition":{"Latitude":41.55306,"Longitude":2.08473},"MapView":{"TopLeft":{"Latitude":41.55316,"Longitude":2.08439},"BottomRight":{"Latitude":41.55306,"Longitude":2.08473}},"Address":{"Label":"08206 Sabadell (Barcelona), Espanya","Country":"ESP","State":"Catalunya","County":"Barcelona","City":"Sabadell","PostalCode":"08206","AdditionalData":[{"value":"Espanya","key":"CountryName"},{"value":"Catalunya","key":"StateName"},{"value":"Barcelona","key":"CountyName"}]},"MapReference":{"ReferenceId":"1025510253","Spot":0.0,"SideOfStreet":"right","CountryId":"20215059","StateId":"20215741","CountyId":"20215742","CityId":"20215989"}}},{"Relevance":1.0,"Distance":38.6,"MatchLevel":"street","MatchQuality":{"Country":1.0,"State":1.0,"County":1.0,"City":1.0,"PostalCode":1.0},"Location":{"LocationId":"NT_Ud1jMc0E0YiYBjo1AWxeuA_l_1025510241_R","LocationType":"point","DisplayPosition":{"Latitude":41.55306,"Longitude":2.08473},"MapView":{"TopLeft":{"Latitude":41.55306,"Longitude":2.08473},"BottomRight":{"Latitude":41.55301,"Longitude":2.08478}},"Address":{"Label":"08206 Sabadell (Barcelona), Espanya","Country":"ESP","State":"Catalunya","County":"Barcelona","City":"Sabadell","PostalCode":"08206","AdditionalData":[{"value":"Espanya","key":"CountryName"},{"value":"Catalunya","key":"StateName"},{"value":"Barcelona","key":"CountyName"}]},"MapReference":{"ReferenceId":"1025510241","Spot":1.0,"SideOfStreet":"right","CountryId":"20215059","StateId":"20215741","CountyId":"20215742","CityId":"20215989"}}},{"Relevance":1.0,"Distance":38.7,"MatchLevel":"street","MatchQuality":{"Country":1.0,"State":1.0,"County":1.0,"City":1.0,"PostalCode":1.0},"Location":{"LocationId":"NT_Ud1jMc0E0YiYBjo1AWxeuA_l_1025510244_R","LocationType":"point","DisplayPosition":{"Latitude":41.5530583,"Longitude":2.0847419},"MapView":{"TopLeft":{"Latitude":41.55306,"Longitude":2.08473},"BottomRight":{"Latitude":41.55304,"Longitude":2.08487}},"Address":{"Label":"08206 Sabadell (Barcelona), Espanya","Country":"ESP","State":"Catalunya","County":"Barcelona","City":"Sabadell","PostalCode":"08206","AdditionalData":[{"value":"Espanya","key":"CountryName"},{"value":"Catalunya","key":"StateName"},{"value":"Barcelona","key":"CountyName"}]},"MapReference":{"ReferenceId":"1025510244","Spot":0.92,"SideOfStreet":"right","CountryId":"20215059","StateId":"20215741","CountyId":"20215742","CityId":"20215989"}}},{"Relevance":1.0,"Distance":41.0,"MatchLevel":"street","MatchQuality":{"Country":1.0,"State":1.0,"County":1.0,"City":1.0,"PostalCode":1.0},"Location":{"LocationId":"NT_Ud1jMc0E0YiYBjo1AWxeuA_l_1025510245_L","LocationType":"point","DisplayPosition":{"Latitude":41.55304,"Longitude":2.08487},"MapView":{"TopLeft":{"Latitude":41.55304,"Longitude":2.08478},"BottomRight":{"Latitude":41.55301,"Longitude":2.08487}},"Address":{"Label":"08206 Sabadell (Barcelona), Espanya","Country":"ESP","State":"Catalunya","County":"Barcelona","City":"Sabadell","PostalCode":"08206","AdditionalData":[{"value":"Espanya","key":"CountryName"},{"value":"Catalunya","key":"StateName"},{"value":"Barcelona","key":"CountyName"}]},"MapReference":{"ReferenceId":"1025510245","Spot":1.0,"SideOfStreet":"left","CountryId":"20215059","StateId":"20215741","CountyId":"20215742","CityId":"20215989"}}},{"Relevance":1.0,"Distance":41.0,"MatchLevel":"street","MatchQuality":{"Country":1.0,"State":1.0,"County":1.0,"City":1.0,"PostalCode":1.0},"Location":{"LocationId":"NT_Ud1jMc0E0YiYBjo1AWxeuA_l_1025510243_R","LocationType":"point","DisplayPosition":{"Latitude":41.55304,"Longitude":2.08487},"MapView":{"TopLeft":{"Latitude":41.55304,"Longitude":2.08487},"BottomRight":{"Latitude":41.55298,"Longitude":2.08544}},"Address":{"Label":"08206 Sabadell (Barcelona), Espanya","Country":"ESP","State":"Catalunya","County":"Barcelona","City":"Sabadell","PostalCode":"08206","AdditionalData":[{"value":"Espanya","key":"CountryName"},{"value":"Catalunya","key":"StateName"},{"value":"Barcelona","key":"CountyName"}]},"MapReference":{"ReferenceId":"1025510243","Spot":1.0,"SideOfStreet":"right","CountryId":"20215059","StateId":"20215741","CountyId":"20215742","CityId":"20215989"}}},{"Relevance":1.0,"Distance":43.9,"MatchLevel":"street","MatchQuality":{"Country":1.0,"State":1.0,"County":1.0,"City":1.0,"PostalCode":1.0},"Location":{"LocationId":"NT_Ud1jMc0E0YiYBjo1AWxeuA_l_1025510240_R","LocationType":"point","DisplayPosition":{"Latitude":41.55301,"Longitude":2.08478},"MapView":{"TopLeft":{"Latitude":41.55301,"Longitude":2.08478},"BottomRight":{"Latitude":41.55297,"Longitude":2.08481}},"Address":{"Label":"08206 Sabadell (Barcelona), Espanya","Country":"ESP","State":"Catalunya","County":"Barcelona","City":"Sabadell","PostalCode":"08206","AdditionalData":[{"value":"Espanya","key":"CountryName"},{"value":"Catalunya","key":"StateName"},{"value":"Barcelona","key":"CountyName"}]},"MapReference":{"ReferenceId":"1025510240","Spot":1.0,"SideOfStreet":"right","CountryId":"20215059","StateId":"20215741","CountyId":"20215742","CityId":"20215989"}}}]}]}}