{"Response":{"MetaInfo":{"Timestamp":"2020-03-28T09:38:06.675+0000","NextPageInformation":"2"},"View":[{"_type":"SearchResultsViewType","ViewId":0,"Result":[{"Relevance":1.0,"Distance":0.0,"Direction":0.0,"MatchLevel":"city","MatchQuality":{"Country":1.0,"State":1.0,"County":1.0,"City":1.0,"PostalCode":1.0},"Location":{"LocationId":"NT_SpNg.qHtmCT1aEjfQZapNA","LocationType":"point","DisplayPosition":{"Latitude":41.5836517,"Longitude":2.5451532},"MapView":{"TopLeft":{"Latitude":41.59626,"Longitude":2.52116},"BottomRight":{"Latitude":41.56906,"Longitude":2.57188}},"Address":{"Label":"Arenys de Mar, Catalunya, Espanya","Country":"ESP","State":"Catalunya","County":"Barcelona","City":"Arenys de Mar","PostalCode":"08350","AdditionalData":[{"value":"Espanya","key":"CountryName"},{"value":"Catalunya","key":"StateName"},{"value":"Barcelona","key":"CountyName"}]},"MapReference":{"ReferenceId":"997301010","SideOfStreet":"neither","CountryId":"20215059","StateId":"20215741","CountyId":"20215742","CityId":"20221949"}}},{"Relevance":1.0,"Distance":42.8,"MatchLevel":"street","MatchQuality":{"Country":1.0,"State":1.0,"County":1.0,"City":1.0,"PostalCode":1.0},"Location":{"LocationId":"NT_GkGfhnbpMY.dAeCRNiDjwA_l_592000589_L","LocationType":"point","DisplayPosition":{"Latitude":41.58355,"Longitude":2.54565},"MapView":{"TopLeft":{"Latitude":41.58369,"Longitude":2.54565},"BottomRight":{"Latitude":41.58302,"Longitude":2.54615}},"Address":{"Label":"08350 Arenys de Mar (Barcelona), Espanya","Country":"ESP","State":"Catalunya","County":"Barcelona","City":"Arenys de Mar","PostalCode":"08350","AdditionalData":[{"value":"Espanya","key":"CountryName"},{"value":"Catalunya","key":"StateName"},{"value":"Barcelona","key":"CountyName"}]},"MapReference":{"ReferenceId":"592000589","Spot":0.69,"SideOfStreet":"left","CountryId":"20215059","StateId":"20215741","CountyId":"20215742","CityId":"20221949"}}},{"Relevance":1.0,"Distance":48.4,"MatchLevel":"street","MatchQuality":{"Country":1.0,"State":1.0,"County":1.0,"City":1.0,"Street":[1.0],"PostalCode":1.0},"Location":{"LocationId":"NT_Mgug7vkpR2ZqzBybcPz7iA_l_592000587_L","LocationType":"point","DisplayPosition":{"Latitude":41.5840461,"Longitude":2.5453984},"MapView":{"TopLeft":{"Latitude":41.58407,"Longitude":2.54536},"BottomRight":{"Latitude":41.58369,"Longitude":2.54594}},"Address":{"Label":"Carrer Auterive, 08350 Arenys de Mar (Barcelona), Espanya","Country":"ESP","State":"Catalunya","County":"Barcelona","City":"Arenys de Mar","Street":"Carrer Auterive","PostalCode":"08350","AdditionalData":[{"value":"Espanya","key":"CountryName"},{"value":"Catalunya","key":"StateName"},{"value":"Barcelona","key":"CountyName"}]},"MapReference":{"ReferenceId":"592000587","Spot":0.93,"SideOfStreet":"left","CountryId":"20215059","StateId":"20215741","CountyId":"20215742","CityId":"20221949"}}},{"Relevance":1.0,"Distance":49.0,"MatchLevel":"houseNumber","MatchQuality":{"Country":1.0,"State":1.0,"County":1.0,"City":1.0,"Street":[1.0],"HouseNumber":1.0,"PostalCode":1.0},"MatchType":"interpolated","Location":{"LocationId":"NT_GNgaVK1bzUzVefhQaiSu6A_xYD","LocationType":"point","DisplayPosition":{"Latitude":41.58333,"Longitude":2.54475},"MapView":{"TopLeft":{"Latitude":41.5844542,"Longitude":2.5432471},"BottomRight":{"Latitude":41.5822058,"Longitude":2.5462529}},"Address":{"Label":"Carrer Can Nadal, 16, 08350 Arenys de Mar (Barcelona), Espanya","Country":"ESP","State":"Catalunya","County":"Barcelona","City":"Arenys de Mar","Street":"Carrer Can Nadal","HouseNumber":"16","PostalCode":"08350","AdditionalData":[{"value":"Espanya","key":"CountryName"},{"value":"Catalunya","key":"StateName"},{"value":"Barcelona","key":"CountyName"}]},"MapReference":{"ReferenceId":"537432713","Spot":0.47,"SideOfStreet":"right","CountryId":"20215059","StateId":"20215741","CountyId":"20215742","CityId":"20221949","AddressId":"349601299","RoadLinkId":"65935507"}}},{"Relevance":1.0,"Distance":49.6,"MatchLevel":"street","MatchQuality":{"Country":1.0,"State":1.0,"County":1.0,"City":1.0,"Street":[1.0],"PostalCode":1.0},"Location":{"LocationId":"NT_Mgug7vkpR2ZqzBybcPz7iA_l_537432777_L","LocationType":"point","DisplayPosition":{"Latitude":41.58407,"Longitude":2.54536},"MapView":{"TopLeft":{"Latitude":41.58456,"Longitude":2.5448},"BottomRight":{"Latitude":41.58407,"Longitude":2.54536}},"Address":{"Label":"Carrer Auterive, 08350 Arenys de Mar (Barcelona), Espanya","Country":"ESP","State":"Catalunya","County":"Barcelona","City":"Arenys de Mar","Street":"Carrer Auterive","PostalCode":"08350","AdditionalData":[{"value":"Espanya","key":"CountryName"},{"value":"Catalunya","key":"StateName"},{"value":"Barcelona","key":"CountyName"}]},"MapReference":{"ReferenceId":"537432777","Spot":0.0,"SideOfStreet":"left","CountryId":"20215059","StateId":"20215741","CountyId":"20215742","CityId":"20221949"}}},{"Relevance":1.0,"Distance":65.6,"MatchLevel":"street","MatchQuality":{"Country":1.0,"State":1.0,"County":1.0,"City":1.0,"Street":[1.0],"PostalCode":1.0},"Location":{"LocationId":"NT_Mgug7vkpR2ZqzBybcPz7iA_l_592000586_L","LocationType":"point","DisplayPosition":{"Latitude":41.58369,"Longitude":2.54594},"MapView":{"TopLeft":{"Latitude":41.58369,"Longitude":2.54594},"BottomRight":{"Latitude":41.58308,"Longitude":2.54642}},"Address":{"Label":"Carrer Auterive, 08350 Arenys de Mar (Barcelona), Espanya","Country":"ESP","State":"Catalunya","County":"Barcelona","City":"Arenys de Mar","Street":"Carrer Auterive","PostalCode":"08350","AdditionalData":[{"value":"Espanya","key":"CountryName"},{"value":"Catalunya","key":"StateName"},{"value":"Barcelona","key":"CountyName"}]},"MapReference":{"ReferenceId":"592000586","Spot":1.0,"SideOfStreet":"left","CountryId":"20215059","StateId":"20215741","CountyId":"20215742","CityId":"20221949"}}},{"Relevance":1.0,"Distance":86.6,"MatchLevel":"street","MatchQuality":{"Country":1.0,"State":1.0,"County":1.0,"City":1.0,"Street":[1.0],"PostalCode":1.0},"Location":{"LocationId":"NT_4ivPBtbwLoalS.mlUuCWhB_l_592000709_R","LocationType":"point","DisplayPosition":{"Latitude":41.58419,"Longitude":2.5444},"MapView":{"TopLeft":{"Latitude":41.58475,"Longitude":2.54404},"BottomRight":{"Latitude":41.58408,"Longitude":2.54484}},"Address":{"Label":"Parc de Lourdes, 08350 Arenys de Mar (Barcelona), Espanya","Country":"ESP","State":"Catalunya","County":"Barcelona","City":"Arenys de Mar","Street":"Parc de Lourdes","PostalCode":"08350","AdditionalData":[{"value":"Espanya","key":"CountryName"},{"value":"Catalunya","key":"StateName"},{"value":"Barcelona","key":"CountyName"}]},"MapReference":{"ReferenceId":"592000709","Spot":0.27,"SideOfStreet":"right","CountryId":"20215059","StateId":"20215741","CountyId":"20215742","CityId":"20221949"}}},{"Relevance":1.0,"Distance":97.7,"MatchLevel":"street","MatchQuality":{"Country":1.0,"State":1.0,"County":1.0,"City":1.0,"PostalCode":1.0},"Location":{"LocationId":"NT_GkGfhnbpMY.dAeCRNiDjwA_l_592000712_R","LocationType":"point","DisplayPosition":{"Latitude":41.58345,"Longitude":2.54401},"MapView":{"TopLeft":{"Latitude":41.58366,"Longitude":2.54395},"BottomRight":{"Latitude":41.58332,"Longitude":2.54401}},"Address":{"Label":"08350 Arenys de Mar (Barcelona), Espanya","Country":"ESP","State":"Catalunya","County":"Barcelona","City":"Arenys de Mar","PostalCode":"08350","AdditionalData":[{"value":"Espanya","key":"CountryName"},{"value":"Catalunya","key":"StateName"},{"value":"Barcelona","key":"CountyName"}]},"MapReference":{"ReferenceId":"592000712","Spot":0.37,"SideOfStreet":"right","CountryId":"20215059","StateId":"20215741","CountyId":"20215742","CityId":"20221949"}}},{"Relevance":1.0,"Distance":98.8,"MatchLevel":"houseNumber","MatchQuality":{"Country":1.0,"State":1.0,"County":1.0,"City":1.0,"Street":[1.0],"HouseNumber":1.0,"PostalCode":1.0},"MatchType":"interpolated","Location":{"LocationId":"NT_e0UsQewmctNKR15.C1MOiD_xYD","LocationType":"point","DisplayPosition":{"Latitude":41.58437,"Longitude":2.54588},"MapView":{"TopLeft":{"Latitude":41.5854942,"Longitude":2.5443771},"BottomRight":{"Latitude":41.5832458,"Longitude":2.5473829}},"Address":{"Label":"Carrer Santa Clara, 16, 08350 Arenys de Mar (Barcelona), Espanya","Country":"ESP","State":"Catalunya","County":"Barcelona","City":"Arenys de Mar","Street":"Carrer Santa Clara","HouseNumber":"16","PostalCode":"08350","AdditionalData":[{"value":"Espanya","key":"CountryName"},{"value":"Catalunya","key":"StateName"},{"value":"Barcelona","key":"CountyName"}]},"MapReference":{"ReferenceId":"592000600","Spot":0.62,"SideOfStreet":"left","CountryId":"20215059","StateId":"20215741","CountyId":"20215742","CityId":"20221949","AddressId":"349621784","RoadLinkId":"65949478"}}},{"Relevance":1.0,"Distance":100.3,"MatchLevel":"street","MatchQuality":{"Country":1.0,"State":1.0,"County":1.0,"City":1.0,"Street":[1.0],"PostalCode":1.0},"Location":{"LocationId":"NT_XaLaUHrhsLHLIXDdGOH-3C_l_592000711_R","LocationType":"point","DisplayPosition":{"Latitude":41.58324,"Longitude":2.54408},"MapView":{"TopLeft":{"Latitude":41.58332,"Longitude":2.544},"BottomRight":{"Latitude":41.58324,"Longitude":2.54408}},"Address":{"Label":"Riera Rial de sa Clavella Secció 4, 08350 Arenys de Mar (Barcelona), Espanya","Country":"ESP","State":"Catalunya","County":"Barcelona","City":"Arenys de Mar","Street":"Riera Rial de sa Clavella Secció 4","PostalCode":"08350","AdditionalData":[{"value":"Espanya","key":"CountryName"},{"value":"Catalunya","key":"StateName"},{"value":"Barcelona","key":"CountyName"}]},"MapReference":{"ReferenceId":"592000711","Spot":0.0,"SideOfStreet":"right","CountryId":"20215059","StateId":"20215741","CountyId":"20215742","CityId":"20221949"}}}]}]}}