{"Response":{"MetaInfo":{"Timestamp":"2020-03-28T09:47:36.997+0000","NextPageInformation":"2"},"View":[{"_type":"SearchResultsViewType","ViewId":0,"Result":[{"Relevance":1.0,"Distance":0.0,"Direction":0.0,"MatchLevel":"city","MatchQuality":{"Country":1.0,"State":1.0,"County":1.0,"City":1.0,"PostalCode":1.0},"Location":{"LocationId":"NT_F.WX-mVd8jCooBrmKSqZcB","LocationType":"point","DisplayPosition":{"Latitude":41.5324176,"Longitude":2.1171141},"MapView":{"TopLeft":{"Latitude":41.59243,"Longitude":2.04775},"BottomRight":{"Latitude":41.50671,"Longitude":2.15161}},"Address":{"Label":"Sabadell, Catalunya, Espanya","Country":"ESP","State":"Catalunya","County":"Barcelona","City":"Sabadell","PostalCode":"08201","AdditionalData":[{"value":"Espanya","key":"CountryName"},{"value":"Catalunya","key":"StateName"},{"value":"Barcelona","key":"CountyName"}]},"MapReference":{"ReferenceId":"538052180","SideOfStreet":"neither","CountryId":"20215059","StateId":"20215741","CountyId":"20215742","CityId":"20215989"}}},{"Relevance":1.0,"Distance":10.9,"MatchLevel":"houseNumber","MatchQuality":{"Country":1.0,"State":1.0,"County":1.0,"City":1.0,"Street":[1.0],"HouseNumber":1.0,"PostalCode":1.0},"MatchType":"interpolated","Location":{"LocationId":"NT_pSZf09MibCm-naBJugnJOB_yUzM","LocationType":"point","DisplayPosition":{"Latitude":41.53232,"Longitude":2.11713},"MapView":{"TopLeft":{"Latitude":41.5334442,"Longitude":2.1156283},"BottomRight":{"Latitude":41.5311958,"Longitude":2.1186317}},"Address":{"Label":"Carrer de Fra Luis de León, 253, 08203 Sabadell (Barcelona), Espanya","Country":"ESP","State":"Catalunya","County":"Barcelona","City":"Sabadell","Street":"Carrer de Fra Luis de León","HouseNumber":"253","PostalCode":"08203","AdditionalData":[{"value":"Espanya","key":"CountryName"},{"value":"Catalunya","key":"StateName"},{"value":"Barcelona","key":"CountyName"}]},"MapReference":{"ReferenceId":"538053986","Spot":0.73,"SideOfStreet":"right","CountryId":"20215059","StateId":"20215741","CountyId":"20215742","CityId":"20215989","AddressId":"594971190","RoadLinkId":"66566065"}}},{"Relevance":1.0,"Distance":11.7,"MatchLevel":"houseNumber","MatchQuality":{"Country":1.0,"State":1.0,"County":1.0,"City":1.0,"Street":[1.0],"HouseNumber":1.0,"PostalCode":1.0},"MatchType":"interpolated","Location":{"LocationId":"NT_pSZf09MibCm-naBJugnJOB_yQTN","LocationType":"point","DisplayPosition":{"Latitude":41.53251,"Longitude":2.11704},"MapView":{"TopLeft":{"Latitude":41.5336342,"Longitude":2.1155383},"BottomRight":{"Latitude":41.5313858,"Longitude":2.1185417}},"Address":{"Label":"Carrer de Fra Luis de León, 245, 08203 Sabadell (Barcelona), Espanya","Country":"ESP","State":"Catalunya","County":"Barcelona","City":"Sabadell","Street":"Carrer de Fra Luis de León","HouseNumber":"245","PostalCode":"08203","AdditionalData":[{"value":"Espanya","key":"CountryName"},{"value":"Catalunya","key":"StateName"},{"value":"Barcelona","key":"CountyName"}]},"MapReference":{"ReferenceId":"538053963","Spot":0.16,"SideOfStreet":"right","CountryId":"20215059","StateId":"20215741","CountyId":"20215742","CityId":"20215989","AddressId":"594972413","RoadLinkId":"65974775"}}},{"Relevance":1.0,"Distance":38.1,"MatchLevel":"houseNumber","MatchQuality":{"Country":1.0,"State":1.0,"County":1.0,"City":1.0,"Street":[1.0],"HouseNumber":1.0,"PostalCode":1.0},"MatchType":"interpolated","Location":{"LocationId":"NT_6mgEhHqAMxWOSNKiIhHe.D_zYD","LocationType":"point","DisplayPosition":{"Latitude":41.53282,"Longitude":2.11708},"MapView":{"TopLeft":{"Latitude":41.5339442,"Longitude":2.1155783},"BottomRight":{"Latitude":41.5316958,"Longitude":2.1185817}},"Address":{"Label":"Carrer del Doctor Gimbernat, 36, 08203 Sabadell (Barcelona), Espanya","Country":"ESP","State":"Catalunya","County":"Barcelona","City":"Sabadell","Street":"Carrer del Doctor Gimbernat","HouseNumber":"36","PostalCode":"08203","AdditionalData":[{"value":"Espanya","key":"CountryName"},{"value":"Catalunya","key":"StateName"},{"value":"Barcelona","key":"CountyName"}]},"MapReference":{"ReferenceId":"538053925","Spot":0.17,"SideOfStreet":"right","CountryId":"20215059","StateId":"20215741","CountyId":"20215742","CityId":"20215989","AddressId":"594940955","RoadLinkId":"65771986"}}},{"Relevance":1.0,"Distance":46.5,"MatchLevel":"houseNumber","MatchQuality":{"Country":1.0,"State":1.0,"County":1.0,"City":1.0,"Street":[1.0],"HouseNumber":1.0,"PostalCode":1.0},"MatchType":"interpolated","Location":{"LocationId":"NT_iBWFa2KBhR2reQ3ONx96-B_xAD","LocationType":"point","DisplayPosition":{"Latitude":41.53261,"Longitude":2.11761},"MapView":{"TopLeft":{"Latitude":41.5337342,"Longitude":2.1161083},"BottomRight":{"Latitude":41.5314858,"Longitude":2.1191117}},"Address":{"Label":"Passatge dels Rifós, 10, 08203 Sabadell (Barcelona), Espanya","Country":"ESP","State":"Catalunya","County":"Barcelona","City":"Sabadell","Street":"Passatge dels Rifós","HouseNumber":"10","PostalCode":"08203","AdditionalData":[{"value":"Espanya","key":"CountryName"},{"value":"Catalunya","key":"StateName"},{"value":"Barcelona","key":"CountyName"}]},"MapReference":{"ReferenceId":"538053962","Spot":0.54,"SideOfStreet":"right","CountryId":"20215059","StateId":"20215741","CountyId":"20215742","CityId":"20215989","AddressId":"594942494","RoadLinkId":"66108203"}}},{"Relevance":1.0,"Distance":47.2,"MatchLevel":"houseNumber","MatchQuality":{"Country":1.0,"State":1.0,"County":1.0,"City":1.0,"Street":[1.0],"HouseNumber":1.0,"PostalCode":1.0},"MatchType":"interpolated","Location":{"LocationId":"NT_N6ZzBkrGfeFHCOGtf-Ty-B_yMD","LocationType":"point","DisplayPosition":{"Latitude":41.53199,"Longitude":2.11753},"MapView":{"TopLeft":{"Latitude":41.5331142,"Longitude":2.1160283},"BottomRight":{"Latitude":41.5308658,"Longitude":2.1190317}},"Address":{"Label":"Passeig de Rubió i Ors, 23, 08203 Sabadell (Barcelona), Espanya","Country":"ESP","State":"Catalunya","County":"Barcelona","City":"Sabadell","Street":"Passeig de Rubió i Ors","HouseNumber":"23","PostalCode":"08203","AdditionalData":[{"value":"Espanya","key":"CountryName"},{"value":"Catalunya","key":"StateName"},{"value":"Barcelona","key":"CountyName"}]},"MapReference":{"ReferenceId":"538053985","Spot":0.2,"SideOfStreet":"left","CountryId":"20215059","StateId":"20215741","CountyId":"20215742","CityId":"20215989","AddressId":"594954521","RoadLinkId":"65349404"}}},{"Relevance":1.0,"Distance":52.7,"MatchLevel":"houseNumber","MatchQuality":{"Country":1.0,"State":1.0,"County":1.0,"City":1.0,"Street":[1.0],"HouseNumber":1.0,"PostalCode":1.0},"MatchType":"interpolated","Location":{"LocationId":"NT_6mgEhHqAMxWOSNKiIhHe.D_xYD","LocationType":"point","DisplayPosition":{"Latitude":41.53265,"Longitude":2.1165},"MapView":{"TopLeft":{"Latitude":41.5337742,"Longitude":2.1149983},"BottomRight":{"Latitude":41.5315258,"Longitude":2.1180017}},"Address":{"Label":"Carrer del Doctor Gimbernat, 16, 08203 Sabadell (Barcelona), Espanya","Country":"ESP","State":"Catalunya","County":"Barcelona","City":"Sabadell","Street":"Carrer del Doctor Gimbernat","HouseNumber":"16","PostalCode":"08203","AdditionalData":[{"value":"Espanya","key":"CountryName"},{"value":"Catalunya","key":"StateName"},{"value":"Barcelona","key":"CountyName"}]},"MapReference":{"ReferenceId":"538053952","Spot":0.59,"SideOfStreet":"right","CountryId":"20215059","StateId":"20215741","CountyId":"20215742","CityId":"20215989","AddressId":"594958280","RoadLinkId":"65931837"}}},{"Relevance":1.0,"Distance":54.2,"MatchLevel":"houseNumber","MatchQuality":{"Country":1.0,"State":1.0,"County":1.0,"City":1.0,"Street":[1.0],"HouseNumber":1.0,"PostalCode":1.0},"MatchType":"interpolated","Location":{"LocationId":"NT_pSZf09MibCm-naBJugnJOB_yMTN","LocationType":"point","DisplayPosition":{"Latitude":41.53287,"Longitude":2.11686},"MapView":{"TopLeft":{"Latitude":41.5339942,"Longitude":2.1153583},"BottomRight":{"Latitude":41.5317458,"Longitude":2.1183617}},"Address":{"Label":"Carrer de Fra Luis de León, 235, 08203 Sabadell (Barcelona), Espanya","Country":"ESP","State":"Catalunya","County":"Barcelona","City":"Sabadell","Street":"Carrer de Fra Luis de León","HouseNumber":"235","PostalCode":"08203","AdditionalData":[{"value":"Espanya","key":"CountryName"},{"value":"Catalunya","key":"StateName"},{"value":"Barcelona","key":"CountyName"}]},"MapReference":{"ReferenceId":"538053926","Spot":0.13,"SideOfStreet":"right","CountryId":"20215059","StateId":"20215741","CountyId":"20215742","CityId":"20215989","AddressId":"594968142","RoadLinkId":"66433014"}}},{"Relevance":1.0,"Distance":58.8,"MatchLevel":"houseNumber","MatchQuality":{"Country":1.0,"State":1.0,"County":1.0,"City":1.0,"Street":[1.0],"HouseNumber":1.0,"PostalCode":1.0},"MatchType":"interpolated","Location":{"LocationId":"NT_N6ZzBkrGfeFHCOGtf-Ty-B_3A","LocationType":"point","DisplayPosition":{"Latitude":41.53183,"Longitude":2.11689},"MapView":{"TopLeft":{"Latitude":41.5329542,"Longitude":2.1153883},"BottomRight":{"Latitude":41.5307058,"Longitude":2.1183917}},"Address":{"Label":"Passeig de Rubió i Ors, 7, 08203 Sabadell (Barcelona), Espanya","Country":"ESP","State":"Catalunya","County":"Barcelona","City":"Sabadell","Street":"Passeig de Rubió i Ors","HouseNumber":"7","PostalCode":"08203","AdditionalData":[{"value":"Espanya","key":"CountryName"},{"value":"Catalunya","key":"StateName"},{"value":"Barcelona","key":"CountyName"}]},"MapReference":{"ReferenceId":"538053998","Spot":0.47,"SideOfStreet":"left","CountryId":"20215059","StateId":"20215741","CountyId":"20215742","CityId":"20215989","AddressId":"594947552","RoadLinkId":"66262993"}}},{"Relevance":1.0,"Distance":76.9,"MatchLevel":"houseNumber","MatchQuality":{"Country":1.0,"State":1.0,"County":1.0,"City":1.0,"Street":[1.0],"HouseNumber":1.0,"PostalCode":1.0},"MatchType":"interpolated","Location":{"LocationId":"NT_Bd3bWGUpZZdm0CN6JYHd0D_xA","LocationType":"point","DisplayPosition":{"Latitude":41.53176,"Longitude":2.1174},"MapView":{"TopLeft":{"Latitude":41.5328842,"Longitude":2.1158983},"BottomRight":{"Latitude":41.5306358,"Longitude":2.1189017}},"Address":{"Label":"Carrer de Lope de Vega, 1, 08204 Sabadell (Barcelona), Espanya","Country":"ESP","State":"Catalunya","County":"Barcelona","City":"Sabadell","Street":"Carrer de Lope de Vega","HouseNumber":"1","PostalCode":"08204","AdditionalData":[{"value":"Espanya","key":"CountryName"},{"value":"Catalunya","key":"StateName"},{"value":"Barcelona","key":"CountyName"}]},"MapReference":{"ReferenceId":"538054025","Spot":0.79,"SideOfStreet":"right","CountryId":"20215059","StateId":"20215741","CountyId":"20215742","CityId":"20215989","AddressId":"594942791","RoadLinkId":"65950257"}}}]}]}}