{"Response":{"MetaInfo":{"Timestamp":"2020-03-28T09:56:18.681+0000","NextPageInformation":"2"},"View":[{"_type":"SearchResultsViewType","ViewId":0,"Result":[{"Relevance":1.0,"Distance":0.0,"Direction":0.0,"MatchLevel":"city","MatchQuality":{"Country":1.0,"State":1.0,"County":1.0,"City":1.0,"PostalCode":1.0},"Location":{"LocationId":"NT_m7VRW11C.pkT94VYxC5A6B","LocationType":"point","DisplayPosition":{"Latitude":41.5531236,"Longitude":14.657756},"MapView":{"TopLeft":{"Latitude":41.619,"Longitude":14.58154},"BottomRight":{"Latitude":41.52876,"Longitude":14.72705}},"Address":{"Label":"Campobasso, Molise, Italia","Country":"ITA","State":"Molise","County":"CB","City":"Campobasso","PostalCode":"86100","AdditionalData":[{"value":"Italia","key":"CountryName"},{"value":"Molise","key":"StateName"},{"value":"Campobasso","key":"CountyName"}]},"MapReference":{"ReferenceId":"866202551","SideOfStreet":"neither","CountryId":"20110484","StateId":"20127665","CountyId":"20218046","CityId":"20218063"}}},{"Relevance":1.0,"Distance":13.8,"MatchLevel":"houseNumber","MatchQuality":{"Country":1.0,"State":1.0,"County":1.0,"City":1.0,"Street":[1.0],"HouseNumber":1.0,"PostalCode":1.0},"MatchType":"interpolated","Location":{"LocationId":"NT_b1c9ADzv6qbGc.D6zLzF5D_xIjQ","LocationType":"point","DisplayPosition":{"Latitude":41.55354,"Longitude":14.65733},"MapView":{"TopLeft":{"Latitude":41.5546642,"Longitude":14.6558278},"BottomRight":{"Latitude":41.5524158,"Longitude":14.6588322}},"Address":{"Label":"Via Duca d'Aosta, 12B, 86100 Campobasso CB, Italia","Country":"ITA","State":"Molise","County":"CB","City":"Campobasso","Street":"Via Duca d'Aosta","HouseNumber":"12B","PostalCode":"86100","AdditionalData":[{"value":"Italia","key":"CountryName"},{"value":"Molise","key":"StateName"},{"value":"Campobasso","key":"CountyName"}]},"MapReference":{"ReferenceId":"865113340","Spot":1.0,"SideOfStreet":"right","CountryId":"20110484","StateId":"20127665","CountyId":"20218046","CityId":"20218063","AddressId":"752711722","RoadLinkId":"238433210"}}},{"Relevance":1.0,"Distance":24.4,"MatchLevel":"houseNumber","MatchQuality":{"Country":1.0,"State":1.0,"County":1.0,"City":1.0,"Street":[1.0],"HouseNumber":1.0,"PostalCode":1.0},"MatchType":"interpolated","Location":{"LocationId":"NT_m6g4euQrbSYKLG0YwwbWYC_1A","LocationType":"point","DisplayPosition":{"Latitude":41.55376,"Longitude":14.65835},"MapView":{"TopLeft":{"Latitude":41.5548842,"Longitude":14.6568478},"BottomRight":{"Latitude":41.5526358,"Longitude":14.6598522}},"Address":{"Label":"Via Conte Verde, 5, 86100 Campobasso CB, Italia","Country":"ITA","State":"Molise","County":"CB","City":"Campobasso","Street":"Via Conte Verde","HouseNumber":"5","PostalCode":"86100","AdditionalData":[{"value":"Italia","key":"CountryName"},{"value":"Molise","key":"StateName"},{"value":"Campobasso","key":"CountyName"}]},"MapReference":{"ReferenceId":"550437819","Spot":1.0,"SideOfStreet":"left","CountryId":"20110484","StateId":"20127665","CountyId":"20218046","CityId":"20218063","AddressId":"710048824","RoadLinkId":"56912517"}}},{"Relevance":1.0,"Distance":43.0,"MatchLevel":"houseNumber","MatchQuality":{"Country":1.0,"State":1.0,"County":1.0,"City":1.0,"Street":[1.0],"HouseNumber":1.0,"PostalCode":1.0},"MatchType":"interpolated","Location":{"LocationId":"NT_NV.Zumpwuv14Wn.oSL1aAA_xIE","LocationType":"point","DisplayPosition":{"Latitude":41.55376,"Longitude":14.65835},"MapView":{"TopLeft":{"Latitude":41.5548842,"Longitude":14.6568478},"BottomRight":{"Latitude":41.5526358,"Longitude":14.6598522}},"Address":{"Label":"Via Conte Rosso, 1B, 86100 Campobasso CB, Italia","Country":"ITA","State":"Molise","County":"CB","City":"Campobasso","Street":"Via Conte Rosso","HouseNumber":"1B","PostalCode":"86100","AdditionalData":[{"value":"Italia","key":"CountryName"},{"value":"Molise","key":"StateName"},{"value":"Campobasso","key":"CountyName"}]},"MapReference":{"ReferenceId":"550437460","Spot":1.0,"SideOfStreet":"left","CountryId":"20110484","StateId":"20127665","CountyId":"20218046","CityId":"20218063","AddressId":"710047803","RoadLinkId":"56987593"}}},{"Relevance":1.0,"Distance":61.7,"MatchLevel":"street","MatchQuality":{"Country":1.0,"State":1.0,"County":1.0,"City":1.0,"Street":[1.0],"PostalCode":1.0},"Location":{"LocationId":"NT_u1CzOijfdFVswXWOtXmBrA_l_864585918_R","LocationType":"point","DisplayPosition":{"Latitude":41.5536262,"Longitude":14.6574419},"MapView":{"TopLeft":{"Latitude":41.55375,"Longitude":14.65733},"BottomRight":{"Latitude":41.55354,"Longitude":14.65771}},"Address":{"Label":"Via Duca di Genova, 86100 Campobasso CB, Italia","Country":"ITA","State":"Molise","County":"CB","City":"Campobasso","Street":"Via Duca di Genova","PostalCode":"86100","AdditionalData":[{"value":"Italia","key":"CountryName"},{"value":"Molise","key":"StateName"},{"value":"Campobasso","key":"CountyName"}]},"MapReference":{"ReferenceId":"864585918","Spot":0.32,"SideOfStreet":"right","CountryId":"20110484","StateId":"20127665","CountyId":"20218046","CityId":"20218063"}}},{"Relevance":1.0,"Distance":65.8,"MatchLevel":"houseNumber","MatchQuality":{"Country":1.0,"State":1.0,"County":1.0,"City":1.0,"Street":[1.0],"HouseNumber":1.0,"PostalCode":1.0},"MatchType":"interpolated","Location":{"LocationId":"NT_NV.Zumpwuv14Wn.oSL1aAA_l_550437479_L_xA","LocationType":"point","DisplayPosition":{"Latitude":41.5527947,"Longitude":14.6585388},"MapView":{"TopLeft":{"Latitude":41.5539189,"Longitude":14.6570366},"BottomRight":{"Latitude":41.5516705,"Longitude":14.6600409}},"Address":{"Label":"Via Conte Rosso, 1, 86100 Campobasso CB, Italia","Country":"ITA","State":"Molise","County":"CB","City":"Campobasso","Street":"Via Conte Rosso","HouseNumber":"1","PostalCode":"86100","AdditionalData":[{"value":"Italia","key":"CountryName"},{"value":"Molise","key":"StateName"},{"value":"Campobasso","key":"CountyName"}]},"MapReference":{"ReferenceId":"550437479","Spot":0.5,"SideOfStreet":"left","CountryId":"20110484","StateId":"20127665","CountyId":"20218046","CityId":"20218063"}}},{"Relevance":1.0,"Distance":69.8,"MatchLevel":"street","MatchQuality":{"Country":1.0,"State":1.0,"County":1.0,"City":1.0,"Street":[1.0],"PostalCode":1.0},"Location":{"LocationId":"NT_b1c9ADzv6qbGc.D6zLzF5D_l_864585920_L","LocationType":"point","DisplayPosition":{"Latitude":41.55375,"Longitude":14.65771},"MapView":{"TopLeft":{"Latitude":41.55392,"Longitude":14.65751},"BottomRight":{"Latitude":41.55375,"Longitude":14.65771}},"Address":{"Label":"Via Duca d'Aosta, 86100 Campobasso CB, Italia","Country":"ITA","State":"Molise","County":"CB","City":"Campobasso","Street":"Via Duca d'Aosta","PostalCode":"86100","AdditionalData":[{"value":"Italia","key":"CountryName"},{"value":"Molise","key":"StateName"},{"value":"Campobasso","key":"CountyName"}]},"MapReference":{"ReferenceId":"864585920","Spot":0.0,"SideOfStreet":"left","CountryId":"20110484","StateId":"20127665","CountyId":"20218046","CityId":"20218063"}}},{"Relevance":1.0,"Distance":78.9,"MatchLevel":"houseNumber","MatchQuality":{"Country":1.0,"State":1.0,"County":1.0,"City":1.0,"Street":[1.0],"HouseNumber":1.0,"PostalCode":1.0},"MatchType":"interpolated","Location":{"LocationId":"NT_b1c9ADzv6qbGc.D6zLzF5D_xA","LocationType":"point","DisplayPosition":{"Latitude":41.55379,"Longitude":14.65743},"MapView":{"TopLeft":{"Latitude":41.5549142,"Longitude":14.6559278},"BottomRight":{"Latitude":41.5526658,"Longitude":14.6589322}},"Address":{"Label":"Via Duca d'Aosta, 1, 86100 Campobasso CB, Italia","Country":"ITA","State":"Molise","County":"CB","City":"Campobasso","Street":"Via Duca d'Aosta","HouseNumber":"1","PostalCode":"86100","AdditionalData":[{"value":"Italia","key":"CountryName"},{"value":"Molise","key":"StateName"},{"value":"Campobasso","key":"CountyName"}]},"MapReference":{"ReferenceId":"864585916","Spot":0.63,"SideOfStreet":"left","CountryId":"20110484","StateId":"20127665","CountyId":"20218046","CityId":"20218063","AddressId":"710034815","RoadLinkId":"237904731"}}},{"Relevance":1.0,"Distance":83.1,"MatchLevel":"houseNumber","MatchQuality":{"Country":1.0,"State":1.0,"County":1.0,"City":1.0,"Street":[1.0],"HouseNumber":1.0,"PostalCode":1.0},"MatchType":"interpolated","Location":{"LocationId":"NT_m6g4euQrbSYKLG0YwwbWYC_zMD","LocationType":"point","DisplayPosition":{"Latitude":41.55244,"Longitude":14.65816},"MapView":{"TopLeft":{"Latitude":41.5535642,"Longitude":14.6566578},"BottomRight":{"Latitude":41.5513158,"Longitude":14.6596622}},"Address":{"Label":"Via Conte Verde, 33, 86100 Campobasso CB, Italia","Country":"ITA","State":"Molise","County":"CB","City":"Campobasso","Street":"Via Conte Verde","HouseNumber":"33","PostalCode":"86100","AdditionalData":[{"value":"Italia","key":"CountryName"},{"value":"Molise","key":"StateName"},{"value":"Campobasso","key":"CountyName"}]},"MapReference":{"ReferenceId":"550437508","Spot":1.0,"SideOfStreet":"left","CountryId":"20110484","StateId":"20127665","CountyId":"20218046","CityId":"20218063","AddressId":"710047634","RoadLinkId":"56646040"}}},{"Relevance":1.0,"Distance":86.3,"MatchLevel":"street","MatchQuality":{"Country":1.0,"State":1.0,"County":1.0,"City":1.0,"PostalCode":1.0},"Location":{"LocationId":"NT_y0YD1XDCez7s-5ml2WhV4D_l_1218682662_R","LocationType":"point","DisplayPosition":{"Latitude":41.55376,"Longitude":14.65835},"MapView":{"TopLeft":{"Latitude":41.5538,"Longitude":14.65835},"BottomRight":{"Latitude":41.55376,"Longitude":14.65856}},"Address":{"Label":"86100 Campobasso CB, Italia","Country":"ITA","State":"Molise","County":"CB","City":"Campobasso","PostalCode":"86100","AdditionalData":[{"value":"Italia","key":"CountryName"},{"value":"Molise","key":"StateName"},{"value":"Campobasso","key":"CountyName"}]},"MapReference":{"ReferenceId":"1218682662","Spot":0.0,"SideOfStreet":"right","CountryId":"20110484","StateId":"20127665","CountyId":"20218046","CityId":"20218063"}}}]}]}}