{"Response":{"MetaInfo":{"Timestamp":"2020-03-28T11:24:20.886+0000","NextPageInformation":"2"},"View":[{"_type":"SearchResultsViewType","ViewId":0,"Result":[{"Relevance":1.0,"Distance":-42.9,"MatchLevel":"landmark","MatchQuality":{"Country":1.0,"State":1.0,"County":1.0,"City":1.0,"PostalCode":1.0,"Name":1.0},"Location":{"LocationId":"NT_up0uZdMWwsFvcuQFnRGsJB","LocationType":"hospital","Name":"Francesco Lastaria","DisplayPosition":{"Latitude":41.51379,"Longitude":15.33152},"MapView":{"TopLeft":{"Latitude":41.51449,"Longitude":15.32999},"BottomRight":{"Latitude":41.51308,"Longitude":15.33412}},"Address":{"Label":"71036 Lucera FG, Italia","Country":"ITA","State":"Puglia","County":"FG","City":"Lucera","PostalCode":"71036","AdditionalData":[{"value":"Italia","key":"CountryName"},{"value":"Puglia","key":"StateName"},{"value":"Foggia","key":"CountyName"}]},"MapReference":{"CountryId":"20110484","StateId":"20218506","CountyId":"20218507","CityId":"20238789","PlaceId":"557004463"}}},{"Relevance":1.0,"Distance":0.0,"Direction":0.0,"MatchLevel":"city","MatchQuality":{"Country":1.0,"State":1.0,"County":1.0,"City":1.0,"PostalCode":1.0},"Location":{"LocationId":"NT_a04cMVPCEgQFLEiMQ.MetD","LocationType":"point","DisplayPosition":{"Latitude":41.513959,"Longitude":15.332513},"MapView":{"TopLeft":{"Latitude":41.59699,"Longitude":15.19023},"BottomRight":{"Latitude":41.39236,"Longitude":15.4788}},"Address":{"Label":"Lucera, Puglia, Italia","Country":"ITA","State":"Puglia","County":"FG","City":"Lucera","PostalCode":"71036","AdditionalData":[{"value":"Italia","key":"CountryName"},{"value":"Puglia","key":"StateName"},{"value":"Foggia","key":"CountyName"}]},"MapReference":{"ReferenceId":"554100012","SideOfStreet":"neither","CountryId":"20110484","StateId":"20218506","CountyId":"20218507","CityId":"20238789"}}},{"Relevance":1.0,"Distance":63.1,"MatchLevel":"street","MatchQuality":{"Country":1.0,"State":1.0,"County":1.0,"City":1.0,"Street":[1.0],"PostalCode":1.0},"Location":{"LocationId":"NT_DNEL0u1NdHSZgcrxlmEmFB_l_554091695_L","LocationType":"point","DisplayPosition":{"Latitude":41.5133952,"Longitude":15.3326007},"MapView":{"TopLeft":{"Latitude":41.51342,"Longitude":15.33141},"BottomRight":{"Latitude":41.51321,"Longitude":15.33276}},"Address":{"Label":"Viale Francesco Lastaria, 71036 Lucera FG, Italia","Country":"ITA","State":"Puglia","County":"FG","City":"Lucera","Street":"Viale Francesco Lastaria","PostalCode":"71036","AdditionalData":[{"value":"Italia","key":"CountryName"},{"value":"Puglia","key":"StateName"},{"value":"Foggia","key":"CountyName"}]},"MapReference":{"ReferenceId":"554091695","Spot":0.88,"SideOfStreet":"left","CountryId":"20110484","StateId":"20218506","CountyId":"20218507","CityId":"20238789"}}},{"Relevance":1.0,"Distance":63.4,"MatchLevel":"street","MatchQuality":{"Country":1.0,"State":1.0,"County":1.0,"City":1.0,"Street":[1.0],"PostalCode":1.0},"Location":{"LocationId":"NT_QoRi.GJXLHioy9iK9NG9LB_l_554100039_L","LocationType":"point","DisplayPosition":{"Latitude":41.51342,"Longitude":15.33276},"MapView":{"TopLeft":{"Latitude":41.51342,"Longitude":15.33276},"BottomRight":{"Latitude":41.51334,"Longitude":15.33277}},"Address":{"Label":"Via Generale E. Cavalli, 71036 Lucera FG, Italia","Country":"ITA","State":"Puglia","County":"FG","City":"Lucera","Street":"Via Generale E. Cavalli","PostalCode":"71036","AdditionalData":[{"value":"Italia","key":"CountryName"},{"value":"Puglia","key":"StateName"},{"value":"Foggia","key":"CountyName"}]},"MapReference":{"ReferenceId":"554100039","Spot":1.0,"SideOfStreet":"left","CountryId":"20110484","StateId":"20218506","CountyId":"20218507","CityId":"20238789"}}},{"Relevance":1.0,"Distance":64.1,"MatchLevel":"houseNumber","MatchQuality":{"Country":1.0,"State":1.0,"County":1.0,"City":1.0,"Street":[1.0],"HouseNumber":1.0,"PostalCode":1.0},"MatchType":"interpolated","Location":{"LocationId":"NT_61UNIxVhZzCaSo8XxDUNtA_l_973091385_L_yA","LocationType":"point","DisplayPosition":{"Latitude":41.5134717,"Longitude":15.3331416},"MapView":{"TopLeft":{"Latitude":41.5145959,"Longitude":15.3316403},"BottomRight":{"Latitude":41.5123476,"Longitude":15.3346429}},"Address":{"Label":"Viale Dante Alighieri, 2, 71036 Lucera FG, Italia","Country":"ITA","State":"Puglia","County":"FG","City":"Lucera","Street":"Viale Dante Alighieri","HouseNumber":"2","PostalCode":"71036","AdditionalData":[{"value":"Italia","key":"CountryName"},{"value":"Puglia","key":"StateName"},{"value":"Foggia","key":"CountyName"}]},"MapReference":{"ReferenceId":"973091385","Spot":0.51,"SideOfStreet":"left","CountryId":"20110484","StateId":"20218506","CountyId":"20218507","CityId":"20238789"}}},{"Relevance":1.0,"Distance":72.4,"MatchLevel":"houseNumber","MatchQuality":{"Country":1.0,"State":1.0,"County":1.0,"City":1.0,"Street":[1.0],"HouseNumber":1.0,"PostalCode":1.0},"MatchType":"interpolated","Location":{"LocationId":"NT_DNEL0u1NdHSZgcrxlmEmFB_0kD","LocationType":"point","DisplayPosition":{"Latitude":41.51331,"Longitude":15.33258},"MapView":{"TopLeft":{"Latitude":41.5144342,"Longitude":15.3310787},"BottomRight":{"Latitude":41.5121858,"Longitude":15.3340813}},"Address":{"Label":"Viale Francesco Lastaria, 49, 71036 Lucera FG, Italia","Country":"ITA","State":"Puglia","County":"FG","City":"Lucera","Street":"Viale Francesco Lastaria","HouseNumber":"49","PostalCode":"71036","AdditionalData":[{"value":"Italia","key":"CountryName"},{"value":"Puglia","key":"StateName"},{"value":"Foggia","key":"CountyName"}]},"MapReference":{"ReferenceId":"554100059","Spot":0.86,"SideOfStreet":"right","CountryId":"20110484","StateId":"20218506","CountyId":"20218507","CityId":"20238789","AddressId":"671995833","RoadLinkId":"58235348"}}},{"Relevance":1.0,"Distance":80.5,"MatchLevel":"houseNumber","MatchQuality":{"Country":1.0,"State":1.0,"County":1.0,"City":1.0,"Street":[1.0],"HouseNumber":1.0,"PostalCode":1.0},"MatchType":"interpolated","Location":{"LocationId":"NT_61UNIxVhZzCaSo8XxDUNtA_l_973091387_R_3A","LocationType":"point","DisplayPosition":{"Latitude":41.5133935,"Longitude":15.3331157},"MapView":{"TopLeft":{"Latitude":41.5145176,"Longitude":15.3316144},"BottomRight":{"Latitude":41.5122693,"Longitude":15.3346169}},"Address":{"Label":"Viale Dante Alighieri, 7, 71036 Lucera FG, Italia","Country":"ITA","State":"Puglia","County":"FG","City":"Lucera","Street":"Viale Dante Alighieri","HouseNumber":"7","PostalCode":"71036","AdditionalData":[{"value":"Italia","key":"CountryName"},{"value":"Puglia","key":"StateName"},{"value":"Foggia","key":"CountyName"}]},"MapReference":{"ReferenceId":"973091387","Spot":0.5,"SideOfStreet":"right","CountryId":"20110484","StateId":"20218506","CountyId":"20218507","CityId":"20238789"}}},{"Relevance":1.0,"Distance":86.7,"MatchLevel":"houseNumber","MatchQuality":{"Country":1.0,"State":1.0,"County":1.0,"City":1.0,"Street":[1.0],"HouseNumber":1.0,"PostalCode":1.0},"MatchType":"interpolated","Location":{"LocationId":"NT_FxuM4yeuoxag5LXORHNCLD_0QD","LocationType":"point","DisplayPosition":{"Latitude":41.51321,"Longitude":15.33279},"MapView":{"TopLeft":{"Latitude":41.5143342,"Longitude":15.3312887},"BottomRight":{"Latitude":41.5120858,"Longitude":15.3342913}},"Address":{"Label":"Via Generale E. Cavalli, 44, 71036 Lucera FG, Italia","Country":"ITA","State":"Puglia","County":"FG","City":"Lucera","Street":"Via Generale E. Cavalli","HouseNumber":"44","PostalCode":"71036","AdditionalData":[{"value":"Italia","key":"CountryName"},{"value":"Puglia","key":"StateName"},{"value":"Foggia","key":"CountyName"}]},"MapReference":{"ReferenceId":"554100038","Spot":0.32,"SideOfStreet":"left","CountryId":"20110484","StateId":"20218506","CountyId":"20218507","CityId":"20238789","AddressId":"378438700","RoadLinkId":"57215433"}}},{"Relevance":1.0,"Distance":93.6,"MatchLevel":"houseNumber","MatchQuality":{"Country":1.0,"State":1.0,"County":1.0,"City":1.0,"Street":[1.0],"HouseNumber":1.0,"PostalCode":1.0},"MatchType":"interpolated","Location":{"LocationId":"NT_ZjKo.JPgEZeVuHu1KnBq8D_3A","LocationType":"point","DisplayPosition":{"Latitude":41.5131,"Longitude":15.33242},"MapView":{"TopLeft":{"Latitude":41.5142242,"Longitude":15.3309187},"BottomRight":{"Latitude":41.5119758,"Longitude":15.3339213}},"Address":{"Label":"Via Torquato Tasso, 7, 71036 Lucera FG, Italia","Country":"ITA","State":"Puglia","County":"FG","City":"Lucera","Street":"Via Torquato Tasso","HouseNumber":"7","PostalCode":"71036","AdditionalData":[{"value":"Italia","key":"CountryName"},{"value":"Puglia","key":"StateName"},{"value":"Foggia","key":"CountyName"}]},"MapReference":{"ReferenceId":"554093336","Spot":0.17,"SideOfStreet":"left","CountryId":"20110484","StateId":"20218506","CountyId":"20218507","CityId":"20238789","AddressId":"378517320","RoadLinkId":"57415422"}}},{"Relevance":1.0,"Distance":99.4,"MatchLevel":"street","MatchQuality":{"Country":1.0,"State":1.0,"County":1.0,"City":1.0,"PostalCode":1.0},"Location":{"LocationId":"NT_czvMmtIAltGkFyzx0N70nD_l_1165809117_R","LocationType":"point","DisplayPosition":{"Latitude":41.5148294,"Longitude":15.3327831},"MapView":{"TopLeft":{"Latitude":41.51568,"Longitude":15.33124},"BottomRight":{"Latitude":41.51473,"Longitude":15.33425}},"Address":{"Label":"71036 Lucera FG, Italia","Country":"ITA","State":"Puglia","County":"FG","City":"Lucera","PostalCode":"71036","AdditionalData":[{"value":"Italia","key":"CountryName"},{"value":"Puglia","key":"StateName"},{"value":"Foggia","key":"CountyName"}]},"MapReference":{"ReferenceId":"1165809117","Spot":0.28,"SideOfStreet":"right","CountryId":"20110484","StateId":"20218506","CountyId":"20218507","CityId":"20238789"}}}]}]}}