{"Response":{"MetaInfo":{"Timestamp":"2020-03-28T09:58:46.973+0000","NextPageInformation":"2"},"View":[{"_type":"SearchResultsViewType","ViewId":0,"Result":[{"Relevance":1.0,"Distance":0.0,"Direction":0.0,"MatchLevel":"district","MatchQuality":{"Country":1.0,"County":1.0,"City":1.0,"District":1.0,"PostalCode":1.0},"Location":{"LocationId":"NT_ReRMF8KaNkQ-1XmH.oMfnB","LocationType":"point","DisplayPosition":{"Latitude":41.6948373,"Longitude":-8.8288253},"MapView":{"TopLeft":{"Latitude":41.71538,"Longitude":-8.85011},"BottomRight":{"Latitude":41.67409,"Longitude":-8.79964}},"Address":{"Label":"Viana do Castelo, Portugal","Country":"PRT","County":"Viana do Castelo","City":"Viana do Castelo","District":"Viana do Castelo","PostalCode":"4900-533","AdditionalData":[{"value":"Portugal","key":"CountryName"},{"value":"Viana do Castelo","key":"CountyName"}]},"MapReference":{"ReferenceId":"917597754","SideOfStreet":"neither","CountryId":"20317122","CountyId":"20320468","CityId":"20320711","DistrictId":"20415339"}}},{"Relevance":1.0,"Distance":21.3,"MatchLevel":"street","MatchQuality":{"Country":1.0,"County":1.0,"City":1.0,"District":1.0,"PostalCode":1.0},"Location":{"LocationId":"NT_hxDKXCM64.o9.Bq1mLkStB_l_547027603_R","LocationType":"point","DisplayPosition":{"Latitude":41.6946714,"Longitude":-8.8289535},"MapView":{"TopLeft":{"Latitude":41.69497,"Longitude":-8.82934},"BottomRight":{"Latitude":41.69463,"Longitude":-8.8289}},"Address":{"Label":"4900 Viana do Castelo, Portugal","Country":"PRT","County":"Viana do Castelo","City":"Viana do Castelo","District":"Viana do Castelo","PostalCode":"4900","AdditionalData":[{"value":"Portugal","key":"CountryName"},{"value":"Viana do Castelo","key":"CountyName"}]},"MapReference":{"ReferenceId":"547027603","Spot":0.12,"SideOfStreet":"right","CountryId":"20317122","CountyId":"20320468","CityId":"20320711","DistrictId":"20415339"}}},{"Relevance":1.0,"Distance":38.4,"MatchLevel":"houseNumber","MatchQuality":{"Country":1.0,"County":1.0,"City":1.0,"District":1.0,"Street":[1.0],"HouseNumber":1.0,"PostalCode":1.0},"MatchType":"interpolated","Location":{"LocationId":"NT_bcjJetQkISFjhYt1L9ccHC_zQD","LocationType":"point","DisplayPosition":{"Latitude":41.69456,"Longitude":-8.82855},"MapView":{"TopLeft":{"Latitude":41.6956842,"Longitude":-8.8300555},"BottomRight":{"Latitude":41.6934358,"Longitude":-8.8270445}},"Address":{"Label":"Rua Nova de Santana 34, 4900-530 Viana do Castelo, Portugal","Country":"PRT","County":"Viana do Castelo","City":"Viana do Castelo","District":"Viana do Castelo","Street":"Rua Nova de Santana","HouseNumber":"34","PostalCode":"4900-530","AdditionalData":[{"value":"Portugal","key":"CountryName"},{"value":"Viana do Castelo","key":"CountyName"}]},"MapReference":{"ReferenceId":"591386411","Spot":0.46,"SideOfStreet":"right","CountryId":"20317122","CountyId":"20320468","CityId":"20320711","DistrictId":"20415339","AddressId":"343589538","RoadLinkId":"70058284"}}},{"Relevance":1.0,"Distance":43.8,"MatchLevel":"street","MatchQuality":{"Country":1.0,"County":1.0,"City":1.0,"District":1.0,"PostalCode":1.0},"Location":{"LocationId":"NT_hxDKXCM64.o9.Bq1mLkStB_l_547027591_R","LocationType":"point","DisplayPosition":{"Latitude":41.6951679,"Longitude":-8.8291112},"MapView":{"TopLeft":{"Latitude":41.69552,"Longitude":-8.82934},"BottomRight":{"Latitude":41.69497,"Longitude":-8.8288}},"Address":{"Label":"4900 Viana do Castelo, Portugal","Country":"PRT","County":"Viana do Castelo","City":"Viana do Castelo","District":"Viana do Castelo","PostalCode":"4900","AdditionalData":[{"value":"Portugal","key":"CountryName"},{"value":"Viana do Castelo","key":"CountyName"}]},"MapReference":{"ReferenceId":"547027591","Spot":0.39,"SideOfStreet":"right","CountryId":"20317122","CountyId":"20320468","CityId":"20320711","DistrictId":"20415339"}}},{"Relevance":1.0,"Distance":45.2,"MatchLevel":"street","MatchQuality":{"Country":1.0,"County":1.0,"City":1.0,"District":1.0,"PostalCode":1.0},"Location":{"LocationId":"NT_hxDKXCM64.o9.Bq1mLkStB_l_547027592_L","LocationType":"point","DisplayPosition":{"Latitude":41.69497,"Longitude":-8.82934},"MapView":{"TopLeft":{"Latitude":41.69498,"Longitude":-8.82949},"BottomRight":{"Latitude":41.69497,"Longitude":-8.82934}},"Address":{"Label":"4900 Viana do Castelo, Portugal","Country":"PRT","County":"Viana do Castelo","City":"Viana do Castelo","District":"Viana do Castelo","PostalCode":"4900","AdditionalData":[{"value":"Portugal","key":"CountryName"},{"value":"Viana do Castelo","key":"CountyName"}]},"MapReference":{"ReferenceId":"547027592","Spot":0.0,"SideOfStreet":"left","CountryId":"20317122","CountyId":"20320468","CityId":"20320711","DistrictId":"20415339"}}},{"Relevance":1.0,"Distance":62.0,"MatchLevel":"street","MatchQuality":{"Country":1.0,"County":1.0,"City":1.0,"District":1.0,"Street":[1.0],"PostalCode":1.0},"Location":{"LocationId":"NT_3O4iV.nzVa80ayk4OxbY9B_l_1126969318_L","LocationType":"point","DisplayPosition":{"Latitude":41.69521,"Longitude":-8.82827},"MapView":{"TopLeft":{"Latitude":41.69558,"Longitude":-8.82827},"BottomRight":{"Latitude":41.69498,"Longitude":-8.82777}},"Address":{"Label":"Praça 1 de Maio, 4900-534 Viana do Castelo, Portugal","Country":"PRT","County":"Viana do Castelo","City":"Viana do Castelo","District":"Viana do Castelo","Street":"Praça 1 de Maio","PostalCode":"4900-534","AdditionalData":[{"value":"Portugal","key":"CountryName"},{"value":"Viana do Castelo","key":"CountyName"}]},"MapReference":{"ReferenceId":"1126969318","Spot":0.39,"SideOfStreet":"left","CountryId":"20317122","CountyId":"20320468","CityId":"20320711","DistrictId":"20415339"}}},{"Relevance":1.0,"Distance":63.3,"MatchLevel":"houseNumber","MatchQuality":{"Country":1.0,"County":1.0,"City":1.0,"District":1.0,"Street":[1.0],"HouseNumber":1.0,"PostalCode":1.0},"MatchType":"interpolated","Location":{"LocationId":"NT_8yI.FRDuJOzpCGQCI.XWtC_zMD","LocationType":"point","DisplayPosition":{"Latitude":41.69436,"Longitude":-8.82924},"MapView":{"TopLeft":{"Latitude":41.6954842,"Longitude":-8.8307455},"BottomRight":{"Latitude":41.6932358,"Longitude":-8.8277345}},"Address":{"Label":"Rua Cândido dos Reis 33, 4900-082 Viana do Castelo, Portugal","Country":"PRT","County":"Viana do Castelo","City":"Viana do Castelo","District":"Viana do Castelo","Street":"Rua Cândido dos Reis","HouseNumber":"33","PostalCode":"4900-082","AdditionalData":[{"value":"Portugal","key":"CountryName"},{"value":"Viana do Castelo","key":"CountyName"}]},"MapReference":{"ReferenceId":"547027595","Spot":0.18,"SideOfStreet":"left","CountryId":"20317122","CountyId":"20320468","CityId":"20320711","DistrictId":"20415339","AddressId":"343543133","RoadLinkId":"70742528"}}},{"Relevance":1.0,"Distance":75.9,"MatchLevel":"street","MatchQuality":{"Country":1.0,"County":1.0,"City":1.0,"District":1.0,"Street":[1.0],"PostalCode":1.0},"Location":{"LocationId":"NT_ciI5K1O4EjZl2JIEECDqCB_l_547027600_L","LocationType":"point","DisplayPosition":{"Latitude":41.69552,"Longitude":-8.8288},"MapView":{"TopLeft":{"Latitude":41.69569,"Longitude":-8.82909},"BottomRight":{"Latitude":41.69552,"Longitude":-8.8288}},"Address":{"Label":"Rua Sá de Miranda, 4900-529 Viana do Castelo, Portugal","Country":"PRT","County":"Viana do Castelo","City":"Viana do Castelo","District":"Viana do Castelo","Street":"Rua Sá de Miranda","PostalCode":"4900-529","AdditionalData":[{"value":"Portugal","key":"CountryName"},{"value":"Viana do Castelo","key":"CountyName"}]},"MapReference":{"ReferenceId":"547027600","Spot":0.0,"SideOfStreet":"left","CountryId":"20317122","CountyId":"20320468","CityId":"20320711","DistrictId":"20415339"}}},{"Relevance":1.0,"Distance":78.7,"MatchLevel":"houseNumber","MatchQuality":{"Country":1.0,"County":1.0,"City":1.0,"District":1.0,"Street":[1.0],"HouseNumber":1.0,"PostalCode":1.0},"MatchType":"interpolated","Location":{"LocationId":"NT_iy.k0xlemKwr9zP7w.K1xB_yYD","LocationType":"point","DisplayPosition":{"Latitude":41.69408,"Longitude":-8.82887},"MapView":{"TopLeft":{"Latitude":41.6952042,"Longitude":-8.8303755},"BottomRight":{"Latitude":41.6929558,"Longitude":-8.8273645}},"Address":{"Label":"Passeio das Mordomas da Romaria 26, 4900-082 Viana do Castelo, Portugal","Country":"PRT","County":"Viana do Castelo","City":"Viana do Castelo","District":"Viana do Castelo","Street":"Passeio das Mordomas da Romaria","HouseNumber":"26","PostalCode":"4900-082","AdditionalData":[{"value":"Portugal","key":"CountryName"},{"value":"Viana do Castelo","key":"CountyName"}]},"MapReference":{"ReferenceId":"591379486","Spot":0.74,"SideOfStreet":"right","CountryId":"20317122","CountyId":"20320468","CityId":"20320711","DistrictId":"20415339","AddressId":"343405607","RoadLinkId":"69908985"}}},{"Relevance":1.0,"Distance":86.6,"MatchLevel":"houseNumber","MatchQuality":{"Country":1.0,"County":1.0,"City":1.0,"District":1.0,"Street":[1.0],"HouseNumber":1.0,"PostalCode":1.0},"MatchType":"interpolated","Location":{"LocationId":"NT_c8Uaf9jY3A2AMUGa-2jBhD_xMzN","LocationType":"point","DisplayPosition":{"Latitude":41.6956,"Longitude":-8.82918},"MapView":{"TopLeft":{"Latitude":41.6967242,"Longitude":-8.8306855},"BottomRight":{"Latitude":41.6944758,"Longitude":-8.8276745}},"Address":{"Label":"Rua dos Bombeiros 137, 4900-533 Viana do Castelo, Portugal","Country":"PRT","County":"Viana do Castelo","City":"Viana do Castelo","District":"Viana do Castelo","Street":"Rua dos Bombeiros","HouseNumber":"137","PostalCode":"4900-533","AdditionalData":[{"value":"Portugal","key":"CountryName"},{"value":"Viana do Castelo","key":"CountyName"}]},"MapReference":{"ReferenceId":"917597753","Spot":0.99,"SideOfStreet":"right","CountryId":"20317122","CountyId":"20320468","CityId":"20320711","DistrictId":"20415339","AddressId":"343514040","RoadLinkId":"275178634"}}}]}]}}