{"Response":{"MetaInfo":{"Timestamp":"2020-03-28T11:04:59.467+0000","NextPageInformation":"2"},"View":[{"_type":"SearchResultsViewType","ViewId":0,"Result":[{"Relevance":1.0,"Distance":0.0,"Direction":0.0,"MatchLevel":"district","MatchQuality":{"Country":1.0,"State":1.0,"County":1.0,"City":1.0,"District":1.0,"PostalCode":1.0},"Location":{"LocationId":"NT_IjK1IWwmdo19Sm7LV6rOhC","LocationType":"point","DisplayPosition":{"Latitude":41.640137,"Longitude":-0.9184197},"MapView":{"TopLeft":{"Latitude":41.65957,"Longitude":-0.94921},"BottomRight":{"Latitude":41.63371,"Longitude":-0.9144}},"Address":{"Label":"Oliver-Valdefierro, Zaragoza, Aragón, España","Country":"ESP","State":"Aragón","County":"Zaragoza","City":"Zaragoza","District":"Oliver-Valdefierro","PostalCode":"50012","AdditionalData":[{"value":"España","key":"CountryName"},{"value":"Aragón","key":"StateName"},{"value":"Zaragoza","key":"CountyName"}]},"MapReference":{"ReferenceId":"1034000634","SideOfStreet":"neither","CountryId":"20215059","StateId":"20221894","CountyId":"20221897","CityId":"20248000"}}},{"Relevance":1.0,"Distance":1.9,"MatchLevel":"street","MatchQuality":{"Country":1.0,"State":1.0,"County":1.0,"City":1.0,"District":1.0,"Street":[1.0],"PostalCode":1.0},"Location":{"LocationId":"NT_VSS5vC1BPLxuo.VPsMzT9C_l_1039252913_L","LocationType":"point","DisplayPosition":{"Latitude":41.640146,"Longitude":-0.9184005},"MapView":{"TopLeft":{"Latitude":41.64023,"Longitude":-0.91844},"BottomRight":{"Latitude":41.63972,"Longitude":-0.9182}},"Address":{"Label":"Camino Depósitos, 50012 Zaragoza (Zaragoza), España","Country":"ESP","State":"Aragón","County":"Zaragoza","City":"Zaragoza","District":"Oliver-Valdefierro","Street":"Camino Depósitos","PostalCode":"50012","AdditionalData":[{"value":"España","key":"CountryName"},{"value":"Aragón","key":"StateName"},{"value":"Zaragoza","key":"CountyName"}]},"MapReference":{"ReferenceId":"1039252913","Spot":0.84,"SideOfStreet":"neither","CountryId":"20215059","StateId":"20221894","CountyId":"20221897","CityId":"20248000"}}},{"Relevance":1.0,"Distance":10.4,"MatchLevel":"street","MatchQuality":{"Country":1.0,"State":1.0,"County":1.0,"City":1.0,"District":1.0,"Street":[1.0],"PostalCode":1.0},"Location":{"LocationId":"NT_R74eq96MB4Mc3F0lNhk9sD_l_1039252917_R","LocationType":"point","DisplayPosition":{"Latitude":41.6402294,"Longitude":-0.9184423},"MapView":{"TopLeft":{"Latitude":41.64023,"Longitude":-0.91889},"BottomRight":{"Latitude":41.64012,"Longitude":-0.91844}},"Address":{"Label":"Avenida de los Álamos, 50012 Zaragoza (Zaragoza), España","Country":"ESP","State":"Aragón","County":"Zaragoza","City":"Zaragoza","District":"Oliver-Valdefierro","Street":"Avenida de los Álamos","PostalCode":"50012","AdditionalData":[{"value":"España","key":"CountryName"},{"value":"Aragón","key":"StateName"},{"value":"Zaragoza","key":"CountyName"}]},"MapReference":{"ReferenceId":"1039252917","Spot":0.99,"SideOfStreet":"right","CountryId":"20215059","StateId":"20221894","CountyId":"20221897","CityId":"20248000"}}},{"Relevance":1.0,"Distance":10.5,"MatchLevel":"street","MatchQuality":{"Country":1.0,"State":1.0,"County":1.0,"City":1.0,"District":1.0,"Street":[1.0],"PostalCode":1.0},"Location":{"LocationId":"NT_JZZz-FCLJwk-H2MWcNnoMA_l_1039252914_L","LocationType":"point","DisplayPosition":{"Latitude":41.64023,"Longitude":-0.91844},"MapView":{"TopLeft":{"Latitude":41.64035,"Longitude":-0.9187},"BottomRight":{"Latitude":41.64023,"Longitude":-0.91844}},"Address":{"Label":"Calle de la Kentya, 50012 Zaragoza (Zaragoza), España","Country":"ESP","State":"Aragón","County":"Zaragoza","City":"Zaragoza","District":"Oliver-Valdefierro","Street":"Calle de la Kentya","PostalCode":"50012","AdditionalData":[{"value":"España","key":"CountryName"},{"value":"Aragón","key":"StateName"},{"value":"Zaragoza","key":"CountyName"}]},"MapReference":{"ReferenceId":"1039252914","Spot":0.0,"SideOfStreet":"left","CountryId":"20215059","StateId":"20221894","CountyId":"20221897","CityId":"20248000"}}},{"Relevance":1.0,"Distance":12.3,"MatchLevel":"street","MatchQuality":{"Country":1.0,"State":1.0,"County":1.0,"City":1.0,"District":1.0,"PostalCode":1.0},"Location":{"LocationId":"NT_UmszFrvQ0J034YBDu0hRyA_l_1066267134_L","LocationType":"point","DisplayPosition":{"Latitude":41.6402327,"Longitude":-0.9183462},"MapView":{"TopLeft":{"Latitude":41.64042,"Longitude":-0.91859},"BottomRight":{"Latitude":41.63989,"Longitude":-0.9179}},"Address":{"Label":"50012 Zaragoza (Zaragoza), España","Country":"ESP","State":"Aragón","County":"Zaragoza","City":"Zaragoza","District":"Oliver-Valdefierro","PostalCode":"50012","AdditionalData":[{"value":"España","key":"CountryName"},{"value":"Aragón","key":"StateName"},{"value":"Zaragoza","key":"CountyName"}]},"MapReference":{"ReferenceId":"1066267134","Spot":0.65,"SideOfStreet":"left","CountryId":"20215059","StateId":"20221894","CountyId":"20221897","CityId":"20248000"}}},{"Relevance":1.0,"Distance":28.7,"MatchLevel":"houseNumber","MatchQuality":{"Country":1.0,"State":1.0,"County":1.0,"City":1.0,"District":1.0,"Street":[1.0],"HouseNumber":1.0,"PostalCode":1.0},"MatchType":"interpolated","Location":{"LocationId":"NT_JZZz-FCLJwk-H2MWcNnoMA_0A","LocationType":"point","DisplayPosition":{"Latitude":41.63998,"Longitude":-0.91883},"MapView":{"TopLeft":{"Latitude":41.6411042,"Longitude":-0.9203342},"BottomRight":{"Latitude":41.6388558,"Longitude":-0.9173258}},"Address":{"Label":"Calle de la Kentya, 4, 50012 Zaragoza (Zaragoza), España","Country":"ESP","State":"Aragón","County":"Zaragoza","City":"Zaragoza","District":"Oliver-Valdefierro","Street":"Calle de la Kentya","HouseNumber":"4","PostalCode":"50012","AdditionalData":[{"value":"España","key":"CountryName"},{"value":"Aragón","key":"StateName"},{"value":"Zaragoza","key":"CountyName"}]},"MapReference":{"ReferenceId":"1039252915","Spot":0.72,"SideOfStreet":"right","CountryId":"20215059","StateId":"20221894","CountyId":"20221897","CityId":"20248000","AddressId":"742843044","RoadLinkId":"361151799"}}},{"Relevance":1.0,"Distance":33.2,"MatchLevel":"street","MatchQuality":{"Country":1.0,"State":1.0,"County":1.0,"City":1.0,"District":1.0,"Street":[1.0],"PostalCode":1.0},"Location":{"LocationId":"NT_JZZz-FCLJwk-H2MWcNnoMA_l_1039252911_R","LocationType":"point","DisplayPosition":{"Latitude":41.64035,"Longitude":-0.9187},"MapView":{"TopLeft":{"Latitude":41.64035,"Longitude":-0.91894},"BottomRight":{"Latitude":41.64019,"Longitude":-0.9187}},"Address":{"Label":"Calle de la Kentya, 50012 Zaragoza (Zaragoza), España","Country":"ESP","State":"Aragón","County":"Zaragoza","City":"Zaragoza","District":"Oliver-Valdefierro","Street":"Calle de la Kentya","PostalCode":"50012","AdditionalData":[{"value":"España","key":"CountryName"},{"value":"Aragón","key":"StateName"},{"value":"Zaragoza","key":"CountyName"}]},"MapReference":{"ReferenceId":"1039252911","Spot":1.0,"SideOfStreet":"right","CountryId":"20215059","StateId":"20221894","CountyId":"20221897","CityId":"20248000"}}},{"Relevance":1.0,"Distance":34.3,"MatchLevel":"street","MatchQuality":{"Country":1.0,"State":1.0,"County":1.0,"City":1.0,"District":1.0,"Street":[1.0],"PostalCode":1.0},"Location":{"LocationId":"NT_JZZz-FCLJwk-H2MWcNnoMA_l_1066262275_R","LocationType":"point","DisplayPosition":{"Latitude":41.6404156,"Longitude":-0.918597},"MapView":{"TopLeft":{"Latitude":41.64042,"Longitude":-0.9187},"BottomRight":{"Latitude":41.64035,"Longitude":-0.91859}},"Address":{"Label":"Calle de la Kentya, 50012 Zaragoza (Zaragoza), España","Country":"ESP","State":"Aragón","County":"Zaragoza","City":"Zaragoza","District":"Oliver-Valdefierro","Street":"Calle de la Kentya","PostalCode":"50012","AdditionalData":[{"value":"España","key":"CountryName"},{"value":"Aragón","key":"StateName"},{"value":"Zaragoza","key":"CountyName"}]},"MapReference":{"ReferenceId":"1066262275","Spot":0.94,"SideOfStreet":"right","CountryId":"20215059","StateId":"20221894","CountyId":"20221897","CityId":"20248000"}}},{"Relevance":1.0,"Distance":34.5,"MatchLevel":"street","MatchQuality":{"Country":1.0,"State":1.0,"County":1.0,"City":1.0,"District":1.0,"Street":[1.0],"PostalCode":1.0},"Location":{"LocationId":"NT_JZZz-FCLJwk-H2MWcNnoMA_l_1066262276_R","LocationType":"point","DisplayPosition":{"Latitude":41.64042,"Longitude":-0.91859},"MapView":{"TopLeft":{"Latitude":41.6407,"Longitude":-0.91859},"BottomRight":{"Latitude":41.64042,"Longitude":-0.91816}},"Address":{"Label":"Calle de la Kentya, 50012 Zaragoza (Zaragoza), España","Country":"ESP","State":"Aragón","County":"Zaragoza","City":"Zaragoza","District":"Oliver-Valdefierro","Street":"Calle de la Kentya","PostalCode":"50012","AdditionalData":[{"value":"España","key":"CountryName"},{"value":"Aragón","key":"StateName"},{"value":"Zaragoza","key":"CountyName"}]},"MapReference":{"ReferenceId":"1066262276","Spot":0.0,"SideOfStreet":"right","CountryId":"20215059","StateId":"20221894","CountyId":"20221897","CityId":"20248000"}}},{"Relevance":1.0,"Distance":39.1,"MatchLevel":"street","MatchQuality":{"Country":1.0,"State":1.0,"County":1.0,"City":1.0,"District":1.0,"Street":[1.0],"PostalCode":1.0},"Location":{"LocationId":"NT_JZZz-FCLJwk-H2MWcNnoMA_l_1039252916_R","LocationType":"point","DisplayPosition":{"Latitude":41.64012,"Longitude":-0.91889},"MapView":{"TopLeft":{"Latitude":41.64019,"Longitude":-0.91894},"BottomRight":{"Latitude":41.64012,"Longitude":-0.91889}},"Address":{"Label":"Calle de la Kentya, 50012 Zaragoza (Zaragoza), España","Country":"ESP","State":"Aragón","County":"Zaragoza","City":"Zaragoza","District":"Oliver-Valdefierro","Street":"Calle de la Kentya","PostalCode":"50012","AdditionalData":[{"value":"España","key":"CountryName"},{"value":"Aragón","key":"StateName"},{"value":"Zaragoza","key":"CountyName"}]},"MapReference":{"ReferenceId":"1039252916","Spot":0.0,"SideOfStreet":"right","CountryId":"20215059","StateId":"20221894","CountyId":"20221897","CityId":"20248000"}}}]}]}}