{"Response":{"MetaInfo":{"Timestamp":"2020-03-28T11:03:23.996+0000","NextPageInformation":"2"},"View":[{"_type":"SearchResultsViewType","ViewId":0,"Result":[{"Relevance":1.0,"Distance":0.0,"Direction":0.0,"MatchLevel":"district","MatchQuality":{"Country":1.0,"State":1.0,"County":1.0,"City":1.0,"District":1.0,"PostalCode":1.0},"Location":{"LocationId":"NT_zmxfKkZOo0b.cjDHjbte7A","LocationType":"point","DisplayPosition":{"Latitude":41.6425469,"Longitude":-0.870712},"MapView":{"TopLeft":{"Latitude":41.64691,"Longitude":-0.88661},"BottomRight":{"Latitude":41.61733,"Longitude":-0.85507}},"Address":{"Label":"San José, Zaragoza, Aragón, España","Country":"ESP","State":"Aragón","County":"Zaragoza","City":"Zaragoza","District":"San José","PostalCode":"50007","AdditionalData":[{"value":"España","key":"CountryName"},{"value":"Aragón","key":"StateName"},{"value":"Zaragoza","key":"CountyName"}]},"MapReference":{"ReferenceId":"1061898680","SideOfStreet":"neither","CountryId":"20215059","StateId":"20221894","CountyId":"20221897","CityId":"20248000"}}},{"Relevance":1.0,"Distance":5.7,"MatchLevel":"houseNumber","MatchQuality":{"Country":1.0,"State":1.0,"County":1.0,"City":1.0,"District":1.0,"Street":[1.0],"HouseNumber":1.0,"PostalCode":1.0},"MatchType":"interpolated","Location":{"LocationId":"NT_g1qIl1PqpplkK51PPL4W3C_5A","LocationType":"point","DisplayPosition":{"Latitude":41.6425,"Longitude":-0.87074},"MapView":{"TopLeft":{"Latitude":41.6436242,"Longitude":-0.8722443},"BottomRight":{"Latitude":41.6413758,"Longitude":-0.8692357}},"Address":{"Label":"Calle Monasterio San Martín de Cillas, 9, 50013 Zaragoza (Zaragoza), España","Country":"ESP","State":"Aragón","County":"Zaragoza","City":"Zaragoza","District":"San José","Street":"Calle Monasterio San Martín de Cillas","HouseNumber":"9","PostalCode":"50013","AdditionalData":[{"value":"España","key":"CountryName"},{"value":"Aragón","key":"StateName"},{"value":"Zaragoza","key":"CountyName"}]},"MapReference":{"ReferenceId":"1062073868","Spot":0.93,"SideOfStreet":"left","CountryId":"20215059","StateId":"20221894","CountyId":"20221897","CityId":"20248000","AddressId":"348056349","RoadLinkId":"384205403"}}},{"Relevance":1.0,"Distance":6.0,"MatchLevel":"street","MatchQuality":{"Country":1.0,"State":1.0,"County":1.0,"City":1.0,"District":1.0,"PostalCode":1.0},"Location":{"LocationId":"NT_7kZe1J-GhBq65ywoLVZyyC_l_1062073866_R","LocationType":"point","DisplayPosition":{"Latitude":41.6425842,"Longitude":-0.8707642},"MapView":{"TopLeft":{"Latitude":41.64266,"Longitude":-0.87081},"BottomRight":{"Latitude":41.64252,"Longitude":-0.87071}},"Address":{"Label":"50013 Zaragoza (Zaragoza), España","Country":"ESP","State":"Aragón","County":"Zaragoza","City":"Zaragoza","District":"San José","PostalCode":"50013","AdditionalData":[{"value":"España","key":"CountryName"},{"value":"Aragón","key":"StateName"},{"value":"Zaragoza","key":"CountyName"}]},"MapReference":{"ReferenceId":"1062073866","Spot":0.46,"SideOfStreet":"right","CountryId":"20215059","StateId":"20221894","CountyId":"20221897","CityId":"20248000"}}},{"Relevance":1.0,"Distance":12.6,"MatchLevel":"street","MatchQuality":{"Country":1.0,"State":1.0,"County":1.0,"City":1.0,"District":1.0,"Street":[1.0],"PostalCode":1.0},"Location":{"LocationId":"NT_TeoaZI-xtv9Wroq4uJi1RB_l_1062073865_L","LocationType":"point","DisplayPosition":{"Latitude":41.64266,"Longitude":-0.87071},"MapView":{"TopLeft":{"Latitude":41.64276,"Longitude":-0.87103},"BottomRight":{"Latitude":41.64266,"Longitude":-0.87071}},"Address":{"Label":"Calle Santuario de Cabañas, 50013 Zaragoza (Zaragoza), España","Country":"ESP","State":"Aragón","County":"Zaragoza","City":"Zaragoza","District":"San José","Street":"Calle Santuario de Cabañas","PostalCode":"50013","AdditionalData":[{"value":"España","key":"CountryName"},{"value":"Aragón","key":"StateName"},{"value":"Zaragoza","key":"CountyName"}]},"MapReference":{"ReferenceId":"1062073865","Spot":0.0,"SideOfStreet":"left","CountryId":"20215059","StateId":"20221894","CountyId":"20221897","CityId":"20248000"}}},{"Relevance":1.0,"Distance":12.6,"MatchLevel":"street","MatchQuality":{"Country":1.0,"State":1.0,"County":1.0,"City":1.0,"District":1.0,"Street":[1.0],"PostalCode":1.0},"Location":{"LocationId":"NT_TeoaZI-xtv9Wroq4uJi1RB_l_1062073867_R","LocationType":"point","DisplayPosition":{"Latitude":41.64266,"Longitude":-0.87071},"MapView":{"TopLeft":{"Latitude":41.64274,"Longitude":-0.87071},"BottomRight":{"Latitude":41.64266,"Longitude":-0.87063}},"Address":{"Label":"Calle Santuario de Cabañas, 50013 Zaragoza (Zaragoza), España","Country":"ESP","State":"Aragón","County":"Zaragoza","City":"Zaragoza","District":"San José","Street":"Calle Santuario de Cabañas","PostalCode":"50013","AdditionalData":[{"value":"España","key":"CountryName"},{"value":"Aragón","key":"StateName"},{"value":"Zaragoza","key":"CountyName"}]},"MapReference":{"ReferenceId":"1062073867","Spot":0.0,"SideOfStreet":"right","CountryId":"20215059","StateId":"20221894","CountyId":"20221897","CityId":"20248000"}}},{"Relevance":1.0,"Distance":15.6,"MatchLevel":"houseNumber","MatchQuality":{"Country":1.0,"State":1.0,"County":1.0,"City":1.0,"District":1.0,"Street":[1.0],"HouseNumber":1.0,"PostalCode":1.0},"MatchType":"interpolated","Location":{"LocationId":"NT_g1qIl1PqpplkK51PPL4W3C_xMD","LocationType":"point","DisplayPosition":{"Latitude":41.64255,"Longitude":-0.8709},"MapView":{"TopLeft":{"Latitude":41.6436742,"Longitude":-0.8724043},"BottomRight":{"Latitude":41.6414258,"Longitude":-0.8693957}},"Address":{"Label":"Calle Monasterio San Martín de Cillas, 13, 50013 Zaragoza (Zaragoza), España","Country":"ESP","State":"Aragón","County":"Zaragoza","City":"Zaragoza","District":"San José","Street":"Calle Monasterio San Martín de Cillas","HouseNumber":"13","PostalCode":"50013","AdditionalData":[{"value":"España","key":"CountryName"},{"value":"Aragón","key":"StateName"},{"value":"Zaragoza","key":"CountyName"}]},"MapReference":{"ReferenceId":"1062073869","Spot":0.15,"SideOfStreet":"left","CountryId":"20215059","StateId":"20221894","CountyId":"20221897","CityId":"20248000","AddressId":"348056348","RoadLinkId":"384205404"}}},{"Relevance":1.0,"Distance":22.8,"MatchLevel":"houseNumber","MatchQuality":{"Country":1.0,"State":1.0,"County":1.0,"City":1.0,"District":1.0,"Street":[1.0],"HouseNumber":1.0,"PostalCode":1.0},"MatchType":"interpolated","Location":{"LocationId":"NT_TeoaZI-xtv9Wroq4uJi1RB_xYD","LocationType":"point","DisplayPosition":{"Latitude":41.64276,"Longitude":-0.8706},"MapView":{"TopLeft":{"Latitude":41.6438842,"Longitude":-0.8721043},"BottomRight":{"Latitude":41.6416358,"Longitude":-0.8690957}},"Address":{"Label":"Calle Santuario de Cabañas, 16, 50013 Zaragoza (Zaragoza), España","Country":"ESP","State":"Aragón","County":"Zaragoza","City":"Zaragoza","District":"San José","Street":"Calle Santuario de Cabañas","HouseNumber":"16","PostalCode":"50013","AdditionalData":[{"value":"España","key":"CountryName"},{"value":"Aragón","key":"StateName"},{"value":"Zaragoza","key":"CountyName"}]},"MapReference":{"ReferenceId":"1039249847","Spot":0.08,"SideOfStreet":"right","CountryId":"20215059","StateId":"20221894","CountyId":"20221897","CityId":"20248000","AddressId":"347921736","RoadLinkId":"361148769"}}},{"Relevance":1.0,"Distance":33.1,"MatchLevel":"houseNumber","MatchQuality":{"Country":1.0,"State":1.0,"County":1.0,"City":1.0,"District":1.0,"Street":[1.0],"HouseNumber":1.0,"PostalCode":1.0},"MatchType":"interpolated","Location":{"LocationId":"NT_TeoaZI-xtv9Wroq4uJi1RB_xED","LocationType":"point","DisplayPosition":{"Latitude":41.64282,"Longitude":-0.87087},"MapView":{"TopLeft":{"Latitude":41.6439442,"Longitude":-0.8723743},"BottomRight":{"Latitude":41.6416958,"Longitude":-0.8693657}},"Address":{"Label":"Calle Santuario de Cabañas, 11, 50013 Zaragoza (Zaragoza), España","Country":"ESP","State":"Aragón","County":"Zaragoza","City":"Zaragoza","District":"San José","Street":"Calle Santuario de Cabañas","HouseNumber":"11","PostalCode":"50013","AdditionalData":[{"value":"España","key":"CountryName"},{"value":"Aragón","key":"StateName"},{"value":"Zaragoza","key":"CountyName"}]},"MapReference":{"ReferenceId":"1039249852","Spot":0.69,"SideOfStreet":"right","CountryId":"20215059","StateId":"20221894","CountyId":"20221897","CityId":"20248000","AddressId":"347921735","RoadLinkId":"361148774"}}},{"Relevance":1.0,"Distance":35.5,"MatchLevel":"street","MatchQuality":{"Country":1.0,"State":1.0,"County":1.0,"City":1.0,"District":1.0,"Street":[1.0],"PostalCode":1.0},"Location":{"LocationId":"NT_TeoaZI-xtv9Wroq4uJi1RB_l_1039249854_R","LocationType":"point","DisplayPosition":{"Latitude":41.64276,"Longitude":-0.87103},"MapView":{"TopLeft":{"Latitude":41.64285,"Longitude":-0.87103},"BottomRight":{"Latitude":41.64276,"Longitude":-0.87098}},"Address":{"Label":"Calle Santuario de Cabañas, 50013 Zaragoza (Zaragoza), España","Country":"ESP","State":"Aragón","County":"Zaragoza","City":"Zaragoza","District":"San José","Street":"Calle Santuario de Cabañas","PostalCode":"50013","AdditionalData":[{"value":"España","key":"CountryName"},{"value":"Aragón","key":"StateName"},{"value":"Zaragoza","key":"CountyName"}]},"MapReference":{"ReferenceId":"1039249854","Spot":0.0,"SideOfStreet":"right","CountryId":"20215059","StateId":"20221894","CountyId":"20221897","CityId":"20248000"}}},{"Relevance":1.0,"Distance":35.5,"MatchLevel":"street","MatchQuality":{"Country":1.0,"State":1.0,"County":1.0,"City":1.0,"District":1.0,"Street":[1.0],"PostalCode":1.0},"Location":{"LocationId":"NT_TeoaZI-xtv9Wroq4uJi1RB_l_1039249851_L","LocationType":"point","DisplayPosition":{"Latitude":41.64276,"Longitude":-0.87103},"MapView":{"TopLeft":{"Latitude":41.64286,"Longitude":-0.87132},"BottomRight":{"Latitude":41.64276,"Longitude":-0.87103}},"Address":{"Label":"Calle Santuario de Cabañas, 50013 Zaragoza (Zaragoza), España","Country":"ESP","State":"Aragón","County":"Zaragoza","City":"Zaragoza","District":"San José","Street":"Calle Santuario de Cabañas","PostalCode":"50013","AdditionalData":[{"value":"España","key":"CountryName"},{"value":"Aragón","key":"StateName"},{"value":"Zaragoza","key":"CountyName"}]},"MapReference":{"ReferenceId":"1039249851","Spot":0.0,"SideOfStreet":"left","CountryId":"20215059","StateId":"20221894","CountyId":"20221897","CityId":"20248000"}}}]}]}}