{"Response":{"MetaInfo":{"Timestamp":"2020-03-28T11:05:43.839+0000","NextPageInformation":"2"},"View":[{"_type":"SearchResultsViewType","ViewId":0,"Result":[{"Relevance":1.0,"Distance":0.0,"Direction":0.0,"MatchLevel":"district","MatchQuality":{"Country":1.0,"State":1.0,"County":1.0,"City":1.0,"District":1.0,"PostalCode":1.0},"Location":{"LocationId":"NT_ZfXuNWwhYsgAWDaPt3WZnC","LocationType":"point","DisplayPosition":{"Latitude":41.6002841,"Longitude":0.6344412},"MapView":{"TopLeft":{"Latitude":41.6104,"Longitude":0.62711},"BottomRight":{"Latitude":41.59762,"Longitude":0.65211}},"Address":{"Label":"La Bordeta, Lleida, Catalunya, Espanya","Country":"ESP","State":"Catalunya","County":"Lleida","City":"Lleida","District":"La Bordeta","PostalCode":"25001","AdditionalData":[{"value":"Espanya","key":"CountryName"},{"value":"Catalunya","key":"StateName"},{"value":"Lleida","key":"CountyName"}]},"MapReference":{"ReferenceId":"716483159","SideOfStreet":"neither","CountryId":"20215059","StateId":"20215741","CountyId":"20224864","CityId":"20225348","DistrictId":"20244228"}}},{"Relevance":1.0,"Distance":10.3,"MatchLevel":"street","MatchQuality":{"Country":1.0,"State":1.0,"County":1.0,"City":1.0,"District":1.0,"Street":[1.0],"PostalCode":1.0},"Location":{"LocationId":"NT_JqlUHuwP4nKDUBs-gdbhND_l_1206413269_R","LocationType":"point","DisplayPosition":{"Latitude":41.6002013,"Longitude":0.634385},"MapView":{"TopLeft":{"Latitude":41.60186,"Longitude":0.63222},"BottomRight":{"Latitude":41.5996,"Longitude":0.63533}},"Address":{"Label":"Carrer Cal Bernet, 25001 Lleida (Lleida), Espanya","Country":"ESP","State":"Catalunya","County":"Lleida","City":"Lleida","District":"La Bordeta","Street":"Carrer Cal Bernet","PostalCode":"25001","AdditionalData":[{"value":"Espanya","key":"CountryName"},{"value":"Catalunya","key":"StateName"},{"value":"Lleida","key":"CountyName"}]},"MapReference":{"ReferenceId":"1206413269","Spot":0.29,"SideOfStreet":"right","CountryId":"20215059","StateId":"20215741","CountyId":"20224864","CityId":"20225348","DistrictId":"20244228"}}},{"Relevance":1.0,"Distance":50.9,"MatchLevel":"street","MatchQuality":{"Country":1.0,"State":1.0,"County":1.0,"City":1.0,"PostalCode":1.0},"Location":{"LocationId":"NT_ZoUqAFyuaINGCjJH-aijeD_l_1131229712_R","LocationType":"point","DisplayPosition":{"Latitude":41.5998736,"Longitude":0.6341717},"MapView":{"TopLeft":{"Latitude":41.60122,"Longitude":0.63229},"BottomRight":{"Latitude":41.59904,"Longitude":0.6355}},"Address":{"Label":"25197 Lleida (Lleida), Espanya","Country":"ESP","State":"Catalunya","County":"Lleida","City":"Lleida","PostalCode":"25197","AdditionalData":[{"value":"Espanya","key":"CountryName"},{"value":"Catalunya","key":"StateName"},{"value":"Lleida","key":"CountyName"}]},"MapReference":{"ReferenceId":"1131229712","Spot":0.4,"SideOfStreet":"right","CountryId":"20215059","StateId":"20215741","CountyId":"20224864","CityId":"20225348"}}},{"Relevance":1.0,"Distance":60.1,"MatchLevel":"street","MatchQuality":{"Country":1.0,"State":1.0,"County":1.0,"City":1.0,"PostalCode":1.0},"Location":{"LocationId":"NT_ZoUqAFyuaINGCjJH-aijeD_l_1119035447_R","LocationType":"point","DisplayPosition":{"Latitude":41.59977,"Longitude":0.63422},"MapView":{"TopLeft":{"Latitude":41.60122,"Longitude":0.63229},"BottomRight":{"Latitude":41.59951,"Longitude":0.63445}},"Address":{"Label":"25197 Lleida (Lleida), Espanya","Country":"ESP","State":"Catalunya","County":"Lleida","City":"Lleida","PostalCode":"25197","AdditionalData":[{"value":"Espanya","key":"CountryName"},{"value":"Catalunya","key":"StateName"},{"value":"Lleida","key":"CountyName"}]},"MapReference":{"ReferenceId":"1119035447","Spot":0.12,"SideOfStreet":"right","CountryId":"20215059","StateId":"20215741","CountyId":"20224864","CityId":"20225348"}}},{"Relevance":1.0,"Distance":72.3,"MatchLevel":"houseNumber","MatchQuality":{"Country":1.0,"State":1.0,"County":1.0,"City":1.0,"District":1.0,"Street":[1.0],"HouseNumber":1.0,"PostalCode":1.0},"MatchType":"interpolated","Location":{"LocationId":"NT_DCLbL0IWE5Pkq41jhanWND_l_1206413267_L_ygD","LocationType":"point","DisplayPosition":{"Latitude":41.6004227,"Longitude":0.6354746},"MapView":{"TopLeft":{"Latitude":41.6015469,"Longitude":0.6339713},"BottomRight":{"Latitude":41.5992986,"Longitude":0.6369779}},"Address":{"Label":"Avinguda de la Canadiense, 28, 25001 Lleida (Lleida), Espanya","Country":"ESP","State":"Catalunya","County":"Lleida","City":"Lleida","District":"La Bordeta","Street":"Avinguda de la Canadiense","HouseNumber":"28","PostalCode":"25001","AdditionalData":[{"value":"Espanya","key":"CountryName"},{"value":"Catalunya","key":"StateName"},{"value":"Lleida","key":"CountyName"}]},"MapReference":{"ReferenceId":"1206413267","Spot":0.5,"SideOfStreet":"left","CountryId":"20215059","StateId":"20215741","CountyId":"20224864","CityId":"20225348","DistrictId":"20244228"}}},{"Relevance":1.0,"Distance":74.8,"MatchLevel":"street","MatchQuality":{"Country":1.0,"State":1.0,"County":1.0,"City":1.0,"PostalCode":1.0},"Location":{"LocationId":"NT_ZoUqAFyuaINGCjJH-aijeD_l_818598693_R","LocationType":"point","DisplayPosition":{"Latitude":41.5996811,"Longitude":0.6340419},"MapView":{"TopLeft":{"Latitude":41.60037,"Longitude":0.63304},"BottomRight":{"Latitude":41.59876,"Longitude":0.63548}},"Address":{"Label":"25197 Lleida (Lleida), Espanya","Country":"ESP","State":"Catalunya","County":"Lleida","City":"Lleida","PostalCode":"25197","AdditionalData":[{"value":"Espanya","key":"CountryName"},{"value":"Catalunya","key":"StateName"},{"value":"Lleida","key":"CountyName"}]},"MapReference":{"ReferenceId":"818598693","Spot":0.58,"SideOfStreet":"right","CountryId":"20215059","StateId":"20215741","CountyId":"20224864","CityId":"20225348"}}},{"Relevance":1.0,"Distance":86.1,"MatchLevel":"street","MatchQuality":{"Country":1.0,"State":1.0,"County":1.0,"City":1.0,"PostalCode":1.0},"Location":{"LocationId":"NT_ZoUqAFyuaINGCjJH-aijeD_l_1119035446_R","LocationType":"point","DisplayPosition":{"Latitude":41.59951,"Longitude":0.63445},"MapView":{"TopLeft":{"Latitude":41.59951,"Longitude":0.63445},"BottomRight":{"Latitude":41.59902,"Longitude":0.6355}},"Address":{"Label":"25197 Lleida (Lleida), Espanya","Country":"ESP","State":"Catalunya","County":"Lleida","City":"Lleida","PostalCode":"25197","AdditionalData":[{"value":"Espanya","key":"CountryName"},{"value":"Catalunya","key":"StateName"},{"value":"Lleida","key":"CountyName"}]},"MapReference":{"ReferenceId":"1119035446","Spot":1.0,"SideOfStreet":"right","CountryId":"20215059","StateId":"20215741","CountyId":"20224864","CityId":"20225348"}}},{"Relevance":1.0,"Distance":106.1,"MatchLevel":"street","MatchQuality":{"Country":1.0,"State":1.0,"County":1.0,"City":1.0,"District":1.0,"Street":[1.0],"PostalCode":1.0},"Location":{"LocationId":"NT_JqlUHuwP4nKDUBs-gdbhND_l_1206413270_L","LocationType":"point","DisplayPosition":{"Latitude":41.5996,"Longitude":0.63533},"MapView":{"TopLeft":{"Latitude":41.59967,"Longitude":0.63533},"BottomRight":{"Latitude":41.59959,"Longitude":0.63558}},"Address":{"Label":"Carrer Cal Bernet, 25001 Lleida (Lleida), Espanya","Country":"ESP","State":"Catalunya","County":"Lleida","City":"Lleida","District":"La Bordeta","Street":"Carrer Cal Bernet","PostalCode":"25001","AdditionalData":[{"value":"Espanya","key":"CountryName"},{"value":"Catalunya","key":"StateName"},{"value":"Lleida","key":"CountyName"}]},"MapReference":{"ReferenceId":"1206413270","Spot":0.0,"SideOfStreet":"left","CountryId":"20215059","StateId":"20215741","CountyId":"20224864","CityId":"20225348","DistrictId":"20244228"}}},{"Relevance":1.0,"Distance":106.1,"MatchLevel":"street","MatchQuality":{"Country":1.0,"State":1.0,"County":1.0,"City":1.0,"District":1.0,"Street":[1.0],"PostalCode":1.0},"Location":{"LocationId":"NT_JqlUHuwP4nKDUBs-gdbhND_l_1206413268_R","LocationType":"point","DisplayPosition":{"Latitude":41.5996,"Longitude":0.63533},"MapView":{"TopLeft":{"Latitude":41.5996,"Longitude":0.63533},"BottomRight":{"Latitude":41.59943,"Longitude":0.6356}},"Address":{"Label":"Carrer Cal Bernet, 25001 Lleida (Lleida), Espanya","Country":"ESP","State":"Catalunya","County":"Lleida","City":"Lleida","District":"La Bordeta","Street":"Carrer Cal Bernet","PostalCode":"25001","AdditionalData":[{"value":"Espanya","key":"CountryName"},{"value":"Catalunya","key":"StateName"},{"value":"Lleida","key":"CountyName"}]},"MapReference":{"ReferenceId":"1206413268","Spot":1.0,"SideOfStreet":"right","CountryId":"20215059","StateId":"20215741","CountyId":"20224864","CityId":"20225348","DistrictId":"20244228"}}},{"Relevance":1.0,"Distance":112.9,"MatchLevel":"landmark","MatchQuality":{"Country":1.0,"State":1.0,"County":1.0,"Name":1.0},"Location":{"LocationId":"NT_R4cIY0t9Irha.uGTxBWWlD","LocationType":"canalWaterChannel","Name":"Canal de Ser√≤s","DisplayPosition":{"Latitude":41.55018,"Longitude":0.55485},"MapView":{"TopLeft":{"Latitude":41.62135,"Longitude":0.4586},"BottomRight":{"Latitude":41.46847,"Longitude":0.64531}},"Address":{"Label":"(Lleida), Espanya","Country":"ESP","State":"Catalunya","County":"Lleida","AdditionalData":[{"value":"Espanya","key":"CountryName"},{"value":"Catalunya","key":"StateName"},{"value":"Lleida","key":"CountyName"}]},"MapReference":{"CountryId":"20215059","StateId":"20215741","CountyId":"20224864","PlaceId":"759507619"}}}]}]}}