{"Response":{"MetaInfo":{"Timestamp":"2020-03-28T11:03:53.249+0000","NextPageInformation":"2"},"View":[{"_type":"SearchResultsViewType","ViewId":0,"Result":[{"Relevance":1.0,"Distance":0.0,"Direction":0.0,"MatchLevel":"district","MatchQuality":{"Country":1.0,"State":1.0,"County":1.0,"City":1.0,"District":1.0,"PostalCode":1.0},"Location":{"LocationId":"NT_z3wqaJVkcqvG5ebzydEOvD","LocationType":"point","DisplayPosition":{"Latitude":41.636224,"Longitude":-0.913707},"MapView":{"TopLeft":{"Latitude":41.64093,"Longitude":-1.04805},"BottomRight":{"Latitude":41.5478,"Longitude":-0.89754}},"Address":{"Label":"Casablanca, Zaragoza, Aragón, España","Country":"ESP","State":"Aragón","County":"Zaragoza","City":"Zaragoza","District":"Casablanca","PostalCode":"50019","AdditionalData":[{"value":"España","key":"CountryName"},{"value":"Aragón","key":"StateName"},{"value":"Zaragoza","key":"CountyName"}]},"MapReference":{"ReferenceId":"852891188","SideOfStreet":"neither","CountryId":"20215059","StateId":"20221894","CountyId":"20221897","CityId":"20248000"}}},{"Relevance":1.0,"Distance":4.4,"MatchLevel":"street","MatchQuality":{"Country":1.0,"State":1.0,"County":1.0,"City":1.0,"District":1.0,"PostalCode":1.0},"Location":{"LocationId":"NT_yTKmeR2L8PY5GqNOAqFHEB_l_1160227124_R","LocationType":"point","DisplayPosition":{"Latitude":41.6362615,"Longitude":-0.9137231},"MapView":{"TopLeft":{"Latitude":41.63628,"Longitude":-0.91401},"BottomRight":{"Latitude":41.63553,"Longitude":-0.91277}},"Address":{"Label":"50012 Zaragoza (Zaragoza), España","Country":"ESP","State":"Aragón","County":"Zaragoza","City":"Zaragoza","District":"Casablanca","PostalCode":"50012","AdditionalData":[{"value":"España","key":"CountryName"},{"value":"Aragón","key":"StateName"},{"value":"Zaragoza","key":"CountyName"}]},"MapReference":{"ReferenceId":"1160227124","Spot":0.5,"SideOfStreet":"right","CountryId":"20215059","StateId":"20221894","CountyId":"20221897","CityId":"20248000"}}},{"Relevance":1.0,"Distance":44.6,"MatchLevel":"street","MatchQuality":{"Country":1.0,"State":1.0,"County":1.0,"City":1.0,"District":1.0,"PostalCode":1.0},"Location":{"LocationId":"NT_yTKmeR2L8PY5GqNOAqFHEB_l_1066267480_R","LocationType":"point","DisplayPosition":{"Latitude":41.63588,"Longitude":-0.91343},"MapView":{"TopLeft":{"Latitude":41.63588,"Longitude":-0.91349},"BottomRight":{"Latitude":41.63575,"Longitude":-0.91247}},"Address":{"Label":"50012 Zaragoza (Zaragoza), España","Country":"ESP","State":"Aragón","County":"Zaragoza","City":"Zaragoza","District":"Casablanca","PostalCode":"50012","AdditionalData":[{"value":"España","key":"CountryName"},{"value":"Aragón","key":"StateName"},{"value":"Zaragoza","key":"CountyName"}]},"MapReference":{"ReferenceId":"1066267480","Spot":0.93,"SideOfStreet":"right","CountryId":"20215059","StateId":"20221894","CountyId":"20221897","CityId":"20248000"}}},{"Relevance":1.0,"Distance":47.4,"MatchLevel":"street","MatchQuality":{"Country":1.0,"State":1.0,"County":1.0,"City":1.0,"District":1.0,"PostalCode":1.0},"Location":{"LocationId":"NT_yTKmeR2L8PY5GqNOAqFHEB_l_1160227123_L","LocationType":"point","DisplayPosition":{"Latitude":41.63583,"Longitude":-0.91349},"MapView":{"TopLeft":{"Latitude":41.63583,"Longitude":-0.91374},"BottomRight":{"Latitude":41.63553,"Longitude":-0.91349}},"Address":{"Label":"50012 Zaragoza (Zaragoza), España","Country":"ESP","State":"Aragón","County":"Zaragoza","City":"Zaragoza","District":"Casablanca","PostalCode":"50012","AdditionalData":[{"value":"España","key":"CountryName"},{"value":"Aragón","key":"StateName"},{"value":"Zaragoza","key":"CountyName"}]},"MapReference":{"ReferenceId":"1160227123","Spot":1.0,"SideOfStreet":"left","CountryId":"20215059","StateId":"20221894","CountyId":"20221897","CityId":"20248000"}}},{"Relevance":1.0,"Distance":58.8,"MatchLevel":"houseNumber","MatchQuality":{"Country":1.0,"State":1.0,"County":1.0,"City":1.0,"District":1.0,"Street":[1.0],"HouseNumber":1.0,"PostalCode":1.0},"MatchType":"interpolated","Location":{"LocationId":"NT_DN-P1eN7WvmulW-WNPDyeD_zkD","LocationType":"point","DisplayPosition":{"Latitude":41.63659,"Longitude":-0.91304},"MapView":{"TopLeft":{"Latitude":41.6377142,"Longitude":-0.9145441},"BottomRight":{"Latitude":41.6354658,"Longitude":-0.9115359}},"Address":{"Label":"Vía Hispanidad, 39, 50012 Zaragoza (Zaragoza), España","Country":"ESP","State":"Aragón","County":"Zaragoza","City":"Zaragoza","District":"Casablanca","Street":"Vía Hispanidad","HouseNumber":"39","PostalCode":"50012","AdditionalData":[{"value":"España","key":"CountryName"},{"value":"Aragón","key":"StateName"},{"value":"Zaragoza","key":"CountyName"}]},"MapReference":{"ReferenceId":"1039261067","Spot":0.7,"SideOfStreet":"left","CountryId":"20215059","StateId":"20221894","CountyId":"20221897","CityId":"20248000","AddressId":"348076775","RoadLinkId":"361160112"}}},{"Relevance":1.0,"Distance":78.1,"MatchLevel":"street","MatchQuality":{"Country":1.0,"State":1.0,"County":1.0,"City":1.0,"District":1.0,"Street":[1.0],"PostalCode":1.0},"Location":{"LocationId":"NT_OfkTb1ufuOvuq.xktjnb1A_l_1039261068_L","LocationType":"point","DisplayPosition":{"Latitude":41.63679,"Longitude":-0.91315},"MapView":{"TopLeft":{"Latitude":41.63704,"Longitude":-0.91316},"BottomRight":{"Latitude":41.63679,"Longitude":-0.91307}},"Address":{"Label":"Vía de la Hispanidad, 50012 Zaragoza (Zaragoza), España","Country":"ESP","State":"Aragón","County":"Zaragoza","City":"Zaragoza","District":"Casablanca","Street":"Vía de la Hispanidad","PostalCode":"50012","AdditionalData":[{"value":"España","key":"CountryName"},{"value":"Aragón","key":"StateName"},{"value":"Zaragoza","key":"CountyName"}]},"MapReference":{"ReferenceId":"1039261068","Spot":0.0,"SideOfStreet":"left","CountryId":"20215059","StateId":"20221894","CountyId":"20221897","CityId":"20248000"}}},{"Relevance":1.0,"Distance":78.9,"MatchLevel":"street","MatchQuality":{"Country":1.0,"State":1.0,"County":1.0,"City":1.0,"District":1.0,"PostalCode":1.0},"Location":{"LocationId":"NT_yTKmeR2L8PY5GqNOAqFHEB_l_1039261069_L","LocationType":"point","DisplayPosition":{"Latitude":41.6368111,"Longitude":-0.9131732},"MapView":{"TopLeft":{"Latitude":41.63947,"Longitude":-0.91438},"BottomRight":{"Latitude":41.63679,"Longitude":-0.91315}},"Address":{"Label":"50012 Zaragoza (Zaragoza), España","Country":"ESP","State":"Aragón","County":"Zaragoza","City":"Zaragoza","District":"Casablanca","PostalCode":"50012","AdditionalData":[{"value":"España","key":"CountryName"},{"value":"Aragón","key":"StateName"},{"value":"Zaragoza","key":"CountyName"}]},"MapReference":{"ReferenceId":"1039261069","Spot":0.01,"SideOfStreet":"left","CountryId":"20215059","StateId":"20221894","CountyId":"20221897","CityId":"20248000"}}},{"Relevance":1.0,"Distance":81.9,"MatchLevel":"street","MatchQuality":{"Country":1.0,"State":1.0,"County":1.0,"City":1.0,"District":1.0,"Street":[1.0],"PostalCode":1.0},"Location":{"LocationId":"NT_OfkTb1ufuOvuq.xktjnb1A_l_1223192963_L","LocationType":"point","DisplayPosition":{"Latitude":41.6364,"Longitude":-0.91275},"MapView":{"TopLeft":{"Latitude":41.6364,"Longitude":-0.91275},"BottomRight":{"Latitude":41.6363,"Longitude":-0.9127}},"Address":{"Label":"Vía de la Hispanidad, 50012 Zaragoza (Zaragoza), España","Country":"ESP","State":"Aragón","County":"Zaragoza","City":"Zaragoza","District":"Casablanca","Street":"Vía de la Hispanidad","PostalCode":"50012","AdditionalData":[{"value":"España","key":"CountryName"},{"value":"Aragón","key":"StateName"},{"value":"Zaragoza","key":"CountyName"}]},"MapReference":{"ReferenceId":"1223192963","Spot":1.0,"SideOfStreet":"left","CountryId":"20215059","StateId":"20221894","CountyId":"20221897","CityId":"20248000"}}},{"Relevance":1.0,"Distance":81.9,"MatchLevel":"street","MatchQuality":{"Country":1.0,"State":1.0,"County":1.0,"City":1.0,"District":1.0,"PostalCode":1.0},"Location":{"LocationId":"NT_u1k0ob8gqXG1cDLiL4AoMD_l_1223192959_L","LocationType":"point","DisplayPosition":{"Latitude":41.6364,"Longitude":-0.91275},"MapView":{"TopLeft":{"Latitude":41.63644,"Longitude":-0.91275},"BottomRight":{"Latitude":41.6364,"Longitude":-0.91262}},"Address":{"Label":"50009 Zaragoza (Zaragoza), España","Country":"ESP","State":"Aragón","County":"Zaragoza","City":"Zaragoza","District":"Universidad","PostalCode":"50009","AdditionalData":[{"value":"España","key":"CountryName"},{"value":"Aragón","key":"StateName"},{"value":"Zaragoza","key":"CountyName"}]},"MapReference":{"ReferenceId":"1223192959","Spot":0.0,"SideOfStreet":"left","CountryId":"20215059","StateId":"20221894","CountyId":"20221897","CityId":"20248000"}}},{"Relevance":1.0,"Distance":83.3,"MatchLevel":"street","MatchQuality":{"Country":1.0,"State":1.0,"County":1.0,"City":1.0,"District":1.0,"Street":[1.0],"PostalCode":1.0},"Location":{"LocationId":"NT_OfkTb1ufuOvuq.xktjnb1A_l_1223192964_L","LocationType":"point","DisplayPosition":{"Latitude":41.6366928,"Longitude":-0.9129257},"MapView":{"TopLeft":{"Latitude":41.6367,"Longitude":-0.91293},"BottomRight":{"Latitude":41.6364,"Longitude":-0.91275}},"Address":{"Label":"Vía de la Hispanidad, 50012 Zaragoza (Zaragoza), España","Country":"ESP","State":"Aragón","County":"Zaragoza","City":"Zaragoza","District":"Casablanca","Street":"Vía de la Hispanidad","PostalCode":"50012","AdditionalData":[{"value":"España","key":"CountryName"},{"value":"Aragón","key":"StateName"},{"value":"Zaragoza","key":"CountyName"}]},"MapReference":{"ReferenceId":"1223192964","Spot":0.98,"SideOfStreet":"left","CountryId":"20215059","StateId":"20221894","CountyId":"20221897","CityId":"20248000"}}}]}]}}