{"Response":{"MetaInfo":{"Timestamp":"2020-03-28T10:26:20.897+0000","NextPageInformation":"2"},"View":[{"_type":"SearchResultsViewType","ViewId":0,"Result":[{"Relevance":1.0,"Distance":0.0,"Direction":0.0,"MatchLevel":"district","MatchQuality":{"Country":1.0,"State":1.0,"County":1.0,"City":1.0,"District":1.0,"PostalCode":1.0},"Location":{"LocationId":"NT_354dEDgclLdvqLbEB8AMUB","LocationType":"point","DisplayPosition":{"Latitude":41.6507305,"Longitude":-0.889007},"MapView":{"TopLeft":{"Latitude":41.66056,"Longitude":-0.89372},"BottomRight":{"Latitude":41.64691,"Longitude":-0.86264}},"Address":{"Label":"Casco Historico, Zaragoza, Aragón, España","Country":"ESP","State":"Aragón","County":"Zaragoza","City":"Zaragoza","District":"Casco Historico","PostalCode":"50003","AdditionalData":[{"value":"España","key":"CountryName"},{"value":"Aragón","key":"StateName"},{"value":"Zaragoza","key":"CountyName"}]},"MapReference":{"ReferenceId":"537003649","SideOfStreet":"neither","CountryId":"20215059","StateId":"20221894","CountyId":"20221897","CityId":"20248000"}}},{"Relevance":1.0,"Distance":6.8,"MatchLevel":"houseNumber","MatchQuality":{"Country":1.0,"State":1.0,"County":1.0,"City":1.0,"District":1.0,"Street":[1.0],"HouseNumber":1.0,"PostalCode":1.0},"MatchType":"interpolated","Location":{"LocationId":"NT_pJUxTMrdUb8s4GNfem9Y7B_yA","LocationType":"point","DisplayPosition":{"Latitude":41.65075,"Longitude":-0.88893},"MapView":{"TopLeft":{"Latitude":41.6518742,"Longitude":-0.8904345},"BottomRight":{"Latitude":41.6496258,"Longitude":-0.8874255}},"Address":{"Label":"Calle del Carmelo, 2, 50004 Zaragoza (Zaragoza), España","Country":"ESP","State":"Aragón","County":"Zaragoza","City":"Zaragoza","District":"Casco Historico","Street":"Calle del Carmelo","HouseNumber":"2","PostalCode":"50004","AdditionalData":[{"value":"España","key":"CountryName"},{"value":"Aragón","key":"StateName"},{"value":"Zaragoza","key":"CountyName"}]},"MapReference":{"ReferenceId":"537007925","Spot":0.28,"SideOfStreet":"right","CountryId":"20215059","StateId":"20221894","CountyId":"20221897","CityId":"20248000","AddressId":"347913109","RoadLinkId":"65172315"}}},{"Relevance":1.0,"Distance":20.7,"MatchLevel":"street","MatchQuality":{"Country":1.0,"State":1.0,"County":1.0,"City":1.0,"District":1.0,"PostalCode":1.0},"Location":{"LocationId":"NT_EDSIUiJJE.72.wUkihWBZB_l_851665489_R","LocationType":"point","DisplayPosition":{"Latitude":41.65077,"Longitude":-0.88925},"MapView":{"TopLeft":{"Latitude":41.65108,"Longitude":-0.88982},"BottomRight":{"Latitude":41.65064,"Longitude":-0.88925}},"Address":{"Label":"50004 Zaragoza (Zaragoza), España","Country":"ESP","State":"Aragón","County":"Zaragoza","City":"Zaragoza","District":"Casco Historico","PostalCode":"50004","AdditionalData":[{"value":"España","key":"CountryName"},{"value":"Aragón","key":"StateName"},{"value":"Zaragoza","key":"CountyName"}]},"MapReference":{"ReferenceId":"851665489","Spot":0.2,"SideOfStreet":"right","CountryId":"20215059","StateId":"20221894","CountyId":"20221897","CityId":"20248000"}}},{"Relevance":1.0,"Distance":22.6,"MatchLevel":"houseNumber","MatchQuality":{"Country":1.0,"State":1.0,"County":1.0,"City":1.0,"District":1.0,"Street":[1.0],"HouseNumber":1.0,"PostalCode":1.0},"MatchType":"interpolated","Location":{"LocationId":"NT_aOKhAyIp4QgZqzOZQLHe-B_4A","LocationType":"point","DisplayPosition":{"Latitude":41.65043,"Longitude":-0.88895},"MapView":{"TopLeft":{"Latitude":41.6515542,"Longitude":-0.8904545},"BottomRight":{"Latitude":41.6493058,"Longitude":-0.8874455}},"Address":{"Label":"Paseo María Agustín, 8, 50004 Zaragoza (Zaragoza), España","Country":"ESP","State":"Aragón","County":"Zaragoza","City":"Zaragoza","District":"Casco Historico","Street":"Paseo María Agustín","HouseNumber":"8","PostalCode":"50004","AdditionalData":[{"value":"España","key":"CountryName"},{"value":"Aragón","key":"StateName"},{"value":"Zaragoza","key":"CountyName"}]},"MapReference":{"ReferenceId":"537007922","Spot":0.4,"SideOfStreet":"right","CountryId":"20215059","StateId":"20221894","CountyId":"20221897","CityId":"20248000","AddressId":"347889705","RoadLinkId":"65517027"}}},{"Relevance":1.0,"Distance":24.7,"MatchLevel":"houseNumber","MatchQuality":{"Country":1.0,"State":1.0,"County":1.0,"City":1.0,"District":1.0,"Street":[1.0],"HouseNumber":1.0,"PostalCode":1.0},"MatchType":"interpolated","Location":{"LocationId":"NT_Rn5vfI76qPh7C-YYifDsJC_xUD","LocationType":"point","DisplayPosition":{"Latitude":41.65055,"Longitude":-0.88918},"MapView":{"TopLeft":{"Latitude":41.6516742,"Longitude":-0.8906845},"BottomRight":{"Latitude":41.6494258,"Longitude":-0.8876755}},"Address":{"Label":"Paseo María Agustín, 15, 50004 Zaragoza (Zaragoza), España","Country":"ESP","State":"Aragón","County":"Zaragoza","City":"Zaragoza","District":"Centro","Street":"Paseo María Agustín","HouseNumber":"15","PostalCode":"50004","AdditionalData":[{"value":"España","key":"CountryName"},{"value":"Aragón","key":"StateName"},{"value":"Zaragoza","key":"CountyName"}]},"MapReference":{"ReferenceId":"851665487","Spot":0.2,"SideOfStreet":"left","CountryId":"20215059","StateId":"20221894","CountyId":"20221897","CityId":"20248000","AddressId":"747206389","RoadLinkId":"231019730"}}},{"Relevance":1.0,"Distance":32.9,"MatchLevel":"houseNumber","MatchQuality":{"Country":1.0,"State":1.0,"County":1.0,"City":1.0,"District":1.0,"Street":[1.0],"HouseNumber":1.0,"PostalCode":1.0},"MatchType":"interpolated","Location":{"LocationId":"NT_aOKhAyIp4QgZqzOZQLHe-B_xID","LocationType":"point","DisplayPosition":{"Latitude":41.65071,"Longitude":-0.88948},"MapView":{"TopLeft":{"Latitude":41.6518342,"Longitude":-0.8909845},"BottomRight":{"Latitude":41.6495858,"Longitude":-0.8879755}},"Address":{"Label":"Paseo María Agustín, 12, 50004 Zaragoza (Zaragoza), España","Country":"ESP","State":"Aragón","County":"Zaragoza","City":"Zaragoza","District":"Casco Historico","Street":"Paseo María Agustín","HouseNumber":"12","PostalCode":"50004","AdditionalData":[{"value":"España","key":"CountryName"},{"value":"Aragón","key":"StateName"},{"value":"Zaragoza","key":"CountyName"}]},"MapReference":{"ReferenceId":"851665488","Spot":0.56,"SideOfStreet":"right","CountryId":"20215059","StateId":"20221894","CountyId":"20221897","CityId":"20248000","AddressId":"777058406","RoadLinkId":"231019731"}}},{"Relevance":1.0,"Distance":36.9,"MatchLevel":"street","MatchQuality":{"Country":1.0,"State":1.0,"County":1.0,"City":1.0,"District":1.0,"Street":[1.0],"PostalCode":1.0},"Location":{"LocationId":"NT_ilm0TsxtKMV0G.QiIWCQ-C_l_537004490_L","LocationType":"point","DisplayPosition":{"Latitude":41.6504741,"Longitude":-0.8887253},"MapView":{"TopLeft":{"Latitude":41.65115,"Longitude":-0.88882},"BottomRight":{"Latitude":41.65037,"Longitude":-0.88811}},"Address":{"Label":"Calle Santa Ana, 50004 Zaragoza (Zaragoza), España","Country":"ESP","State":"Aragón","County":"Zaragoza","City":"Zaragoza","District":"Casco Historico","Street":"Calle Santa Ana","PostalCode":"50004","AdditionalData":[{"value":"España","key":"CountryName"},{"value":"Aragón","key":"StateName"},{"value":"Zaragoza","key":"CountyName"}]},"MapReference":{"ReferenceId":"537004490","Spot":0.13,"SideOfStreet":"left","CountryId":"20215059","StateId":"20221894","CountyId":"20221897","CityId":"20248000"}}},{"Relevance":1.0,"Distance":38.6,"MatchLevel":"street","MatchQuality":{"Country":1.0,"State":1.0,"County":1.0,"City":1.0,"District":1.0,"PostalCode":1.0},"Location":{"LocationId":"NT_ja4c3N0l.O19HbZL4yy8cB_l_851666663_R","LocationType":"point","DisplayPosition":{"Latitude":41.6504049,"Longitude":-0.8891698},"MapView":{"TopLeft":{"Latitude":41.65067,"Longitude":-0.8897},"BottomRight":{"Latitude":41.65028,"Longitude":-0.88892}},"Address":{"Label":"50004 Zaragoza (Zaragoza), España","Country":"ESP","State":"Aragón","County":"Zaragoza","City":"Zaragoza","District":"Centro","PostalCode":"50004","AdditionalData":[{"value":"España","key":"CountryName"},{"value":"Aragón","key":"StateName"},{"value":"Zaragoza","key":"CountyName"}]},"MapReference":{"ReferenceId":"851666663","Spot":0.32,"SideOfStreet":"right","CountryId":"20215059","StateId":"20221894","CountyId":"20221897","CityId":"20248000"}}},{"Relevance":1.0,"Distance":40.2,"MatchLevel":"street","MatchQuality":{"Country":1.0,"State":1.0,"County":1.0,"City":1.0,"District":1.0,"Street":[1.0],"PostalCode":1.0},"Location":{"LocationId":"NT_tL5SDjbOWSYBXtE0VfkqQC_l_537013625_L","LocationType":"point","DisplayPosition":{"Latitude":41.6510713,"Longitude":-0.8888466},"MapView":{"TopLeft":{"Latitude":41.65159,"Longitude":-0.8892},"BottomRight":{"Latitude":41.65104,"Longitude":-0.88878}},"Address":{"Label":"Calle El Carmelo, 50004 Zaragoza (Zaragoza), España","Country":"ESP","State":"Aragón","County":"Zaragoza","City":"Zaragoza","District":"Casco Historico","Street":"Calle El Carmelo","PostalCode":"50004","AdditionalData":[{"value":"España","key":"CountryName"},{"value":"Aragón","key":"StateName"},{"value":"Zaragoza","key":"CountyName"}]},"MapReference":{"ReferenceId":"537013625","Spot":0.08,"SideOfStreet":"left","CountryId":"20215059","StateId":"20221894","CountyId":"20221897","CityId":"20248000"}}},{"Relevance":1.0,"Distance":43.0,"MatchLevel":"street","MatchQuality":{"Country":1.0,"State":1.0,"County":1.0,"City":1.0,"District":1.0,"Street":[1.0],"PostalCode":1.0},"Location":{"LocationId":"NT_WfZPNw0qDQ6imNjjVNBocC_l_851666662_L","LocationType":"point","DisplayPosition":{"Latitude":41.65037,"Longitude":-0.88882},"MapView":{"TopLeft":{"Latitude":41.65037,"Longitude":-0.88892},"BottomRight":{"Latitude":41.65028,"Longitude":-0.88882}},"Address":{"Label":"Calle Elvira de Hidalgo, 50004 Zaragoza (Zaragoza), España","Country":"ESP","State":"Aragón","County":"Zaragoza","City":"Zaragoza","District":"Centro","Street":"Calle Elvira de Hidalgo","PostalCode":"50004","AdditionalData":[{"value":"España","key":"CountryName"},{"value":"Aragón","key":"StateName"},{"value":"Zaragoza","key":"CountyName"}]},"MapReference":{"ReferenceId":"851666662","Spot":1.0,"SideOfStreet":"left","CountryId":"20215059","StateId":"20221894","CountyId":"20221897","CityId":"20248000"}}}]}]}}