{"Response":{"MetaInfo":{"Timestamp":"2020-03-28T11:33:02.920+0000","NextPageInformation":"2"},"View":[{"_type":"SearchResultsViewType","ViewId":0,"Result":[{"Relevance":1.0,"Distance":0.0,"Direction":0.0,"MatchLevel":"district","MatchQuality":{"Country":1.0,"County":1.0,"City":1.0,"District":1.0,"PostalCode":1.0},"Location":{"LocationId":"NT_mxGvqHEKBO2VR5V0XlKQ8B","LocationType":"point","DisplayPosition":{"Latitude":41.6303396,"Longitude":-8.358863},"MapView":{"TopLeft":{"Latitude":41.63539,"Longitude":-8.37204},"BottomRight":{"Latitude":41.62425,"Longitude":-8.35734}},"Address":{"Label":"Ferreiros, Amares, Portugal","Country":"PRT","County":"Braga","City":"Amares","District":"Ferreiros","PostalCode":"4720-349","AdditionalData":[{"value":"Portugal","key":"CountryName"},{"value":"Braga","key":"CountyName"}]},"MapReference":{"ReferenceId":"916865564","SideOfStreet":"neither","CountryId":"20317122","CountyId":"20317490","CityId":"20317491","DistrictId":"20317500"}}},{"Relevance":1.0,"Distance":7.1,"MatchLevel":"street","MatchQuality":{"Country":1.0,"County":1.0,"City":1.0,"District":1.0,"Street":[1.0],"PostalCode":1.0},"Location":{"LocationId":"NT_OGADEs.lkCexGOMt0JhXHA_l_590605711_R","LocationType":"point","DisplayPosition":{"Latitude":41.6304,"Longitude":-8.35889},"MapView":{"TopLeft":{"Latitude":41.63083,"Longitude":-8.35889},"BottomRight":{"Latitude":41.6304,"Longitude":-8.35783}},"Address":{"Label":"Rua 25 de Abril, 4720-393 Amares, Portugal","Country":"PRT","County":"Braga","City":"Amares","District":"Amares","Street":"Rua 25 de Abril","PostalCode":"4720-393","AdditionalData":[{"value":"Portugal","key":"CountryName"},{"value":"Braga","key":"CountyName"}]},"MapReference":{"ReferenceId":"590605711","Spot":0.0,"SideOfStreet":"right","CountryId":"20317122","CountyId":"20317490","CityId":"20317491","DistrictId":"20317492"}}},{"Relevance":1.0,"Distance":13.5,"MatchLevel":"houseNumber","MatchQuality":{"Country":1.0,"County":1.0,"City":1.0,"District":1.0,"Street":[1.0],"HouseNumber":1.0,"PostalCode":1.0},"MatchType":"interpolated","Location":{"LocationId":"NT_yzp.mfK2oIsV.Um23GuzCD_yED","LocationType":"point","DisplayPosition":{"Latitude":41.63031,"Longitude":-8.35902},"MapView":{"TopLeft":{"Latitude":41.6314342,"Longitude":-8.360524},"BottomRight":{"Latitude":41.6291858,"Longitude":-8.357516}},"Address":{"Label":"Rua 25 de Abril 21, 4720-393 Amares, Portugal","Country":"PRT","County":"Braga","City":"Amares","District":"Ferreiros","Street":"Rua 25 de Abril","HouseNumber":"21","PostalCode":"4720-393","AdditionalData":[{"value":"Portugal","key":"CountryName"},{"value":"Braga","key":"CountyName"}]},"MapReference":{"ReferenceId":"590605718","Spot":0.82,"SideOfStreet":"left","CountryId":"20317122","CountyId":"20317490","CityId":"20317491","DistrictId":"20317500","AddressId":"366564602","RoadLinkId":"70064219"}}},{"Relevance":1.0,"Distance":25.6,"MatchLevel":"houseNumber","MatchQuality":{"Country":1.0,"County":1.0,"City":1.0,"District":1.0,"Street":[1.0],"HouseNumber":1.0,"PostalCode":1.0},"MatchType":"interpolated","Location":{"LocationId":"NT_yzp.mfK2oIsV.Um23GuzCD_yMD","LocationType":"point","DisplayPosition":{"Latitude":41.63057,"Longitude":-8.35886},"MapView":{"TopLeft":{"Latitude":41.6316942,"Longitude":-8.360364},"BottomRight":{"Latitude":41.6294458,"Longitude":-8.357356}},"Address":{"Label":"Rua 25 de Abril 23, 4720-393 Amares, Portugal","Country":"PRT","County":"Braga","City":"Amares","District":"Ferreiros","Street":"Rua 25 de Abril","HouseNumber":"23","PostalCode":"4720-393","AdditionalData":[{"value":"Portugal","key":"CountryName"},{"value":"Braga","key":"CountyName"}]},"MapReference":{"ReferenceId":"590740557","Spot":0.17,"SideOfStreet":"left","CountryId":"20317122","CountyId":"20317490","CityId":"20317491","DistrictId":"20317500","AddressId":"585295532","RoadLinkId":"70923872"}}},{"Relevance":1.0,"Distance":50.9,"MatchLevel":"street","MatchQuality":{"Country":1.0,"County":1.0,"City":1.0,"District":1.0,"PostalCode":1.0},"Location":{"LocationId":"NT_Bc4N3PQJ2q3pDpfbZYvkTA_l_983116198_R","LocationType":"point","DisplayPosition":{"Latitude":41.62996,"Longitude":-8.35852},"MapView":{"TopLeft":{"Latitude":41.62996,"Longitude":-8.35852},"BottomRight":{"Latitude":41.62953,"Longitude":-8.35707}},"Address":{"Label":"4720 Amares, Portugal","Country":"PRT","County":"Braga","City":"Amares","District":"Amares","PostalCode":"4720","AdditionalData":[{"value":"Portugal","key":"CountryName"},{"value":"Braga","key":"CountyName"}]},"MapReference":{"ReferenceId":"983116198","Spot":1.0,"SideOfStreet":"right","CountryId":"20317122","CountyId":"20317490","CityId":"20317491","DistrictId":"20317492"}}},{"Relevance":1.0,"Distance":97.6,"MatchLevel":"houseNumber","MatchQuality":{"Country":1.0,"County":1.0,"City":1.0,"District":1.0,"Street":[1.0],"HouseNumber":1.0,"PostalCode":1.0},"MatchType":"interpolated","Location":{"LocationId":"NT_yzp.mfK2oIsV.Um23GuzCD_xMD","LocationType":"point","DisplayPosition":{"Latitude":41.62981,"Longitude":-8.3598},"MapView":{"TopLeft":{"Latitude":41.6309342,"Longitude":-8.361304},"BottomRight":{"Latitude":41.6286858,"Longitude":-8.358296}},"Address":{"Label":"Rua 25 de Abril 13, 4720-393 Amares, Portugal","Country":"PRT","County":"Braga","City":"Amares","District":"Ferreiros","Street":"Rua 25 de Abril","HouseNumber":"13","PostalCode":"4720-393","AdditionalData":[{"value":"Portugal","key":"CountryName"},{"value":"Braga","key":"CountyName"}]},"MapReference":{"ReferenceId":"917004085","Spot":0.16,"SideOfStreet":"left","CountryId":"20317122","CountyId":"20317490","CityId":"20317491","DistrictId":"20317500","AddressId":"366532520","RoadLinkId":"274491728"}}},{"Relevance":1.0,"Distance":98.6,"MatchLevel":"houseNumber","MatchQuality":{"Country":1.0,"County":1.0,"City":1.0,"District":1.0,"Street":[1.0],"HouseNumber":1.0,"PostalCode":1.0},"MatchType":"interpolated","Location":{"LocationId":"NT_m.KiUm5ElYRj4TRYoiYxPD_xA","LocationType":"point","DisplayPosition":{"Latitude":41.63107,"Longitude":-8.35819},"MapView":{"TopLeft":{"Latitude":41.6321942,"Longitude":-8.359694},"BottomRight":{"Latitude":41.6299458,"Longitude":-8.356686}},"Address":{"Label":"Rua 25 de Abril 1, 4720-393 Amares, Portugal","Country":"PRT","County":"Braga","City":"Amares","District":"Amares","Street":"Rua 25 de Abril","HouseNumber":"1","PostalCode":"4720-393","AdditionalData":[{"value":"Portugal","key":"CountryName"},{"value":"Braga","key":"CountyName"}]},"MapReference":{"ReferenceId":"591367720","Spot":0.43,"SideOfStreet":"left","CountryId":"20317122","CountyId":"20317490","CityId":"20317491","DistrictId":"20317492","AddressId":"366589649","RoadLinkId":"287425946"}}},{"Relevance":1.0,"Distance":101.7,"MatchLevel":"street","MatchQuality":{"Country":1.0,"County":1.0,"City":1.0,"District":1.0,"Street":[1.0],"PostalCode":1.0},"Location":{"LocationId":"NT_OGADEs.lkCexGOMt0JhXHA_l_590605719_R","LocationType":"point","DisplayPosition":{"Latitude":41.63083,"Longitude":-8.35783},"MapView":{"TopLeft":{"Latitude":41.63083,"Longitude":-8.35783},"BottomRight":{"Latitude":41.63083,"Longitude":-8.3577}},"Address":{"Label":"Rua 25 de Abril, 4720-393 Amares, Portugal","Country":"PRT","County":"Braga","City":"Amares","District":"Amares","Street":"Rua 25 de Abril","PostalCode":"4720-393","AdditionalData":[{"value":"Portugal","key":"CountryName"},{"value":"Braga","key":"CountyName"}]},"MapReference":{"ReferenceId":"590605719","Spot":0.0,"SideOfStreet":"right","CountryId":"20317122","CountyId":"20317490","CityId":"20317491","DistrictId":"20317492"}}},{"Relevance":1.0,"Distance":101.7,"MatchLevel":"street","MatchQuality":{"Country":1.0,"County":1.0,"City":1.0,"District":1.0,"Street":[1.0],"PostalCode":1.0},"Location":{"LocationId":"NT_m.KiUm5ElYRj4TRYoiYxPD_l_591367721_L","LocationType":"point","DisplayPosition":{"Latitude":41.63083,"Longitude":-8.35783},"MapView":{"TopLeft":{"Latitude":41.63092,"Longitude":-8.35783},"BottomRight":{"Latitude":41.63083,"Longitude":-8.35783}},"Address":{"Label":"Rua 25 de Abril, 4720-393 Amares, Portugal","Country":"PRT","County":"Braga","City":"Amares","District":"Amares","Street":"Rua 25 de Abril","PostalCode":"4720-393","AdditionalData":[{"value":"Portugal","key":"CountryName"},{"value":"Braga","key":"CountyName"}]},"MapReference":{"ReferenceId":"591367721","Spot":0.0,"SideOfStreet":"left","CountryId":"20317122","CountyId":"20317490","CityId":"20317491","DistrictId":"20317492"}}},{"Relevance":1.0,"Distance":105.6,"MatchLevel":"houseNumber","MatchQuality":{"Country":1.0,"County":1.0,"City":1.0,"District":1.0,"Street":[1.0],"HouseNumber":1.0,"PostalCode":1.0},"MatchType":"interpolated","Location":{"LocationId":"NT_yzp.mfK2oIsV.Um23GuzCD_xMjQ","LocationType":"point","DisplayPosition":{"Latitude":41.62976,"Longitude":-8.35987},"MapView":{"TopLeft":{"Latitude":41.6308842,"Longitude":-8.361374},"BottomRight":{"Latitude":41.6286358,"Longitude":-8.358366}},"Address":{"Label":"Rua 25 de Abril 13B, 4720-393 Amares, Portugal","Country":"PRT","County":"Braga","City":"Amares","District":"Ferreiros","Street":"Rua 25 de Abril","HouseNumber":"13B","PostalCode":"4720-393","AdditionalData":[{"value":"Portugal","key":"CountryName"},{"value":"Braga","key":"CountyName"}]},"MapReference":{"ReferenceId":"917004084","Spot":0.72,"SideOfStreet":"left","CountryId":"20317122","CountyId":"20317490","CityId":"20317491","DistrictId":"20317500","AddressId":"366589109","RoadLinkId":"274491727"}}}]}]}}