{"Response":{"MetaInfo":{"Timestamp":"2020-03-28T10:26:15.410+0000","NextPageInformation":"2"},"View":[{"_type":"SearchResultsViewType","ViewId":0,"Result":[{"Relevance":1.0,"Distance":0.0,"Direction":0.0,"MatchLevel":"city","MatchQuality":{"Country":1.0,"State":1.0,"County":1.0,"City":1.0,"PostalCode":1.0},"Location":{"LocationId":"NT_2YCXkF94igcIpyzGHDAT4B","LocationType":"point","DisplayPosition":{"Latitude":41.621173,"Longitude":0.6191535},"MapView":{"TopLeft":{"Latitude":41.73969,"Longitude":0.36862},"BottomRight":{"Latitude":41.51035,"Longitude":0.7446}},"Address":{"Label":"Lleida, Catalunya, Espanya","Country":"ESP","State":"Catalunya","County":"Lleida","City":"Lleida","PostalCode":"25002","AdditionalData":[{"value":"Espanya","key":"CountryName"},{"value":"Catalunya","key":"StateName"},{"value":"Lleida","key":"CountyName"}]},"MapReference":{"ReferenceId":"1128963891","SideOfStreet":"neither","CountryId":"20215059","StateId":"20215741","CountyId":"20224864","CityId":"20225348"}}},{"Relevance":1.0,"Distance":14.0,"MatchLevel":"houseNumber","MatchQuality":{"Country":1.0,"State":1.0,"County":1.0,"City":1.0,"Street":[1.0],"HouseNumber":1.0,"PostalCode":1.0},"MatchType":"interpolated","Location":{"LocationId":"NT_sbGe-0huYYLu.BMmUKaK7A_xUD","LocationType":"point","DisplayPosition":{"Latitude":41.62131,"Longitude":0.61904},"MapView":{"TopLeft":{"Latitude":41.6224342,"Longitude":0.6175362},"BottomRight":{"Latitude":41.6201858,"Longitude":0.6205438}},"Address":{"Label":"Carrer Enric Granados, 15, 25008 Lleida (Lleida), Espanya","Country":"ESP","State":"Catalunya","County":"Lleida","City":"Lleida","Street":"Carrer Enric Granados","HouseNumber":"15","PostalCode":"25008","AdditionalData":[{"value":"Espanya","key":"CountryName"},{"value":"Catalunya","key":"StateName"},{"value":"Lleida","key":"CountyName"}]},"MapReference":{"ReferenceId":"716783615","Spot":0.4,"SideOfStreet":"left","CountryId":"20215059","StateId":"20215741","CountyId":"20224864","CityId":"20225348","AddressId":"349795857","RoadLinkId":"121767151"}}},{"Relevance":1.0,"Distance":32.9,"MatchLevel":"houseNumber","MatchQuality":{"Country":1.0,"State":1.0,"County":1.0,"City":1.0,"Street":[1.0],"HouseNumber":1.0,"PostalCode":1.0},"MatchType":"interpolated","Location":{"LocationId":"NT_RzJlubWIWfcRpLSY0ZrRZD_zA","LocationType":"point","DisplayPosition":{"Latitude":41.62084,"Longitude":0.61923},"MapView":{"TopLeft":{"Latitude":41.6219642,"Longitude":0.6177262},"BottomRight":{"Latitude":41.6197158,"Longitude":0.6207338}},"Address":{"Label":"Carrer d'Aribau, 3, 25008 Lleida (Lleida), Espanya","Country":"ESP","State":"Catalunya","County":"Lleida","City":"Lleida","Street":"Carrer d'Aribau","HouseNumber":"3","PostalCode":"25008","AdditionalData":[{"value":"Espanya","key":"CountryName"},{"value":"Catalunya","key":"StateName"},{"value":"Lleida","key":"CountyName"}]},"MapReference":{"ReferenceId":"564003466","Spot":0.6,"SideOfStreet":"left","CountryId":"20215059","StateId":"20215741","CountyId":"20224864","CityId":"20225348","AddressId":"349661390","RoadLinkId":"65787237"}}},{"Relevance":1.0,"Distance":37.0,"MatchLevel":"houseNumber","MatchQuality":{"Country":1.0,"State":1.0,"County":1.0,"City":1.0,"Street":[1.0],"HouseNumber":1.0,"PostalCode":1.0},"MatchType":"interpolated","Location":{"LocationId":"NT_NBFzBSSP-QPvcbhuwxJv5D_xQD","LocationType":"point","DisplayPosition":{"Latitude":41.62126,"Longitude":0.61986},"MapView":{"TopLeft":{"Latitude":41.6223842,"Longitude":0.6183562},"BottomRight":{"Latitude":41.6201358,"Longitude":0.6213638}},"Address":{"Label":"Plaça Social, 14, 25008 Lleida (Lleida), Espanya","Country":"ESP","State":"Catalunya","County":"Lleida","City":"Lleida","Street":"Plaça Social","HouseNumber":"14","PostalCode":"25008","AdditionalData":[{"value":"Espanya","key":"CountryName"},{"value":"Catalunya","key":"StateName"},{"value":"Lleida","key":"CountyName"}]},"MapReference":{"ReferenceId":"564003482","Spot":0.58,"SideOfStreet":"left","CountryId":"20215059","StateId":"20215741","CountyId":"20224864","CityId":"20225348","AddressId":"350096819","RoadLinkId":"66426741"}}},{"Relevance":1.0,"Distance":40.5,"MatchLevel":"street","MatchQuality":{"Country":1.0,"State":1.0,"County":1.0,"City":1.0,"PostalCode":1.0},"Location":{"LocationId":"NT_nDB-9JF7Vu58iyYBcoTRRC_l_989247138_L","LocationType":"point","DisplayPosition":{"Latitude":41.62115,"Longitude":0.61964},"MapView":{"TopLeft":{"Latitude":41.62115,"Longitude":0.61964},"BottomRight":{"Latitude":41.62106,"Longitude":0.61968}},"Address":{"Label":"25008 Lleida (Lleida), Espanya","Country":"ESP","State":"Catalunya","County":"Lleida","City":"Lleida","PostalCode":"25008","AdditionalData":[{"value":"Espanya","key":"CountryName"},{"value":"Catalunya","key":"StateName"},{"value":"Lleida","key":"CountyName"}]},"MapReference":{"ReferenceId":"989247138","Spot":1.0,"SideOfStreet":"left","CountryId":"20215059","StateId":"20215741","CountyId":"20224864","CityId":"20225348"}}},{"Relevance":1.0,"Distance":40.5,"MatchLevel":"street","MatchQuality":{"Country":1.0,"State":1.0,"County":1.0,"City":1.0,"PostalCode":1.0},"Location":{"LocationId":"NT_nDB-9JF7Vu58iyYBcoTRRC_l_907532468_L","LocationType":"point","DisplayPosition":{"Latitude":41.62115,"Longitude":0.61964},"MapView":{"TopLeft":{"Latitude":41.62122,"Longitude":0.61964},"BottomRight":{"Latitude":41.62115,"Longitude":0.61983}},"Address":{"Label":"25008 Lleida (Lleida), Espanya","Country":"ESP","State":"Catalunya","County":"Lleida","City":"Lleida","PostalCode":"25008","AdditionalData":[{"value":"Espanya","key":"CountryName"},{"value":"Catalunya","key":"StateName"},{"value":"Lleida","key":"CountyName"}]},"MapReference":{"ReferenceId":"907532468","Spot":0.0,"SideOfStreet":"left","CountryId":"20215059","StateId":"20215741","CountyId":"20224864","CityId":"20225348"}}},{"Relevance":1.0,"Distance":45.5,"MatchLevel":"street","MatchQuality":{"Country":1.0,"State":1.0,"County":1.0,"City":1.0,"PostalCode":1.0},"Location":{"LocationId":"NT_nDB-9JF7Vu58iyYBcoTRRC_l_989247137_L","LocationType":"point","DisplayPosition":{"Latitude":41.62106,"Longitude":0.61968},"MapView":{"TopLeft":{"Latitude":41.6211,"Longitude":0.61968},"BottomRight":{"Latitude":41.62106,"Longitude":0.61984}},"Address":{"Label":"25008 Lleida (Lleida), Espanya","Country":"ESP","State":"Catalunya","County":"Lleida","City":"Lleida","PostalCode":"25008","AdditionalData":[{"value":"Espanya","key":"CountryName"},{"value":"Catalunya","key":"StateName"},{"value":"Lleida","key":"CountyName"}]},"MapReference":{"ReferenceId":"989247137","Spot":0.0,"SideOfStreet":"left","CountryId":"20215059","StateId":"20215741","CountyId":"20224864","CityId":"20225348"}}},{"Relevance":1.0,"Distance":54.8,"MatchLevel":"houseNumber","MatchQuality":{"Country":1.0,"State":1.0,"County":1.0,"City":1.0,"Street":[1.0],"HouseNumber":1.0,"PostalCode":1.0},"MatchType":"interpolated","Location":{"LocationId":"NT_V3txpQhlZpkIXZfSeQNKID_xA","LocationType":"point","DisplayPosition":{"Latitude":41.62149,"Longitude":0.61974},"MapView":{"TopLeft":{"Latitude":41.6226142,"Longitude":0.6182362},"BottomRight":{"Latitude":41.6203658,"Longitude":0.6212438}},"Address":{"Label":"Carrer Amics de Lleida, 1, 25008 Lleida (Lleida), Espanya","Country":"ESP","State":"Catalunya","County":"Lleida","City":"Lleida","Street":"Carrer Amics de Lleida","HouseNumber":"1","PostalCode":"25008","AdditionalData":[{"value":"Espanya","key":"CountryName"},{"value":"Catalunya","key":"StateName"},{"value":"Lleida","key":"CountyName"}]},"MapReference":{"ReferenceId":"564003422","Spot":0.48,"SideOfStreet":"left","CountryId":"20215059","StateId":"20215741","CountyId":"20224864","CityId":"20225348","AddressId":"350073353","RoadLinkId":"65981625"}}},{"Relevance":1.0,"Distance":56.5,"MatchLevel":"street","MatchQuality":{"Country":1.0,"State":1.0,"County":1.0,"City":1.0,"PostalCode":1.0},"Location":{"LocationId":"NT_nDB-9JF7Vu58iyYBcoTRRC_l_989247136_L","LocationType":"point","DisplayPosition":{"Latitude":41.62122,"Longitude":0.61983},"MapView":{"TopLeft":{"Latitude":41.62122,"Longitude":0.61983},"BottomRight":{"Latitude":41.6211,"Longitude":0.61988}},"Address":{"Label":"25008 Lleida (Lleida), Espanya","Country":"ESP","State":"Catalunya","County":"Lleida","City":"Lleida","PostalCode":"25008","AdditionalData":[{"value":"Espanya","key":"CountryName"},{"value":"Catalunya","key":"StateName"},{"value":"Lleida","key":"CountyName"}]},"MapReference":{"ReferenceId":"989247136","Spot":1.0,"SideOfStreet":"left","CountryId":"20215059","StateId":"20215741","CountyId":"20224864","CityId":"20225348"}}},{"Relevance":1.0,"Distance":60.1,"MatchLevel":"houseNumber","MatchQuality":{"Country":1.0,"State":1.0,"County":1.0,"City":1.0,"Street":[1.0],"HouseNumber":1.0,"PostalCode":1.0},"MatchType":"interpolated","Location":{"LocationId":"NT_TsrTgVCTYt28-C9DSbtnTC_yID","LocationType":"point","DisplayPosition":{"Latitude":41.62086,"Longitude":0.61839},"MapView":{"TopLeft":{"Latitude":41.6219842,"Longitude":0.6168862},"BottomRight":{"Latitude":41.6197358,"Longitude":0.6198938}},"Address":{"Label":"Avinguda de l'Alcalde Rovira Roure, 22, 25006 Lleida (Lleida), Espanya","Country":"ESP","State":"Catalunya","County":"Lleida","City":"Lleida","Street":"Avinguda de l'Alcalde Rovira Roure","HouseNumber":"22","PostalCode":"25006","AdditionalData":[{"value":"Espanya","key":"CountryName"},{"value":"Catalunya","key":"StateName"},{"value":"Lleida","key":"CountyName"}]},"MapReference":{"ReferenceId":"911704560","Spot":0.36,"SideOfStreet":"right","CountryId":"20215059","StateId":"20215741","CountyId":"20224864","CityId":"20225348","AddressId":"349968659","RoadLinkId":"270348376"}}}]}]}}