{"Response":{"MetaInfo":{"Timestamp":"2020-03-28T09:37:35.158+0000","NextPageInformation":"2"},"View":[{"_type":"SearchResultsViewType","ViewId":0,"Result":[{"Relevance":1.0,"Distance":0.0,"Direction":0.0,"MatchLevel":"city","MatchQuality":{"Country":1.0,"State":1.0,"County":1.0,"City":1.0,"PostalCode":1.0},"Location":{"LocationId":"NT_mveLoiCBlkM4Chge1hbHuC","LocationType":"point","DisplayPosition":{"Latitude":41.6992727,"Longitude":2.7165815},"MapView":{"TopLeft":{"Latitude":41.74433,"Longitude":2.59362},"BottomRight":{"Latitude":41.64243,"Longitude":2.77718}},"Address":{"Label":"Tordera, Catalunya, Espanya","Country":"ESP","State":"Catalunya","County":"Barcelona","City":"Tordera","PostalCode":"08490","AdditionalData":[{"value":"Espanya","key":"CountryName"},{"value":"Catalunya","key":"StateName"},{"value":"Barcelona","key":"CountyName"}]},"MapReference":{"ReferenceId":"994520213","SideOfStreet":"neither","CountryId":"20215059","StateId":"20215741","CountyId":"20215742","CityId":"20223401"}}},{"Relevance":1.0,"Distance":11.5,"MatchLevel":"street","MatchQuality":{"Country":1.0,"State":1.0,"County":1.0,"City":1.0,"PostalCode":1.0},"Location":{"LocationId":"NT_I3hwp5FNTaA6AT-ZKYWLiB_l_592014203_R","LocationType":"point","DisplayPosition":{"Latitude":41.6991837,"Longitude":2.7165103},"MapView":{"TopLeft":{"Latitude":41.69952,"Longitude":2.71601},"BottomRight":{"Latitude":41.69892,"Longitude":2.7169}},"Address":{"Label":"08490 Tordera (Barcelona), Espanya","Country":"ESP","State":"Catalunya","County":"Barcelona","City":"Tordera","PostalCode":"08490","AdditionalData":[{"value":"Espanya","key":"CountryName"},{"value":"Catalunya","key":"StateName"},{"value":"Barcelona","key":"CountyName"}]},"MapReference":{"ReferenceId":"592014203","Spot":0.44,"SideOfStreet":"right","CountryId":"20215059","StateId":"20215741","CountyId":"20215742","CityId":"20223401"}}},{"Relevance":1.0,"Distance":44.1,"MatchLevel":"houseNumber","MatchQuality":{"Country":1.0,"State":1.0,"County":1.0,"City":1.0,"Street":[1.0],"HouseNumber":1.0,"PostalCode":1.0},"MatchType":"interpolated","Location":{"LocationId":"NT_CjxTAxf-16C-JvmgFKbE1A_zID","LocationType":"point","DisplayPosition":{"Latitude":41.69895,"Longitude":2.71696},"MapView":{"TopLeft":{"Latitude":41.7000742,"Longitude":2.7154544},"BottomRight":{"Latitude":41.6978258,"Longitude":2.7184656}},"Address":{"Label":"Carrer Mes, 32, 08490 Tordera (Barcelona), Espanya","Country":"ESP","State":"Catalunya","County":"Barcelona","City":"Tordera","Street":"Carrer Mes","HouseNumber":"32","PostalCode":"08490","AdditionalData":[{"value":"Espanya","key":"CountryName"},{"value":"Catalunya","key":"StateName"},{"value":"Barcelona","key":"CountyName"}]},"MapReference":{"ReferenceId":"592014202","Spot":0.08,"SideOfStreet":"left","CountryId":"20215059","StateId":"20215741","CountyId":"20215742","CityId":"20223401","AddressId":"350027343","RoadLinkId":"65156017"}}},{"Relevance":1.0,"Distance":52.7,"MatchLevel":"houseNumber","MatchQuality":{"Country":1.0,"State":1.0,"County":1.0,"City":1.0,"Street":[1.0],"HouseNumber":1.0,"PostalCode":1.0},"MatchType":"interpolated","Location":{"LocationId":"NT_CjxTAxf-16C-JvmgFKbE1A_yUD","LocationType":"point","DisplayPosition":{"Latitude":41.69882,"Longitude":2.71677},"MapView":{"TopLeft":{"Latitude":41.6999442,"Longitude":2.7152644},"BottomRight":{"Latitude":41.6976958,"Longitude":2.7182756}},"Address":{"Label":"Carrer Mes, 25, 08490 Tordera (Barcelona), Espanya","Country":"ESP","State":"Catalunya","County":"Barcelona","City":"Tordera","Street":"Carrer Mes","HouseNumber":"25","PostalCode":"08490","AdditionalData":[{"value":"Espanya","key":"CountryName"},{"value":"Catalunya","key":"StateName"},{"value":"Barcelona","key":"CountyName"}]},"MapReference":{"ReferenceId":"995170629","Spot":0.79,"SideOfStreet":"right","CountryId":"20215059","StateId":"20215741","CountyId":"20215742","CityId":"20223401","AddressId":"349511567","RoadLinkId":"322997442"}}},{"Relevance":1.0,"Distance":54.8,"MatchLevel":"street","MatchQuality":{"Country":1.0,"State":1.0,"County":1.0,"City":1.0,"PostalCode":1.0},"Location":{"LocationId":"NT_I3hwp5FNTaA6AT-ZKYWLiB_l_592013102_R","LocationType":"point","DisplayPosition":{"Latitude":41.69952,"Longitude":2.71601},"MapView":{"TopLeft":{"Latitude":41.69952,"Longitude":2.7156},"BottomRight":{"Latitude":41.69885,"Longitude":2.71601}},"Address":{"Label":"08490 Tordera (Barcelona), Espanya","Country":"ESP","State":"Catalunya","County":"Barcelona","City":"Tordera","PostalCode":"08490","AdditionalData":[{"value":"Espanya","key":"CountryName"},{"value":"Catalunya","key":"StateName"},{"value":"Barcelona","key":"CountyName"}]},"MapReference":{"ReferenceId":"592013102","Spot":1.0,"SideOfStreet":"right","CountryId":"20215059","StateId":"20215741","CountyId":"20215742","CityId":"20223401"}}},{"Relevance":1.0,"Distance":54.8,"MatchLevel":"street","MatchQuality":{"Country":1.0,"State":1.0,"County":1.0,"City":1.0,"PostalCode":1.0},"Location":{"LocationId":"NT_I3hwp5FNTaA6AT-ZKYWLiB_l_841732935_R","LocationType":"point","DisplayPosition":{"Latitude":41.69952,"Longitude":2.71601},"MapView":{"TopLeft":{"Latitude":41.70069,"Longitude":2.71557},"BottomRight":{"Latitude":41.69952,"Longitude":2.71601}},"Address":{"Label":"08490 Tordera (Barcelona), Espanya","Country":"ESP","State":"Catalunya","County":"Barcelona","City":"Tordera","PostalCode":"08490","AdditionalData":[{"value":"Espanya","key":"CountryName"},{"value":"Catalunya","key":"StateName"},{"value":"Barcelona","key":"CountyName"}]},"MapReference":{"ReferenceId":"841732935","Spot":0.0,"SideOfStreet":"right","CountryId":"20215059","StateId":"20215741","CountyId":"20215742","CityId":"20223401"}}},{"Relevance":1.0,"Distance":55.6,"MatchLevel":"street","MatchQuality":{"Country":1.0,"State":1.0,"County":1.0,"City":1.0,"PostalCode":1.0},"Location":{"LocationId":"NT_I3hwp5FNTaA6AT-ZKYWLiB_l_902099068_R","LocationType":"point","DisplayPosition":{"Latitude":41.6997026,"Longitude":2.7162398},"MapView":{"TopLeft":{"Latitude":41.70002,"Longitude":2.71601},"BottomRight":{"Latitude":41.69952,"Longitude":2.717}},"Address":{"Label":"08490 Tordera (Barcelona), Espanya","Country":"ESP","State":"Catalunya","County":"Barcelona","City":"Tordera","PostalCode":"08490","AdditionalData":[{"value":"Espanya","key":"CountryName"},{"value":"Catalunya","key":"StateName"},{"value":"Barcelona","key":"CountyName"}]},"MapReference":{"ReferenceId":"902099068","Spot":0.26,"SideOfStreet":"right","CountryId":"20215059","StateId":"20215741","CountyId":"20215742","CityId":"20223401"}}},{"Relevance":1.0,"Distance":90.1,"MatchLevel":"street","MatchQuality":{"Country":1.0,"State":1.0,"County":1.0,"City":1.0,"PostalCode":1.0},"Location":{"LocationId":"NT_I3hwp5FNTaA6AT-ZKYWLiB_l_902099069_R","LocationType":"point","DisplayPosition":{"Latitude":41.70002,"Longitude":2.717},"MapView":{"TopLeft":{"Latitude":41.70018,"Longitude":2.717},"BottomRight":{"Latitude":41.70002,"Longitude":2.71786}},"Address":{"Label":"08490 Tordera (Barcelona), Espanya","Country":"ESP","State":"Catalunya","County":"Barcelona","City":"Tordera","PostalCode":"08490","AdditionalData":[{"value":"Espanya","key":"CountryName"},{"value":"Catalunya","key":"StateName"},{"value":"Barcelona","key":"CountyName"}]},"MapReference":{"ReferenceId":"902099069","Spot":0.0,"SideOfStreet":"right","CountryId":"20215059","StateId":"20215741","CountyId":"20215742","CityId":"20223401"}}},{"Relevance":1.0,"Distance":90.1,"MatchLevel":"street","MatchQuality":{"Country":1.0,"State":1.0,"County":1.0,"City":1.0,"PostalCode":1.0},"Location":{"LocationId":"NT_I3hwp5FNTaA6AT-ZKYWLiB_l_902099070_L","LocationType":"point","DisplayPosition":{"Latitude":41.70002,"Longitude":2.717},"MapView":{"TopLeft":{"Latitude":41.70092,"Longitude":2.71673},"BottomRight":{"Latitude":41.70002,"Longitude":2.717}},"Address":{"Label":"08490 Tordera (Barcelona), Espanya","Country":"ESP","State":"Catalunya","County":"Barcelona","City":"Tordera","PostalCode":"08490","AdditionalData":[{"value":"Espanya","key":"CountryName"},{"value":"Catalunya","key":"StateName"},{"value":"Barcelona","key":"CountyName"}]},"MapReference":{"ReferenceId":"902099070","Spot":0.0,"SideOfStreet":"left","CountryId":"20215059","StateId":"20215741","CountyId":"20215742","CityId":"20223401"}}},{"Relevance":1.0,"Distance":91.5,"MatchLevel":"street","MatchQuality":{"Country":1.0,"State":1.0,"County":1.0,"City":1.0,"Street":[1.0],"PostalCode":1.0},"Location":{"LocationId":"NT_CjxTAxf-16C-JvmgFKbE1A_l_995170628_L","LocationType":"point","DisplayPosition":{"Latitude":41.69849,"Longitude":2.71624},"MapView":{"TopLeft":{"Latitude":41.69849,"Longitude":2.716},"BottomRight":{"Latitude":41.69843,"Longitude":2.71624}},"Address":{"Label":"Carrer Mes, 08490 Tordera (Barcelona), Espanya","Country":"ESP","State":"Catalunya","County":"Barcelona","City":"Tordera","Street":"Carrer Mes","PostalCode":"08490","AdditionalData":[{"value":"Espanya","key":"CountryName"},{"value":"Catalunya","key":"StateName"},{"value":"Barcelona","key":"CountyName"}]},"MapReference":{"ReferenceId":"995170628","Spot":1.0,"SideOfStreet":"left","CountryId":"20215059","StateId":"20215741","CountyId":"20215742","CityId":"20223401"}}}]}]}}