{"Response":{"MetaInfo":{"Timestamp":"2020-03-28T09:56:06.912+0000","NextPageInformation":"2"},"View":[{"_type":"SearchResultsViewType","ViewId":0,"Result":[{"Relevance":1.0,"Distance":0.0,"Direction":0.0,"MatchLevel":"city","MatchQuality":{"Country":1.0,"State":1.0,"County":1.0,"City":1.0,"PostalCode":1.0},"Location":{"LocationId":"NT_cO9guweoI5niJLPU5XewdD","LocationType":"point","DisplayPosition":{"Latitude":41.7862733,"Longitude":12.6694371},"MapView":{"TopLeft":{"Latitude":41.80984,"Longitude":12.63616},"BottomRight":{"Latitude":41.75564,"Longitude":12.72893}},"Address":{"Label":"Grottaferrata, Lazio, Italia","Country":"ITA","State":"Lazio","County":"RM","City":"Grottaferrata","PostalCode":"00046","AdditionalData":[{"value":"Italia","key":"CountryName"},{"value":"Lazio","key":"StateName"},{"value":"Roma","key":"CountyName"}]},"MapReference":{"ReferenceId":"1205228903","SideOfStreet":"neither","CountryId":"20110484","StateId":"20126288","CountyId":"20126289","CityId":"20126937"}}},{"Relevance":1.0,"Distance":15.9,"MatchLevel":"houseNumber","MatchQuality":{"Country":1.0,"State":1.0,"County":1.0,"City":1.0,"Street":[1.0],"HouseNumber":1.0,"PostalCode":1.0},"MatchType":"interpolated","Location":{"LocationId":"NT_ymOV4judDBE3aaUnRfwV0C_xIjN","LocationType":"point","DisplayPosition":{"Latitude":41.78644,"Longitude":12.66933},"MapView":{"TopLeft":{"Latitude":41.7875642,"Longitude":12.6678224},"BottomRight":{"Latitude":41.7853158,"Longitude":12.6708376}},"Address":{"Label":"Viale 1 Maggio, 126, 00046 Grottaferrata RM, Italia","Country":"ITA","State":"Lazio","County":"RM","City":"Grottaferrata","Street":"Viale 1 Maggio","HouseNumber":"126","PostalCode":"00046","AdditionalData":[{"value":"Italia","key":"CountryName"},{"value":"Lazio","key":"StateName"},{"value":"Roma","key":"CountyName"}]},"MapReference":{"ReferenceId":"1260336153","Spot":0.65,"SideOfStreet":"right","CountryId":"20110484","StateId":"20126288","CountyId":"20126289","CityId":"20126937","AddressId":"811784916","RoadLinkId":"585792584"}}},{"Relevance":1.0,"Distance":20.8,"MatchLevel":"houseNumber","MatchQuality":{"Country":1.0,"State":1.0,"County":1.0,"City":1.0,"Street":[1.0],"HouseNumber":1.0,"PostalCode":1.0},"MatchType":"interpolated","Location":{"LocationId":"NT_ymOV4judDBE3aaUnRfwV0C_xIDO","LocationType":"point","DisplayPosition":{"Latitude":41.78658,"Longitude":12.66958},"MapView":{"TopLeft":{"Latitude":41.7877042,"Longitude":12.6680724},"BottomRight":{"Latitude":41.7854558,"Longitude":12.6710876}},"Address":{"Label":"Viale 1 Maggio, 128, 00046 Grottaferrata RM, Italia","Country":"ITA","State":"Lazio","County":"RM","City":"Grottaferrata","Street":"Viale 1 Maggio","HouseNumber":"128","PostalCode":"00046","AdditionalData":[{"value":"Italia","key":"CountryName"},{"value":"Lazio","key":"StateName"},{"value":"Roma","key":"CountyName"}]},"MapReference":{"ReferenceId":"1260336146","Spot":0.94,"SideOfStreet":"left","CountryId":"20110484","StateId":"20126288","CountyId":"20126289","CityId":"20126937","AddressId":"716795165","RoadLinkId":"585792576"}}},{"Relevance":1.0,"Distance":23.9,"MatchLevel":"houseNumber","MatchQuality":{"Country":1.0,"State":1.0,"County":1.0,"City":1.0,"Street":[1.0],"HouseNumber":1.0,"PostalCode":1.0},"MatchType":"interpolated","Location":{"LocationId":"NT_ymOV4judDBE3aaUnRfwV0C_xADN","LocationType":"point","DisplayPosition":{"Latitude":41.78663,"Longitude":12.6695},"MapView":{"TopLeft":{"Latitude":41.7877542,"Longitude":12.6679923},"BottomRight":{"Latitude":41.7855058,"Longitude":12.6710077}},"Address":{"Label":"Viale 1 Maggio, 104, 00046 Grottaferrata RM, Italia","Country":"ITA","State":"Lazio","County":"RM","City":"Grottaferrata","Street":"Viale 1 Maggio","HouseNumber":"104","PostalCode":"00046","AdditionalData":[{"value":"Italia","key":"CountryName"},{"value":"Lazio","key":"StateName"},{"value":"Roma","key":"CountyName"}]},"MapReference":{"ReferenceId":"1260336147","Spot":0.04,"SideOfStreet":"left","CountryId":"20110484","StateId":"20126288","CountyId":"20126289","CityId":"20126937","AddressId":"716811972","RoadLinkId":"585792577"}}},{"Relevance":1.0,"Distance":71.2,"MatchLevel":"street","MatchQuality":{"Country":1.0,"State":1.0,"County":1.0,"City":1.0,"Street":[1.0],"PostalCode":1.0},"Location":{"LocationId":"NT_y9nHxmeBPSSWLvHertcxiD_l_73919125_L","LocationType":"point","DisplayPosition":{"Latitude":41.78601,"Longitude":12.67022},"MapView":{"TopLeft":{"Latitude":41.78607,"Longitude":12.67022},"BottomRight":{"Latitude":41.78578,"Longitude":12.67032}},"Address":{"Label":"Piazza Guglielmo Marconi, 00046 Grottaferrata RM, Italia","Country":"ITA","State":"Lazio","County":"RM","City":"Grottaferrata","Street":"Piazza Guglielmo Marconi","PostalCode":"00046","AdditionalData":[{"value":"Italia","key":"CountryName"},{"value":"Lazio","key":"StateName"},{"value":"Roma","key":"CountyName"}]},"MapReference":{"ReferenceId":"73919125","Spot":0.77,"SideOfStreet":"left","CountryId":"20110484","StateId":"20126288","CountyId":"20126289","CityId":"20126937"}}},{"Relevance":1.0,"Distance":77.4,"MatchLevel":"houseNumber","MatchQuality":{"Country":1.0,"State":1.0,"County":1.0,"City":1.0,"Street":[1.0],"HouseNumber":1.0,"PostalCode":1.0},"MatchType":"interpolated","Location":{"LocationId":"NT_y9nHxmeBPSSWLvHertcxiD_5AD","LocationType":"point","DisplayPosition":{"Latitude":41.78612,"Longitude":12.67038},"MapView":{"TopLeft":{"Latitude":41.7872442,"Longitude":12.6688724},"BottomRight":{"Latitude":41.7849958,"Longitude":12.6718876}},"Address":{"Label":"Piazza Guglielmo Marconi, 90, 00046 Grottaferrata RM, Italia","Country":"ITA","State":"Lazio","County":"RM","City":"Grottaferrata","Street":"Piazza Guglielmo Marconi","HouseNumber":"90","PostalCode":"00046","AdditionalData":[{"value":"Italia","key":"CountryName"},{"value":"Lazio","key":"StateName"},{"value":"Roma","key":"CountyName"}]},"MapReference":{"ReferenceId":"73919105","Spot":0.73,"SideOfStreet":"right","CountryId":"20110484","StateId":"20126288","CountyId":"20126289","CityId":"20126937","AddressId":"717085677","RoadLinkId":"56321598"}}},{"Relevance":1.0,"Distance":93.5,"MatchLevel":"houseNumber","MatchQuality":{"Country":1.0,"State":1.0,"County":1.0,"City":1.0,"Street":[1.0],"HouseNumber":1.0,"PostalCode":1.0},"MatchType":"interpolated","Location":{"LocationId":"NT_ymOV4judDBE3aaUnRfwV0C_0YD","LocationType":"point","DisplayPosition":{"Latitude":41.78694,"Longitude":12.66875},"MapView":{"TopLeft":{"Latitude":41.7880642,"Longitude":12.6672423},"BottomRight":{"Latitude":41.7858158,"Longitude":12.6702577}},"Address":{"Label":"Viale 1 Maggio, 46, 00046 Grottaferrata RM, Italia","Country":"ITA","State":"Lazio","County":"RM","City":"Grottaferrata","Street":"Viale 1 Maggio","HouseNumber":"46","PostalCode":"00046","AdditionalData":[{"value":"Italia","key":"CountryName"},{"value":"Lazio","key":"StateName"},{"value":"Roma","key":"CountyName"}]},"MapReference":{"ReferenceId":"1260336148","Spot":0.77,"SideOfStreet":"left","CountryId":"20110484","StateId":"20126288","CountyId":"20126289","CityId":"20126937","AddressId":"716760357","RoadLinkId":"585792578"}}},{"Relevance":1.0,"Distance":96.6,"MatchLevel":"houseNumber","MatchQuality":{"Country":1.0,"State":1.0,"County":1.0,"City":1.0,"Street":[1.0],"HouseNumber":1.0,"PostalCode":1.0},"MatchType":"interpolated","Location":{"LocationId":"NT_y9nHxmeBPSSWLvHertcxiD_5QD","LocationType":"point","DisplayPosition":{"Latitude":41.78549,"Longitude":12.66994},"MapView":{"TopLeft":{"Latitude":41.7866142,"Longitude":12.6684324},"BottomRight":{"Latitude":41.7843658,"Longitude":12.6714476}},"Address":{"Label":"Piazza Guglielmo Marconi, 94, 00046 Grottaferrata RM, Italia","Country":"ITA","State":"Lazio","County":"RM","City":"Grottaferrata","Street":"Piazza Guglielmo Marconi","HouseNumber":"94","PostalCode":"00046","AdditionalData":[{"value":"Italia","key":"CountryName"},{"value":"Lazio","key":"StateName"},{"value":"Roma","key":"CountyName"}]},"MapReference":{"ReferenceId":"73919126","Spot":0.21,"SideOfStreet":"right","CountryId":"20110484","StateId":"20126288","CountyId":"20126289","CityId":"20126937","AddressId":"716743089","RoadLinkId":"56295385"}}},{"Relevance":1.0,"Distance":99.1,"MatchLevel":"houseNumber","MatchQuality":{"Country":1.0,"State":1.0,"County":1.0,"City":1.0,"Street":[1.0],"HouseNumber":1.0,"PostalCode":1.0},"MatchType":"interpolated","Location":{"LocationId":"NT_4mSdru7TfGf36c0S3vgqHA_yA","LocationType":"point","DisplayPosition":{"Latitude":41.78746,"Longitude":12.66962},"MapView":{"TopLeft":{"Latitude":41.7885842,"Longitude":12.6681123},"BottomRight":{"Latitude":41.7863358,"Longitude":12.6711277}},"Address":{"Label":"Via Sentiero delle Mimose, 2, 00046 Grottaferrata RM, Italia","Country":"ITA","State":"Lazio","County":"RM","City":"Grottaferrata","Street":"Via Sentiero delle Mimose","HouseNumber":"2","PostalCode":"00046","AdditionalData":[{"value":"Italia","key":"CountryName"},{"value":"Lazio","key":"StateName"},{"value":"Roma","key":"CountyName"}]},"MapReference":{"ReferenceId":"73919108","Spot":1.0,"SideOfStreet":"left","CountryId":"20110484","StateId":"20126288","CountyId":"20126289","CityId":"20126937","AddressId":"373196032","RoadLinkId":"57059338"}}},{"Relevance":1.0,"Distance":102.1,"MatchLevel":"houseNumber","MatchQuality":{"Country":1.0,"State":1.0,"County":1.0,"City":1.0,"Street":[1.0],"HouseNumber":1.0,"PostalCode":1.0},"MatchType":"interpolated","Location":{"LocationId":"NT_ymOV4judDBE3aaUnRfwV0C_0QD","LocationType":"point","DisplayPosition":{"Latitude":41.78709,"Longitude":12.66878},"MapView":{"TopLeft":{"Latitude":41.7882142,"Longitude":12.6672723},"BottomRight":{"Latitude":41.7859658,"Longitude":12.6702877}},"Address":{"Label":"Viale 1 Maggio, 44, 00046 Grottaferrata RM, Italia","Country":"ITA","State":"Lazio","County":"RM","City":"Grottaferrata","Street":"Viale 1 Maggio","HouseNumber":"44","PostalCode":"00046","AdditionalData":[{"value":"Italia","key":"CountryName"},{"value":"Lazio","key":"StateName"},{"value":"Roma","key":"CountyName"}]},"MapReference":{"ReferenceId":"1252130441","Spot":0.16,"SideOfStreet":"left","CountryId":"20110484","StateId":"20126288","CountyId":"20126289","CityId":"20126937","AddressId":"716820041","RoadLinkId":"575286164"}}}]}]}}