{"Response":{"MetaInfo":{"Timestamp":"2020-03-28T12:04:06.065+0000","NextPageInformation":"2"},"View":[{"_type":"SearchResultsViewType","ViewId":0,"Result":[{"Relevance":1.0,"Distance":0.0,"Direction":0.0,"MatchLevel":"city","MatchQuality":{"Country":1.0,"State":1.0,"County":1.0,"City":1.0,"PostalCode":1.0},"Location":{"LocationId":"NT_cO9guweoI5niJLPU5XewdD","LocationType":"point","DisplayPosition":{"Latitude":41.7922384,"Longitude":12.6672238},"MapView":{"TopLeft":{"Latitude":41.80984,"Longitude":12.63616},"BottomRight":{"Latitude":41.75564,"Longitude":12.72893}},"Address":{"Label":"Grottaferrata, Lazio, Italia","Country":"ITA","State":"Lazio","County":"RM","City":"Grottaferrata","PostalCode":"00046","AdditionalData":[{"value":"Italia","key":"CountryName"},{"value":"Lazio","key":"StateName"},{"value":"Roma","key":"CountyName"}]},"MapReference":{"ReferenceId":"1205228903","SideOfStreet":"neither","CountryId":"20110484","StateId":"20126288","CountyId":"20126289","CityId":"20126937"}}},{"Relevance":1.0,"Distance":2.3,"MatchLevel":"houseNumber","MatchQuality":{"Country":1.0,"State":1.0,"County":1.0,"City":1.0,"Street":[1.0],"HouseNumber":1.0,"PostalCode":1.0},"MatchType":"interpolated","Location":{"LocationId":"NT_DJX7BSg7rChTisYNSeZ0jC_4ED","LocationType":"point","DisplayPosition":{"Latitude":41.79226,"Longitude":12.66708},"MapView":{"TopLeft":{"Latitude":41.7933842,"Longitude":12.6655722},"BottomRight":{"Latitude":41.7911358,"Longitude":12.6685878}},"Address":{"Label":"Viale San Nilo, 81, 00046 Grottaferrata RM, Italia","Country":"ITA","State":"Lazio","County":"RM","City":"Grottaferrata","Street":"Viale San Nilo","HouseNumber":"81","PostalCode":"00046","AdditionalData":[{"value":"Italia","key":"CountryName"},{"value":"Lazio","key":"StateName"},{"value":"Roma","key":"CountyName"}]},"MapReference":{"ReferenceId":"73919260","Spot":0.43,"SideOfStreet":"right","CountryId":"20110484","StateId":"20126288","CountyId":"20126289","CityId":"20126937","AddressId":"811634177","RoadLinkId":"56648334"}}},{"Relevance":1.0,"Distance":64.1,"MatchLevel":"houseNumber","MatchQuality":{"Country":1.0,"State":1.0,"County":1.0,"City":1.0,"Street":[1.0],"HouseNumber":1.0,"PostalCode":1.0},"MatchType":"interpolated","Location":{"LocationId":"NT_pe4vANfvBY79ka-n9iVbaC_5A","LocationType":"point","DisplayPosition":{"Latitude":41.79185,"Longitude":12.66791},"MapView":{"TopLeft":{"Latitude":41.7929742,"Longitude":12.6664022},"BottomRight":{"Latitude":41.7907258,"Longitude":12.6694178}},"Address":{"Label":"Via Giacomo Matteotti, 9, 00046 Grottaferrata RM, Italia","Country":"ITA","State":"Lazio","County":"RM","City":"Grottaferrata","Street":"Via Giacomo Matteotti","HouseNumber":"9","PostalCode":"00046","AdditionalData":[{"value":"Italia","key":"CountryName"},{"value":"Lazio","key":"StateName"},{"value":"Roma","key":"CountyName"}]},"MapReference":{"ReferenceId":"73919259","Spot":0.71,"SideOfStreet":"left","CountryId":"20110484","StateId":"20126288","CountyId":"20126289","CityId":"20126937","AddressId":"716979665","RoadLinkId":"57036821"}}},{"Relevance":1.0,"Distance":71.1,"MatchLevel":"houseNumber","MatchQuality":{"Country":1.0,"State":1.0,"County":1.0,"City":1.0,"Street":[1.0],"HouseNumber":1.0,"PostalCode":1.0},"MatchType":"interpolated","Location":{"LocationId":"NT_9i203sf9W.xSufYJcEDxQB_3ED","LocationType":"point","DisplayPosition":{"Latitude":41.79241,"Longitude":12.6682},"MapView":{"TopLeft":{"Latitude":41.7935342,"Longitude":12.6666922},"BottomRight":{"Latitude":41.7912858,"Longitude":12.6697078}},"Address":{"Label":"Via 4 Novembre, 71, 00046 Grottaferrata RM, Italia","Country":"ITA","State":"Lazio","County":"RM","City":"Grottaferrata","Street":"Via 4 Novembre","HouseNumber":"71","PostalCode":"00046","AdditionalData":[{"value":"Italia","key":"CountryName"},{"value":"Lazio","key":"StateName"},{"value":"Roma","key":"CountyName"}]},"MapReference":{"ReferenceId":"73919258","Spot":0.35,"SideOfStreet":"left","CountryId":"20110484","StateId":"20126288","CountyId":"20126289","CityId":"20126937","AddressId":"778738559","RoadLinkId":"56555439"}}},{"Relevance":1.0,"Distance":74.4,"MatchLevel":"houseNumber","MatchQuality":{"Country":1.0,"State":1.0,"County":1.0,"City":1.0,"Street":[1.0],"HouseNumber":1.0,"PostalCode":1.0},"MatchType":"interpolated","Location":{"LocationId":"NT_9Lzs714g2tr22U5-tLjEbA_xMzQ","LocationType":"point","DisplayPosition":{"Latitude":41.79245,"Longitude":12.66626},"MapView":{"TopLeft":{"Latitude":41.7935742,"Longitude":12.6647522},"BottomRight":{"Latitude":41.7913258,"Longitude":12.6677678}},"Address":{"Label":"Via Don Luigi Minzoni, 13C, 00046 Grottaferrata RM, Italia","Country":"ITA","State":"Lazio","County":"RM","City":"Grottaferrata","Street":"Via Don Luigi Minzoni","HouseNumber":"13C","PostalCode":"00046","AdditionalData":[{"value":"Italia","key":"CountryName"},{"value":"Lazio","key":"StateName"},{"value":"Roma","key":"CountyName"}]},"MapReference":{"ReferenceId":"73898348","Spot":0.67,"SideOfStreet":"right","CountryId":"20110484","StateId":"20126288","CountyId":"20126289","CityId":"20126937","AddressId":"716881672","RoadLinkId":"56903971"}}},{"Relevance":1.0,"Distance":83.4,"MatchLevel":"houseNumber","MatchQuality":{"Country":1.0,"State":1.0,"County":1.0,"City":1.0,"Street":[1.0],"HouseNumber":1.0,"PostalCode":1.0},"MatchType":"interpolated","Location":{"LocationId":"NT_kP59zjOihScwl8w6zfkDHD_zMD","LocationType":"point","DisplayPosition":{"Latitude":41.79193,"Longitude":12.66607},"MapView":{"TopLeft":{"Latitude":41.7930542,"Longitude":12.6645622},"BottomRight":{"Latitude":41.7908058,"Longitude":12.6675778}},"Address":{"Label":"Via Roma, 33, 00046 Grottaferrata RM, Italia","Country":"ITA","State":"Lazio","County":"RM","City":"Grottaferrata","Street":"Via Roma","HouseNumber":"33","PostalCode":"00046","AdditionalData":[{"value":"Italia","key":"CountryName"},{"value":"Lazio","key":"StateName"},{"value":"Roma","key":"CountyName"}]},"MapReference":{"ReferenceId":"73898339","Spot":0.84,"SideOfStreet":"right","CountryId":"20110484","StateId":"20126288","CountyId":"20126289","CityId":"20126937","AddressId":"833338800","RoadLinkId":"56951953"}}},{"Relevance":1.0,"Distance":90.5,"MatchLevel":"houseNumber","MatchQuality":{"Country":1.0,"State":1.0,"County":1.0,"City":1.0,"Street":[1.0],"HouseNumber":1.0,"PostalCode":1.0},"MatchType":"interpolated","Location":{"LocationId":"NT_kP59zjOihScwl8w6zfkDHD_0ED","LocationType":"point","DisplayPosition":{"Latitude":41.79214,"Longitude":12.66577},"MapView":{"TopLeft":{"Latitude":41.7932642,"Longitude":12.6642622},"BottomRight":{"Latitude":41.7910158,"Longitude":12.6672778}},"Address":{"Label":"Via Roma, 41, 00046 Grottaferrata RM, Italia","Country":"ITA","State":"Lazio","County":"RM","City":"Grottaferrata","Street":"Via Roma","HouseNumber":"41","PostalCode":"00046","AdditionalData":[{"value":"Italia","key":"CountryName"},{"value":"Lazio","key":"StateName"},{"value":"Roma","key":"CountyName"}]},"MapReference":{"ReferenceId":"73898334","Spot":0.08,"SideOfStreet":"right","CountryId":"20110484","StateId":"20126288","CountyId":"20126289","CityId":"20126937","AddressId":"811731074","RoadLinkId":"57016308"}}},{"Relevance":1.0,"Distance":104.7,"MatchLevel":"houseNumber","MatchQuality":{"Country":1.0,"State":1.0,"County":1.0,"City":1.0,"Street":[1.0],"HouseNumber":1.0,"PostalCode":1.0},"MatchType":"interpolated","Location":{"LocationId":"NT_kP59zjOihScwl8w6zfkDHD_0QD","LocationType":"point","DisplayPosition":{"Latitude":41.79136,"Longitude":12.66677},"MapView":{"TopLeft":{"Latitude":41.7924842,"Longitude":12.6652622},"BottomRight":{"Latitude":41.7902358,"Longitude":12.6682778}},"Address":{"Label":"Via Roma, 44, 00046 Grottaferrata RM, Italia","Country":"ITA","State":"Lazio","County":"RM","City":"Grottaferrata","Street":"Via Roma","HouseNumber":"44","PostalCode":"00046","AdditionalData":[{"value":"Italia","key":"CountryName"},{"value":"Lazio","key":"StateName"},{"value":"Roma","key":"CountyName"}]},"MapReference":{"ReferenceId":"73898330","Spot":0.71,"SideOfStreet":"left","CountryId":"20110484","StateId":"20126288","CountyId":"20126289","CityId":"20126937","AddressId":"811772829","RoadLinkId":"56664790"}}},{"Relevance":1.0,"Distance":113.6,"MatchLevel":"houseNumber","MatchQuality":{"Country":1.0,"State":1.0,"County":1.0,"City":1.0,"Street":[1.0],"HouseNumber":1.0,"PostalCode":1.0},"MatchType":"interpolated","Location":{"LocationId":"NT_5DPzl0O.d5jKRAEqPcsycA_1gD","LocationType":"point","DisplayPosition":{"Latitude":41.79331,"Longitude":12.66726},"MapView":{"TopLeft":{"Latitude":41.7944342,"Longitude":12.6657522},"BottomRight":{"Latitude":41.7921858,"Longitude":12.6687678}},"Address":{"Label":"Via Anagnina, 58, 00046 Grottaferrata RM, Italia","Country":"ITA","State":"Lazio","County":"RM","City":"Grottaferrata","Street":"Via Anagnina","HouseNumber":"58","PostalCode":"00046","AdditionalData":[{"value":"Italia","key":"CountryName"},{"value":"Lazio","key":"StateName"},{"value":"Roma","key":"CountyName"}]},"MapReference":{"ReferenceId":"1210752057","Spot":0.96,"SideOfStreet":"left","CountryId":"20110484","StateId":"20126288","CountyId":"20126289","CityId":"20126937","AddressId":"373118161","RoadLinkId":"525756791"}}},{"Relevance":1.0,"Distance":114.7,"MatchLevel":"houseNumber","MatchQuality":{"Country":1.0,"State":1.0,"County":1.0,"City":1.0,"Street":[1.0],"HouseNumber":1.0,"PostalCode":1.0},"MatchType":"interpolated","Location":{"LocationId":"NT_DJX7BSg7rChTisYNSeZ0jC_2MD","LocationType":"point","DisplayPosition":{"Latitude":41.79133,"Longitude":12.66653},"MapView":{"TopLeft":{"Latitude":41.7924542,"Longitude":12.6650222},"BottomRight":{"Latitude":41.7902058,"Longitude":12.6680378}},"Address":{"Label":"Viale San Nilo, 63, 00046 Grottaferrata RM, Italia","Country":"ITA","State":"Lazio","County":"RM","City":"Grottaferrata","Street":"Viale San Nilo","HouseNumber":"63","PostalCode":"00046","AdditionalData":[{"value":"Italia","key":"CountryName"},{"value":"Lazio","key":"StateName"},{"value":"Roma","key":"CountyName"}]},"MapReference":{"ReferenceId":"73919217","Spot":0.78,"SideOfStreet":"right","CountryId":"20110484","StateId":"20126288","CountyId":"20126289","CityId":"20126937","AddressId":"811648435","RoadLinkId":"56898602"}}}]}]}}