{"Response":{"MetaInfo":{"Timestamp":"2020-03-28T11:27:02.737+0000","NextPageInformation":"2"},"View":[{"_type":"SearchResultsViewType","ViewId":0,"Result":[{"Relevance":1.0,"Distance":0.0,"Direction":0.0,"MatchLevel":"district","MatchQuality":{"Country":1.0,"State":1.0,"County":1.0,"City":1.0,"District":1.0,"PostalCode":1.0},"Location":{"LocationId":"NT_y9Ng-7-V5zEXM9YVz1o.0C","LocationType":"point","DisplayPosition":{"Latitude":41.7700581,"Longitude":12.4728924},"MapView":{"TopLeft":{"Latitude":41.78034,"Longitude":12.46034},"BottomRight":{"Latitude":41.75511,"Longitude":12.49561}},"Address":{"Label":"Trigoria, Roma, Lazio, Italia","Country":"ITA","State":"Lazio","County":"RM","City":"Roma","District":"Trigoria","PostalCode":"00128","AdditionalData":[{"value":"Italia","key":"CountryName"},{"value":"Lazio","key":"StateName"},{"value":"Roma","key":"CountyName"}]},"MapReference":{"ReferenceId":"55596847","SideOfStreet":"neither","CountryId":"20110484","StateId":"20126288","CountyId":"20126289","CityId":"20126290","DistrictId":"20127127"}}},{"Relevance":1.0,"Distance":13.9,"MatchLevel":"street","MatchQuality":{"Country":1.0,"State":1.0,"County":1.0,"City":1.0,"District":1.0,"Street":[1.0],"PostalCode":1.0},"Location":{"LocationId":"NT_gWy49iG978HdDSf-lT.02A_l_772987064_L","LocationType":"point","DisplayPosition":{"Latitude":41.7701828,"Longitude":12.4729102},"MapView":{"TopLeft":{"Latitude":41.7702,"Longitude":12.47279},"BottomRight":{"Latitude":41.77016,"Longitude":12.47307}},"Address":{"Label":"Via Regdo Scodro, 00128 Roma RM, Italia","Country":"ITA","State":"Lazio","County":"RM","City":"Roma","District":"Trigoria","Street":"Via Regdo Scodro","PostalCode":"00128","AdditionalData":[{"value":"Italia","key":"CountryName"},{"value":"Lazio","key":"StateName"},{"value":"Roma","key":"CountyName"}]},"MapReference":{"ReferenceId":"772987064","Spot":0.57,"SideOfStreet":"left","CountryId":"20110484","StateId":"20126288","CountyId":"20126289","CityId":"20126290","DistrictId":"20127127"}}},{"Relevance":1.0,"Distance":17.9,"MatchLevel":"street","MatchQuality":{"Country":1.0,"State":1.0,"County":1.0,"City":1.0,"PostalCode":1.0},"Location":{"LocationId":"NT_gB57GWBvpnvk7yTmUj--yA_l_1224538247_L","LocationType":"point","DisplayPosition":{"Latitude":41.7702,"Longitude":12.47279},"MapView":{"TopLeft":{"Latitude":41.77112,"Longitude":12.46867},"BottomRight":{"Latitude":41.7702,"Longitude":12.47279}},"Address":{"Label":"00128 Roma RM, Italia","Country":"ITA","State":"Lazio","County":"RM","City":"Roma","PostalCode":"00128","AdditionalData":[{"value":"Italia","key":"CountryName"},{"value":"Lazio","key":"StateName"},{"value":"Roma","key":"CountyName"}]},"MapReference":{"ReferenceId":"1224538247","Spot":0.0,"SideOfStreet":"left","CountryId":"20110484","StateId":"20126288","CountyId":"20126289","CityId":"20126290"}}},{"Relevance":1.0,"Distance":18.6,"MatchLevel":"street","MatchQuality":{"Country":1.0,"State":1.0,"County":1.0,"City":1.0,"District":1.0,"Street":[1.0],"PostalCode":1.0},"Location":{"LocationId":"NT_gWy49iG978HdDSf-lT.02A_l_1118178578_L","LocationType":"point","DisplayPosition":{"Latitude":41.77016,"Longitude":12.47307},"MapView":{"TopLeft":{"Latitude":41.77016,"Longitude":12.47307},"BottomRight":{"Latitude":41.77011,"Longitude":12.47323}},"Address":{"Label":"Via Regdo Scodro, 00128 Roma RM, Italia","Country":"ITA","State":"Lazio","County":"RM","City":"Roma","District":"Trigoria","Street":"Via Regdo Scodro","PostalCode":"00128","AdditionalData":[{"value":"Italia","key":"CountryName"},{"value":"Lazio","key":"StateName"},{"value":"Roma","key":"CountyName"}]},"MapReference":{"ReferenceId":"1118178578","Spot":1.0,"SideOfStreet":"left","CountryId":"20110484","StateId":"20126288","CountyId":"20126289","CityId":"20126290","DistrictId":"20127127"}}},{"Relevance":1.0,"Distance":18.6,"MatchLevel":"street","MatchQuality":{"Country":1.0,"State":1.0,"County":1.0,"City":1.0,"District":1.0,"PostalCode":1.0},"Location":{"LocationId":"NT_D3Bz9d2UGc06PAtF4L9PzB_l_772987063_L","LocationType":"point","DisplayPosition":{"Latitude":41.77016,"Longitude":12.47307},"MapView":{"TopLeft":{"Latitude":41.77025,"Longitude":12.47307},"BottomRight":{"Latitude":41.77016,"Longitude":12.47311}},"Address":{"Label":"00128 Roma RM, Italia","Country":"ITA","State":"Lazio","County":"RM","City":"Roma","District":"Trigoria","PostalCode":"00128","AdditionalData":[{"value":"Italia","key":"CountryName"},{"value":"Lazio","key":"StateName"},{"value":"Roma","key":"CountyName"}]},"MapReference":{"ReferenceId":"772987063","Spot":0.0,"SideOfStreet":"left","CountryId":"20110484","StateId":"20126288","CountyId":"20126289","CityId":"20126290","DistrictId":"20127127"}}},{"Relevance":1.0,"Distance":27.9,"MatchLevel":"street","MatchQuality":{"Country":1.0,"State":1.0,"County":1.0,"City":1.0,"District":1.0,"Street":[1.0],"PostalCode":1.0},"Location":{"LocationId":"NT_gWy49iG978HdDSf-lT.02A_l_1118178580_L","LocationType":"point","DisplayPosition":{"Latitude":41.77025,"Longitude":12.47311},"MapView":{"TopLeft":{"Latitude":41.77026,"Longitude":12.47311},"BottomRight":{"Latitude":41.77023,"Longitude":12.47326}},"Address":{"Label":"Via Regdo Scodro, 00128 Roma RM, Italia","Country":"ITA","State":"Lazio","County":"RM","City":"Roma","District":"Trigoria","Street":"Via Regdo Scodro","PostalCode":"00128","AdditionalData":[{"value":"Italia","key":"CountryName"},{"value":"Lazio","key":"StateName"},{"value":"Roma","key":"CountyName"}]},"MapReference":{"ReferenceId":"1118178580","Spot":1.0,"SideOfStreet":"left","CountryId":"20110484","StateId":"20126288","CountyId":"20126289","CityId":"20126290","DistrictId":"20127127"}}},{"Relevance":1.0,"Distance":28.3,"MatchLevel":"street","MatchQuality":{"Country":1.0,"State":1.0,"County":1.0,"City":1.0,"District":1.0,"Street":[1.0],"PostalCode":1.0},"Location":{"LocationId":"NT_gWy49iG978HdDSf-lT.02A_l_772987059_L","LocationType":"point","DisplayPosition":{"Latitude":41.7703089,"Longitude":12.4729469},"MapView":{"TopLeft":{"Latitude":41.77033,"Longitude":12.47285},"BottomRight":{"Latitude":41.77025,"Longitude":12.47311}},"Address":{"Label":"Via Regdo Scodro, 00128 Roma RM, Italia","Country":"ITA","State":"Lazio","County":"RM","City":"Roma","District":"Trigoria","Street":"Via Regdo Scodro","PostalCode":"00128","AdditionalData":[{"value":"Italia","key":"CountryName"},{"value":"Lazio","key":"StateName"},{"value":"Roma","key":"CountyName"}]},"MapReference":{"ReferenceId":"772987059","Spot":0.64,"SideOfStreet":"left","CountryId":"20110484","StateId":"20126288","CountyId":"20126289","CityId":"20126290","DistrictId":"20127127"}}},{"Relevance":1.0,"Distance":28.8,"MatchLevel":"street","MatchQuality":{"Country":1.0,"State":1.0,"County":1.0,"City":1.0,"District":1.0,"Street":[1.0],"PostalCode":1.0},"Location":{"LocationId":"NT_gWy49iG978HdDSf-lT.02A_l_1118178577_L","LocationType":"point","DisplayPosition":{"Latitude":41.77012,"Longitude":12.47323},"MapView":{"TopLeft":{"Latitude":41.77012,"Longitude":12.47323},"BottomRight":{"Latitude":41.76965,"Longitude":12.4736}},"Address":{"Label":"Via Regdo Scodro, 00128 Roma RM, Italia","Country":"ITA","State":"Lazio","County":"RM","City":"Roma","District":"Trigoria","Street":"Via Regdo Scodro","PostalCode":"00128","AdditionalData":[{"value":"Italia","key":"CountryName"},{"value":"Lazio","key":"StateName"},{"value":"Roma","key":"CountyName"}]},"MapReference":{"ReferenceId":"1118178577","Spot":1.0,"SideOfStreet":"left","CountryId":"20110484","StateId":"20126288","CountyId":"20126289","CityId":"20126290","DistrictId":"20127127"}}},{"Relevance":1.0,"Distance":28.8,"MatchLevel":"street","MatchQuality":{"Country":1.0,"State":1.0,"County":1.0,"City":1.0,"District":1.0,"PostalCode":1.0},"Location":{"LocationId":"NT_D3Bz9d2UGc06PAtF4L9PzB_l_1118178581_L","LocationType":"point","DisplayPosition":{"Latitude":41.77012,"Longitude":12.47323},"MapView":{"TopLeft":{"Latitude":41.77023,"Longitude":12.47323},"BottomRight":{"Latitude":41.77012,"Longitude":12.47327}},"Address":{"Label":"00128 Roma RM, Italia","Country":"ITA","State":"Lazio","County":"RM","City":"Roma","District":"Trigoria","PostalCode":"00128","AdditionalData":[{"value":"Italia","key":"CountryName"},{"value":"Lazio","key":"StateName"},{"value":"Roma","key":"CountyName"}]},"MapReference":{"ReferenceId":"1118178581","Spot":0.0,"SideOfStreet":"left","CountryId":"20110484","StateId":"20126288","CountyId":"20126289","CityId":"20126290","DistrictId":"20127127"}}},{"Relevance":1.0,"Distance":30.4,"MatchLevel":"street","MatchQuality":{"Country":1.0,"State":1.0,"County":1.0,"City":1.0,"PostalCode":1.0},"Location":{"LocationId":"NT_gB57GWBvpnvk7yTmUj--yA_l_1224538248_L","LocationType":"point","DisplayPosition":{"Latitude":41.77033,"Longitude":12.47285},"MapView":{"TopLeft":{"Latitude":41.77125,"Longitude":12.46877},"BottomRight":{"Latitude":41.77033,"Longitude":12.47285}},"Address":{"Label":"00128 Roma RM, Italia","Country":"ITA","State":"Lazio","County":"RM","City":"Roma","PostalCode":"00128","AdditionalData":[{"value":"Italia","key":"CountryName"},{"value":"Lazio","key":"StateName"},{"value":"Roma","key":"CountyName"}]},"MapReference":{"ReferenceId":"1224538248","Spot":0.0,"SideOfStreet":"left","CountryId":"20110484","StateId":"20126288","CountyId":"20126289","CityId":"20126290"}}}]}]}}