{"Response":{"MetaInfo":{"Timestamp":"2020-03-28T09:38:19.433+0000","NextPageInformation":"2"},"View":[{"_type":"SearchResultsViewType","ViewId":0,"Result":[{"Relevance":1.0,"Distance":0.0,"Direction":0.0,"MatchLevel":"city","MatchQuality":{"Country":1.0,"State":1.0,"County":1.0,"City":1.0,"PostalCode":1.0},"Location":{"LocationId":"NT_oXtMLaW4eDcdUixijVknmD","LocationType":"point","DisplayPosition":{"Latitude":41.7497684,"Longitude":2.1245352},"MapView":{"TopLeft":{"Latitude":41.78372,"Longitude":2.0436},"BottomRight":{"Latitude":41.71262,"Longitude":2.1445}},"Address":{"Label":"Castellterçol, Catalunya, Espanya","Country":"ESP","State":"Catalunya","County":"Barcelona","City":"Castellterçol","PostalCode":"08183","AdditionalData":[{"value":"Espanya","key":"CountryName"},{"value":"Catalunya","key":"StateName"},{"value":"Barcelona","key":"CountyName"}]},"MapReference":{"ReferenceId":"993990254","SideOfStreet":"neither","CountryId":"20215059","StateId":"20215741","CountyId":"20215742","CityId":"20222276"}}},{"Relevance":1.0,"Distance":7.5,"MatchLevel":"street","MatchQuality":{"Country":1.0,"State":1.0,"County":1.0,"City":1.0,"Street":[1.0],"PostalCode":1.0},"Location":{"LocationId":"NT_TWU5cF.HdUn4cAh96V9PGA_l_1168809285_R","LocationType":"point","DisplayPosition":{"Latitude":41.7498272,"Longitude":2.1244917},"MapView":{"TopLeft":{"Latitude":41.7499,"Longitude":2.12432},"BottomRight":{"Latitude":41.7497,"Longitude":2.12459}},"Address":{"Label":"BV-1310, 08183 Castellterçol (Barcelona), Espanya","Country":"ESP","State":"Catalunya","County":"Barcelona","City":"Castellterçol","Street":"BV-1310","PostalCode":"08183","AdditionalData":[{"value":"Espanya","key":"CountryName"},{"value":"Catalunya","key":"StateName"},{"value":"Barcelona","key":"CountyName"}]},"MapReference":{"ReferenceId":"1168809285","Spot":0.64,"SideOfStreet":"right","CountryId":"20215059","StateId":"20215741","CountyId":"20215742","CityId":"20222276"}}},{"Relevance":1.0,"Distance":15.3,"MatchLevel":"street","MatchQuality":{"Country":1.0,"State":1.0,"County":1.0,"City":1.0,"Street":[1.0],"PostalCode":1.0},"Location":{"LocationId":"NT_oVc4YoJSICN3APD6MpSl1C_l_537994354_L","LocationType":"point","DisplayPosition":{"Latitude":41.7499,"Longitude":2.12459},"MapView":{"TopLeft":{"Latitude":41.75035,"Longitude":2.12396},"BottomRight":{"Latitude":41.7499,"Longitude":2.12459}},"Address":{"Label":"Carrer Sant Roc, 08183 Castellterçol (Barcelona), Espanya","Country":"ESP","State":"Catalunya","County":"Barcelona","City":"Castellterçol","Street":"Carrer Sant Roc","PostalCode":"08183","AdditionalData":[{"value":"Espanya","key":"CountryName"},{"value":"Catalunya","key":"StateName"},{"value":"Barcelona","key":"CountyName"}]},"MapReference":{"ReferenceId":"537994354","Spot":0.0,"SideOfStreet":"left","CountryId":"20215059","StateId":"20215741","CountyId":"20215742","CityId":"20222276"}}},{"Relevance":1.0,"Distance":15.3,"MatchLevel":"street","MatchQuality":{"Country":1.0,"State":1.0,"County":1.0,"City":1.0,"Street":[1.0],"PostalCode":1.0},"Location":{"LocationId":"NT_TWU5cF.HdUn4cAh96V9PGA_l_592003999_R","LocationType":"point","DisplayPosition":{"Latitude":41.7499,"Longitude":2.12459},"MapView":{"TopLeft":{"Latitude":41.75002,"Longitude":2.12459},"BottomRight":{"Latitude":41.7499,"Longitude":2.12478}},"Address":{"Label":"BV-1310, 08183 Castellterçol (Barcelona), Espanya","Country":"ESP","State":"Catalunya","County":"Barcelona","City":"Castellterçol","Street":"BV-1310","PostalCode":"08183","AdditionalData":[{"value":"Espanya","key":"CountryName"},{"value":"Catalunya","key":"StateName"},{"value":"Barcelona","key":"CountyName"}]},"MapReference":{"ReferenceId":"592003999","Spot":0.0,"SideOfStreet":"right","CountryId":"20215059","StateId":"20215741","CountyId":"20215742","CityId":"20222276"}}},{"Relevance":1.0,"Distance":18.0,"MatchLevel":"street","MatchQuality":{"Country":1.0,"State":1.0,"County":1.0,"City":1.0,"PostalCode":1.0},"Location":{"LocationId":"NT_6UvCxt39bCtq0SSbZpRWvD_l_1168809441_L","LocationType":"point","DisplayPosition":{"Latitude":41.74984,"Longitude":2.12434},"MapView":{"TopLeft":{"Latitude":41.74987,"Longitude":2.12415},"BottomRight":{"Latitude":41.74984,"Longitude":2.12434}},"Address":{"Label":"08183 Castellterçol (Barcelona), Espanya","Country":"ESP","State":"Catalunya","County":"Barcelona","City":"Castellterçol","PostalCode":"08183","AdditionalData":[{"value":"Espanya","key":"CountryName"},{"value":"Catalunya","key":"StateName"},{"value":"Barcelona","key":"CountyName"}]},"MapReference":{"ReferenceId":"1168809441","Spot":0.0,"SideOfStreet":"left","CountryId":"20215059","StateId":"20215741","CountyId":"20215742","CityId":"20222276"}}},{"Relevance":1.0,"Distance":19.4,"MatchLevel":"street","MatchQuality":{"Country":1.0,"State":1.0,"County":1.0,"City":1.0,"Street":[1.0],"PostalCode":1.0},"Location":{"LocationId":"NT_TWU5cF.HdUn4cAh96V9PGA_l_1168809284_R","LocationType":"point","DisplayPosition":{"Latitude":41.7497,"Longitude":2.12432},"MapView":{"TopLeft":{"Latitude":41.7497,"Longitude":2.12421},"BottomRight":{"Latitude":41.74962,"Longitude":2.12432}},"Address":{"Label":"BV-1310, 08183 Castellterçol (Barcelona), Espanya","Country":"ESP","State":"Catalunya","County":"Barcelona","City":"Castellterçol","Street":"BV-1310","PostalCode":"08183","AdditionalData":[{"value":"Espanya","key":"CountryName"},{"value":"Catalunya","key":"StateName"},{"value":"Barcelona","key":"CountyName"}]},"MapReference":{"ReferenceId":"1168809284","Spot":1.0,"SideOfStreet":"right","CountryId":"20215059","StateId":"20215741","CountyId":"20215742","CityId":"20222276"}}},{"Relevance":1.0,"Distance":19.4,"MatchLevel":"street","MatchQuality":{"Country":1.0,"State":1.0,"County":1.0,"City":1.0,"PostalCode":1.0},"Location":{"LocationId":"NT_6UvCxt39bCtq0SSbZpRWvD_l_1168809286_R","LocationType":"point","DisplayPosition":{"Latitude":41.7497,"Longitude":2.12432},"MapView":{"TopLeft":{"Latitude":41.74987,"Longitude":2.12415},"BottomRight":{"Latitude":41.7497,"Longitude":2.12432}},"Address":{"Label":"08183 Castellterçol (Barcelona), Espanya","Country":"ESP","State":"Catalunya","County":"Barcelona","City":"Castellterçol","PostalCode":"08183","AdditionalData":[{"value":"Espanya","key":"CountryName"},{"value":"Catalunya","key":"StateName"},{"value":"Barcelona","key":"CountyName"}]},"MapReference":{"ReferenceId":"1168809286","Spot":0.0,"SideOfStreet":"right","CountryId":"20215059","StateId":"20215741","CountyId":"20215742","CityId":"20222276"}}},{"Relevance":1.0,"Distance":31.6,"MatchLevel":"street","MatchQuality":{"Country":1.0,"State":1.0,"County":1.0,"City":1.0,"Street":[1.0],"PostalCode":1.0},"Location":{"LocationId":"NT_TWU5cF.HdUn4cAh96V9PGA_l_537993961_R","LocationType":"point","DisplayPosition":{"Latitude":41.74962,"Longitude":2.12421},"MapView":{"TopLeft":{"Latitude":41.74962,"Longitude":2.12408},"BottomRight":{"Latitude":41.74952,"Longitude":2.12421}},"Address":{"Label":"BV-1310, 08183 Castellterçol (Barcelona), Espanya","Country":"ESP","State":"Catalunya","County":"Barcelona","City":"Castellterçol","Street":"BV-1310","PostalCode":"08183","AdditionalData":[{"value":"Espanya","key":"CountryName"},{"value":"Catalunya","key":"StateName"},{"value":"Barcelona","key":"CountyName"}]},"MapReference":{"ReferenceId":"537993961","Spot":1.0,"SideOfStreet":"right","CountryId":"20215059","StateId":"20215741","CountyId":"20215742","CityId":"20222276"}}},{"Relevance":1.0,"Distance":32.8,"MatchLevel":"street","MatchQuality":{"Country":1.0,"State":1.0,"County":1.0,"City":1.0,"Street":[1.0],"PostalCode":1.0},"Location":{"LocationId":"NT_LwZm4l4yMPaHUEcYbGwqdB_l_537994198_R","LocationType":"point","DisplayPosition":{"Latitude":41.7495305,"Longitude":2.1243008},"MapView":{"TopLeft":{"Latitude":41.74962,"Longitude":2.12421},"BottomRight":{"Latitude":41.74894,"Longitude":2.1249}},"Address":{"Label":"Passeig de Faedis, 08183 Castellterçol (Barcelona), Espanya","Country":"ESP","State":"Catalunya","County":"Barcelona","City":"Castellterçol","Street":"Passeig de Faedis","PostalCode":"08183","AdditionalData":[{"value":"Espanya","key":"CountryName"},{"value":"Catalunya","key":"StateName"},{"value":"Barcelona","key":"CountyName"}]},"MapReference":{"ReferenceId":"537994198","Spot":0.87,"SideOfStreet":"right","CountryId":"20215059","StateId":"20215741","CountyId":"20215742","CityId":"20222276"}}},{"Relevance":1.0,"Distance":33.9,"MatchLevel":"street","MatchQuality":{"Country":1.0,"State":1.0,"County":1.0,"City":1.0,"PostalCode":1.0},"Location":{"LocationId":"NT_6UvCxt39bCtq0SSbZpRWvD_l_1168811359_R","LocationType":"point","DisplayPosition":{"Latitude":41.74987,"Longitude":2.12415},"MapView":{"TopLeft":{"Latitude":41.74987,"Longitude":2.12396},"BottomRight":{"Latitude":41.7497,"Longitude":2.12415}},"Address":{"Label":"08183 Castellterçol (Barcelona), Espanya","Country":"ESP","State":"Catalunya","County":"Barcelona","City":"Castellterçol","PostalCode":"08183","AdditionalData":[{"value":"Espanya","key":"CountryName"},{"value":"Catalunya","key":"StateName"},{"value":"Barcelona","key":"CountyName"}]},"MapReference":{"ReferenceId":"1168811359","Spot":1.0,"SideOfStreet":"right","CountryId":"20215059","StateId":"20215741","CountyId":"20215742","CityId":"20222276"}}}]}]}}