{"Response":{"MetaInfo":{"Timestamp":"2020-03-28T09:55:39.803+0000","NextPageInformation":"2"},"View":[{"_type":"SearchResultsViewType","ViewId":0,"Result":[{"Relevance":1.0,"Distance":0.0,"Direction":0.0,"MatchLevel":"district","MatchQuality":{"Country":1.0,"State":1.0,"County":1.0,"City":1.0,"District":1.0,"PostalCode":1.0},"Location":{"LocationId":"NT_CB6BlICtet8JywuXLx49tB","LocationType":"point","DisplayPosition":{"Latitude":41.8683167,"Longitude":12.4505883},"MapView":{"TopLeft":{"Latitude":41.88924,"Longitude":12.4369},"BottomRight":{"Latitude":41.85334,"Longitude":12.47378}},"Address":{"Label":"Gianicolense, Roma, Lazio, Italia","Country":"ITA","State":"Lazio","County":"RM","City":"Roma","District":"Gianicolense","PostalCode":"00152","AdditionalData":[{"value":"Italia","key":"CountryName"},{"value":"Lazio","key":"StateName"},{"value":"Roma","key":"CountyName"}]},"MapReference":{"ReferenceId":"1078477136","SideOfStreet":"neither","CountryId":"20110484","StateId":"20126288","CountyId":"20126289","CityId":"20126290"}}},{"Relevance":1.0,"Distance":2.8,"MatchLevel":"houseNumber","MatchQuality":{"Country":1.0,"State":1.0,"County":1.0,"City":1.0,"District":1.0,"Street":[1.0],"HouseNumber":1.0,"PostalCode":1.0},"MatchType":"interpolated","Location":{"LocationId":"NT_QXWniDShxvIHdC-CUw9.0D_3A","LocationType":"point","DisplayPosition":{"Latitude":41.86836,"Longitude":12.45057},"MapView":{"TopLeft":{"Latitude":41.8694842,"Longitude":12.4490604},"BottomRight":{"Latitude":41.8672358,"Longitude":12.4520796}},"Address":{"Label":"Via Folco Portinari, 7, 00151 Roma RM, Italia","Country":"ITA","State":"Lazio","County":"RM","City":"Roma","District":"Gianicolense","Street":"Via Folco Portinari","HouseNumber":"7","PostalCode":"00151","AdditionalData":[{"value":"Italia","key":"CountryName"},{"value":"Lazio","key":"StateName"},{"value":"Roma","key":"CountyName"}]},"MapReference":{"ReferenceId":"55511415","Spot":0.78,"SideOfStreet":"left","CountryId":"20110484","StateId":"20126288","CountyId":"20126289","CityId":"20126290","AddressId":"785936372","RoadLinkId":"57008836"}}},{"Relevance":1.0,"Distance":30.4,"MatchLevel":"houseNumber","MatchQuality":{"Country":1.0,"State":1.0,"County":1.0,"City":1.0,"District":1.0,"Street":[1.0],"HouseNumber":1.0,"PostalCode":1.0},"MatchType":"interpolated","Location":{"LocationId":"NT_QXWniDShxvIHdC-CUw9.0D_5IE","LocationType":"point","DisplayPosition":{"Latitude":41.86844,"Longitude":12.45026},"MapView":{"TopLeft":{"Latitude":41.8695642,"Longitude":12.4487504},"BottomRight":{"Latitude":41.8673158,"Longitude":12.4517696}},"Address":{"Label":"Via Folco Portinari, 9B, 00151 Roma RM, Italia","Country":"ITA","State":"Lazio","County":"RM","City":"Roma","District":"Gianicolense","Street":"Via Folco Portinari","HouseNumber":"9B","PostalCode":"00151","AdditionalData":[{"value":"Italia","key":"CountryName"},{"value":"Lazio","key":"StateName"},{"value":"Roma","key":"CountyName"}]},"MapReference":{"ReferenceId":"55511349","Spot":0.05,"SideOfStreet":"left","CountryId":"20110484","StateId":"20126288","CountyId":"20126289","CityId":"20126290","AddressId":"786357440","RoadLinkId":"56906745"}}},{"Relevance":1.0,"Distance":37.8,"MatchLevel":"houseNumber","MatchQuality":{"Country":1.0,"State":1.0,"County":1.0,"City":1.0,"District":1.0,"Street":[1.0],"HouseNumber":1.0,"PostalCode":1.0},"MatchType":"interpolated","Location":{"LocationId":"NT_2WCWSP8xIUN6kHmtu.eQNB_yED","LocationType":"point","DisplayPosition":{"Latitude":41.86864,"Longitude":12.45036},"MapView":{"TopLeft":{"Latitude":41.8697642,"Longitude":12.4488504},"BottomRight":{"Latitude":41.8675158,"Longitude":12.4518696}},"Address":{"Label":"Via Camillo De Lellis, 21, 00151 Roma RM, Italia","Country":"ITA","State":"Lazio","County":"RM","City":"Roma","District":"Gianicolense","Street":"Via Camillo De Lellis","HouseNumber":"21","PostalCode":"00151","AdditionalData":[{"value":"Italia","key":"CountryName"},{"value":"Lazio","key":"StateName"},{"value":"Roma","key":"CountyName"}]},"MapReference":{"ReferenceId":"55511348","Spot":0.25,"SideOfStreet":"right","CountryId":"20110484","StateId":"20126288","CountyId":"20126289","CityId":"20126290","AddressId":"786233275","RoadLinkId":"56678731"}}},{"Relevance":1.0,"Distance":55.7,"MatchLevel":"houseNumber","MatchQuality":{"Country":1.0,"State":1.0,"County":1.0,"City":1.0,"District":1.0,"Street":[1.0],"HouseNumber":1.0,"PostalCode":1.0},"MatchType":"interpolated","Location":{"LocationId":"NT_kq9CRj-p4JzezPsLKPygIC_xA","LocationType":"point","DisplayPosition":{"Latitude":41.86838,"Longitude":12.44984},"MapView":{"TopLeft":{"Latitude":41.8695042,"Longitude":12.4483304},"BottomRight":{"Latitude":41.8672558,"Longitude":12.4513496}},"Address":{"Label":"Via Ascanio Rivaldi, 1, 00151 Roma RM, Italia","Country":"ITA","State":"Lazio","County":"RM","City":"Roma","District":"Gianicolense","Street":"Via Ascanio Rivaldi","HouseNumber":"1","PostalCode":"00151","AdditionalData":[{"value":"Italia","key":"CountryName"},{"value":"Lazio","key":"StateName"},{"value":"Roma","key":"CountyName"}]},"MapReference":{"ReferenceId":"55511557","Spot":0.89,"SideOfStreet":"right","CountryId":"20110484","StateId":"20126288","CountyId":"20126289","CityId":"20126290","AddressId":"785962730","RoadLinkId":"55965000"}}},{"Relevance":1.0,"Distance":69.9,"MatchLevel":"houseNumber","MatchQuality":{"Country":1.0,"State":1.0,"County":1.0,"City":1.0,"District":1.0,"Street":[1.0],"HouseNumber":1.0,"PostalCode":1.0},"MatchType":"interpolated","Location":{"LocationId":"NT_QXWniDShxvIHdC-CUw9.0D_xkD","LocationType":"point","DisplayPosition":{"Latitude":41.86856,"Longitude":12.44981},"MapView":{"TopLeft":{"Latitude":41.8696842,"Longitude":12.4483004},"BottomRight":{"Latitude":41.8674358,"Longitude":12.4513196}},"Address":{"Label":"Via Folco Portinari, 19, 00151 Roma RM, Italia","Country":"ITA","State":"Lazio","County":"RM","City":"Roma","District":"Gianicolense","Street":"Via Folco Portinari","HouseNumber":"19","PostalCode":"00151","AdditionalData":[{"value":"Italia","key":"CountryName"},{"value":"Lazio","key":"StateName"},{"value":"Roma","key":"CountyName"}]},"MapReference":{"ReferenceId":"55511336","Spot":0.23,"SideOfStreet":"left","CountryId":"20110484","StateId":"20126288","CountyId":"20126289","CityId":"20126290","AddressId":"785927565","RoadLinkId":"57075806"}}},{"Relevance":1.0,"Distance":83.3,"MatchLevel":"houseNumber","MatchQuality":{"Country":1.0,"State":1.0,"County":1.0,"City":1.0,"District":1.0,"Street":[1.0],"HouseNumber":1.0,"PostalCode":1.0},"MatchType":"interpolated","Location":{"LocationId":"NT_BSrzOkU8TL9dqhe6.Rhf8A_0gD","LocationType":"point","DisplayPosition":{"Latitude":41.86831,"Longitude":12.45166},"MapView":{"TopLeft":{"Latitude":41.8694342,"Longitude":12.4501504},"BottomRight":{"Latitude":41.8671858,"Longitude":12.4531696}},"Address":{"Label":"Via Maria Lorenza Longo, 48, 00151 Roma RM, Italia","Country":"ITA","State":"Lazio","County":"RM","City":"Roma","District":"Gianicolense","Street":"Via Maria Lorenza Longo","HouseNumber":"48","PostalCode":"00151","AdditionalData":[{"value":"Italia","key":"CountryName"},{"value":"Lazio","key":"StateName"},{"value":"Roma","key":"CountyName"}]},"MapReference":{"ReferenceId":"1050007150","Spot":0.0,"SideOfStreet":"left","CountryId":"20110484","StateId":"20126288","CountyId":"20126289","CityId":"20126290","AddressId":"786340649","RoadLinkId":"370176379"}}},{"Relevance":1.0,"Distance":85.5,"MatchLevel":"street","MatchQuality":{"Country":1.0,"State":1.0,"County":1.0,"City":1.0,"District":1.0,"Street":[1.0],"PostalCode":1.0},"Location":{"LocationId":"NT_pzh9e5y6SIhbA0GqHFn6fB_l_1050007148_L","LocationType":"point","DisplayPosition":{"Latitude":41.86813,"Longitude":12.45159},"MapView":{"TopLeft":{"Latitude":41.86813,"Longitude":12.45154},"BottomRight":{"Latitude":41.86776,"Longitude":12.45164}},"Address":{"Label":"Via Bernardino Ramazzini, 00151 Roma RM, Italia","Country":"ITA","State":"Lazio","County":"RM","City":"Roma","District":"Gianicolense","Street":"Via Bernardino Ramazzini","PostalCode":"00151","AdditionalData":[{"value":"Italia","key":"CountryName"},{"value":"Lazio","key":"StateName"},{"value":"Roma","key":"CountyName"}]},"MapReference":{"ReferenceId":"1050007148","Spot":1.0,"SideOfStreet":"left","CountryId":"20110484","StateId":"20126288","CountyId":"20126289","CityId":"20126290"}}},{"Relevance":1.0,"Distance":85.5,"MatchLevel":"street","MatchQuality":{"Country":1.0,"State":1.0,"County":1.0,"City":1.0,"District":1.0,"Street":[1.0],"PostalCode":1.0},"Location":{"LocationId":"NT_pzh9e5y6SIhbA0GqHFn6fB_l_1050007151_L","LocationType":"point","DisplayPosition":{"Latitude":41.86813,"Longitude":12.45159},"MapView":{"TopLeft":{"Latitude":41.86831,"Longitude":12.45159},"BottomRight":{"Latitude":41.86813,"Longitude":12.45166}},"Address":{"Label":"Via Bernardino Ramazzini, 00151 Roma RM, Italia","Country":"ITA","State":"Lazio","County":"RM","City":"Roma","District":"Gianicolense","Street":"Via Bernardino Ramazzini","PostalCode":"00151","AdditionalData":[{"value":"Italia","key":"CountryName"},{"value":"Lazio","key":"StateName"},{"value":"Roma","key":"CountyName"}]},"MapReference":{"ReferenceId":"1050007151","Spot":0.0,"SideOfStreet":"left","CountryId":"20110484","StateId":"20126288","CountyId":"20126289","CityId":"20126290"}}},{"Relevance":1.0,"Distance":88.7,"MatchLevel":"street","MatchQuality":{"Country":1.0,"State":1.0,"County":1.0,"City":1.0,"District":1.0,"Street":[1.0],"PostalCode":1.0},"Location":{"LocationId":"NT_pzh9e5y6SIhbA0GqHFn6fB_l_1050007149_L","LocationType":"point","DisplayPosition":{"Latitude":41.86831,"Longitude":12.45166},"MapView":{"TopLeft":{"Latitude":41.86831,"Longitude":12.45166},"BottomRight":{"Latitude":41.86823,"Longitude":12.45193}},"Address":{"Label":"Via Bernardino Ramazzini, 00151 Roma RM, Italia","Country":"ITA","State":"Lazio","County":"RM","City":"Roma","District":"Gianicolense","Street":"Via Bernardino Ramazzini","PostalCode":"00151","AdditionalData":[{"value":"Italia","key":"CountryName"},{"value":"Lazio","key":"StateName"},{"value":"Roma","key":"CountyName"}]},"MapReference":{"ReferenceId":"1050007149","Spot":1.0,"SideOfStreet":"left","CountryId":"20110484","StateId":"20126288","CountyId":"20126289","CityId":"20126290"}}}]}]}}