{"Response":{"MetaInfo":{"Timestamp":"2020-03-28T11:25:48.376+0000","NextPageInformation":"2"},"View":[{"_type":"SearchResultsViewType","ViewId":0,"Result":[{"Relevance":1.0,"Distance":0.0,"Direction":0.0,"MatchLevel":"district","MatchQuality":{"Country":1.0,"State":1.0,"County":1.0,"City":1.0,"District":1.0,"PostalCode":1.0},"Location":{"LocationId":"NT_vUHk1NJ9yV0v1QveIJ7b5C","LocationType":"point","DisplayPosition":{"Latitude":41.8574447,"Longitude":12.4764858},"MapView":{"TopLeft":{"Latitude":41.87676,"Longitude":12.45839},"BottomRight":{"Latitude":41.83575,"Longitude":12.49829}},"Address":{"Label":"Ostiense, Roma, Lazio, Italia","Country":"ITA","State":"Lazio","County":"RM","City":"Roma","District":"Ostiense","PostalCode":"00145","AdditionalData":[{"value":"Italia","key":"CountryName"},{"value":"Lazio","key":"StateName"},{"value":"Roma","key":"CountyName"}]},"MapReference":{"ReferenceId":"1194483203","SideOfStreet":"neither","CountryId":"20110484","StateId":"20126288","CountyId":"20126289","CityId":"20126290"}}},{"Relevance":1.0,"Distance":48.6,"MatchLevel":"street","MatchQuality":{"Country":1.0,"State":1.0,"County":1.0,"City":1.0,"District":1.0,"Street":[1.0],"PostalCode":1.0},"Location":{"LocationId":"NT_1AI4kMoVmFCdqHr2-2LnxD_l_1230114436_R","LocationType":"point","DisplayPosition":{"Latitude":41.8570089,"Longitude":12.4764345},"MapView":{"TopLeft":{"Latitude":41.85702,"Longitude":12.47634},"BottomRight":{"Latitude":41.857,"Longitude":12.47651}},"Address":{"Label":"Viale Ferdinando Baldelli, 00146 Roma RM, Italia","Country":"ITA","State":"Lazio","County":"RM","City":"Roma","District":"Ostiense","Street":"Viale Ferdinando Baldelli","PostalCode":"00146","AdditionalData":[{"value":"Italia","key":"CountryName"},{"value":"Lazio","key":"StateName"},{"value":"Roma","key":"CountyName"}]},"MapReference":{"ReferenceId":"1230114436","Spot":0.44,"SideOfStreet":"right","CountryId":"20110484","StateId":"20126288","CountyId":"20126289","CityId":"20126290"}}},{"Relevance":1.0,"Distance":48.7,"MatchLevel":"street","MatchQuality":{"Country":1.0,"State":1.0,"County":1.0,"City":1.0,"District":1.0,"Street":[1.0],"PostalCode":1.0},"Location":{"LocationId":"NT_1AI4kMoVmFCdqHr2-2LnxD_l_1128625599_R","LocationType":"point","DisplayPosition":{"Latitude":41.85702,"Longitude":12.47634},"MapView":{"TopLeft":{"Latitude":41.85703,"Longitude":12.47617},"BottomRight":{"Latitude":41.85702,"Longitude":12.47634}},"Address":{"Label":"Viale Ferdinando Baldelli, 00146 Roma RM, Italia","Country":"ITA","State":"Lazio","County":"RM","City":"Roma","District":"Ostiense","Street":"Viale Ferdinando Baldelli","PostalCode":"00146","AdditionalData":[{"value":"Italia","key":"CountryName"},{"value":"Lazio","key":"StateName"},{"value":"Roma","key":"CountyName"}]},"MapReference":{"ReferenceId":"1128625599","Spot":0.0,"SideOfStreet":"right","CountryId":"20110484","StateId":"20126288","CountyId":"20126289","CityId":"20126290"}}},{"Relevance":1.0,"Distance":48.7,"MatchLevel":"street","MatchQuality":{"Country":1.0,"State":1.0,"County":1.0,"City":1.0,"District":1.0,"PostalCode":1.0},"Location":{"LocationId":"NT_cCS52a4xptEvd4ZtucyEyA_l_55538677_R","LocationType":"point","DisplayPosition":{"Latitude":41.85702,"Longitude":12.47634},"MapView":{"TopLeft":{"Latitude":41.85702,"Longitude":12.47627},"BottomRight":{"Latitude":41.85683,"Longitude":12.47634}},"Address":{"Label":"00146 Roma RM, Italia","Country":"ITA","State":"Lazio","County":"RM","City":"Roma","District":"Ostiense","PostalCode":"00146","AdditionalData":[{"value":"Italia","key":"CountryName"},{"value":"Lazio","key":"StateName"},{"value":"Roma","key":"CountyName"}]},"MapReference":{"ReferenceId":"55538677","Spot":1.0,"SideOfStreet":"right","CountryId":"20110484","StateId":"20126288","CountyId":"20126289","CityId":"20126290"}}},{"Relevance":1.0,"Distance":49.5,"MatchLevel":"street","MatchQuality":{"Country":1.0,"State":1.0,"County":1.0,"City":1.0,"District":1.0,"Street":[1.0],"PostalCode":1.0},"Location":{"LocationId":"NT_1AI4kMoVmFCdqHr2-2LnxD_l_1230114435_R","LocationType":"point","DisplayPosition":{"Latitude":41.857,"Longitude":12.47651},"MapView":{"TopLeft":{"Latitude":41.857,"Longitude":12.47651},"BottomRight":{"Latitude":41.85699,"Longitude":12.47663}},"Address":{"Label":"Viale Ferdinando Baldelli, 00146 Roma RM, Italia","Country":"ITA","State":"Lazio","County":"RM","City":"Roma","District":"Ostiense","Street":"Viale Ferdinando Baldelli","PostalCode":"00146","AdditionalData":[{"value":"Italia","key":"CountryName"},{"value":"Lazio","key":"StateName"},{"value":"Roma","key":"CountyName"}]},"MapReference":{"ReferenceId":"1230114435","Spot":1.0,"SideOfStreet":"right","CountryId":"20110484","StateId":"20126288","CountyId":"20126289","CityId":"20126290"}}},{"Relevance":1.0,"Distance":52.0,"MatchLevel":"street","MatchQuality":{"Country":1.0,"State":1.0,"County":1.0,"City":1.0,"District":1.0,"Street":[1.0],"PostalCode":1.0},"Location":{"LocationId":"NT_1AI4kMoVmFCdqHr2-2LnxD_l_71164718_R","LocationType":"point","DisplayPosition":{"Latitude":41.85699,"Longitude":12.47663},"MapView":{"TopLeft":{"Latitude":41.85699,"Longitude":12.47663},"BottomRight":{"Latitude":41.85698,"Longitude":12.47675}},"Address":{"Label":"Viale Ferdinando Baldelli, 00146 Roma RM, Italia","Country":"ITA","State":"Lazio","County":"RM","City":"Roma","District":"Ostiense","Street":"Viale Ferdinando Baldelli","PostalCode":"00146","AdditionalData":[{"value":"Italia","key":"CountryName"},{"value":"Lazio","key":"StateName"},{"value":"Roma","key":"CountyName"}]},"MapReference":{"ReferenceId":"71164718","Spot":1.0,"SideOfStreet":"right","CountryId":"20110484","StateId":"20126288","CountyId":"20126289","CityId":"20126290"}}},{"Relevance":1.0,"Distance":53.0,"MatchLevel":"street","MatchQuality":{"Country":1.0,"State":1.0,"County":1.0,"City":1.0,"District":1.0,"PostalCode":1.0},"Location":{"LocationId":"NT_cCS52a4xptEvd4ZtucyEyA_l_1128632126_R","LocationType":"point","DisplayPosition":{"Latitude":41.85703,"Longitude":12.47617},"MapView":{"TopLeft":{"Latitude":41.85703,"Longitude":12.4753},"BottomRight":{"Latitude":41.85695,"Longitude":12.47617}},"Address":{"Label":"00146 Roma RM, Italia","Country":"ITA","State":"Lazio","County":"RM","City":"Roma","District":"Ostiense","PostalCode":"00146","AdditionalData":[{"value":"Italia","key":"CountryName"},{"value":"Lazio","key":"StateName"},{"value":"Roma","key":"CountyName"}]},"MapReference":{"ReferenceId":"1128632126","Spot":1.0,"SideOfStreet":"right","CountryId":"20110484","StateId":"20126288","CountyId":"20126289","CityId":"20126290"}}},{"Relevance":1.0,"Distance":56.1,"MatchLevel":"street","MatchQuality":{"Country":1.0,"State":1.0,"County":1.0,"City":1.0,"District":1.0,"Street":[1.0],"PostalCode":1.0},"Location":{"LocationId":"NT_1AI4kMoVmFCdqHr2-2LnxD_l_724124845_R","LocationType":"point","DisplayPosition":{"Latitude":41.85698,"Longitude":12.47675},"MapView":{"TopLeft":{"Latitude":41.85698,"Longitude":12.47675},"BottomRight":{"Latitude":41.85696,"Longitude":12.47703}},"Address":{"Label":"Viale Ferdinando Baldelli, 00146 Roma RM, Italia","Country":"ITA","State":"Lazio","County":"RM","City":"Roma","District":"Ostiense","Street":"Viale Ferdinando Baldelli","PostalCode":"00146","AdditionalData":[{"value":"Italia","key":"CountryName"},{"value":"Lazio","key":"StateName"},{"value":"Roma","key":"CountyName"}]},"MapReference":{"ReferenceId":"724124845","Spot":1.0,"SideOfStreet":"right","CountryId":"20110484","StateId":"20126288","CountyId":"20126289","CityId":"20126290"}}},{"Relevance":1.0,"Distance":58.6,"MatchLevel":"street","MatchQuality":{"Country":1.0,"State":1.0,"County":1.0,"City":1.0,"District":1.0,"PostalCode":1.0},"Location":{"LocationId":"NT_cCS52a4xptEvd4ZtucyEyA_l_1128632120_L","LocationType":"point","DisplayPosition":{"Latitude":41.85693,"Longitude":12.47664},"MapView":{"TopLeft":{"Latitude":41.85693,"Longitude":12.47652},"BottomRight":{"Latitude":41.85681,"Longitude":12.47686}},"Address":{"Label":"00146 Roma RM, Italia","Country":"ITA","State":"Lazio","County":"RM","City":"Roma","District":"Ostiense","PostalCode":"00146","AdditionalData":[{"value":"Italia","key":"CountryName"},{"value":"Lazio","key":"StateName"},{"value":"Roma","key":"CountyName"}]},"MapReference":{"ReferenceId":"1128632120","Spot":0.44,"SideOfStreet":"left","CountryId":"20110484","StateId":"20126288","CountyId":"20126289","CityId":"20126290"}}},{"Relevance":1.0,"Distance":66.1,"MatchLevel":"street","MatchQuality":{"Country":1.0,"State":1.0,"County":1.0,"City":1.0,"District":1.0,"PostalCode":1.0},"Location":{"LocationId":"NT_cCS52a4xptEvd4ZtucyEyA_l_1128632119_R","LocationType":"point","DisplayPosition":{"Latitude":41.85692,"Longitude":12.47686},"MapView":{"TopLeft":{"Latitude":41.85692,"Longitude":12.47686},"BottomRight":{"Latitude":41.85673,"Longitude":12.47723}},"Address":{"Label":"00146 Roma RM, Italia","Country":"ITA","State":"Lazio","County":"RM","City":"Roma","District":"Ostiense","PostalCode":"00146","AdditionalData":[{"value":"Italia","key":"CountryName"},{"value":"Lazio","key":"StateName"},{"value":"Roma","key":"CountyName"}]},"MapReference":{"ReferenceId":"1128632119","Spot":1.0,"SideOfStreet":"right","CountryId":"20110484","StateId":"20126288","CountyId":"20126289","CityId":"20126290"}}}]}]}}