{"Response":{"MetaInfo":{"Timestamp":"2020-03-28T09:55:41.072+0000","NextPageInformation":"2"},"View":[{"_type":"SearchResultsViewType","ViewId":0,"Result":[{"Relevance":1.0,"Distance":0.0,"Direction":0.0,"MatchLevel":"district","MatchQuality":{"Country":1.0,"State":1.0,"County":1.0,"City":1.0,"District":1.0,"PostalCode":1.0},"Location":{"LocationId":"NT_vUHk1NJ9yV0v1QveIJ7b5C","LocationType":"point","DisplayPosition":{"Latitude":41.8746159,"Longitude":12.4863999},"MapView":{"TopLeft":{"Latitude":41.87676,"Longitude":12.45839},"BottomRight":{"Latitude":41.83575,"Longitude":12.49829}},"Address":{"Label":"Ostiense, Roma, Lazio, Italia","Country":"ITA","State":"Lazio","County":"RM","City":"Roma","District":"Ostiense","PostalCode":"00145","AdditionalData":[{"value":"Italia","key":"CountryName"},{"value":"Lazio","key":"StateName"},{"value":"Roma","key":"CountyName"}]},"MapReference":{"ReferenceId":"1194483203","SideOfStreet":"neither","CountryId":"20110484","StateId":"20126288","CountyId":"20126289","CityId":"20126290"}}},{"Relevance":1.0,"Distance":7.4,"MatchLevel":"houseNumber","MatchQuality":{"Country":1.0,"State":1.0,"County":1.0,"City":1.0,"District":1.0,"Street":[1.0],"HouseNumber":1.0,"PostalCode":1.0},"MatchType":"interpolated","Location":{"LocationId":"NT_aRJb8sxVBwVAJWyJe5WWuD_0ED","LocationType":"point","DisplayPosition":{"Latitude":41.87445,"Longitude":12.48629},"MapView":{"TopLeft":{"Latitude":41.8755742,"Longitude":12.4847803},"BottomRight":{"Latitude":41.8733258,"Longitude":12.4877997}},"Address":{"Label":"Viale Marco Polo, 41, 00154 Roma RM, Italia","Country":"ITA","State":"Lazio","County":"RM","City":"Roma","District":"Ostiense","Street":"Viale Marco Polo","HouseNumber":"41","PostalCode":"00154","AdditionalData":[{"value":"Italia","key":"CountryName"},{"value":"Lazio","key":"StateName"},{"value":"Roma","key":"CountyName"}]},"MapReference":{"ReferenceId":"1205237940","Spot":0.9,"SideOfStreet":"right","CountryId":"20110484","StateId":"20126288","CountyId":"20126289","CityId":"20126290","AddressId":"786291965","RoadLinkId":"518813514"}}},{"Relevance":1.0,"Distance":21.7,"MatchLevel":"street","MatchQuality":{"Country":1.0,"State":1.0,"County":1.0,"City":1.0,"District":1.0,"Street":[1.0],"PostalCode":1.0},"Location":{"LocationId":"NT_aRJb8sxVBwVAJWyJe5WWuD_l_1214773701_R","LocationType":"point","DisplayPosition":{"Latitude":41.87451,"Longitude":12.48618},"MapView":{"TopLeft":{"Latitude":41.87461,"Longitude":12.48599},"BottomRight":{"Latitude":41.87451,"Longitude":12.48618}},"Address":{"Label":"Viale Marco Polo, 00154 Roma RM, Italia","Country":"ITA","State":"Lazio","County":"RM","City":"Roma","District":"Ostiense","Street":"Viale Marco Polo","PostalCode":"00154","AdditionalData":[{"value":"Italia","key":"CountryName"},{"value":"Lazio","key":"StateName"},{"value":"Roma","key":"CountyName"}]},"MapReference":{"ReferenceId":"1214773701","Spot":0.0,"SideOfStreet":"right","CountryId":"20110484","StateId":"20126288","CountyId":"20126289","CityId":"20126290"}}},{"Relevance":1.0,"Distance":25.2,"MatchLevel":"houseNumber","MatchQuality":{"Country":1.0,"State":1.0,"County":1.0,"City":1.0,"District":1.0,"Street":[1.0],"HouseNumber":1.0,"PostalCode":1.0},"MatchType":"interpolated","Location":{"LocationId":"NT_GdBM02AGYGQsGdevuPlzrB_xkD","LocationType":"point","DisplayPosition":{"Latitude":41.87482,"Longitude":12.48612},"MapView":{"TopLeft":{"Latitude":41.8759442,"Longitude":12.4846103},"BottomRight":{"Latitude":41.8736958,"Longitude":12.4876297}},"Address":{"Label":"Via Alvise Cadamosto, 19, 00154 Roma RM, Italia","Country":"ITA","State":"Lazio","County":"RM","City":"Roma","District":"Ostiense","Street":"Via Alvise Cadamosto","HouseNumber":"19","PostalCode":"00154","AdditionalData":[{"value":"Italia","key":"CountryName"},{"value":"Lazio","key":"StateName"},{"value":"Roma","key":"CountyName"}]},"MapReference":{"ReferenceId":"55510428","Spot":0.35,"SideOfStreet":"right","CountryId":"20110484","StateId":"20126288","CountyId":"20126289","CityId":"20126290","AddressId":"786240983","RoadLinkId":"56164076"}}},{"Relevance":1.0,"Distance":33.9,"MatchLevel":"street","MatchQuality":{"Country":1.0,"State":1.0,"County":1.0,"City":1.0,"District":1.0,"Street":[1.0],"PostalCode":1.0},"Location":{"LocationId":"NT_aRJb8sxVBwVAJWyJe5WWuD_l_1214773702_R","LocationType":"point","DisplayPosition":{"Latitude":41.87461,"Longitude":12.48599},"MapView":{"TopLeft":{"Latitude":41.87465,"Longitude":12.48593},"BottomRight":{"Latitude":41.87461,"Longitude":12.48599}},"Address":{"Label":"Viale Marco Polo, 00154 Roma RM, Italia","Country":"ITA","State":"Lazio","County":"RM","City":"Roma","District":"Ostiense","Street":"Viale Marco Polo","PostalCode":"00154","AdditionalData":[{"value":"Italia","key":"CountryName"},{"value":"Lazio","key":"StateName"},{"value":"Roma","key":"CountyName"}]},"MapReference":{"ReferenceId":"1214773702","Spot":0.0,"SideOfStreet":"right","CountryId":"20110484","StateId":"20126288","CountyId":"20126289","CityId":"20126290"}}},{"Relevance":1.0,"Distance":39.1,"MatchLevel":"street","MatchQuality":{"Country":1.0,"State":1.0,"County":1.0,"City":1.0,"District":1.0,"Street":[1.0],"PostalCode":1.0},"Location":{"LocationId":"NT_SjcdJef-O-VKs9swgvePaB_l_55510468_R","LocationType":"point","DisplayPosition":{"Latitude":41.87465,"Longitude":12.48593},"MapView":{"TopLeft":{"Latitude":41.87465,"Longitude":12.48588},"BottomRight":{"Latitude":41.87449,"Longitude":12.48593}},"Address":{"Label":"Via dei Verbiti, 00154 Roma RM, Italia","Country":"ITA","State":"Lazio","County":"RM","City":"Roma","District":"Ostiense","Street":"Via dei Verbiti","PostalCode":"00154","AdditionalData":[{"value":"Italia","key":"CountryName"},{"value":"Lazio","key":"StateName"},{"value":"Roma","key":"CountyName"}]},"MapReference":{"ReferenceId":"55510468","Spot":1.0,"SideOfStreet":"right","CountryId":"20110484","StateId":"20126288","CountyId":"20126289","CityId":"20126290"}}},{"Relevance":1.0,"Distance":39.1,"MatchLevel":"street","MatchQuality":{"Country":1.0,"State":1.0,"County":1.0,"City":1.0,"District":1.0,"Street":[1.0],"PostalCode":1.0},"Location":{"LocationId":"NT_SjcdJef-O-VKs9swgvePaB_l_55510448_R","LocationType":"point","DisplayPosition":{"Latitude":41.87465,"Longitude":12.48593},"MapView":{"TopLeft":{"Latitude":41.87465,"Longitude":12.48573},"BottomRight":{"Latitude":41.87456,"Longitude":12.48593}},"Address":{"Label":"Via dei Verbiti, 00154 Roma RM, Italia","Country":"ITA","State":"Lazio","County":"RM","City":"Roma","District":"Ostiense","Street":"Via dei Verbiti","PostalCode":"00154","AdditionalData":[{"value":"Italia","key":"CountryName"},{"value":"Lazio","key":"StateName"},{"value":"Roma","key":"CountyName"}]},"MapReference":{"ReferenceId":"55510448","Spot":1.0,"SideOfStreet":"right","CountryId":"20110484","StateId":"20126288","CountyId":"20126289","CityId":"20126290"}}},{"Relevance":1.0,"Distance":41.5,"MatchLevel":"houseNumber","MatchQuality":{"Country":1.0,"State":1.0,"County":1.0,"City":1.0,"District":1.0,"Street":[1.0],"HouseNumber":1.0,"PostalCode":1.0},"MatchType":"interpolated","Location":{"LocationId":"NT_aRJb8sxVBwVAJWyJe5WWuD_zcD","LocationType":"point","DisplayPosition":{"Latitude":41.87469,"Longitude":12.48585},"MapView":{"TopLeft":{"Latitude":41.8758142,"Longitude":12.4843403},"BottomRight":{"Latitude":41.8735658,"Longitude":12.4873597}},"Address":{"Label":"Viale Marco Polo, 37, 00154 Roma RM, Italia","Country":"ITA","State":"Lazio","County":"RM","City":"Roma","District":"Ostiense","Street":"Viale Marco Polo","HouseNumber":"37","PostalCode":"00154","AdditionalData":[{"value":"Italia","key":"CountryName"},{"value":"Lazio","key":"StateName"},{"value":"Roma","key":"CountyName"}]},"MapReference":{"ReferenceId":"1205237870","Spot":0.22,"SideOfStreet":"right","CountryId":"20110484","StateId":"20126288","CountyId":"20126289","CityId":"20126290","AddressId":"786181367","RoadLinkId":"518813432"}}},{"Relevance":1.0,"Distance":44.9,"MatchLevel":"houseNumber","MatchQuality":{"Country":1.0,"State":1.0,"County":1.0,"City":1.0,"District":1.0,"Street":[1.0],"HouseNumber":1.0,"PostalCode":1.0},"MatchType":"interpolated","Location":{"LocationId":"NT_Qw68ib6PncWCbBdskH6rPC_yMD","LocationType":"point","DisplayPosition":{"Latitude":41.87493,"Longitude":12.48686},"MapView":{"TopLeft":{"Latitude":41.8760542,"Longitude":12.4853503},"BottomRight":{"Latitude":41.8738058,"Longitude":12.4883697}},"Address":{"Label":"Via Girolamo Dandini, 23, 00154 Roma RM, Italia","Country":"ITA","State":"Lazio","County":"RM","City":"Roma","District":"Ostiense","Street":"Via Girolamo Dandini","HouseNumber":"23","PostalCode":"00154","AdditionalData":[{"value":"Italia","key":"CountryName"},{"value":"Lazio","key":"StateName"},{"value":"Roma","key":"CountyName"}]},"MapReference":{"ReferenceId":"55510496","Spot":0.7,"SideOfStreet":"left","CountryId":"20110484","StateId":"20126288","CountyId":"20126289","CityId":"20126290","AddressId":"786273284","RoadLinkId":"57189975"}}},{"Relevance":1.0,"Distance":48.2,"MatchLevel":"houseNumber","MatchQuality":{"Country":1.0,"State":1.0,"County":1.0,"City":1.0,"District":1.0,"Street":[1.0],"HouseNumber":1.0,"PostalCode":1.0},"MatchType":"interpolated","Location":{"LocationId":"NT_SjcdJef-O-VKs9swgvePaB_xEE","LocationType":"point","DisplayPosition":{"Latitude":41.87443,"Longitude":12.48582},"MapView":{"TopLeft":{"Latitude":41.8755542,"Longitude":12.4843103},"BottomRight":{"Latitude":41.8733058,"Longitude":12.4873297}},"Address":{"Label":"Via dei Verbiti, 1A, 00154 Roma RM, Italia","Country":"ITA","State":"Lazio","County":"RM","City":"Roma","District":"Ostiense","Street":"Via dei Verbiti","HouseNumber":"1A","PostalCode":"00154","AdditionalData":[{"value":"Italia","key":"CountryName"},{"value":"Lazio","key":"StateName"},{"value":"Roma","key":"CountyName"}]},"MapReference":{"ReferenceId":"1047093544","Spot":0.14,"SideOfStreet":"right","CountryId":"20110484","StateId":"20126288","CountyId":"20126289","CityId":"20126290","AddressId":"786198934","RoadLinkId":"367192722"}}}]}]}}