{"Response":{"MetaInfo":{"Timestamp":"2020-03-28T11:26:13.286+0000","NextPageInformation":"2"},"View":[{"_type":"SearchResultsViewType","ViewId":0,"Result":[{"Relevance":1.0,"Distance":-11.6,"MatchLevel":"landmark","MatchQuality":{"Country":1.0,"State":1.0,"County":1.0,"City":1.0,"District":1.0,"Street":[1.0],"HouseNumber":1.0,"PostalCode":1.0,"Name":1.0},"Location":{"LocationId":"NT_0CTp4K.pSD-VPlwjUKtnUD_p_lma45CSHzC6RL7mC9VQvKD","LocationType":"hospital","Name":"Sant'Eugenio","DisplayPosition":{"Latitude":41.82233,"Longitude":12.4716},"MapView":{"TopLeft":{"Latitude":41.8234542,"Longitude":12.4700915},"BottomRight":{"Latitude":41.8212058,"Longitude":12.4731085}},"Address":{"Label":"Piazzale dell'Umanesimo, 10, 00144 Roma RM, Italia","Country":"ITA","State":"Lazio","County":"RM","City":"Roma","District":"Europa","Street":"Piazzale dell'Umanesimo","HouseNumber":"10","PostalCode":"00144","AdditionalData":[{"value":"Italia","key":"CountryName"},{"value":"Lazio","key":"StateName"},{"value":"Roma","key":"CountyName"}]},"MapReference":{"CountryId":"20110484","StateId":"20126288","CountyId":"20126289","CityId":"20126290","PlaceId":"61438316"}}},{"Relevance":1.0,"Distance":0.0,"Direction":0.0,"MatchLevel":"district","MatchQuality":{"Country":1.0,"State":1.0,"County":1.0,"City":1.0,"District":1.0,"PostalCode":1.0},"Location":{"LocationId":"NT_ICNNujnM9-TYz2gG70D.hC","LocationType":"point","DisplayPosition":{"Latitude":41.8220985,"Longitude":12.4710852},"MapView":{"TopLeft":{"Latitude":41.84355,"Longitude":12.45305},"BottomRight":{"Latitude":41.81753,"Longitude":12.48125}},"Address":{"Label":"Europa, Roma, Lazio, Italia","Country":"ITA","State":"Lazio","County":"RM","City":"Roma","District":"Europa","PostalCode":"00144","AdditionalData":[{"value":"Italia","key":"CountryName"},{"value":"Lazio","key":"StateName"},{"value":"Roma","key":"CountyName"}]},"MapReference":{"ReferenceId":"55515687","SideOfStreet":"neither","CountryId":"20110484","StateId":"20126288","CountyId":"20126289","CityId":"20126290"}}},{"Relevance":1.0,"Distance":8.6,"MatchLevel":"street","MatchQuality":{"Country":1.0,"State":1.0,"County":1.0,"City":1.0,"District":1.0,"PostalCode":1.0},"Location":{"LocationId":"NT_afxy6jt4-NAX3h2F3rgYCB_l_55550727_L","LocationType":"point","DisplayPosition":{"Latitude":41.8220384,"Longitude":12.4711513},"MapView":{"TopLeft":{"Latitude":41.82227,"Longitude":12.47067},"BottomRight":{"Latitude":41.82063,"Longitude":12.47175}},"Address":{"Label":"00144 Roma RM, Italia","Country":"ITA","State":"Lazio","County":"RM","City":"Roma","District":"Europa","PostalCode":"00144","AdditionalData":[{"value":"Italia","key":"CountryName"},{"value":"Lazio","key":"StateName"},{"value":"Roma","key":"CountyName"}]},"MapReference":{"ReferenceId":"55550727","Spot":0.71,"SideOfStreet":"left","CountryId":"20110484","StateId":"20126288","CountyId":"20126289","CityId":"20126290"}}},{"Relevance":1.0,"Distance":13.9,"MatchLevel":"street","MatchQuality":{"Country":1.0,"State":1.0,"County":1.0,"City":1.0,"District":1.0,"Street":[1.0],"PostalCode":1.0},"Location":{"LocationId":"NT_LysO9Y.lfjInguoC7EeydD_l_555379789_R","LocationType":"point","DisplayPosition":{"Latitude":41.82221,"Longitude":12.47101},"MapView":{"TopLeft":{"Latitude":41.82242,"Longitude":12.47101},"BottomRight":{"Latitude":41.82221,"Longitude":12.47122}},"Address":{"Label":"Piazzale dell'Umanesimo, 00144 Roma RM, Italia","Country":"ITA","State":"Lazio","County":"RM","City":"Roma","District":"Europa","Street":"Piazzale dell'Umanesimo","PostalCode":"00144","AdditionalData":[{"value":"Italia","key":"CountryName"},{"value":"Lazio","key":"StateName"},{"value":"Roma","key":"CountyName"}]},"MapReference":{"ReferenceId":"555379789","Spot":0.0,"SideOfStreet":"right","CountryId":"20110484","StateId":"20126288","CountyId":"20126289","CityId":"20126290"}}},{"Relevance":1.0,"Distance":14.2,"MatchLevel":"street","MatchQuality":{"Country":1.0,"State":1.0,"County":1.0,"City":1.0,"District":1.0,"Street":[1.0],"PostalCode":1.0},"Location":{"LocationId":"NT_LysO9Y.lfjInguoC7EeydD_l_555379788_R","LocationType":"point","DisplayPosition":{"Latitude":41.8222178,"Longitude":12.4710256},"MapView":{"TopLeft":{"Latitude":41.82235,"Longitude":12.47101},"BottomRight":{"Latitude":41.82221,"Longitude":12.47129}},"Address":{"Label":"Piazzale dell'Umanesimo, 00144 Roma RM, Italia","Country":"ITA","State":"Lazio","County":"RM","City":"Roma","District":"Europa","Street":"Piazzale dell'Umanesimo","PostalCode":"00144","AdditionalData":[{"value":"Italia","key":"CountryName"},{"value":"Lazio","key":"StateName"},{"value":"Roma","key":"CountyName"}]},"MapReference":{"ReferenceId":"555379788","Spot":0.06,"SideOfStreet":"right","CountryId":"20110484","StateId":"20126288","CountyId":"20126289","CityId":"20126290"}}},{"Relevance":1.0,"Distance":15.9,"MatchLevel":"houseNumber","MatchQuality":{"Country":1.0,"State":1.0,"County":1.0,"City":1.0,"District":1.0,"Street":[1.0],"HouseNumber":1.0,"PostalCode":1.0},"MatchType":"interpolated","Location":{"LocationId":"NT_tmJFXO1CbOlIN0YSEU5E.C_yA","LocationType":"point","DisplayPosition":{"Latitude":41.82206,"Longitude":12.4709},"MapView":{"TopLeft":{"Latitude":41.8231842,"Longitude":12.4693915},"BottomRight":{"Latitude":41.8209358,"Longitude":12.4724085}},"Address":{"Label":"Via Rhodesia, 2, 00144 Roma RM, Italia","Country":"ITA","State":"Lazio","County":"RM","City":"Roma","District":"Europa","Street":"Via Rhodesia","HouseNumber":"2","PostalCode":"00144","AdditionalData":[{"value":"Italia","key":"CountryName"},{"value":"Lazio","key":"StateName"},{"value":"Roma","key":"CountyName"}]},"MapReference":{"ReferenceId":"55516585","Spot":0.88,"SideOfStreet":"left","CountryId":"20110484","StateId":"20126288","CountyId":"20126289","CityId":"20126290","AddressId":"785892350","RoadLinkId":"56138144"}}},{"Relevance":1.0,"Distance":32.7,"MatchLevel":"street","MatchQuality":{"Country":1.0,"State":1.0,"County":1.0,"City":1.0,"District":1.0,"Street":[1.0],"PostalCode":1.0},"Location":{"LocationId":"NT_LysO9Y.lfjInguoC7EeydD_l_1047559911_L","LocationType":"point","DisplayPosition":{"Latitude":41.82235,"Longitude":12.47129},"MapView":{"TopLeft":{"Latitude":41.82242,"Longitude":12.47122},"BottomRight":{"Latitude":41.82235,"Longitude":12.47129}},"Address":{"Label":"Piazzale dell'Umanesimo, 00144 Roma RM, Italia","Country":"ITA","State":"Lazio","County":"RM","City":"Roma","District":"Europa","Street":"Piazzale dell'Umanesimo","PostalCode":"00144","AdditionalData":[{"value":"Italia","key":"CountryName"},{"value":"Lazio","key":"StateName"},{"value":"Roma","key":"CountyName"}]},"MapReference":{"ReferenceId":"1047559911","Spot":0.0,"SideOfStreet":"left","CountryId":"20110484","StateId":"20126288","CountyId":"20126289","CityId":"20126290"}}},{"Relevance":1.0,"Distance":32.7,"MatchLevel":"street","MatchQuality":{"Country":1.0,"State":1.0,"County":1.0,"City":1.0,"District":1.0,"Street":[1.0],"PostalCode":1.0},"Location":{"LocationId":"NT_LysO9Y.lfjInguoC7EeydD_l_1050065262_R","LocationType":"point","DisplayPosition":{"Latitude":41.82235,"Longitude":12.47129},"MapView":{"TopLeft":{"Latitude":41.82237,"Longitude":12.47129},"BottomRight":{"Latitude":41.82233,"Longitude":12.47158}},"Address":{"Label":"Piazzale dell'Umanesimo, 00144 Roma RM, Italia","Country":"ITA","State":"Lazio","County":"RM","City":"Roma","District":"Europa","Street":"Piazzale dell'Umanesimo","PostalCode":"00144","AdditionalData":[{"value":"Italia","key":"CountryName"},{"value":"Lazio","key":"StateName"},{"value":"Roma","key":"CountyName"}]},"MapReference":{"ReferenceId":"1050065262","Spot":0.0,"SideOfStreet":"right","CountryId":"20110484","StateId":"20126288","CountyId":"20126289","CityId":"20126290"}}},{"Relevance":1.0,"Distance":32.7,"MatchLevel":"street","MatchQuality":{"Country":1.0,"State":1.0,"County":1.0,"City":1.0,"District":1.0,"Street":[1.0],"PostalCode":1.0},"Location":{"LocationId":"NT_LysO9Y.lfjInguoC7EeydD_l_555379790_R","LocationType":"point","DisplayPosition":{"Latitude":41.82235,"Longitude":12.47129},"MapView":{"TopLeft":{"Latitude":41.82249,"Longitude":12.47129},"BottomRight":{"Latitude":41.82235,"Longitude":12.47152}},"Address":{"Label":"Piazzale dell'Umanesimo, 00144 Roma RM, Italia","Country":"ITA","State":"Lazio","County":"RM","City":"Roma","District":"Europa","Street":"Piazzale dell'Umanesimo","PostalCode":"00144","AdditionalData":[{"value":"Italia","key":"CountryName"},{"value":"Lazio","key":"StateName"},{"value":"Roma","key":"CountyName"}]},"MapReference":{"ReferenceId":"555379790","Spot":0.0,"SideOfStreet":"right","CountryId":"20110484","StateId":"20126288","CountyId":"20126289","CityId":"20126290"}}},{"Relevance":1.0,"Distance":37.5,"MatchLevel":"street","MatchQuality":{"Country":1.0,"State":1.0,"County":1.0,"City":1.0,"District":1.0,"Street":[1.0],"PostalCode":1.0},"Location":{"LocationId":"NT_LysO9Y.lfjInguoC7EeydD_l_555379792_R","LocationType":"point","DisplayPosition":{"Latitude":41.82242,"Longitude":12.47122},"MapView":{"TopLeft":{"Latitude":41.82258,"Longitude":12.47122},"BottomRight":{"Latitude":41.82242,"Longitude":12.47143}},"Address":{"Label":"Piazzale dell'Umanesimo, 00144 Roma RM, Italia","Country":"ITA","State":"Lazio","County":"RM","City":"Roma","District":"Europa","Street":"Piazzale dell'Umanesimo","PostalCode":"00144","AdditionalData":[{"value":"Italia","key":"CountryName"},{"value":"Lazio","key":"StateName"},{"value":"Roma","key":"CountyName"}]},"MapReference":{"ReferenceId":"555379792","Spot":0.0,"SideOfStreet":"right","CountryId":"20110484","StateId":"20126288","CountyId":"20126289","CityId":"20126290"}}}]}]}}