{"Response":{"MetaInfo":{"Timestamp":"2020-03-28T10:43:52.871+0000","NextPageInformation":"2"},"View":[{"_type":"SearchResultsViewType","ViewId":0,"Result":[{"Relevance":1.0,"Distance":0.0,"Direction":0.0,"MatchLevel":"district","MatchQuality":{"Country":1.0,"State":1.0,"County":1.0,"City":1.0,"District":1.0,"PostalCode":1.0},"Location":{"LocationId":"NT_tMK5bGbnfAa7zzufPLJ1JC","LocationType":"point","DisplayPosition":{"Latitude":41.8597672,"Longitude":12.5510157},"MapView":{"TopLeft":{"Latitude":41.88931,"Longitude":12.50962},"BottomRight":{"Latitude":41.85048,"Longitude":12.55753}},"Address":{"Label":"Tuscolano, Roma, Lazio, Italia","Country":"ITA","State":"Lazio","County":"RM","City":"Roma","District":"Tuscolano","PostalCode":"00181","AdditionalData":[{"value":"Italia","key":"CountryName"},{"value":"Lazio","key":"StateName"},{"value":"Roma","key":"CountyName"}]},"MapReference":{"ReferenceId":"808959668","SideOfStreet":"neither","CountryId":"20110484","StateId":"20126288","CountyId":"20126289","CityId":"20126290"}}},{"Relevance":1.0,"Distance":3.3,"MatchLevel":"houseNumber","MatchQuality":{"Country":1.0,"State":1.0,"County":1.0,"City":1.0,"District":1.0,"Street":[1.0],"HouseNumber":1.0,"PostalCode":1.0},"MatchType":"interpolated","Location":{"LocationId":"NT_z3-8m-qnnmIg7K4TqBwi9B_4cD","LocationType":"point","DisplayPosition":{"Latitude":41.85987,"Longitude":12.55096},"MapView":{"TopLeft":{"Latitude":41.8609942,"Longitude":12.5494506},"BottomRight":{"Latitude":41.8587458,"Longitude":12.5524694}},"Address":{"Label":"Via Cartagine, 87, 00174 Roma RM, Italia","Country":"ITA","State":"Lazio","County":"RM","City":"Roma","District":"Tuscolano","Street":"Via Cartagine","HouseNumber":"87","PostalCode":"00174","AdditionalData":[{"value":"Italia","key":"CountryName"},{"value":"Lazio","key":"StateName"},{"value":"Roma","key":"CountyName"}]},"MapReference":{"ReferenceId":"55513034","Spot":0.24,"SideOfStreet":"right","CountryId":"20110484","StateId":"20126288","CountyId":"20126289","CityId":"20126290","AddressId":"785868706","RoadLinkId":"56731210"}}},{"Relevance":1.0,"Distance":9.5,"MatchLevel":"houseNumber","MatchQuality":{"Country":1.0,"State":1.0,"County":1.0,"City":1.0,"District":1.0,"Street":[1.0],"HouseNumber":1.0,"PostalCode":1.0},"MatchType":"interpolated","Location":{"LocationId":"NT_z3-8m-qnnmIg7K4TqBwi9B_4kD","LocationType":"point","DisplayPosition":{"Latitude":41.85974,"Longitude":12.55074},"MapView":{"TopLeft":{"Latitude":41.8608642,"Longitude":12.5492306},"BottomRight":{"Latitude":41.8586158,"Longitude":12.5522494}},"Address":{"Label":"Via Cartagine, 89, 00174 Roma RM, Italia","Country":"ITA","State":"Lazio","County":"RM","City":"Roma","District":"Tuscolano","Street":"Via Cartagine","HouseNumber":"89","PostalCode":"00174","AdditionalData":[{"value":"Italia","key":"CountryName"},{"value":"Lazio","key":"StateName"},{"value":"Roma","key":"CountyName"}]},"MapReference":{"ReferenceId":"787980867","Spot":0.12,"SideOfStreet":"right","CountryId":"20110484","StateId":"20126288","CountyId":"20126289","CityId":"20126290","AddressId":"785926765","RoadLinkId":"180595966"}}},{"Relevance":1.0,"Distance":18.3,"MatchLevel":"houseNumber","MatchQuality":{"Country":1.0,"State":1.0,"County":1.0,"City":1.0,"District":1.0,"Street":[1.0],"HouseNumber":1.0,"PostalCode":1.0},"MatchType":"interpolated","Location":{"LocationId":"NT_z3-8m-qnnmIg7K4TqBwi9B_4kTQ","LocationType":"point","DisplayPosition":{"Latitude":41.85971,"Longitude":12.55072},"MapView":{"TopLeft":{"Latitude":41.8608342,"Longitude":12.5492106},"BottomRight":{"Latitude":41.8585858,"Longitude":12.5522294}},"Address":{"Label":"Via Cartagine, 89A, 00174 Roma RM, Italia","Country":"ITA","State":"Lazio","County":"RM","City":"Roma","District":"Tuscolano","Street":"Via Cartagine","HouseNumber":"89A","PostalCode":"00174","AdditionalData":[{"value":"Italia","key":"CountryName"},{"value":"Lazio","key":"StateName"},{"value":"Roma","key":"CountyName"}]},"MapReference":{"ReferenceId":"787980866","Spot":0.98,"SideOfStreet":"right","CountryId":"20110484","StateId":"20126288","CountyId":"20126289","CityId":"20126290","AddressId":"786170798","RoadLinkId":"180595965"}}},{"Relevance":1.0,"Distance":24.5,"MatchLevel":"street","MatchQuality":{"Country":1.0,"State":1.0,"County":1.0,"City":1.0,"District":1.0,"Street":[1.0],"PostalCode":1.0},"Location":{"LocationId":"NT_mYiB5PFgwLRgx2LVw6iopD_l_55513035_R","LocationType":"point","DisplayPosition":{"Latitude":41.85989,"Longitude":12.55077},"MapView":{"TopLeft":{"Latitude":41.8601,"Longitude":12.55064},"BottomRight":{"Latitude":41.85989,"Longitude":12.55077}},"Address":{"Label":"Viale Opita Oppio, 00174 Roma RM, Italia","Country":"ITA","State":"Lazio","County":"RM","City":"Roma","District":"Tuscolano","Street":"Viale Opita Oppio","PostalCode":"00174","AdditionalData":[{"value":"Italia","key":"CountryName"},{"value":"Lazio","key":"StateName"},{"value":"Roma","key":"CountyName"}]},"MapReference":{"ReferenceId":"55513035","Spot":0.0,"SideOfStreet":"right","CountryId":"20110484","StateId":"20126288","CountyId":"20126289","CityId":"20126290"}}},{"Relevance":1.0,"Distance":24.5,"MatchLevel":"street","MatchQuality":{"Country":1.0,"State":1.0,"County":1.0,"City":1.0,"District":1.0,"PostalCode":1.0},"Location":{"LocationId":"NT_1ijczCob-Y7m5ga3vB8QuA_l_787980870_R","LocationType":"point","DisplayPosition":{"Latitude":41.85989,"Longitude":12.55077},"MapView":{"TopLeft":{"Latitude":41.85989,"Longitude":12.55009},"BottomRight":{"Latitude":41.85919,"Longitude":12.55077}},"Address":{"Label":"00174 Roma RM, Italia","Country":"ITA","State":"Lazio","County":"RM","City":"Roma","District":"Tuscolano","PostalCode":"00174","AdditionalData":[{"value":"Italia","key":"CountryName"},{"value":"Lazio","key":"StateName"},{"value":"Roma","key":"CountyName"}]},"MapReference":{"ReferenceId":"787980870","Spot":1.0,"SideOfStreet":"right","CountryId":"20110484","StateId":"20126288","CountyId":"20126289","CityId":"20126290"}}},{"Relevance":1.0,"Distance":35.6,"MatchLevel":"houseNumber","MatchQuality":{"Country":1.0,"State":1.0,"County":1.0,"City":1.0,"District":1.0,"Street":[1.0],"HouseNumber":1.0,"PostalCode":1.0},"MatchType":"interpolated","Location":{"LocationId":"NT_z3-8m-qnnmIg7K4TqBwi9B_4YD","LocationType":"point","DisplayPosition":{"Latitude":41.85985,"Longitude":12.5506},"MapView":{"TopLeft":{"Latitude":41.8609742,"Longitude":12.5490906},"BottomRight":{"Latitude":41.8587258,"Longitude":12.5521094}},"Address":{"Label":"Via Cartagine, 86, 00174 Roma RM, Italia","Country":"ITA","State":"Lazio","County":"RM","City":"Roma","District":"Tuscolano","Street":"Via Cartagine","HouseNumber":"86","PostalCode":"00174","AdditionalData":[{"value":"Italia","key":"CountryName"},{"value":"Lazio","key":"StateName"},{"value":"Roma","key":"CountyName"}]},"MapReference":{"ReferenceId":"787980869","Spot":0.52,"SideOfStreet":"left","CountryId":"20110484","StateId":"20126288","CountyId":"20126289","CityId":"20126290","AddressId":"785893090","RoadLinkId":"180595968"}}},{"Relevance":1.0,"Distance":37.0,"MatchLevel":"houseNumber","MatchQuality":{"Country":1.0,"State":1.0,"County":1.0,"City":1.0,"District":1.0,"Street":[1.0],"HouseNumber":1.0,"PostalCode":1.0},"MatchType":"interpolated","Location":{"LocationId":"NT_WytV5bijVi19VSjr1tvNTC_yA","LocationType":"point","DisplayPosition":{"Latitude":41.85958,"Longitude":12.55142},"MapView":{"TopLeft":{"Latitude":41.8607042,"Longitude":12.5499106},"BottomRight":{"Latitude":41.8584558,"Longitude":12.5529294}},"Address":{"Label":"Via Treviri, 2, 00174 Roma RM, Italia","Country":"ITA","State":"Lazio","County":"RM","City":"Roma","District":"Tuscolano","Street":"Via Treviri","HouseNumber":"2","PostalCode":"00174","AdditionalData":[{"value":"Italia","key":"CountryName"},{"value":"Lazio","key":"StateName"},{"value":"Roma","key":"CountyName"}]},"MapReference":{"ReferenceId":"787980864","Spot":0.86,"SideOfStreet":"left","CountryId":"20110484","StateId":"20126288","CountyId":"20126289","CityId":"20126290","AddressId":"785951476","RoadLinkId":"180595963"}}},{"Relevance":1.0,"Distance":41.9,"MatchLevel":"houseNumber","MatchQuality":{"Country":1.0,"State":1.0,"County":1.0,"City":1.0,"District":1.0,"Street":[1.0],"HouseNumber":1.0,"PostalCode":1.0},"MatchType":"interpolated","Location":{"LocationId":"NT_xV.x.N6NLEXl70hxHK53rA_3cD","LocationType":"point","DisplayPosition":{"Latitude":41.86017,"Longitude":12.55092},"MapView":{"TopLeft":{"Latitude":41.8612942,"Longitude":12.5494106},"BottomRight":{"Latitude":41.8590458,"Longitude":12.5524294}},"Address":{"Label":"Via dei Sulpici, 77, 00174 Roma RM, Italia","Country":"ITA","State":"Lazio","County":"RM","City":"Roma","District":"Tuscolano","Street":"Via dei Sulpici","HouseNumber":"77","PostalCode":"00174","AdditionalData":[{"value":"Italia","key":"CountryName"},{"value":"Lazio","key":"StateName"},{"value":"Roma","key":"CountyName"}]},"MapReference":{"ReferenceId":"55540632","Spot":0.34,"SideOfStreet":"right","CountryId":"20110484","StateId":"20126288","CountyId":"20126289","CityId":"20126290","AddressId":"786304341","RoadLinkId":"57179000"}}},{"Relevance":1.0,"Distance":43.9,"MatchLevel":"street","MatchQuality":{"Country":1.0,"State":1.0,"County":1.0,"City":1.0,"District":1.0,"Street":[1.0],"PostalCode":1.0},"Location":{"LocationId":"NT_WytV5bijVi19VSjr1tvNTC_l_787980865_L","LocationType":"point","DisplayPosition":{"Latitude":41.85971,"Longitude":12.55154},"MapView":{"TopLeft":{"Latitude":41.85995,"Longitude":12.55154},"BottomRight":{"Latitude":41.85971,"Longitude":12.55177}},"Address":{"Label":"Via Treviri, 00174 Roma RM, Italia","Country":"ITA","State":"Lazio","County":"RM","City":"Roma","District":"Tuscolano","Street":"Via Treviri","PostalCode":"00174","AdditionalData":[{"value":"Italia","key":"CountryName"},{"value":"Lazio","key":"StateName"},{"value":"Roma","key":"CountyName"}]},"MapReference":{"ReferenceId":"787980865","Spot":0.0,"SideOfStreet":"left","CountryId":"20110484","StateId":"20126288","CountyId":"20126289","CityId":"20126290"}}}]}]}}