{"Response":{"MetaInfo":{"Timestamp":"2020-03-28T11:25:00.509+0000","NextPageInformation":"2"},"View":[{"_type":"SearchResultsViewType","ViewId":0,"Result":[{"Relevance":1.0,"Distance":0.0,"Direction":0.0,"MatchLevel":"district","MatchQuality":{"Country":1.0,"State":1.0,"County":1.0,"City":1.0,"District":1.0,"PostalCode":1.0},"Location":{"LocationId":"NT_ed8unt94oe2BN9owyW-DXC","LocationType":"point","DisplayPosition":{"Latitude":41.8961081,"Longitude":12.4602073},"MapView":{"TopLeft":{"Latitude":41.90024,"Longitude":12.45649},"BottomRight":{"Latitude":41.88209,"Longitude":12.48018}},"Address":{"Label":"Trastevere, Roma, Lazio, Italia","Country":"ITA","State":"Lazio","County":"RM","City":"Roma","District":"Trastevere","PostalCode":"00153","AdditionalData":[{"value":"Italia","key":"CountryName"},{"value":"Lazio","key":"StateName"},{"value":"Roma","key":"CountyName"}]},"MapReference":{"ReferenceId":"75110693","SideOfStreet":"neither","CountryId":"20110484","StateId":"20126288","CountyId":"20126289","CityId":"20126290"}}},{"Relevance":1.0,"Distance":29.4,"MatchLevel":"street","MatchQuality":{"Country":1.0,"State":1.0,"County":1.0,"City":1.0,"District":1.0,"Street":[1.0],"PostalCode":1.0},"Location":{"LocationId":"NT_aFW8PyRTUTU-vfLalkrfCD_l_1214773994_L","LocationType":"point","DisplayPosition":{"Latitude":41.8958605,"Longitude":12.4603311},"MapView":{"TopLeft":{"Latitude":41.896,"Longitude":12.46027},"BottomRight":{"Latitude":41.89583,"Longitude":12.46088}},"Address":{"Label":"Passeggiata del Gianicolo, 00165 Roma RM, Italia","Country":"ITA","State":"Lazio","County":"RM","City":"Roma","District":"Trastevere","Street":"Passeggiata del Gianicolo","PostalCode":"00165","AdditionalData":[{"value":"Italia","key":"CountryName"},{"value":"Lazio","key":"StateName"},{"value":"Roma","key":"CountyName"}]},"MapReference":{"ReferenceId":"1214773994","Spot":0.11,"SideOfStreet":"left","CountryId":"20110484","StateId":"20126288","CountyId":"20126289","CityId":"20126290"}}},{"Relevance":1.0,"Distance":31.4,"MatchLevel":"street","MatchQuality":{"Country":1.0,"State":1.0,"County":1.0,"City":1.0,"District":1.0,"Street":[1.0],"PostalCode":1.0},"Location":{"LocationId":"NT_aFW8PyRTUTU-vfLalkrfCD_l_1214773993_L","LocationType":"point","DisplayPosition":{"Latitude":41.89583,"Longitude":12.46027},"MapView":{"TopLeft":{"Latitude":41.89583,"Longitude":12.46017},"BottomRight":{"Latitude":41.89565,"Longitude":12.46027}},"Address":{"Label":"Passeggiata del Gianicolo, 00165 Roma RM, Italia","Country":"ITA","State":"Lazio","County":"RM","City":"Roma","District":"Trastevere","Street":"Passeggiata del Gianicolo","PostalCode":"00165","AdditionalData":[{"value":"Italia","key":"CountryName"},{"value":"Lazio","key":"StateName"},{"value":"Roma","key":"CountyName"}]},"MapReference":{"ReferenceId":"1214773993","Spot":1.0,"SideOfStreet":"left","CountryId":"20110484","StateId":"20126288","CountyId":"20126289","CityId":"20126290"}}},{"Relevance":1.0,"Distance":51.0,"MatchLevel":"street","MatchQuality":{"Country":1.0,"State":1.0,"County":1.0,"City":1.0,"District":1.0,"Street":[1.0],"PostalCode":1.0},"Location":{"LocationId":"NT_aFW8PyRTUTU-vfLalkrfCD_l_732336992_L","LocationType":"point","DisplayPosition":{"Latitude":41.89565,"Longitude":12.46017},"MapView":{"TopLeft":{"Latitude":41.89565,"Longitude":12.46001},"BottomRight":{"Latitude":41.89492,"Longitude":12.46017}},"Address":{"Label":"Passeggiata del Gianicolo, 00165 Roma RM, Italia","Country":"ITA","State":"Lazio","County":"RM","City":"Roma","District":"Trastevere","Street":"Passeggiata del Gianicolo","PostalCode":"00165","AdditionalData":[{"value":"Italia","key":"CountryName"},{"value":"Lazio","key":"StateName"},{"value":"Roma","key":"CountyName"}]},"MapReference":{"ReferenceId":"732336992","Spot":1.0,"SideOfStreet":"left","CountryId":"20110484","StateId":"20126288","CountyId":"20126289","CityId":"20126290"}}},{"Relevance":1.0,"Distance":51.0,"MatchLevel":"street","MatchQuality":{"Country":1.0,"State":1.0,"County":1.0,"City":1.0,"District":1.0,"PostalCode":1.0},"Location":{"LocationId":"NT_xV9UjpMLUw9hq65bW9b5xD_l_806658537_R","LocationType":"point","DisplayPosition":{"Latitude":41.89565,"Longitude":12.46017},"MapView":{"TopLeft":{"Latitude":41.89565,"Longitude":12.46017},"BottomRight":{"Latitude":41.89561,"Longitude":12.46053}},"Address":{"Label":"00165 Roma RM, Italia","Country":"ITA","State":"Lazio","County":"RM","City":"Roma","District":"Trastevere","PostalCode":"00165","AdditionalData":[{"value":"Italia","key":"CountryName"},{"value":"Lazio","key":"StateName"},{"value":"Roma","key":"CountyName"}]},"MapReference":{"ReferenceId":"806658537","Spot":1.0,"SideOfStreet":"right","CountryId":"20110484","StateId":"20126288","CountyId":"20126289","CityId":"20126290"}}},{"Relevance":1.0,"Distance":57.0,"MatchLevel":"street","MatchQuality":{"Country":1.0,"State":1.0,"County":1.0,"City":1.0,"District":1.0,"Street":[1.0],"PostalCode":1.0},"Location":{"LocationId":"NT_aFW8PyRTUTU-vfLalkrfCD_l_1046832037_L","LocationType":"point","DisplayPosition":{"Latitude":41.896,"Longitude":12.46088},"MapView":{"TopLeft":{"Latitude":41.89627,"Longitude":12.46088},"BottomRight":{"Latitude":41.896,"Longitude":12.46132}},"Address":{"Label":"Passeggiata del Gianicolo, 00165 Roma RM, Italia","Country":"ITA","State":"Lazio","County":"RM","City":"Roma","District":"Trastevere","Street":"Passeggiata del Gianicolo","PostalCode":"00165","AdditionalData":[{"value":"Italia","key":"CountryName"},{"value":"Lazio","key":"StateName"},{"value":"Roma","key":"CountyName"}]},"MapReference":{"ReferenceId":"1046832037","Spot":0.0,"SideOfStreet":"left","CountryId":"20110484","StateId":"20126288","CountyId":"20126289","CityId":"20126290"}}},{"Relevance":1.0,"Distance":57.0,"MatchLevel":"street","MatchQuality":{"Country":1.0,"State":1.0,"County":1.0,"City":1.0,"District":1.0,"Street":[1.0],"PostalCode":1.0},"Location":{"LocationId":"NT_d591lkoyPNfw-rWHGbAR3A_l_75110571_L","LocationType":"point","DisplayPosition":{"Latitude":41.896,"Longitude":12.46088},"MapView":{"TopLeft":{"Latitude":41.896,"Longitude":12.46088},"BottomRight":{"Latitude":41.89591,"Longitude":12.46092}},"Address":{"Label":"Rampa della Quercia, 00165 Roma RM, Italia","Country":"ITA","State":"Lazio","County":"RM","City":"Roma","District":"Trastevere","Street":"Rampa della Quercia","PostalCode":"00165","AdditionalData":[{"value":"Italia","key":"CountryName"},{"value":"Lazio","key":"StateName"},{"value":"Roma","key":"CountyName"}]},"MapReference":{"ReferenceId":"75110571","Spot":1.0,"SideOfStreet":"left","CountryId":"20110484","StateId":"20126288","CountyId":"20126289","CityId":"20126290"}}},{"Relevance":1.0,"Distance":59.5,"MatchLevel":"street","MatchQuality":{"Country":1.0,"State":1.0,"County":1.0,"City":1.0,"District":1.0,"Street":[1.0],"PostalCode":1.0},"Location":{"LocationId":"NT_d591lkoyPNfw-rWHGbAR3A_l_75110570_L","LocationType":"point","DisplayPosition":{"Latitude":41.89567,"Longitude":12.46062},"MapView":{"TopLeft":{"Latitude":41.89591,"Longitude":12.46061},"BottomRight":{"Latitude":41.89563,"Longitude":12.46092}},"Address":{"Label":"Rampa della Quercia, 00165 Roma RM, Italia","Country":"ITA","State":"Lazio","County":"RM","City":"Roma","District":"Trastevere","Street":"Rampa della Quercia","PostalCode":"00165","AdditionalData":[{"value":"Italia","key":"CountryName"},{"value":"Lazio","key":"StateName"},{"value":"Roma","key":"CountyName"}]},"MapReference":{"ReferenceId":"75110570","Spot":0.09,"SideOfStreet":"left","CountryId":"20110484","StateId":"20126288","CountyId":"20126289","CityId":"20126290"}}},{"Relevance":1.0,"Distance":61.5,"MatchLevel":"street","MatchQuality":{"Country":1.0,"State":1.0,"County":1.0,"City":1.0,"District":1.0,"Street":[1.0],"PostalCode":1.0},"Location":{"LocationId":"NT_aFW8PyRTUTU-vfLalkrfCD_l_58997838_L","LocationType":"point","DisplayPosition":{"Latitude":41.89561,"Longitude":12.46053},"MapView":{"TopLeft":{"Latitude":41.89563,"Longitude":12.46053},"BottomRight":{"Latitude":41.89561,"Longitude":12.46061}},"Address":{"Label":"Passeggiata del Gianicolo, 00165 Roma RM, Italia","Country":"ITA","State":"Lazio","County":"RM","City":"Roma","District":"Trastevere","Street":"Passeggiata del Gianicolo","PostalCode":"00165","AdditionalData":[{"value":"Italia","key":"CountryName"},{"value":"Lazio","key":"StateName"},{"value":"Roma","key":"CountyName"}]},"MapReference":{"ReferenceId":"58997838","Spot":0.0,"SideOfStreet":"left","CountryId":"20110484","StateId":"20126288","CountyId":"20126289","CityId":"20126290"}}},{"Relevance":1.0,"Distance":61.9,"MatchLevel":"street","MatchQuality":{"Country":1.0,"State":1.0,"County":1.0,"City":1.0,"District":1.0,"Street":[1.0],"PostalCode":1.0},"Location":{"LocationId":"NT_aFW8PyRTUTU-vfLalkrfCD_l_732336991_L","LocationType":"point","DisplayPosition":{"Latitude":41.8955995,"Longitude":12.4605125},"MapView":{"TopLeft":{"Latitude":41.89561,"Longitude":12.46028},"BottomRight":{"Latitude":41.89487,"Longitude":12.46053}},"Address":{"Label":"Passeggiata del Gianicolo, 00165 Roma RM, Italia","Country":"ITA","State":"Lazio","County":"RM","City":"Roma","District":"Trastevere","Street":"Passeggiata del Gianicolo","PostalCode":"00165","AdditionalData":[{"value":"Italia","key":"CountryName"},{"value":"Lazio","key":"StateName"},{"value":"Roma","key":"CountyName"}]},"MapReference":{"ReferenceId":"732336991","Spot":0.97,"SideOfStreet":"left","CountryId":"20110484","StateId":"20126288","CountyId":"20126289","CityId":"20126290"}}}]}]}}