{"Response":{"MetaInfo":{"Timestamp":"2020-03-28T11:25:11.726+0000","NextPageInformation":"2"},"View":[{"_type":"SearchResultsViewType","ViewId":0,"Result":[{"Relevance":1.0,"Distance":0.0,"Direction":0.0,"MatchLevel":"city","MatchQuality":{"Country":1.0,"State":1.0,"County":1.0,"City":1.0,"PostalCode":1.0},"Location":{"LocationId":"NT_KpDTfouYqZOh.V4qpNY6YA","LocationType":"point","DisplayPosition":{"Latitude":41.9893819,"Longitude":14.9914669},"MapView":{"TopLeft":{"Latitude":42.02149,"Longitude":14.88981},"BottomRight":{"Latitude":41.92642,"Longitude":15.03105}},"Address":{"Label":"Termoli, Molise, Italia","Country":"ITA","State":"Molise","County":"CB","City":"Termoli","PostalCode":"86039","AdditionalData":[{"value":"Italia","key":"CountryName"},{"value":"Molise","key":"StateName"},{"value":"Campobasso","key":"CountyName"}]},"MapReference":{"ReferenceId":"1234358001","SideOfStreet":"neither","CountryId":"20110484","StateId":"20127665","CountyId":"20218046","CityId":"20218282"}}},{"Relevance":1.0,"Distance":40.9,"MatchLevel":"houseNumber","MatchQuality":{"Country":1.0,"State":1.0,"County":1.0,"City":1.0,"Street":[1.0],"HouseNumber":1.0,"PostalCode":1.0},"MatchType":"interpolated","Location":{"LocationId":"NT_68swGoIbRYvu.oEx2duvXC_xUD","LocationType":"point","DisplayPosition":{"Latitude":41.98964,"Longitude":14.99182},"MapView":{"TopLeft":{"Latitude":41.9907642,"Longitude":14.9903076},"BottomRight":{"Latitude":41.9885158,"Longitude":14.9933324}},"Address":{"Label":"Via Ischia, 15, 86039 Termoli CB, Italia","Country":"ITA","State":"Molise","County":"CB","City":"Termoli","Street":"Via Ischia","HouseNumber":"15","PostalCode":"86039","AdditionalData":[{"value":"Italia","key":"CountryName"},{"value":"Molise","key":"StateName"},{"value":"Campobasso","key":"CountyName"}]},"MapReference":{"ReferenceId":"540233521","Spot":0.53,"SideOfStreet":"right","CountryId":"20110484","StateId":"20127665","CountyId":"20218046","CityId":"20218282","AddressId":"775881442","RoadLinkId":"57004968"}}},{"Relevance":1.0,"Distance":71.9,"MatchLevel":"houseNumber","MatchQuality":{"Country":1.0,"State":1.0,"County":1.0,"City":1.0,"Street":[1.0],"HouseNumber":1.0,"PostalCode":1.0},"MatchType":"interpolated","Location":{"LocationId":"NT_Xhsr82NhIpgQXXE0ZBz8jA_0ED","LocationType":"point","DisplayPosition":{"Latitude":41.98953,"Longitude":14.99062},"MapView":{"TopLeft":{"Latitude":41.9906542,"Longitude":14.9891076},"BottomRight":{"Latitude":41.9884058,"Longitude":14.9921324}},"Address":{"Label":"Via Lissa, 41, 86039 Termoli CB, Italia","Country":"ITA","State":"Molise","County":"CB","City":"Termoli","Street":"Via Lissa","HouseNumber":"41","PostalCode":"86039","AdditionalData":[{"value":"Italia","key":"CountryName"},{"value":"Molise","key":"StateName"},{"value":"Campobasso","key":"CountyName"}]},"MapReference":{"ReferenceId":"555379634","Spot":1.0,"SideOfStreet":"left","CountryId":"20110484","StateId":"20127665","CountyId":"20218046","CityId":"20218282","AddressId":"775675904","RoadLinkId":"56909605"}}},{"Relevance":1.0,"Distance":72.3,"MatchLevel":"houseNumber","MatchQuality":{"Country":1.0,"State":1.0,"County":1.0,"City":1.0,"Street":[1.0],"HouseNumber":1.0,"PostalCode":1.0},"MatchType":"interpolated","Location":{"LocationId":"NT_Xhsr82NhIpgQXXE0ZBz8jA_zkD","LocationType":"point","DisplayPosition":{"Latitude":41.98957,"Longitude":14.99063},"MapView":{"TopLeft":{"Latitude":41.9906942,"Longitude":14.9891176},"BottomRight":{"Latitude":41.9884458,"Longitude":14.9921424}},"Address":{"Label":"Via Lissa, 39, 86039 Termoli CB, Italia","Country":"ITA","State":"Molise","County":"CB","City":"Termoli","Street":"Via Lissa","HouseNumber":"39","PostalCode":"86039","AdditionalData":[{"value":"Italia","key":"CountryName"},{"value":"Molise","key":"StateName"},{"value":"Campobasso","key":"CountyName"}]},"MapReference":{"ReferenceId":"555294565","Spot":0.05,"SideOfStreet":"left","CountryId":"20110484","StateId":"20127665","CountyId":"20218046","CityId":"20218282","AddressId":"775495888","RoadLinkId":"56951803"}}},{"Relevance":1.0,"Distance":98.1,"MatchLevel":"street","MatchQuality":{"Country":1.0,"State":1.0,"County":1.0,"City":1.0,"Street":[1.0],"PostalCode":1.0},"Location":{"LocationId":"NT_aNZ7l6h-puSkBujvgRD-9A_l_864440785_L","LocationType":"point","DisplayPosition":{"Latitude":41.98925,"Longitude":14.99264},"MapView":{"TopLeft":{"Latitude":41.98932,"Longitude":14.99264},"BottomRight":{"Latitude":41.98922,"Longitude":14.99284}},"Address":{"Label":"Piazza Padre Pio, 86039 Termoli CB, Italia","Country":"ITA","State":"Molise","County":"CB","City":"Termoli","Street":"Piazza Padre Pio","PostalCode":"86039","AdditionalData":[{"value":"Italia","key":"CountryName"},{"value":"Molise","key":"StateName"},{"value":"Campobasso","key":"CountyName"}]},"MapReference":{"ReferenceId":"864440785","Spot":0.12,"SideOfStreet":"left","CountryId":"20110484","StateId":"20127665","CountyId":"20218046","CityId":"20218282"}}},{"Relevance":1.0,"Distance":98.6,"MatchLevel":"street","MatchQuality":{"Country":1.0,"State":1.0,"County":1.0,"City":1.0,"Street":[1.0],"PostalCode":1.0},"Location":{"LocationId":"NT_aNZ7l6h-puSkBujvgRD-9A_l_555294366_L","LocationType":"point","DisplayPosition":{"Latitude":41.98922,"Longitude":14.99264},"MapView":{"TopLeft":{"Latitude":41.98922,"Longitude":14.99264},"BottomRight":{"Latitude":41.98914,"Longitude":14.99283}},"Address":{"Label":"Piazza Padre Pio, 86039 Termoli CB, Italia","Country":"ITA","State":"Molise","County":"CB","City":"Termoli","Street":"Piazza Padre Pio","PostalCode":"86039","AdditionalData":[{"value":"Italia","key":"CountryName"},{"value":"Molise","key":"StateName"},{"value":"Campobasso","key":"CountyName"}]},"MapReference":{"ReferenceId":"555294366","Spot":1.0,"SideOfStreet":"left","CountryId":"20110484","StateId":"20127665","CountyId":"20218046","CityId":"20218282"}}},{"Relevance":1.0,"Distance":109.9,"MatchLevel":"street","MatchQuality":{"Country":1.0,"State":1.0,"County":1.0,"City":1.0,"Street":[1.0],"PostalCode":1.0},"Location":{"LocationId":"NT_68swGoIbRYvu.oEx2duvXC_l_540233522_L","LocationType":"point","DisplayPosition":{"Latitude":41.99037,"Longitude":14.99147},"MapView":{"TopLeft":{"Latitude":41.99063,"Longitude":14.99136},"BottomRight":{"Latitude":41.99037,"Longitude":14.99147}},"Address":{"Label":"Via Ischia, 86039 Termoli CB, Italia","Country":"ITA","State":"Molise","County":"CB","City":"Termoli","Street":"Via Ischia","PostalCode":"86039","AdditionalData":[{"value":"Italia","key":"CountryName"},{"value":"Molise","key":"StateName"},{"value":"Campobasso","key":"CountyName"}]},"MapReference":{"ReferenceId":"540233522","Spot":0.0,"SideOfStreet":"left","CountryId":"20110484","StateId":"20127665","CountyId":"20218046","CityId":"20218282"}}},{"Relevance":1.0,"Distance":109.9,"MatchLevel":"street","MatchQuality":{"Country":1.0,"State":1.0,"County":1.0,"City":1.0,"PostalCode":1.0},"Location":{"LocationId":"NT_TEZf-TE8y56bO3seBxkasD_l_540233428_R","LocationType":"point","DisplayPosition":{"Latitude":41.99037,"Longitude":14.99147},"MapView":{"TopLeft":{"Latitude":41.99063,"Longitude":14.99147},"BottomRight":{"Latitude":41.99037,"Longitude":14.99245}},"Address":{"Label":"86039 Termoli CB, Italia","Country":"ITA","State":"Molise","County":"CB","City":"Termoli","PostalCode":"86039","AdditionalData":[{"value":"Italia","key":"CountryName"},{"value":"Molise","key":"StateName"},{"value":"Campobasso","key":"CountyName"}]},"MapReference":{"ReferenceId":"540233428","Spot":0.0,"SideOfStreet":"right","CountryId":"20110484","StateId":"20127665","CountyId":"20218046","CityId":"20218282"}}},{"Relevance":1.0,"Distance":110.5,"MatchLevel":"street","MatchQuality":{"Country":1.0,"State":1.0,"County":1.0,"City":1.0,"Street":[1.0],"PostalCode":1.0},"Location":{"LocationId":"NT_9wnyDGQq7yYFP5Depf7JoA_l_555380256_L","LocationType":"point","DisplayPosition":{"Latitude":41.98898,"Longitude":14.99269},"MapView":{"TopLeft":{"Latitude":41.98909,"Longitude":14.99269},"BottomRight":{"Latitude":41.98898,"Longitude":14.9929}},"Address":{"Label":"Viale Padre Pio, 86039 Termoli CB, Italia","Country":"ITA","State":"Molise","County":"CB","City":"Termoli","Street":"Viale Padre Pio","PostalCode":"86039","AdditionalData":[{"value":"Italia","key":"CountryName"},{"value":"Molise","key":"StateName"},{"value":"Campobasso","key":"CountyName"}]},"MapReference":{"ReferenceId":"555380256","Spot":0.0,"SideOfStreet":"left","CountryId":"20110484","StateId":"20127665","CountyId":"20218046","CityId":"20218282"}}},{"Relevance":1.0,"Distance":113.0,"MatchLevel":"street","MatchQuality":{"Country":1.0,"State":1.0,"County":1.0,"City":1.0,"Street":[1.0],"PostalCode":1.0},"Location":{"LocationId":"NT_Xhsr82NhIpgQXXE0ZBz8jA_l_540233412_R","LocationType":"point","DisplayPosition":{"Latitude":41.99034,"Longitude":14.99101},"MapView":{"TopLeft":{"Latitude":41.99063,"Longitude":14.99101},"BottomRight":{"Latitude":41.99034,"Longitude":14.99136}},"Address":{"Label":"Via Lissa, 86039 Termoli CB, Italia","Country":"ITA","State":"Molise","County":"CB","City":"Termoli","Street":"Via Lissa","PostalCode":"86039","AdditionalData":[{"value":"Italia","key":"CountryName"},{"value":"Molise","key":"StateName"},{"value":"Campobasso","key":"CountyName"}]},"MapReference":{"ReferenceId":"540233412","Spot":0.0,"SideOfStreet":"right","CountryId":"20110484","StateId":"20127665","CountyId":"20218046","CityId":"20218282"}}}]}]}}