{"Response":{"MetaInfo":{"Timestamp":"2020-03-28T11:27:00.587+0000","NextPageInformation":"2"},"View":[{"_type":"SearchResultsViewType","ViewId":0,"Result":[{"Relevance":1.0,"Distance":0.0,"Direction":0.0,"MatchLevel":"district","MatchQuality":{"Country":1.0,"State":1.0,"County":1.0,"City":1.0,"District":1.0,"PostalCode":1.0},"Location":{"LocationId":"NT_EB3ppKVAJk5SucFiaHDW8A","LocationType":"point","DisplayPosition":{"Latitude":41.9161999,"Longitude":12.5231498},"MapView":{"TopLeft":{"Latitude":41.93043,"Longitude":12.50138},"BottomRight":{"Latitude":41.90275,"Longitude":12.53213}},"Address":{"Label":"Nomentano, Roma, Lazio, Italia","Country":"ITA","State":"Lazio","County":"RM","City":"Roma","District":"Nomentano","PostalCode":"00162","AdditionalData":[{"value":"Italia","key":"CountryName"},{"value":"Lazio","key":"StateName"},{"value":"Roma","key":"CountyName"}]},"MapReference":{"ReferenceId":"1083314266","SideOfStreet":"neither","CountryId":"20110484","StateId":"20126288","CountyId":"20126289","CityId":"20126290"}}},{"Relevance":1.0,"Distance":23.9,"MatchLevel":"houseNumber","MatchQuality":{"Country":1.0,"State":1.0,"County":1.0,"City":1.0,"District":1.0,"Street":[1.0],"HouseNumber":1.0,"PostalCode":1.0},"MatchType":"interpolated","Location":{"LocationId":"NT_ESky4BVtu3Cpmrk5R3evrC_xQD","LocationType":"point","DisplayPosition":{"Latitude":41.91599,"Longitude":12.52321},"MapView":{"TopLeft":{"Latitude":41.9171142,"Longitude":12.5216993},"BottomRight":{"Latitude":41.9148658,"Longitude":12.5247207}},"Address":{"Label":"Via Giuseppe Pitrè, 14, 00162 Roma RM, Italia","Country":"ITA","State":"Lazio","County":"RM","City":"Roma","District":"Nomentano","Street":"Via Giuseppe Pitrè","HouseNumber":"14","PostalCode":"00162","AdditionalData":[{"value":"Italia","key":"CountryName"},{"value":"Lazio","key":"StateName"},{"value":"Roma","key":"CountyName"}]},"MapReference":{"ReferenceId":"55524109","Spot":0.68,"SideOfStreet":"right","CountryId":"20110484","StateId":"20126288","CountyId":"20126289","CityId":"20126290","AddressId":"785940420","RoadLinkId":"56138404"}}},{"Relevance":1.0,"Distance":26.0,"MatchLevel":"houseNumber","MatchQuality":{"Country":1.0,"State":1.0,"County":1.0,"City":1.0,"District":1.0,"Street":[1.0],"HouseNumber":1.0,"PostalCode":1.0},"MatchType":"interpolated","Location":{"LocationId":"NT_gJayPURv2JzIaZO-M90IAB_xA","LocationType":"point","DisplayPosition":{"Latitude":41.91628,"Longitude":12.52282},"MapView":{"TopLeft":{"Latitude":41.9174042,"Longitude":12.5213093},"BottomRight":{"Latitude":41.9151558,"Longitude":12.5243307}},"Address":{"Label":"Piazza del Campidano, 1, 00162 Roma RM, Italia","Country":"ITA","State":"Lazio","County":"RM","City":"Roma","District":"Nomentano","Street":"Piazza del Campidano","HouseNumber":"1","PostalCode":"00162","AdditionalData":[{"value":"Italia","key":"CountryName"},{"value":"Lazio","key":"StateName"},{"value":"Roma","key":"CountyName"}]},"MapReference":{"ReferenceId":"55523901","Spot":0.74,"SideOfStreet":"right","CountryId":"20110484","StateId":"20126288","CountyId":"20126289","CityId":"20126290","AddressId":"785920530","RoadLinkId":"56585656"}}},{"Relevance":1.0,"Distance":35.6,"MatchLevel":"houseNumber","MatchQuality":{"Country":1.0,"State":1.0,"County":1.0,"City":1.0,"District":1.0,"Street":[1.0],"HouseNumber":1.0,"PostalCode":1.0},"MatchType":"interpolated","Location":{"LocationId":"NT_sC2avejsAX5LtIlyu2wq3B_yA","LocationType":"point","DisplayPosition":{"Latitude":41.91655,"Longitude":12.52327},"MapView":{"TopLeft":{"Latitude":41.9176742,"Longitude":12.5217593},"BottomRight":{"Latitude":41.9154258,"Longitude":12.5247807}},"Address":{"Label":"Via Salento, 2, 00162 Roma RM, Italia","Country":"ITA","State":"Lazio","County":"RM","City":"Roma","District":"Nomentano","Street":"Via Salento","HouseNumber":"2","PostalCode":"00162","AdditionalData":[{"value":"Italia","key":"CountryName"},{"value":"Lazio","key":"StateName"},{"value":"Roma","key":"CountyName"}]},"MapReference":{"ReferenceId":"55523892","Spot":0.31,"SideOfStreet":"right","CountryId":"20110484","StateId":"20126288","CountyId":"20126289","CityId":"20126290","AddressId":"786235940","RoadLinkId":"56840480"}}},{"Relevance":1.0,"Distance":58.6,"MatchLevel":"houseNumber","MatchQuality":{"Country":1.0,"State":1.0,"County":1.0,"City":1.0,"District":1.0,"Street":[1.0],"HouseNumber":1.0,"PostalCode":1.0},"MatchType":"interpolated","Location":{"LocationId":"NT_L0zZMGO6b5jbcUtmAqVSKB_yID","LocationType":"point","DisplayPosition":{"Latitude":41.91591,"Longitude":12.52241},"MapView":{"TopLeft":{"Latitude":41.9170342,"Longitude":12.5208993},"BottomRight":{"Latitude":41.9147858,"Longitude":12.5239207}},"Address":{"Label":"Via Luigi Pigorini, 22, 00162 Roma RM, Italia","Country":"ITA","State":"Lazio","County":"RM","City":"Roma","District":"Nomentano","Street":"Via Luigi Pigorini","HouseNumber":"22","PostalCode":"00162","AdditionalData":[{"value":"Italia","key":"CountryName"},{"value":"Lazio","key":"StateName"},{"value":"Roma","key":"CountyName"}]},"MapReference":{"ReferenceId":"55539037","Spot":0.7,"SideOfStreet":"right","CountryId":"20110484","StateId":"20126288","CountyId":"20126289","CityId":"20126290","AddressId":"786289791","RoadLinkId":"56354453"}}},{"Relevance":1.0,"Distance":73.5,"MatchLevel":"houseNumber","MatchQuality":{"Country":1.0,"State":1.0,"County":1.0,"City":1.0,"District":1.0,"Street":[1.0],"HouseNumber":1.0,"PostalCode":1.0},"MatchType":"interpolated","Location":{"LocationId":"NT_K6hzzJ.o6E3RfDmDOSeqYC_yID","LocationType":"point","DisplayPosition":{"Latitude":41.91625,"Longitude":12.52225},"MapView":{"TopLeft":{"Latitude":41.9173742,"Longitude":12.5207393},"BottomRight":{"Latitude":41.9151258,"Longitude":12.5237607}},"Address":{"Label":"Via Gaetano Moroni, 22, 00162 Roma RM, Italia","Country":"ITA","State":"Lazio","County":"RM","City":"Roma","District":"Nomentano","Street":"Via Gaetano Moroni","HouseNumber":"22","PostalCode":"00162","AdditionalData":[{"value":"Italia","key":"CountryName"},{"value":"Lazio","key":"StateName"},{"value":"Roma","key":"CountyName"}]},"MapReference":{"ReferenceId":"55523927","Spot":0.94,"SideOfStreet":"right","CountryId":"20110484","StateId":"20126288","CountyId":"20126289","CityId":"20126290","AddressId":"786094796","RoadLinkId":"56868315"}}},{"Relevance":1.0,"Distance":93.2,"MatchLevel":"houseNumber","MatchQuality":{"Country":1.0,"State":1.0,"County":1.0,"City":1.0,"District":1.0,"Street":[1.0],"HouseNumber":1.0,"PostalCode":1.0},"MatchType":"interpolated","Location":{"LocationId":"NT_W6j9q6Pw9J894Pr6pdmG7C_zkzQ","LocationType":"point","DisplayPosition":{"Latitude":41.91544,"Longitude":12.52386},"MapView":{"TopLeft":{"Latitude":41.9165642,"Longitude":12.5223493},"BottomRight":{"Latitude":41.9143158,"Longitude":12.5253707}},"Address":{"Label":"Via Livorno, 39C, 00162 Roma RM, Italia","Country":"ITA","State":"Lazio","County":"RM","City":"Roma","District":"Nomentano","Street":"Via Livorno","HouseNumber":"39C","PostalCode":"00162","AdditionalData":[{"value":"Italia","key":"CountryName"},{"value":"Lazio","key":"StateName"},{"value":"Roma","key":"CountyName"}]},"MapReference":{"ReferenceId":"55524108","Spot":0.16,"SideOfStreet":"left","CountryId":"20110484","StateId":"20126288","CountyId":"20126289","CityId":"20126290","AddressId":"786174497","RoadLinkId":"56896191"}}},{"Relevance":1.0,"Distance":94.3,"MatchLevel":"houseNumber","MatchQuality":{"Country":1.0,"State":1.0,"County":1.0,"City":1.0,"District":1.0,"Street":[1.0],"HouseNumber":1.0,"PostalCode":1.0},"MatchType":"interpolated","Location":{"LocationId":"NT_8e.QQiQ58NOUlUfe3UWSNB_xkD","LocationType":"point","DisplayPosition":{"Latitude":41.91676,"Longitude":12.52417},"MapView":{"TopLeft":{"Latitude":41.9178842,"Longitude":12.5226593},"BottomRight":{"Latitude":41.9156358,"Longitude":12.5256807}},"Address":{"Label":"Via Pisa, 19, 00162 Roma RM, Italia","Country":"ITA","State":"Lazio","County":"RM","City":"Roma","District":"Nomentano","Street":"Via Pisa","HouseNumber":"19","PostalCode":"00162","AdditionalData":[{"value":"Italia","key":"CountryName"},{"value":"Lazio","key":"StateName"},{"value":"Roma","key":"CountyName"}]},"MapReference":{"ReferenceId":"55523986","Spot":0.71,"SideOfStreet":"left","CountryId":"20110484","StateId":"20126288","CountyId":"20126289","CityId":"20126290","AddressId":"336983577","RoadLinkId":"56355201"}}},{"Relevance":1.0,"Distance":97.6,"MatchLevel":"houseNumber","MatchQuality":{"Country":1.0,"State":1.0,"County":1.0,"City":1.0,"District":1.0,"Street":[1.0],"HouseNumber":1.0,"PostalCode":1.0},"MatchType":"interpolated","Location":{"LocationId":"NT_W6j9q6Pw9J894Pr6pdmG7C_zkTQ","LocationType":"point","DisplayPosition":{"Latitude":41.91531,"Longitude":12.52363},"MapView":{"TopLeft":{"Latitude":41.9164342,"Longitude":12.5221193},"BottomRight":{"Latitude":41.9141858,"Longitude":12.5251407}},"Address":{"Label":"Via Livorno, 39A, 00162 Roma RM, Italia","Country":"ITA","State":"Lazio","County":"RM","City":"Roma","District":"Nomentano","Street":"Via Livorno","HouseNumber":"39A","PostalCode":"00162","AdditionalData":[{"value":"Italia","key":"CountryName"},{"value":"Lazio","key":"StateName"},{"value":"Roma","key":"CountyName"}]},"MapReference":{"ReferenceId":"55537516","Spot":0.94,"SideOfStreet":"left","CountryId":"20110484","StateId":"20126288","CountyId":"20126289","CityId":"20126290","AddressId":"786150763","RoadLinkId":"57006558"}}},{"Relevance":1.0,"Distance":129.3,"MatchLevel":"houseNumber","MatchQuality":{"Country":1.0,"State":1.0,"County":1.0,"City":1.0,"District":1.0,"Street":[1.0],"HouseNumber":1.0,"PostalCode":1.0},"MatchType":"interpolated","Location":{"LocationId":"NT_SvOU-2.UZGjAoU2jJ9czYB_2AD","LocationType":"point","DisplayPosition":{"Latitude":41.91516,"Longitude":12.52385},"MapView":{"TopLeft":{"Latitude":41.9162842,"Longitude":12.5223393},"BottomRight":{"Latitude":41.9140358,"Longitude":12.5253607}},"Address":{"Label":"Via di Sant'Orsola, 60, 00162 Roma RM, Italia","Country":"ITA","State":"Lazio","County":"RM","City":"Roma","District":"Nomentano","Street":"Via di Sant'Orsola","HouseNumber":"60","PostalCode":"00162","AdditionalData":[{"value":"Italia","key":"CountryName"},{"value":"Lazio","key":"StateName"},{"value":"Roma","key":"CountyName"}]},"MapReference":{"ReferenceId":"55524308","Spot":0.83,"SideOfStreet":"right","CountryId":"20110484","StateId":"20126288","CountyId":"20126289","CityId":"20126290","AddressId":"717029191","RoadLinkId":"56537702"}}}]}]}}