{"Response":{"MetaInfo":{"Timestamp":"2020-03-28T10:44:26.441+0000","NextPageInformation":"2"},"View":[{"_type":"SearchResultsViewType","ViewId":0,"Result":[{"Relevance":1.0,"Distance":0.0,"Direction":0.0,"MatchLevel":"district","MatchQuality":{"Country":1.0,"State":1.0,"County":1.0,"City":1.0,"District":1.0,"PostalCode":1.0},"Location":{"LocationId":"NT_JpK4rto4t9CMKznyaLx24D","LocationType":"point","DisplayPosition":{"Latitude":41.9163336,"Longitude":12.4142709},"MapView":{"TopLeft":{"Latitude":41.94561,"Longitude":12.39929},"BottomRight":{"Latitude":41.90194,"Longitude":12.42749}},"Address":{"Label":"Primavalle, Roma, Lazio, Italia","Country":"ITA","State":"Lazio","County":"RM","City":"Roma","District":"Primavalle","PostalCode":"00168","AdditionalData":[{"value":"Italia","key":"CountryName"},{"value":"Lazio","key":"StateName"},{"value":"Roma","key":"CountyName"}]},"MapReference":{"ReferenceId":"71138207","SideOfStreet":"neither","CountryId":"20110484","StateId":"20126288","CountyId":"20126289","CityId":"20126290"}}},{"Relevance":1.0,"Distance":17.4,"MatchLevel":"houseNumber","MatchQuality":{"Country":1.0,"State":1.0,"County":1.0,"City":1.0,"District":1.0,"Street":[1.0],"HouseNumber":1.0,"PostalCode":1.0},"MatchType":"interpolated","Location":{"LocationId":"NT_kvarzdKfVaIWBshXGle6qB_xA","LocationType":"point","DisplayPosition":{"Latitude":41.91656,"Longitude":12.41433},"MapView":{"TopLeft":{"Latitude":41.9176842,"Longitude":12.4128193},"BottomRight":{"Latitude":41.9154358,"Longitude":12.4158407}},"Address":{"Label":"Piazza San Zaccaria Papa, 1, 00168 Roma RM, Italia","Country":"ITA","State":"Lazio","County":"RM","City":"Roma","District":"Primavalle","Street":"Piazza San Zaccaria Papa","HouseNumber":"1","PostalCode":"00168","AdditionalData":[{"value":"Italia","key":"CountryName"},{"value":"Lazio","key":"StateName"},{"value":"Roma","key":"CountyName"}]},"MapReference":{"ReferenceId":"55523457","Spot":1.0,"SideOfStreet":"left","CountryId":"20110484","StateId":"20126288","CountyId":"20126289","CityId":"20126290","AddressId":"785892988","RoadLinkId":"55968107"}}},{"Relevance":1.0,"Distance":25.4,"MatchLevel":"street","MatchQuality":{"Country":1.0,"State":1.0,"County":1.0,"City":1.0,"District":1.0,"Street":[1.0],"PostalCode":1.0},"Location":{"LocationId":"NT_t7ISJHNVQW5RhJhFxwAoRD_l_55523452_L","LocationType":"point","DisplayPosition":{"Latitude":41.9165623,"Longitude":12.4142818},"MapView":{"TopLeft":{"Latitude":41.91658,"Longitude":12.41391},"BottomRight":{"Latitude":41.91656,"Longitude":12.41433}},"Address":{"Label":"Via Bernardo da Bibbiena, 00168 Roma RM, Italia","Country":"ITA","State":"Lazio","County":"RM","City":"Roma","District":"Primavalle","Street":"Via Bernardo da Bibbiena","PostalCode":"00168","AdditionalData":[{"value":"Italia","key":"CountryName"},{"value":"Lazio","key":"StateName"},{"value":"Roma","key":"CountyName"}]},"MapReference":{"ReferenceId":"55523452","Spot":0.11,"SideOfStreet":"left","CountryId":"20110484","StateId":"20126288","CountyId":"20126289","CityId":"20126290"}}},{"Relevance":1.0,"Distance":44.9,"MatchLevel":"houseNumber","MatchQuality":{"Country":1.0,"State":1.0,"County":1.0,"City":1.0,"District":1.0,"Street":[1.0],"HouseNumber":1.0,"PostalCode":1.0},"MatchType":"interpolated","Location":{"LocationId":"NT_kvarzdKfVaIWBshXGle6qB_3A","LocationType":"point","DisplayPosition":{"Latitude":41.91672,"Longitude":12.41443},"MapView":{"TopLeft":{"Latitude":41.9178442,"Longitude":12.4129193},"BottomRight":{"Latitude":41.9155958,"Longitude":12.4159407}},"Address":{"Label":"Piazza San Zaccaria Papa, 7, 00168 Roma RM, Italia","Country":"ITA","State":"Lazio","County":"RM","City":"Roma","District":"Primavalle","Street":"Piazza San Zaccaria Papa","HouseNumber":"7","PostalCode":"00168","AdditionalData":[{"value":"Italia","key":"CountryName"},{"value":"Lazio","key":"StateName"},{"value":"Roma","key":"CountyName"}]},"MapReference":{"ReferenceId":"55523451","Spot":0.25,"SideOfStreet":"left","CountryId":"20110484","StateId":"20126288","CountyId":"20126289","CityId":"20126290","AddressId":"785978862","RoadLinkId":"55955888"}}},{"Relevance":1.0,"Distance":48.8,"MatchLevel":"houseNumber","MatchQuality":{"Country":1.0,"State":1.0,"County":1.0,"City":1.0,"District":1.0,"Street":[1.0],"HouseNumber":1.0,"PostalCode":1.0},"MatchType":"interpolated","Location":{"LocationId":"NT_QSIjQsvIAZsJg5nKNE-ZfD_yA","LocationType":"point","DisplayPosition":{"Latitude":41.91672,"Longitude":12.41393},"MapView":{"TopLeft":{"Latitude":41.9178442,"Longitude":12.4124193},"BottomRight":{"Latitude":41.9155958,"Longitude":12.4154407}},"Address":{"Label":"Via Alessio Ascalesi, 2, 00168 Roma RM, Italia","Country":"ITA","State":"Lazio","County":"RM","City":"Roma","District":"Primavalle","Street":"Via Alessio Ascalesi","HouseNumber":"2","PostalCode":"00168","AdditionalData":[{"value":"Italia","key":"CountryName"},{"value":"Lazio","key":"StateName"},{"value":"Roma","key":"CountyName"}]},"MapReference":{"ReferenceId":"55523437","Spot":0.11,"SideOfStreet":"right","CountryId":"20110484","StateId":"20126288","CountyId":"20126289","CityId":"20126290","AddressId":"786066108","RoadLinkId":"56640762"}}},{"Relevance":1.0,"Distance":55.0,"MatchLevel":"houseNumber","MatchQuality":{"Country":1.0,"State":1.0,"County":1.0,"City":1.0,"District":1.0,"Street":[1.0],"HouseNumber":1.0,"PostalCode":1.0},"MatchType":"interpolated","Location":{"LocationId":"NT_t7ISJHNVQW5RhJhFxwAoRD_xA","LocationType":"point","DisplayPosition":{"Latitude":41.9166,"Longitude":12.41365},"MapView":{"TopLeft":{"Latitude":41.9177242,"Longitude":12.4121393},"BottomRight":{"Latitude":41.9154758,"Longitude":12.4151607}},"Address":{"Label":"Via Bernardo da Bibbiena, 1, 00168 Roma RM, Italia","Country":"ITA","State":"Lazio","County":"RM","City":"Roma","District":"Primavalle","Street":"Via Bernardo da Bibbiena","HouseNumber":"1","PostalCode":"00168","AdditionalData":[{"value":"Italia","key":"CountryName"},{"value":"Lazio","key":"StateName"},{"value":"Roma","key":"CountyName"}]},"MapReference":{"ReferenceId":"55523450","Spot":0.89,"SideOfStreet":"right","CountryId":"20110484","StateId":"20126288","CountyId":"20126289","CityId":"20126290","AddressId":"786272348","RoadLinkId":"56540665"}}},{"Relevance":1.0,"Distance":57.5,"MatchLevel":"houseNumber","MatchQuality":{"Country":1.0,"State":1.0,"County":1.0,"City":1.0,"District":1.0,"Street":[1.0],"HouseNumber":1.0,"PostalCode":1.0},"MatchType":"interpolated","Location":{"LocationId":"NT_-qPafXnvwcm2-i7gkg2leC_0cD","LocationType":"point","DisplayPosition":{"Latitude":41.91598,"Longitude":12.41488},"MapView":{"TopLeft":{"Latitude":41.9171042,"Longitude":12.4133693},"BottomRight":{"Latitude":41.9148558,"Longitude":12.4163907}},"Address":{"Label":"Via Federico Borromeo, 47, 00168 Roma RM, Italia","Country":"ITA","State":"Lazio","County":"RM","City":"Roma","District":"Primavalle","Street":"Via Federico Borromeo","HouseNumber":"47","PostalCode":"00168","AdditionalData":[{"value":"Italia","key":"CountryName"},{"value":"Lazio","key":"StateName"},{"value":"Roma","key":"CountyName"}]},"MapReference":{"ReferenceId":"1205037594","Spot":0.07,"SideOfStreet":"left","CountryId":"20110484","StateId":"20126288","CountyId":"20126289","CityId":"20126290","AddressId":"786291249","RoadLinkId":"518533857"}}},{"Relevance":1.0,"Distance":62.3,"MatchLevel":"houseNumber","MatchQuality":{"Country":1.0,"State":1.0,"County":1.0,"City":1.0,"District":1.0,"Street":[1.0],"HouseNumber":1.0,"PostalCode":1.0},"MatchType":"interpolated","Location":{"LocationId":"NT_-qPafXnvwcm2-i7gkg2leC_1ID","LocationType":"point","DisplayPosition":{"Latitude":41.91656,"Longitude":12.41496},"MapView":{"TopLeft":{"Latitude":41.9176842,"Longitude":12.4134493},"BottomRight":{"Latitude":41.9154358,"Longitude":12.4164707}},"Address":{"Label":"Via Federico Borromeo, 52, 00168 Roma RM, Italia","Country":"ITA","State":"Lazio","County":"RM","City":"Roma","District":"Primavalle","Street":"Via Federico Borromeo","HouseNumber":"52","PostalCode":"00168","AdditionalData":[{"value":"Italia","key":"CountryName"},{"value":"Lazio","key":"StateName"},{"value":"Roma","key":"CountyName"}]},"MapReference":{"ReferenceId":"55523456","Spot":0.29,"SideOfStreet":"right","CountryId":"20110484","StateId":"20126288","CountyId":"20126289","CityId":"20126290","AddressId":"786272452","RoadLinkId":"56631156"}}},{"Relevance":1.0,"Distance":73.7,"MatchLevel":"houseNumber","MatchQuality":{"Country":1.0,"State":1.0,"County":1.0,"City":1.0,"District":1.0,"Street":[1.0],"HouseNumber":1.0,"PostalCode":1.0},"MatchType":"interpolated","Location":{"LocationId":"NT_-qPafXnvwcm2-i7gkg2leC_0UD","LocationType":"point","DisplayPosition":{"Latitude":41.91577,"Longitude":12.41485},"MapView":{"TopLeft":{"Latitude":41.9168942,"Longitude":12.4133393},"BottomRight":{"Latitude":41.9146458,"Longitude":12.4163607}},"Address":{"Label":"Via Federico Borromeo, 45, 00168 Roma RM, Italia","Country":"ITA","State":"Lazio","County":"RM","City":"Roma","District":"Primavalle","Street":"Via Federico Borromeo","HouseNumber":"45","PostalCode":"00168","AdditionalData":[{"value":"Italia","key":"CountryName"},{"value":"Lazio","key":"StateName"},{"value":"Roma","key":"CountyName"}]},"MapReference":{"ReferenceId":"1205037593","Spot":0.71,"SideOfStreet":"left","CountryId":"20110484","StateId":"20126288","CountyId":"20126289","CityId":"20126290","AddressId":"786332843","RoadLinkId":"518533856"}}},{"Relevance":1.0,"Distance":88.1,"MatchLevel":"houseNumber","MatchQuality":{"Country":1.0,"State":1.0,"County":1.0,"City":1.0,"District":1.0,"Street":[1.0],"HouseNumber":1.0,"PostalCode":1.0},"MatchType":"interpolated","Location":{"LocationId":"NT_irRlWoOydO2SajLhAW8-.B_yAjR","LocationType":"point","DisplayPosition":{"Latitude":41.91547,"Longitude":12.41341},"MapView":{"TopLeft":{"Latitude":41.9165942,"Longitude":12.4118993},"BottomRight":{"Latitude":41.9143458,"Longitude":12.4149207}},"Address":{"Label":"Via Michele Bonelli, 20F, 00168 Roma RM, Italia","Country":"ITA","State":"Lazio","County":"RM","City":"Roma","District":"Primavalle","Street":"Via Michele Bonelli","HouseNumber":"20F","PostalCode":"00168","AdditionalData":[{"value":"Italia","key":"CountryName"},{"value":"Lazio","key":"StateName"},{"value":"Roma","key":"CountyName"}]},"MapReference":{"ReferenceId":"55523612","Spot":0.14,"SideOfStreet":"right","CountryId":"20110484","StateId":"20126288","CountyId":"20126289","CityId":"20126290","AddressId":"336659449","RoadLinkId":"56668283"}}}]}]}}