{"Response":{"MetaInfo":{"Timestamp":"2020-03-28T12:03:51.170+0000","NextPageInformation":"2"},"View":[{"_type":"SearchResultsViewType","ViewId":0,"Result":[{"Relevance":1.0,"Distance":0.0,"Direction":0.0,"MatchLevel":"district","MatchQuality":{"Country":1.0,"State":1.0,"County":1.0,"City":1.0,"District":1.0,"PostalCode":1.0},"Location":{"LocationId":"NT_JpK4rto4t9CMKznyaLx24D","LocationType":"point","DisplayPosition":{"Latitude":41.928946,"Longitude":12.4272707},"MapView":{"TopLeft":{"Latitude":41.94561,"Longitude":12.39929},"BottomRight":{"Latitude":41.90194,"Longitude":12.42749}},"Address":{"Label":"Primavalle, Roma, Lazio, Italia","Country":"ITA","State":"Lazio","County":"RM","City":"Roma","District":"Primavalle","PostalCode":"00168","AdditionalData":[{"value":"Italia","key":"CountryName"},{"value":"Lazio","key":"StateName"},{"value":"Roma","key":"CountyName"}]},"MapReference":{"ReferenceId":"71138207","SideOfStreet":"neither","CountryId":"20110484","StateId":"20126288","CountyId":"20126289","CityId":"20126290"}}},{"Relevance":1.0,"Distance":4.5,"MatchLevel":"houseNumber","MatchQuality":{"Country":1.0,"State":1.0,"County":1.0,"City":1.0,"District":1.0,"Street":[1.0],"HouseNumber":1.0,"PostalCode":1.0},"MatchType":"interpolated","Location":{"LocationId":"NT_yMKxaT6jSuX6aonocy24LA_xID","LocationType":"point","DisplayPosition":{"Latitude":41.92906,"Longitude":12.42726},"MapView":{"TopLeft":{"Latitude":41.9301842,"Longitude":12.425749},"BottomRight":{"Latitude":41.9279358,"Longitude":12.428771}},"Address":{"Label":"Largo Agostino Gemelli, 12, 00168 Roma RM, Italia","Country":"ITA","State":"Lazio","County":"RM","City":"Roma","District":"Trionfale","Street":"Largo Agostino Gemelli","HouseNumber":"12","PostalCode":"00168","AdditionalData":[{"value":"Italia","key":"CountryName"},{"value":"Lazio","key":"StateName"},{"value":"Roma","key":"CountyName"}]},"MapReference":{"ReferenceId":"555381754","Spot":0.09,"SideOfStreet":"right","CountryId":"20110484","StateId":"20126288","CountyId":"20126289","CityId":"20126290","AddressId":"786095215","RoadLinkId":"57014835"}}},{"Relevance":1.0,"Distance":6.1,"MatchLevel":"houseNumber","MatchQuality":{"Country":1.0,"State":1.0,"County":1.0,"City":1.0,"District":1.0,"Street":[1.0],"HouseNumber":1.0,"PostalCode":1.0},"MatchType":"interpolated","Location":{"LocationId":"NT_tePMuNUUs5SuM.a41H1DdA_yETNBB","LocationType":"point","DisplayPosition":{"Latitude":41.92896,"Longitude":12.4272},"MapView":{"TopLeft":{"Latitude":41.9300842,"Longitude":12.425689},"BottomRight":{"Latitude":41.9278358,"Longitude":12.428711}},"Address":{"Label":"Via della Pineta Sacchetti, 215A, 00168 Roma RM, Italia","Country":"ITA","State":"Lazio","County":"RM","City":"Roma","District":"Primavalle","Street":"Via della Pineta Sacchetti","HouseNumber":"215A","PostalCode":"00168","AdditionalData":[{"value":"Italia","key":"CountryName"},{"value":"Lazio","key":"StateName"},{"value":"Roma","key":"CountyName"}]},"MapReference":{"ReferenceId":"819487092","Spot":0.64,"SideOfStreet":"left","CountryId":"20110484","StateId":"20126288","CountyId":"20126289","CityId":"20126290","AddressId":"786189888","RoadLinkId":"327393892"}}},{"Relevance":1.0,"Distance":11.9,"MatchLevel":"landmark","MatchQuality":{"Country":1.0,"State":1.0,"County":1.0,"City":1.0,"District":1.0,"Street":[1.0],"PostalCode":1.0,"Name":1.0},"Location":{"LocationId":"NT_YuaVEUAD77i-B65xJxQlDA_p_CyJKJ6x7d-2skO0HGg54CD","LocationType":"hospital","Name":"Policlinico Agostino Gemelli","DisplayPosition":{"Latitude":41.92923,"Longitude":12.42732},"MapView":{"TopLeft":{"Latitude":41.93402,"Longitude":12.42641},"BottomRight":{"Latitude":41.92832,"Longitude":12.43146}},"Address":{"Label":"Largo Agostino Gemelli, 00168 Roma RM, Italia","Country":"ITA","State":"Lazio","County":"RM","City":"Roma","District":"Trionfale","Street":"Largo Agostino Gemelli","PostalCode":"00168","AdditionalData":[{"value":"Italia","key":"CountryName"},{"value":"Lazio","key":"StateName"},{"value":"Roma","key":"CountyName"}]},"MapReference":{"CountryId":"20110484","StateId":"20126288","CountyId":"20126289","CityId":"20126290","PlaceId":"50989431"}}},{"Relevance":1.0,"Distance":15.0,"MatchLevel":"houseNumber","MatchQuality":{"Country":1.0,"State":1.0,"County":1.0,"City":1.0,"District":1.0,"Street":[1.0],"HouseNumber":1.0,"PostalCode":1.0},"MatchType":"interpolated","Location":{"LocationId":"NT_tePMuNUUs5SuM.a41H1DdA_yETNFB","LocationType":"point","DisplayPosition":{"Latitude":41.92908,"Longitude":12.42725},"MapView":{"TopLeft":{"Latitude":41.9302042,"Longitude":12.425739},"BottomRight":{"Latitude":41.9279558,"Longitude":12.428761}},"Address":{"Label":"Via della Pineta Sacchetti, 215E, 00168 Roma RM, Italia","Country":"ITA","State":"Lazio","County":"RM","City":"Roma","District":"Primavalle","Street":"Via della Pineta Sacchetti","HouseNumber":"215E","PostalCode":"00168","AdditionalData":[{"value":"Italia","key":"CountryName"},{"value":"Lazio","key":"StateName"},{"value":"Roma","key":"CountyName"}]},"MapReference":{"ReferenceId":"71138174","Spot":0.07,"SideOfStreet":"left","CountryId":"20110484","StateId":"20126288","CountyId":"20126289","CityId":"20126290","AddressId":"786339159","RoadLinkId":"56816973"}}},{"Relevance":1.0,"Distance":20.5,"MatchLevel":"street","MatchQuality":{"Country":1.0,"State":1.0,"County":1.0,"City":1.0,"District":1.0,"Street":[1.0],"PostalCode":1.0},"Location":{"LocationId":"NT_tePMuNUUs5SuM.a41H1DdA_l_819487091_R","LocationType":"point","DisplayPosition":{"Latitude":41.9288,"Longitude":12.42712},"MapView":{"TopLeft":{"Latitude":41.9288,"Longitude":12.42708},"BottomRight":{"Latitude":41.92873,"Longitude":12.42712}},"Address":{"Label":"Via della Pineta Sacchetti, 00168 Roma RM, Italia","Country":"ITA","State":"Lazio","County":"RM","City":"Roma","District":"Trionfale","Street":"Via della Pineta Sacchetti","PostalCode":"00168","AdditionalData":[{"value":"Italia","key":"CountryName"},{"value":"Lazio","key":"StateName"},{"value":"Roma","key":"CountyName"}]},"MapReference":{"ReferenceId":"819487091","Spot":1.0,"SideOfStreet":"right","CountryId":"20110484","StateId":"20126288","CountyId":"20126289","CityId":"20126290"}}},{"Relevance":1.0,"Distance":25.4,"MatchLevel":"street","MatchQuality":{"Country":1.0,"State":1.0,"County":1.0,"City":1.0,"District":1.0,"PostalCode":1.0},"Location":{"LocationId":"NT_jKi856.dBTR.FwoFKm80pA_l_1046909505_R","LocationType":"point","DisplayPosition":{"Latitude":41.92912,"Longitude":12.42747},"MapView":{"TopLeft":{"Latitude":41.92914,"Longitude":12.42747},"BottomRight":{"Latitude":41.92912,"Longitude":12.42765}},"Address":{"Label":"00168 Roma RM, Italia","Country":"ITA","State":"Lazio","County":"RM","City":"Roma","District":"Trionfale","PostalCode":"00168","AdditionalData":[{"value":"Italia","key":"CountryName"},{"value":"Lazio","key":"StateName"},{"value":"Roma","key":"CountyName"}]},"MapReference":{"ReferenceId":"1046909505","Spot":0.0,"SideOfStreet":"right","CountryId":"20110484","StateId":"20126288","CountyId":"20126289","CityId":"20126290"}}},{"Relevance":1.0,"Distance":28.5,"MatchLevel":"houseNumber","MatchQuality":{"Country":1.0,"State":1.0,"County":1.0,"City":1.0,"District":1.0,"Street":[1.0],"HouseNumber":1.0,"PostalCode":1.0},"MatchType":"interpolated","Location":{"LocationId":"NT_yMKxaT6jSuX6aonocy24LA_3A","LocationType":"point","DisplayPosition":{"Latitude":41.92915,"Longitude":12.42748},"MapView":{"TopLeft":{"Latitude":41.9302742,"Longitude":12.425969},"BottomRight":{"Latitude":41.9280258,"Longitude":12.428991}},"Address":{"Label":"Largo Agostino Gemelli, 7, 00168 Roma RM, Italia","Country":"ITA","State":"Lazio","County":"RM","City":"Roma","District":"Trionfale","Street":"Largo Agostino Gemelli","HouseNumber":"7","PostalCode":"00168","AdditionalData":[{"value":"Italia","key":"CountryName"},{"value":"Lazio","key":"StateName"},{"value":"Roma","key":"CountyName"}]},"MapReference":{"ReferenceId":"1045289992","Spot":0.13,"SideOfStreet":"right","CountryId":"20110484","StateId":"20126288","CountyId":"20126289","CityId":"20126290","AddressId":"786027253","RoadLinkId":"365543398"}}},{"Relevance":1.0,"Distance":28.7,"MatchLevel":"street","MatchQuality":{"Country":1.0,"State":1.0,"County":1.0,"City":1.0,"District":1.0,"Street":[1.0],"PostalCode":1.0},"Location":{"LocationId":"NT_tePMuNUUs5SuM.a41H1DdA_l_551361817_R","LocationType":"point","DisplayPosition":{"Latitude":41.92873,"Longitude":12.42708},"MapView":{"TopLeft":{"Latitude":41.92873,"Longitude":12.42696},"BottomRight":{"Latitude":41.92849,"Longitude":12.42708}},"Address":{"Label":"Via della Pineta Sacchetti, 00168 Roma RM, Italia","Country":"ITA","State":"Lazio","County":"RM","City":"Roma","District":"Trionfale","Street":"Via della Pineta Sacchetti","PostalCode":"00168","AdditionalData":[{"value":"Italia","key":"CountryName"},{"value":"Lazio","key":"StateName"},{"value":"Roma","key":"CountyName"}]},"MapReference":{"ReferenceId":"551361817","Spot":1.0,"SideOfStreet":"right","CountryId":"20110484","StateId":"20126288","CountyId":"20126289","CityId":"20126290"}}},{"Relevance":1.0,"Distance":28.7,"MatchLevel":"street","MatchQuality":{"Country":1.0,"State":1.0,"County":1.0,"City":1.0,"District":1.0,"PostalCode":1.0},"Location":{"LocationId":"NT_IbzB.TbSpiqHnPkuxOTqrD_l_71138189_R","LocationType":"point","DisplayPosition":{"Latitude":41.92873,"Longitude":12.42708},"MapView":{"TopLeft":{"Latitude":41.92873,"Longitude":12.4265},"BottomRight":{"Latitude":41.92851,"Longitude":12.42708}},"Address":{"Label":"00168 Roma RM, Italia","Country":"ITA","State":"Lazio","County":"RM","City":"Roma","District":"Primavalle","PostalCode":"00168","AdditionalData":[{"value":"Italia","key":"CountryName"},{"value":"Lazio","key":"StateName"},{"value":"Roma","key":"CountyName"}]},"MapReference":{"ReferenceId":"71138189","Spot":1.0,"SideOfStreet":"right","CountryId":"20110484","StateId":"20126288","CountyId":"20126289","CityId":"20126290"}}}]}]}}