{"Response":{"MetaInfo":{"Timestamp":"2020-03-28T09:45:50.456+0000","NextPageInformation":"2"},"View":[{"_type":"SearchResultsViewType","ViewId":0,"Result":[{"Relevance":1.0,"Distance":0.0,"Direction":0.0,"MatchLevel":"city","MatchQuality":{"Country":1.0,"State":1.0,"County":1.0,"City":1.0,"PostalCode":1.0},"Location":{"LocationId":"NT_tUMjeivtbvZvgGmgcfCT-D","LocationType":"point","DisplayPosition":{"Latitude":41.9177348,"Longitude":-3.3036671},"MapView":{"TopLeft":{"Latitude":41.96156,"Longitude":-3.33468},"BottomRight":{"Latitude":41.87641,"Longitude":-3.26958}},"Address":{"Label":"Pinilla de los Barruecos, Castilla y León, España","Country":"ESP","State":"Castilla y León","County":"Burgos","City":"Pinilla de los Barruecos","PostalCode":"09612","AdditionalData":[{"value":"España","key":"CountryName"},{"value":"Castilla y León","key":"StateName"},{"value":"Burgos","key":"CountyName"}]},"MapReference":{"ReferenceId":"560657440","SideOfStreet":"neither","CountryId":"20215059","StateId":"20221909","CountyId":"20221911","CityId":"20303346"}}},{"Relevance":1.0,"Distance":3.1,"MatchLevel":"houseNumber","MatchQuality":{"Country":1.0,"State":1.0,"County":1.0,"City":1.0,"Street":[1.0],"HouseNumber":1.0,"PostalCode":1.0},"MatchType":"interpolated","Location":{"LocationId":"NT_nGuE5gl.R.xWAQUayuFH.A_xYD","LocationType":"point","DisplayPosition":{"Latitude":41.91771,"Longitude":-3.30365},"MapView":{"TopLeft":{"Latitude":41.9188342,"Longitude":-3.3051607},"BottomRight":{"Latitude":41.9165858,"Longitude":-3.3021393}},"Address":{"Label":"Barrio Escuelas, 16, 09612 Pinilla de los Barruecos (Burgos), España","Country":"ESP","State":"Castilla y León","County":"Burgos","City":"Pinilla de los Barruecos","Street":"Barrio Escuelas","HouseNumber":"16","PostalCode":"09612","AdditionalData":[{"value":"España","key":"CountryName"},{"value":"Castilla y León","key":"StateName"},{"value":"Burgos","key":"CountyName"}]},"MapReference":{"ReferenceId":"560657509","Spot":0.61,"SideOfStreet":"left","CountryId":"20215059","StateId":"20221909","CountyId":"20221911","CityId":"20303346","AddressId":"799705480","RoadLinkId":"572851824"}}},{"Relevance":1.0,"Distance":8.1,"MatchLevel":"street","MatchQuality":{"Country":1.0,"State":1.0,"County":1.0,"City":1.0,"Street":[1.0],"PostalCode":1.0},"Location":{"LocationId":"NT_nGuE5gl.R.xWAQUayuFH.A_l_560657453_R","LocationType":"point","DisplayPosition":{"Latitude":41.9177948,"Longitude":-3.3037221},"MapView":{"TopLeft":{"Latitude":41.91787,"Longitude":-3.30376},"BottomRight":{"Latitude":41.91776,"Longitude":-3.30364}},"Address":{"Label":"Barrio Escuelas, 09612 Pinilla de los Barruecos (Burgos), España","Country":"ESP","State":"Castilla y León","County":"Burgos","City":"Pinilla de los Barruecos","Street":"Barrio Escuelas","PostalCode":"09612","AdditionalData":[{"value":"España","key":"CountryName"},{"value":"Castilla y León","key":"StateName"},{"value":"Burgos","key":"CountyName"}]},"MapReference":{"ReferenceId":"560657453","Spot":0.32,"SideOfStreet":"right","CountryId":"20215059","StateId":"20221909","CountyId":"20221911","CityId":"20303346"}}},{"Relevance":1.0,"Distance":8.2,"MatchLevel":"street","MatchQuality":{"Country":1.0,"State":1.0,"County":1.0,"City":1.0,"Street":[1.0],"PostalCode":1.0},"Location":{"LocationId":"NT_nGuE5gl.R.xWAQUayuFH.A_l_560657457_R","LocationType":"point","DisplayPosition":{"Latitude":41.91776,"Longitude":-3.30376},"MapView":{"TopLeft":{"Latitude":41.9178,"Longitude":-3.30383},"BottomRight":{"Latitude":41.91776,"Longitude":-3.30376}},"Address":{"Label":"Barrio Escuelas, 09612 Pinilla de los Barruecos (Burgos), España","Country":"ESP","State":"Castilla y León","County":"Burgos","City":"Pinilla de los Barruecos","Street":"Barrio Escuelas","PostalCode":"09612","AdditionalData":[{"value":"España","key":"CountryName"},{"value":"Castilla y León","key":"StateName"},{"value":"Burgos","key":"CountyName"}]},"MapReference":{"ReferenceId":"560657457","Spot":0.0,"SideOfStreet":"right","CountryId":"20215059","StateId":"20221909","CountyId":"20221911","CityId":"20303346"}}},{"Relevance":1.0,"Distance":11.0,"MatchLevel":"houseNumber","MatchQuality":{"Country":1.0,"State":1.0,"County":1.0,"City":1.0,"Street":[1.0],"HouseNumber":1.0,"PostalCode":1.0},"MatchType":"interpolated","Location":{"LocationId":"NT_1-YRYYQOdmlrXtM8lijpKD_l_560657517_R_2A","LocationType":"point","DisplayPosition":{"Latitude":41.9177567,"Longitude":-3.3038667},"MapView":{"TopLeft":{"Latitude":41.9188808,"Longitude":-3.3053774},"BottomRight":{"Latitude":41.9166325,"Longitude":-3.3023559}},"Address":{"Label":"Plaza Mayor, 6, 09612 Pinilla de los Barruecos (Burgos), España","Country":"ESP","State":"Castilla y León","County":"Burgos","City":"Pinilla de los Barruecos","Street":"Plaza Mayor","HouseNumber":"6","PostalCode":"09612","AdditionalData":[{"value":"España","key":"CountryName"},{"value":"Castilla y León","key":"StateName"},{"value":"Burgos","key":"CountyName"}]},"MapReference":{"ReferenceId":"560657517","Spot":0.67,"SideOfStreet":"right","CountryId":"20215059","StateId":"20221909","CountyId":"20221911","CityId":"20303346"}}},{"Relevance":1.0,"Distance":15.2,"MatchLevel":"street","MatchQuality":{"Country":1.0,"State":1.0,"County":1.0,"City":1.0,"Street":[1.0],"PostalCode":1.0},"Location":{"LocationId":"NT_nGuE5gl.R.xWAQUayuFH.A_l_560657510_R","LocationType":"point","DisplayPosition":{"Latitude":41.91787,"Longitude":-3.30364},"MapView":{"TopLeft":{"Latitude":41.91797,"Longitude":-3.30364},"BottomRight":{"Latitude":41.91787,"Longitude":-3.30354}},"Address":{"Label":"Barrio Escuelas, 09612 Pinilla de los Barruecos (Burgos), España","Country":"ESP","State":"Castilla y León","County":"Burgos","City":"Pinilla de los Barruecos","Street":"Barrio Escuelas","PostalCode":"09612","AdditionalData":[{"value":"España","key":"CountryName"},{"value":"Castilla y León","key":"StateName"},{"value":"Burgos","key":"CountyName"}]},"MapReference":{"ReferenceId":"560657510","Spot":0.0,"SideOfStreet":"right","CountryId":"20215059","StateId":"20221909","CountyId":"20221911","CityId":"20303346"}}},{"Relevance":1.0,"Distance":15.3,"MatchLevel":"street","MatchQuality":{"Country":1.0,"State":1.0,"County":1.0,"City":1.0,"Street":[1.0],"PostalCode":1.0},"Location":{"LocationId":"NT_nGuE5gl.R.xWAQUayuFH.A_l_560657541_R","LocationType":"point","DisplayPosition":{"Latitude":41.9178,"Longitude":-3.30383},"MapView":{"TopLeft":{"Latitude":41.91786,"Longitude":-3.30393},"BottomRight":{"Latitude":41.9178,"Longitude":-3.30383}},"Address":{"Label":"Barrio Escuelas, 09612 Pinilla de los Barruecos (Burgos), España","Country":"ESP","State":"Castilla y León","County":"Burgos","City":"Pinilla de los Barruecos","Street":"Barrio Escuelas","PostalCode":"09612","AdditionalData":[{"value":"España","key":"CountryName"},{"value":"Castilla y León","key":"StateName"},{"value":"Burgos","key":"CountyName"}]},"MapReference":{"ReferenceId":"560657541","Spot":0.0,"SideOfStreet":"right","CountryId":"20215059","StateId":"20221909","CountyId":"20221911","CityId":"20303346"}}},{"Relevance":1.0,"Distance":18.0,"MatchLevel":"houseNumber","MatchQuality":{"Country":1.0,"State":1.0,"County":1.0,"City":1.0,"Street":[1.0],"HouseNumber":1.0,"PostalCode":1.0},"MatchType":"interpolated","Location":{"LocationId":"NT_nGuE5gl.R.xWAQUayuFH.A_5A","LocationType":"point","DisplayPosition":{"Latitude":41.91795,"Longitude":-3.30381},"MapView":{"TopLeft":{"Latitude":41.9190742,"Longitude":-3.3053207},"BottomRight":{"Latitude":41.9168258,"Longitude":-3.3022993}},"Address":{"Label":"Barrio Escuelas, 9, 09612 Pinilla de los Barruecos (Burgos), España","Country":"ESP","State":"Castilla y León","County":"Burgos","City":"Pinilla de los Barruecos","Street":"Barrio Escuelas","HouseNumber":"9","PostalCode":"09612","AdditionalData":[{"value":"España","key":"CountryName"},{"value":"Castilla y León","key":"StateName"},{"value":"Burgos","key":"CountyName"}]},"MapReference":{"ReferenceId":"560657496","Spot":0.5,"SideOfStreet":"right","CountryId":"20215059","StateId":"20221909","CountyId":"20221911","CityId":"20303346","AddressId":"405120238","RoadLinkId":"68154067"}}},{"Relevance":1.0,"Distance":19.4,"MatchLevel":"street","MatchQuality":{"Country":1.0,"State":1.0,"County":1.0,"City":1.0,"PostalCode":1.0},"Location":{"LocationId":"NT_MCGm0X6kffLJKlqGJ.nkVA_l_560657502_L","LocationType":"point","DisplayPosition":{"Latitude":41.91763,"Longitude":-3.30348},"MapView":{"TopLeft":{"Latitude":41.91774,"Longitude":-3.30348},"BottomRight":{"Latitude":41.91763,"Longitude":-3.30339}},"Address":{"Label":"09612 Pinilla de los Barruecos (Burgos), España","Country":"ESP","State":"Castilla y León","County":"Burgos","City":"Pinilla de los Barruecos","PostalCode":"09612","AdditionalData":[{"value":"España","key":"CountryName"},{"value":"Castilla y León","key":"StateName"},{"value":"Burgos","key":"CountyName"}]},"MapReference":{"ReferenceId":"560657502","Spot":0.0,"SideOfStreet":"left","CountryId":"20215059","StateId":"20221909","CountyId":"20221911","CityId":"20303346"}}},{"Relevance":1.0,"Distance":19.9,"MatchLevel":"street","MatchQuality":{"Country":1.0,"State":1.0,"County":1.0,"City":1.0,"Street":[1.0],"PostalCode":1.0},"Location":{"LocationId":"NT_nGuE5gl.R.xWAQUayuFH.A_l_560657470_R","LocationType":"point","DisplayPosition":{"Latitude":41.9175694,"Longitude":-3.303759},"MapView":{"TopLeft":{"Latitude":41.91767,"Longitude":-3.30394},"BottomRight":{"Latitude":41.91752,"Longitude":-3.30367}},"Address":{"Label":"Barrio Escuelas, 09612 Pinilla de los Barruecos (Burgos), España","Country":"ESP","State":"Castilla y León","County":"Burgos","City":"Pinilla de los Barruecos","Street":"Barrio Escuelas","PostalCode":"09612","AdditionalData":[{"value":"España","key":"CountryName"},{"value":"Castilla y León","key":"StateName"},{"value":"Burgos","key":"CountyName"}]},"MapReference":{"ReferenceId":"560657470","Spot":0.33,"SideOfStreet":"right","CountryId":"20215059","StateId":"20221909","CountyId":"20221911","CityId":"20303346"}}}]}]}}