{"Response":{"MetaInfo":{"Timestamp":"2020-03-28T11:26:10.521+0000","NextPageInformation":"2"},"View":[{"_type":"SearchResultsViewType","ViewId":0,"Result":[{"Relevance":1.0,"Distance":0.0,"Direction":0.0,"MatchLevel":"district","MatchQuality":{"Country":1.0,"State":1.0,"County":1.0,"City":1.0,"District":1.0,"PostalCode":1.0},"Location":{"LocationId":"NT_GrC77iLaV.X6tM2XRG6iNC","LocationType":"point","DisplayPosition":{"Latitude":41.9189166,"Longitude":12.5382256},"MapView":{"TopLeft":{"Latitude":41.93782,"Longitude":12.52656},"BottomRight":{"Latitude":41.90825,"Longitude":12.57124}},"Address":{"Label":"Pietralata, Roma, Lazio, Italia","Country":"ITA","State":"Lazio","County":"RM","City":"Roma","District":"Pietralata","PostalCode":"00157","AdditionalData":[{"value":"Italia","key":"CountryName"},{"value":"Lazio","key":"StateName"},{"value":"Roma","key":"CountyName"}]},"MapReference":{"ReferenceId":"1082306696","SideOfStreet":"neither","CountryId":"20110484","StateId":"20126288","CountyId":"20126289","CityId":"20126290"}}},{"Relevance":1.0,"Distance":13.6,"MatchLevel":"street","MatchQuality":{"Country":1.0,"State":1.0,"County":1.0,"City":1.0,"District":1.0,"PostalCode":1.0},"Location":{"LocationId":"NT_AtlbcTgi5b7aAUzS0uQZqD_l_1046855112_L","LocationType":"point","DisplayPosition":{"Latitude":41.9188369,"Longitude":12.5383508},"MapView":{"TopLeft":{"Latitude":41.91893,"Longitude":12.53827},"BottomRight":{"Latitude":41.91871,"Longitude":12.53841}},"Address":{"Label":"00157 Roma RM, Italia","Country":"ITA","State":"Lazio","County":"RM","City":"Roma","District":"Pietralata","PostalCode":"00157","AdditionalData":[{"value":"Italia","key":"CountryName"},{"value":"Lazio","key":"StateName"},{"value":"Roma","key":"CountyName"}]},"MapReference":{"ReferenceId":"1046855112","Spot":0.58,"SideOfStreet":"left","CountryId":"20110484","StateId":"20126288","CountyId":"20126289","CityId":"20126290"}}},{"Relevance":1.0,"Distance":15.2,"MatchLevel":"street","MatchQuality":{"Country":1.0,"State":1.0,"County":1.0,"City":1.0,"District":1.0,"PostalCode":1.0},"Location":{"LocationId":"NT_AtlbcTgi5b7aAUzS0uQZqD_l_1218875943_L","LocationType":"point","DisplayPosition":{"Latitude":41.9189949,"Longitude":12.5383763},"MapView":{"TopLeft":{"Latitude":41.91945,"Longitude":12.53814},"BottomRight":{"Latitude":41.91893,"Longitude":12.53841}},"Address":{"Label":"00157 Roma RM, Italia","Country":"ITA","State":"Lazio","County":"RM","City":"Roma","District":"Pietralata","PostalCode":"00157","AdditionalData":[{"value":"Italia","key":"CountryName"},{"value":"Lazio","key":"StateName"},{"value":"Roma","key":"CountyName"}]},"MapReference":{"ReferenceId":"1218875943","Spot":0.12,"SideOfStreet":"left","CountryId":"20110484","StateId":"20126288","CountyId":"20126289","CityId":"20126290"}}},{"Relevance":1.0,"Distance":15.3,"MatchLevel":"street","MatchQuality":{"Country":1.0,"State":1.0,"County":1.0,"City":1.0,"District":1.0,"PostalCode":1.0},"Location":{"LocationId":"NT_AtlbcTgi5b7aAUzS0uQZqD_l_1051838863_L","LocationType":"point","DisplayPosition":{"Latitude":41.91893,"Longitude":12.53841},"MapView":{"TopLeft":{"Latitude":41.91893,"Longitude":12.53841},"BottomRight":{"Latitude":41.91877,"Longitude":12.53863}},"Address":{"Label":"00157 Roma RM, Italia","Country":"ITA","State":"Lazio","County":"RM","City":"Roma","District":"Pietralata","PostalCode":"00157","AdditionalData":[{"value":"Italia","key":"CountryName"},{"value":"Lazio","key":"StateName"},{"value":"Roma","key":"CountyName"}]},"MapReference":{"ReferenceId":"1051838863","Spot":1.0,"SideOfStreet":"left","CountryId":"20110484","StateId":"20126288","CountyId":"20126289","CityId":"20126290"}}},{"Relevance":1.0,"Distance":20.5,"MatchLevel":"street","MatchQuality":{"Country":1.0,"State":1.0,"County":1.0,"City":1.0,"District":1.0,"Street":[1.0],"PostalCode":1.0},"Location":{"LocationId":"NT_NrTo7HeEhydujWcVumzzaD_l_73868515_R","LocationType":"point","DisplayPosition":{"Latitude":41.9187361,"Longitude":12.5381757},"MapView":{"TopLeft":{"Latitude":41.91884,"Longitude":12.5378},"BottomRight":{"Latitude":41.91871,"Longitude":12.53827}},"Address":{"Label":"Via dei Monti Tiburtini, 00157 Roma RM, Italia","Country":"ITA","State":"Lazio","County":"RM","City":"Roma","District":"Pietralata","Street":"Via dei Monti Tiburtini","PostalCode":"00157","AdditionalData":[{"value":"Italia","key":"CountryName"},{"value":"Lazio","key":"StateName"},{"value":"Roma","key":"CountyName"}]},"MapReference":{"ReferenceId":"73868515","Spot":0.2,"SideOfStreet":"right","CountryId":"20110484","StateId":"20126288","CountyId":"20126289","CityId":"20126290"}}},{"Relevance":1.0,"Distance":23.3,"MatchLevel":"street","MatchQuality":{"Country":1.0,"State":1.0,"County":1.0,"City":1.0,"District":1.0,"Street":[1.0],"PostalCode":1.0},"Location":{"LocationId":"NT_NrTo7HeEhydujWcVumzzaD_l_55523518_R","LocationType":"point","DisplayPosition":{"Latitude":41.91871,"Longitude":12.53827},"MapView":{"TopLeft":{"Latitude":41.91871,"Longitude":12.53827},"BottomRight":{"Latitude":41.91863,"Longitude":12.53859}},"Address":{"Label":"Via dei Monti Tiburtini, 00157 Roma RM, Italia","Country":"ITA","State":"Lazio","County":"RM","City":"Roma","District":"Pietralata","Street":"Via dei Monti Tiburtini","PostalCode":"00157","AdditionalData":[{"value":"Italia","key":"CountryName"},{"value":"Lazio","key":"StateName"},{"value":"Roma","key":"CountyName"}]},"MapReference":{"ReferenceId":"55523518","Spot":1.0,"SideOfStreet":"right","CountryId":"20110484","StateId":"20126288","CountyId":"20126289","CityId":"20126290"}}},{"Relevance":1.0,"Distance":33.5,"MatchLevel":"houseNumber","MatchQuality":{"Country":1.0,"State":1.0,"County":1.0,"City":1.0,"District":1.0,"Street":[1.0],"HouseNumber":1.0,"PostalCode":1.0},"MatchType":"interpolated","Location":{"LocationId":"NT_NrTo7HeEhydujWcVumzzaD_zgTN","LocationType":"point","DisplayPosition":{"Latitude":41.91891,"Longitude":12.53866},"MapView":{"TopLeft":{"Latitude":41.9200342,"Longitude":12.5371492},"BottomRight":{"Latitude":41.9177858,"Longitude":12.5401708}},"Address":{"Label":"Via dei Monti Tiburtini, 385, 00157 Roma RM, Italia","Country":"ITA","State":"Lazio","County":"RM","City":"Roma","District":"Pietralata","Street":"Via dei Monti Tiburtini","HouseNumber":"385","PostalCode":"00157","AdditionalData":[{"value":"Italia","key":"CountryName"},{"value":"Lazio","key":"StateName"},{"value":"Roma","key":"CountyName"}]},"MapReference":{"ReferenceId":"1126930883","Spot":0.11,"SideOfStreet":"left","CountryId":"20110484","StateId":"20126288","CountyId":"20126289","CityId":"20126290","AddressId":"786238278","RoadLinkId":"436768505"}}},{"Relevance":1.0,"Distance":35.6,"MatchLevel":"landmark","MatchQuality":{"Country":1.0,"State":1.0,"County":1.0,"City":1.0,"District":1.0,"Street":[1.0],"HouseNumber":1.0,"PostalCode":1.0,"Name":1.0},"Location":{"LocationId":"NT_I53H.UZGHkb2vI4481moyB_p_XbCyOOQ6RNh1S26mTVQb.C","LocationType":"hospital","Name":"Sandro Pertini","DisplayPosition":{"Latitude":41.91931,"Longitude":12.53847},"MapView":{"TopLeft":{"Latitude":41.9204342,"Longitude":12.5369592},"BottomRight":{"Latitude":41.9181858,"Longitude":12.5399808}},"Address":{"Label":"Via dei Monti Tiburtini, 385, 00157 Roma RM, Italia","Country":"ITA","State":"Lazio","County":"RM","City":"Roma","District":"Pietralata","Street":"Via dei Monti Tiburtini","HouseNumber":"385","PostalCode":"00157","AdditionalData":[{"value":"Italia","key":"CountryName"},{"value":"Lazio","key":"StateName"},{"value":"Roma","key":"CountyName"}]},"MapReference":{"CountryId":"20110484","StateId":"20126288","CountyId":"20126289","CityId":"20126290","PlaceId":"50990075"}}},{"Relevance":1.0,"Distance":36.2,"MatchLevel":"street","MatchQuality":{"Country":1.0,"State":1.0,"County":1.0,"City":1.0,"District":1.0,"Street":[1.0],"PostalCode":1.0},"Location":{"LocationId":"NT_NrTo7HeEhydujWcVumzzaD_l_73868516_R","LocationType":"point","DisplayPosition":{"Latitude":41.91884,"Longitude":12.5378},"MapView":{"TopLeft":{"Latitude":41.91891,"Longitude":12.53757},"BottomRight":{"Latitude":41.91884,"Longitude":12.5378}},"Address":{"Label":"Via dei Monti Tiburtini, 00157 Roma RM, Italia","Country":"ITA","State":"Lazio","County":"RM","City":"Roma","District":"Pietralata","Street":"Via dei Monti Tiburtini","PostalCode":"00157","AdditionalData":[{"value":"Italia","key":"CountryName"},{"value":"Lazio","key":"StateName"},{"value":"Roma","key":"CountyName"}]},"MapReference":{"ReferenceId":"73868516","Spot":0.0,"SideOfStreet":"right","CountryId":"20110484","StateId":"20126288","CountyId":"20126289","CityId":"20126290"}}},{"Relevance":1.0,"Distance":36.4,"MatchLevel":"street","MatchQuality":{"Country":1.0,"State":1.0,"County":1.0,"City":1.0,"District":1.0,"Street":[1.0],"PostalCode":1.0},"Location":{"LocationId":"NT_NrTo7HeEhydujWcVumzzaD_l_1223095588_L","LocationType":"point","DisplayPosition":{"Latitude":41.91883,"Longitude":12.53865},"MapView":{"TopLeft":{"Latitude":41.91883,"Longitude":12.53865},"BottomRight":{"Latitude":41.91854,"Longitude":12.53969}},"Address":{"Label":"Via dei Monti Tiburtini, 00157 Roma RM, Italia","Country":"ITA","State":"Lazio","County":"RM","City":"Roma","District":"Pietralata","Street":"Via dei Monti Tiburtini","PostalCode":"00157","AdditionalData":[{"value":"Italia","key":"CountryName"},{"value":"Lazio","key":"StateName"},{"value":"Roma","key":"CountyName"}]},"MapReference":{"ReferenceId":"1223095588","Spot":1.0,"SideOfStreet":"left","CountryId":"20110484","StateId":"20126288","CountyId":"20126289","CityId":"20126290"}}}]}]}}