{"Response":{"MetaInfo":{"Timestamp":"2020-03-28T11:23:35.730+0000","NextPageInformation":"2"},"View":[{"_type":"SearchResultsViewType","ViewId":0,"Result":[{"Relevance":1.0,"Distance":-359.1,"MatchLevel":"landmark","MatchQuality":{"Country":1.0,"State":1.0,"County":1.0,"Name":1.0},"Location":{"LocationId":"NT_9aT5rTj2pqVOPyUVynOeGD","LocationType":"industrialComplex","Name":"Zona Industriale di Sulmona","DisplayPosition":{"Latitude":42.07857,"Longitude":13.90726},"MapView":{"TopLeft":{"Latitude":42.09227,"Longitude":13.89147},"BottomRight":{"Latitude":42.06486,"Longitude":13.91737}},"Address":{"Label":"AQ, Italia","Country":"ITA","State":"Abruzzo","County":"AQ","AdditionalData":[{"value":"Italia","key":"CountryName"},{"value":"Abruzzo","key":"StateName"},{"value":"L'Aquila","key":"CountyName"}]},"MapReference":{"CountryId":"20110484","StateId":"20127658","CountyId":"20127659","PlaceId":"1414877660"}}},{"Relevance":1.0,"Distance":0.0,"Direction":0.0,"MatchLevel":"city","MatchQuality":{"Country":1.0,"State":1.0,"County":1.0,"City":1.0,"PostalCode":1.0},"Location":{"LocationId":"NT_arHGXHIdxc0GX3W5Ew2NmB","LocationType":"point","DisplayPosition":{"Latitude":42.0723713,"Longitude":13.9116572},"MapView":{"TopLeft":{"Latitude":42.12596,"Longitude":13.86249},"BottomRight":{"Latitude":42.00976,"Longitude":13.98213}},"Address":{"Label":"Sulmona, Abruzzo, Italia","Country":"ITA","State":"Abruzzo","County":"AQ","City":"Sulmona","PostalCode":"67039","AdditionalData":[{"value":"Italia","key":"CountryName"},{"value":"Abruzzo","key":"StateName"},{"value":"L'Aquila","key":"CountyName"}]},"MapReference":{"ReferenceId":"75818789","SideOfStreet":"neither","CountryId":"20110484","StateId":"20127658","CountyId":"20127659","CityId":"20217411"}}},{"Relevance":1.0,"Distance":6.6,"MatchLevel":"street","MatchQuality":{"Country":1.0,"State":1.0,"County":1.0,"City":1.0,"PostalCode":1.0},"Location":{"LocationId":"NT_PaWj3TKDfPvjlrTnO0RWWB_l_984135620_L","LocationType":"point","DisplayPosition":{"Latitude":42.0724203,"Longitude":13.9117027},"MapView":{"TopLeft":{"Latitude":42.07246,"Longitude":13.91166},"BottomRight":{"Latitude":42.0722,"Longitude":13.91194}},"Address":{"Label":"67039 Sulmona AQ, Italia","Country":"ITA","State":"Abruzzo","County":"AQ","City":"Sulmona","PostalCode":"67039","AdditionalData":[{"value":"Italia","key":"CountryName"},{"value":"Abruzzo","key":"StateName"},{"value":"L'Aquila","key":"CountyName"}]},"MapReference":{"ReferenceId":"984135620","Spot":0.85,"SideOfStreet":"left","CountryId":"20110484","StateId":"20127658","CountyId":"20127659","CityId":"20217411"}}},{"Relevance":1.0,"Distance":14.6,"MatchLevel":"houseNumber","MatchQuality":{"Country":1.0,"State":1.0,"County":1.0,"City":1.0,"Street":[1.0],"HouseNumber":1.0,"PostalCode":1.0},"MatchType":"interpolated","Location":{"LocationId":"NT_EMWOOc9RkLEPpY6hBr8cbC_zA","LocationType":"point","DisplayPosition":{"Latitude":42.07237,"Longitude":13.91148},"MapView":{"TopLeft":{"Latitude":42.0734942,"Longitude":13.9099656},"BottomRight":{"Latitude":42.0712458,"Longitude":13.9129944}},"Address":{"Label":"Viale dell'Agricoltura, 3, 67039 Sulmona AQ, Italia","Country":"ITA","State":"Abruzzo","County":"AQ","City":"Sulmona","Street":"Viale dell'Agricoltura","HouseNumber":"3","PostalCode":"67039","AdditionalData":[{"value":"Italia","key":"CountryName"},{"value":"Abruzzo","key":"StateName"},{"value":"L'Aquila","key":"CountyName"}]},"MapReference":{"ReferenceId":"984135618","Spot":0.75,"SideOfStreet":"left","CountryId":"20110484","StateId":"20127658","CountyId":"20127659","CityId":"20217411","AddressId":"602965142","RoadLinkId":"315342756"}}},{"Relevance":1.0,"Distance":22.0,"MatchLevel":"houseNumber","MatchQuality":{"Country":1.0,"State":1.0,"County":1.0,"City":1.0,"Street":[1.0],"HouseNumber":1.0,"PostalCode":1.0},"MatchType":"interpolated","Location":{"LocationId":"NT_EMWOOc9RkLEPpY6hBr8cbC_0A","LocationType":"point","DisplayPosition":{"Latitude":42.07254,"Longitude":13.91184},"MapView":{"TopLeft":{"Latitude":42.0736642,"Longitude":13.9103256},"BottomRight":{"Latitude":42.0714158,"Longitude":13.9133544}},"Address":{"Label":"Viale dell'Agricoltura, 4, 67039 Sulmona AQ, Italia","Country":"ITA","State":"Abruzzo","County":"AQ","City":"Sulmona","Street":"Viale dell'Agricoltura","HouseNumber":"4","PostalCode":"67039","AdditionalData":[{"value":"Italia","key":"CountryName"},{"value":"Abruzzo","key":"StateName"},{"value":"L'Aquila","key":"CountyName"}]},"MapReference":{"ReferenceId":"984135619","Spot":0.13,"SideOfStreet":"right","CountryId":"20110484","StateId":"20127658","CountyId":"20127659","CityId":"20217411","AddressId":"602966221","RoadLinkId":"315342757"}}},{"Relevance":1.0,"Distance":30.1,"MatchLevel":"street","MatchQuality":{"Country":1.0,"State":1.0,"County":1.0,"City":1.0,"PostalCode":1.0},"Location":{"LocationId":"NT_PaWj3TKDfPvjlrTnO0RWWB_l_984135621_L","LocationType":"point","DisplayPosition":{"Latitude":42.0722,"Longitude":13.91194},"MapView":{"TopLeft":{"Latitude":42.07272,"Longitude":13.91194},"BottomRight":{"Latitude":42.0722,"Longitude":13.91308}},"Address":{"Label":"67039 Sulmona AQ, Italia","Country":"ITA","State":"Abruzzo","County":"AQ","City":"Sulmona","PostalCode":"67039","AdditionalData":[{"value":"Italia","key":"CountryName"},{"value":"Abruzzo","key":"StateName"},{"value":"L'Aquila","key":"CountyName"}]},"MapReference":{"ReferenceId":"984135621","Spot":0.0,"SideOfStreet":"left","CountryId":"20110484","StateId":"20127658","CountyId":"20127659","CityId":"20217411"}}},{"Relevance":1.0,"Distance":30.1,"MatchLevel":"street","MatchQuality":{"Country":1.0,"State":1.0,"County":1.0,"City":1.0,"PostalCode":1.0},"Location":{"LocationId":"NT_PaWj3TKDfPvjlrTnO0RWWB_l_984135623_L","LocationType":"point","DisplayPosition":{"Latitude":42.0722,"Longitude":13.91194},"MapView":{"TopLeft":{"Latitude":42.0722,"Longitude":13.91194},"BottomRight":{"Latitude":42.07105,"Longitude":13.91292}},"Address":{"Label":"67039 Sulmona AQ, Italia","Country":"ITA","State":"Abruzzo","County":"AQ","City":"Sulmona","PostalCode":"67039","AdditionalData":[{"value":"Italia","key":"CountryName"},{"value":"Abruzzo","key":"StateName"},{"value":"L'Aquila","key":"CountyName"}]},"MapReference":{"ReferenceId":"984135623","Spot":1.0,"SideOfStreet":"left","CountryId":"20110484","StateId":"20127658","CountyId":"20127659","CityId":"20217411"}}},{"Relevance":1.0,"Distance":66.4,"MatchLevel":"street","MatchQuality":{"Country":1.0,"State":1.0,"County":1.0,"City":1.0,"PostalCode":1.0},"Location":{"LocationId":"NT_PaWj3TKDfPvjlrTnO0RWWB_l_75818732_L","LocationType":"point","DisplayPosition":{"Latitude":42.0721,"Longitude":13.91094},"MapView":{"TopLeft":{"Latitude":42.0721,"Longitude":13.91061},"BottomRight":{"Latitude":42.07206,"Longitude":13.91094}},"Address":{"Label":"67039 Sulmona AQ, Italia","Country":"ITA","State":"Abruzzo","County":"AQ","City":"Sulmona","PostalCode":"67039","AdditionalData":[{"value":"Italia","key":"CountryName"},{"value":"Abruzzo","key":"StateName"},{"value":"L'Aquila","key":"CountyName"}]},"MapReference":{"ReferenceId":"75818732","Spot":1.0,"SideOfStreet":"left","CountryId":"20110484","StateId":"20127658","CountyId":"20127659","CityId":"20217411"}}},{"Relevance":1.0,"Distance":66.4,"MatchLevel":"street","MatchQuality":{"Country":1.0,"State":1.0,"County":1.0,"City":1.0,"PostalCode":1.0},"Location":{"LocationId":"NT_PaWj3TKDfPvjlrTnO0RWWB_l_75818737_R","LocationType":"point","DisplayPosition":{"Latitude":42.0721,"Longitude":13.91094},"MapView":{"TopLeft":{"Latitude":42.0721,"Longitude":13.9107},"BottomRight":{"Latitude":42.07196,"Longitude":13.91094}},"Address":{"Label":"67039 Sulmona AQ, Italia","Country":"ITA","State":"Abruzzo","County":"AQ","City":"Sulmona","PostalCode":"67039","AdditionalData":[{"value":"Italia","key":"CountryName"},{"value":"Abruzzo","key":"StateName"},{"value":"L'Aquila","key":"CountyName"}]},"MapReference":{"ReferenceId":"75818737","Spot":1.0,"SideOfStreet":"right","CountryId":"20110484","StateId":"20127658","CountyId":"20127659","CityId":"20217411"}}},{"Relevance":1.0,"Distance":90.4,"MatchLevel":"street","MatchQuality":{"Country":1.0,"State":1.0,"County":1.0,"City":1.0,"PostalCode":1.0},"Location":{"LocationId":"NT_PaWj3TKDfPvjlrTnO0RWWB_l_77553901_R","LocationType":"point","DisplayPosition":{"Latitude":42.07199,"Longitude":13.91069},"MapView":{"TopLeft":{"Latitude":42.07206,"Longitude":13.91061},"BottomRight":{"Latitude":42.07196,"Longitude":13.9107}},"Address":{"Label":"67039 Sulmona AQ, Italia","Country":"ITA","State":"Abruzzo","County":"AQ","City":"Sulmona","PostalCode":"67039","AdditionalData":[{"value":"Italia","key":"CountryName"},{"value":"Abruzzo","key":"StateName"},{"value":"L'Aquila","key":"CountyName"}]},"MapReference":{"ReferenceId":"77553901","Spot":0.22,"SideOfStreet":"right","CountryId":"20110484","StateId":"20127658","CountyId":"20127659","CityId":"20217411"}}}]}]}}