{"Response":{"MetaInfo":{"Timestamp":"2020-03-28T10:26:43.276+0000","NextPageInformation":"2"},"View":[{"_type":"SearchResultsViewType","ViewId":0,"Result":[{"Relevance":1.0,"Distance":0.0,"Direction":0.0,"MatchLevel":"district","MatchQuality":{"Country":1.0,"State":1.0,"County":1.0,"City":1.0,"District":1.0,"PostalCode":1.0},"Location":{"LocationId":"NT_UyiaZAQLa0.D4Zdj7JoWEA","LocationType":"point","DisplayPosition":{"Latitude":42.0632869,"Longitude":2.6144731},"MapView":{"TopLeft":{"Latitude":42.06437,"Longitude":2.61173},"BottomRight":{"Latitude":42.05915,"Longitude":2.61793}},"Address":{"Label":"Sant Esteve de Llémena, Sant Aniol de Finestres, Catalunya, Espanya","Country":"ESP","State":"Catalunya","County":"Girona","City":"Sant Aniol de Finestres","District":"Sant Esteve de Llémena","PostalCode":"17154","AdditionalData":[{"value":"Espanya","key":"CountryName"},{"value":"Catalunya","key":"StateName"},{"value":"Girona","key":"CountyName"}]},"MapReference":{"ReferenceId":"564815379","SideOfStreet":"neither","CountryId":"20215059","StateId":"20215741","CountyId":"20223544","CityId":"20224552","DistrictId":"20224554"}}},{"Relevance":1.0,"Distance":16.6,"MatchLevel":"houseNumber","MatchQuality":{"Country":1.0,"State":1.0,"County":1.0,"City":1.0,"District":1.0,"Street":[1.0],"HouseNumber":1.0,"PostalCode":1.0},"MatchType":"interpolated","Location":{"LocationId":"NT_6SaIUM0uQ.T1H.S1sqD9dD_2A","LocationType":"point","DisplayPosition":{"Latitude":42.06316,"Longitude":2.61458},"MapView":{"TopLeft":{"Latitude":42.0642842,"Longitude":2.6130658},"BottomRight":{"Latitude":42.0620358,"Longitude":2.6160942}},"Address":{"Label":"Carrer Les Escoles, 6, 17154 Sant Aniol de Finestres (Girona), Espanya","Country":"ESP","State":"Catalunya","County":"Girona","City":"Sant Aniol de Finestres","District":"Sant Esteve de Llémena","Street":"Carrer Les Escoles","HouseNumber":"6","PostalCode":"17154","AdditionalData":[{"value":"Espanya","key":"CountryName"},{"value":"Catalunya","key":"StateName"},{"value":"Girona","key":"CountyName"}]},"MapReference":{"ReferenceId":"564815369","Spot":0.73,"SideOfStreet":"right","CountryId":"20215059","StateId":"20215741","CountyId":"20223544","CityId":"20224552","DistrictId":"20224554","AddressId":"404339964","RoadLinkId":"65325417"}}},{"Relevance":1.0,"Distance":17.2,"MatchLevel":"houseNumber","MatchQuality":{"Country":1.0,"State":1.0,"County":1.0,"City":1.0,"District":1.0,"Street":[1.0],"HouseNumber":1.0,"PostalCode":1.0},"MatchType":"interpolated","Location":{"LocationId":"NT_Yy7SwQJjNB7fsgb-HKLAvD_xA","LocationType":"point","DisplayPosition":{"Latitude":42.06332,"Longitude":2.61475},"MapView":{"TopLeft":{"Latitude":42.0644442,"Longitude":2.6132358},"BottomRight":{"Latitude":42.0621958,"Longitude":2.6162642}},"Address":{"Label":"Plaça Major, 1, 17154 Sant Aniol de Finestres (Girona), Espanya","Country":"ESP","State":"Catalunya","County":"Girona","City":"Sant Aniol de Finestres","District":"Sant Esteve de Llémena","Street":"Plaça Major","HouseNumber":"1","PostalCode":"17154","AdditionalData":[{"value":"Espanya","key":"CountryName"},{"value":"Catalunya","key":"StateName"},{"value":"Girona","key":"CountyName"}]},"MapReference":{"ReferenceId":"564823277","Spot":0.16,"SideOfStreet":"left","CountryId":"20215059","StateId":"20215741","CountyId":"20223544","CityId":"20224552","DistrictId":"20224554","AddressId":"404166963","RoadLinkId":"66073950"}}},{"Relevance":1.0,"Distance":21.2,"MatchLevel":"street","MatchQuality":{"Country":1.0,"State":1.0,"County":1.0,"City":1.0,"District":1.0,"Street":[1.0],"PostalCode":1.0},"Location":{"LocationId":"NT_Yy7SwQJjNB7fsgb-HKLAvD_l_564815373_L","LocationType":"point","DisplayPosition":{"Latitude":42.06346,"Longitude":2.61458},"MapView":{"TopLeft":{"Latitude":42.06356,"Longitude":2.61458},"BottomRight":{"Latitude":42.0634,"Longitude":2.61497}},"Address":{"Label":"Plaça Major, 17154 Sant Aniol de Finestres (Girona), Espanya","Country":"ESP","State":"Catalunya","County":"Girona","City":"Sant Aniol de Finestres","District":"Sant Esteve de Llémena","Street":"Plaça Major","PostalCode":"17154","AdditionalData":[{"value":"Espanya","key":"CountryName"},{"value":"Catalunya","key":"StateName"},{"value":"Girona","key":"CountyName"}]},"MapReference":{"ReferenceId":"564815373","Spot":1.0,"SideOfStreet":"left","CountryId":"20215059","StateId":"20215741","CountyId":"20223544","CityId":"20224552","DistrictId":"20224554"}}},{"Relevance":1.0,"Distance":25.3,"MatchLevel":"street","MatchQuality":{"Country":1.0,"State":1.0,"County":1.0,"City":1.0,"District":1.0,"Street":[1.0],"PostalCode":1.0},"Location":{"LocationId":"NT_0SA.F0zrfaSpbohCjs79nD_l_564815377_L","LocationType":"point","DisplayPosition":{"Latitude":42.06329,"Longitude":2.61478},"MapView":{"TopLeft":{"Latitude":42.06329,"Longitude":2.61478},"BottomRight":{"Latitude":42.06301,"Longitude":2.61508}},"Address":{"Label":"Plaça La Constitució, 17154 Sant Aniol de Finestres (Girona), Espanya","Country":"ESP","State":"Catalunya","County":"Girona","City":"Sant Aniol de Finestres","District":"Sant Esteve de Llémena","Street":"Plaça La Constitució","PostalCode":"17154","AdditionalData":[{"value":"Espanya","key":"CountryName"},{"value":"Catalunya","key":"StateName"},{"value":"Girona","key":"CountyName"}]},"MapReference":{"ReferenceId":"564815377","Spot":1.0,"SideOfStreet":"left","CountryId":"20215059","StateId":"20215741","CountyId":"20223544","CityId":"20224552","DistrictId":"20224554"}}},{"Relevance":1.0,"Distance":25.3,"MatchLevel":"street","MatchQuality":{"Country":1.0,"State":1.0,"County":1.0,"City":1.0,"District":1.0,"Street":[1.0],"PostalCode":1.0},"Location":{"LocationId":"NT_0SA.F0zrfaSpbohCjs79nD_l_564815379_L","LocationType":"point","DisplayPosition":{"Latitude":42.06329,"Longitude":2.61478},"MapView":{"TopLeft":{"Latitude":42.0634,"Longitude":2.61478},"BottomRight":{"Latitude":42.06329,"Longitude":2.61497}},"Address":{"Label":"Plaça La Constitució, 17154 Sant Aniol de Finestres (Girona), Espanya","Country":"ESP","State":"Catalunya","County":"Girona","City":"Sant Aniol de Finestres","District":"Sant Esteve de Llémena","Street":"Plaça La Constitució","PostalCode":"17154","AdditionalData":[{"value":"Espanya","key":"CountryName"},{"value":"Catalunya","key":"StateName"},{"value":"Girona","key":"CountyName"}]},"MapReference":{"ReferenceId":"564815379","Spot":0.0,"SideOfStreet":"left","CountryId":"20215059","StateId":"20215741","CountyId":"20223544","CityId":"20224552","DistrictId":"20224554"}}},{"Relevance":1.0,"Distance":42.9,"MatchLevel":"street","MatchQuality":{"Country":1.0,"State":1.0,"County":1.0,"City":1.0,"District":1.0,"Street":[1.0],"PostalCode":1.0},"Location":{"LocationId":"NT_0SA.F0zrfaSpbohCjs79nD_l_564815374_L","LocationType":"point","DisplayPosition":{"Latitude":42.0634,"Longitude":2.61497},"MapView":{"TopLeft":{"Latitude":42.0634,"Longitude":2.61497},"BottomRight":{"Latitude":42.06301,"Longitude":2.61524}},"Address":{"Label":"Plaça La Constitució, 17154 Sant Aniol de Finestres (Girona), Espanya","Country":"ESP","State":"Catalunya","County":"Girona","City":"Sant Aniol de Finestres","District":"Sant Esteve de Llémena","Street":"Plaça La Constitució","PostalCode":"17154","AdditionalData":[{"value":"Espanya","key":"CountryName"},{"value":"Catalunya","key":"StateName"},{"value":"Girona","key":"CountyName"}]},"MapReference":{"ReferenceId":"564815374","Spot":1.0,"SideOfStreet":"left","CountryId":"20215059","StateId":"20215741","CountyId":"20223544","CityId":"20224552","DistrictId":"20224554"}}},{"Relevance":1.0,"Distance":42.9,"MatchLevel":"street","MatchQuality":{"Country":1.0,"State":1.0,"County":1.0,"City":1.0,"PostalCode":1.0},"Location":{"LocationId":"NT_SQ2ZpSGG04raOMzmYALiiB_l_1078320746_L","LocationType":"point","DisplayPosition":{"Latitude":42.0634,"Longitude":2.61497},"MapView":{"TopLeft":{"Latitude":42.06465,"Longitude":2.61356},"BottomRight":{"Latitude":42.0634,"Longitude":2.61501}},"Address":{"Label":"17154 Sant Aniol de Finestres (Girona), Espanya","Country":"ESP","State":"Catalunya","County":"Girona","City":"Sant Aniol de Finestres","PostalCode":"17154","AdditionalData":[{"value":"Espanya","key":"CountryName"},{"value":"Catalunya","key":"StateName"},{"value":"Girona","key":"CountyName"}]},"MapReference":{"ReferenceId":"1078320746","Spot":0.0,"SideOfStreet":"left","CountryId":"20215059","StateId":"20215741","CountyId":"20223544","CityId":"20224552"}}},{"Relevance":1.0,"Distance":57.9,"MatchLevel":"houseNumber","MatchQuality":{"Country":1.0,"State":1.0,"County":1.0,"City":1.0,"District":1.0,"Street":[1.0],"HouseNumber":1.0,"PostalCode":1.0},"MatchType":"interpolated","Location":{"LocationId":"NT_VaGgqrt7x9fRlOz38DD29C_ygD","LocationType":"point","DisplayPosition":{"Latitude":42.06376,"Longitude":2.61418},"MapView":{"TopLeft":{"Latitude":42.0648842,"Longitude":2.6126658},"BottomRight":{"Latitude":42.0626358,"Longitude":2.6156942}},"Address":{"Label":"Carrer Sant Esteve, 28, 17154 Sant Aniol de Finestres (Girona), Espanya","Country":"ESP","State":"Catalunya","County":"Girona","City":"Sant Aniol de Finestres","District":"Sant Esteve de Llémena","Street":"Carrer Sant Esteve","HouseNumber":"28","PostalCode":"17154","AdditionalData":[{"value":"Espanya","key":"CountryName"},{"value":"Catalunya","key":"StateName"},{"value":"Girona","key":"CountyName"}]},"MapReference":{"ReferenceId":"564815370","Spot":0.83,"SideOfStreet":"right","CountryId":"20215059","StateId":"20215741","CountyId":"20223544","CityId":"20224552","DistrictId":"20224554","AddressId":"795164251","RoadLinkId":"66560932"}}},{"Relevance":1.0,"Distance":64.7,"MatchLevel":"houseNumber","MatchQuality":{"Country":1.0,"State":1.0,"County":1.0,"City":1.0,"District":1.0,"Street":[1.0],"HouseNumber":1.0,"PostalCode":1.0},"MatchType":"interpolated","Location":{"LocationId":"NT_gXyuCr3aRnJ5F5dx8pUXcB_yA","LocationType":"point","DisplayPosition":{"Latitude":42.06365,"Longitude":2.61386},"MapView":{"TopLeft":{"Latitude":42.0647742,"Longitude":2.6123458},"BottomRight":{"Latitude":42.0625258,"Longitude":2.6153742}},"Address":{"Label":"Carrer Bell-Lloc, 2, 17154 Sant Aniol de Finestres (Girona), Espanya","Country":"ESP","State":"Catalunya","County":"Girona","City":"Sant Aniol de Finestres","District":"Sant Esteve de Llémena","Street":"Carrer Bell-Lloc","HouseNumber":"2","PostalCode":"17154","AdditionalData":[{"value":"Espanya","key":"CountryName"},{"value":"Catalunya","key":"StateName"},{"value":"Girona","key":"CountyName"}]},"MapReference":{"ReferenceId":"564815378","Spot":0.76,"SideOfStreet":"left","CountryId":"20215059","StateId":"20215741","CountyId":"20223544","CityId":"20224552","DistrictId":"20224554","AddressId":"404338969","RoadLinkId":"65989000"}}}]}]}}