{"Response":{"MetaInfo":{"Timestamp":"2020-03-28T09:37:26.905+0000","NextPageInformation":"2"},"View":[{"_type":"SearchResultsViewType","ViewId":0,"Result":[{"Relevance":1.0,"Distance":0.0,"Direction":0.0,"MatchLevel":"city","MatchQuality":{"Country":1.0,"State":1.0,"County":1.0,"City":1.0,"PostalCode":1.0},"Location":{"LocationId":"NT_V7MySEwVdd6aOv7epn-rXA","LocationType":"point","DisplayPosition":{"Latitude":42.0703782,"Longitude":2.9535208},"MapView":{"TopLeft":{"Latitude":42.10102,"Longitude":2.93412},"BottomRight":{"Latitude":42.05567,"Longitude":2.97926}},"Address":{"Label":"Sant Jordi Desvalls, Catalunya, Espanya","Country":"ESP","State":"Catalunya","County":"Girona","City":"Sant Jordi Desvalls","PostalCode":"17464","AdditionalData":[{"value":"Espanya","key":"CountryName"},{"value":"Catalunya","key":"StateName"},{"value":"Girona","key":"CountyName"}]},"MapReference":{"ReferenceId":"564805219","SideOfStreet":"neither","CountryId":"20215059","StateId":"20215741","CountyId":"20223544","CityId":"20224465"}}},{"Relevance":1.0,"Distance":24.3,"MatchLevel":"street","MatchQuality":{"Country":1.0,"State":1.0,"County":1.0,"City":1.0,"Street":[1.0],"PostalCode":1.0},"Location":{"LocationId":"NT_lj2tOdwl0tuD7PQBO3BB3A_l_955333297_L","LocationType":"point","DisplayPosition":{"Latitude":42.0704914,"Longitude":2.9537724},"MapView":{"TopLeft":{"Latitude":42.07063,"Longitude":2.95371},"BottomRight":{"Latitude":42.07043,"Longitude":2.9538}},"Address":{"Label":"Carrer Doctor Joher, 17464 Sant Jordi Desvalls (Girona), Espanya","Country":"ESP","State":"Catalunya","County":"Girona","City":"Sant Jordi Desvalls","Street":"Carrer Doctor Joher","PostalCode":"17464","AdditionalData":[{"value":"Espanya","key":"CountryName"},{"value":"Catalunya","key":"StateName"},{"value":"Girona","key":"CountyName"}]},"MapReference":{"ReferenceId":"955333297","Spot":0.31,"SideOfStreet":"left","CountryId":"20215059","StateId":"20215741","CountyId":"20223544","CityId":"20224465"}}},{"Relevance":1.0,"Distance":28.4,"MatchLevel":"street","MatchQuality":{"Country":1.0,"State":1.0,"County":1.0,"City":1.0,"Street":[1.0],"PostalCode":1.0},"Location":{"LocationId":"NT_ikWucpzwPMfAuqk2J6n6eD_l_955333317_L","LocationType":"point","DisplayPosition":{"Latitude":42.0706335,"Longitude":2.9535256},"MapView":{"TopLeft":{"Latitude":42.07065,"Longitude":2.95265},"BottomRight":{"Latitude":42.07063,"Longitude":2.95371}},"Address":{"Label":"GI-633a, 17464 Sant Jordi Desvalls (Girona), Espanya","Country":"ESP","State":"Catalunya","County":"Girona","City":"Sant Jordi Desvalls","Street":"GI-633a","PostalCode":"17464","AdditionalData":[{"value":"Espanya","key":"CountryName"},{"value":"Catalunya","key":"StateName"},{"value":"Girona","key":"CountyName"}]},"MapReference":{"ReferenceId":"955333317","Spot":0.17,"SideOfStreet":"left","CountryId":"20215059","StateId":"20215741","CountyId":"20223544","CityId":"20224465"}}},{"Relevance":1.0,"Distance":30.2,"MatchLevel":"houseNumber","MatchQuality":{"Country":1.0,"State":1.0,"County":1.0,"City":1.0,"Street":[1.0],"HouseNumber":1.0,"PostalCode":1.0},"MatchType":"interpolated","Location":{"LocationId":"NT_yvr9SiDS899zDZ807-4WLC_xA","LocationType":"point","DisplayPosition":{"Latitude":42.07043,"Longitude":2.95388},"MapView":{"TopLeft":{"Latitude":42.0715542,"Longitude":2.9523656},"BottomRight":{"Latitude":42.0693058,"Longitude":2.9553944}},"Address":{"Label":"Carrer Generalitat, 1, 17464 Sant Jordi Desvalls (Girona), Espanya","Country":"ESP","State":"Catalunya","County":"Girona","City":"Sant Jordi Desvalls","Street":"Carrer Generalitat","HouseNumber":"1","PostalCode":"17464","AdditionalData":[{"value":"Espanya","key":"CountryName"},{"value":"Catalunya","key":"StateName"},{"value":"Girona","key":"CountyName"}]},"MapReference":{"ReferenceId":"955333300","Spot":0.23,"SideOfStreet":"left","CountryId":"20215059","StateId":"20215741","CountyId":"20223544","CityId":"20224465","AddressId":"771373028","RoadLinkId":"298429276"}}},{"Relevance":1.0,"Distance":37.6,"MatchLevel":"houseNumber","MatchQuality":{"Country":1.0,"State":1.0,"County":1.0,"City":1.0,"Street":[1.0],"HouseNumber":1.0,"PostalCode":1.0},"MatchType":"interpolated","Location":{"LocationId":"NT_lj2tOdwl0tuD7PQBO3BB3A_zA","LocationType":"point","DisplayPosition":{"Latitude":42.07018,"Longitude":2.95389},"MapView":{"TopLeft":{"Latitude":42.0713042,"Longitude":2.9523756},"BottomRight":{"Latitude":42.0690558,"Longitude":2.9554044}},"Address":{"Label":"Carrer Doctor Joher, 3, 17464 Sant Jordi Desvalls (Girona), Espanya","Country":"ESP","State":"Catalunya","County":"Girona","City":"Sant Jordi Desvalls","Street":"Carrer Doctor Joher","HouseNumber":"3","PostalCode":"17464","AdditionalData":[{"value":"Espanya","key":"CountryName"},{"value":"Catalunya","key":"StateName"},{"value":"Girona","key":"CountyName"}]},"MapReference":{"ReferenceId":"955333299","Spot":0.44,"SideOfStreet":"right","CountryId":"20215059","StateId":"20215741","CountyId":"20223544","CityId":"20224465","AddressId":"404122861","RoadLinkId":"298429275"}}},{"Relevance":1.0,"Distance":47.7,"MatchLevel":"street","MatchQuality":{"Country":1.0,"State":1.0,"County":1.0,"City":1.0,"PostalCode":1.0},"Location":{"LocationId":"NT_3YEd-AtZFIy.IZF1OWnpwC_l_955333301_L","LocationType":"point","DisplayPosition":{"Latitude":42.06996,"Longitude":2.95365},"MapView":{"TopLeft":{"Latitude":42.06999,"Longitude":2.95365},"BottomRight":{"Latitude":42.06994,"Longitude":2.95397}},"Address":{"Label":"17464 Sant Jordi Desvalls (Girona), Espanya","Country":"ESP","State":"Catalunya","County":"Girona","City":"Sant Jordi Desvalls","PostalCode":"17464","AdditionalData":[{"value":"Espanya","key":"CountryName"},{"value":"Catalunya","key":"StateName"},{"value":"Girona","key":"CountyName"}]},"MapReference":{"ReferenceId":"955333301","Spot":0.0,"SideOfStreet":"left","CountryId":"20215059","StateId":"20215741","CountyId":"20223544","CityId":"20224465"}}},{"Relevance":1.0,"Distance":52.2,"MatchLevel":"houseNumber","MatchQuality":{"Country":1.0,"State":1.0,"County":1.0,"City":1.0,"Street":[1.0],"HouseNumber":1.0,"PostalCode":1.0},"MatchType":"interpolated","Location":{"LocationId":"NT_2tMv-8APwcp-hDe-b0-GsD_l_955333262_R_yA","LocationType":"point","DisplayPosition":{"Latitude":42.07095,"Longitude":2.95373},"MapView":{"TopLeft":{"Latitude":42.0720742,"Longitude":2.9522157},"BottomRight":{"Latitude":42.0698259,"Longitude":2.9552444}},"Address":{"Label":"Travessia Doctor Meseguer, 2, 17464 Sant Jordi Desvalls (Girona), Espanya","Country":"ESP","State":"Catalunya","County":"Girona","City":"Sant Jordi Desvalls","Street":"Travessia Doctor Meseguer","HouseNumber":"2","PostalCode":"17464","AdditionalData":[{"value":"Espanya","key":"CountryName"},{"value":"Catalunya","key":"StateName"},{"value":"Girona","key":"CountyName"}]},"MapReference":{"ReferenceId":"955333262","Spot":0.27,"SideOfStreet":"right","CountryId":"20215059","StateId":"20215741","CountyId":"20223544","CityId":"20224465"}}},{"Relevance":1.0,"Distance":54.9,"MatchLevel":"houseNumber","MatchQuality":{"Country":1.0,"State":1.0,"County":1.0,"City":1.0,"Street":[1.0],"HouseNumber":1.0,"PostalCode":1.0},"MatchType":"interpolated","Location":{"LocationId":"NT_z7wReFsvWkg.EvO8xMSVEB_yA","LocationType":"point","DisplayPosition":{"Latitude":42.07087,"Longitude":2.95358},"MapView":{"TopLeft":{"Latitude":42.0719942,"Longitude":2.9520656},"BottomRight":{"Latitude":42.0697458,"Longitude":2.9550944}},"Address":{"Label":"Carrer Doctor Messeguer, 2, 17464 Sant Jordi Desvalls (Girona), Espanya","Country":"ESP","State":"Catalunya","County":"Girona","City":"Sant Jordi Desvalls","Street":"Carrer Doctor Messeguer","HouseNumber":"2","PostalCode":"17464","AdditionalData":[{"value":"Espanya","key":"CountryName"},{"value":"Catalunya","key":"StateName"},{"value":"Girona","key":"CountyName"}]},"MapReference":{"ReferenceId":"564805234","Spot":0.84,"SideOfStreet":"right","CountryId":"20215059","StateId":"20215741","CountyId":"20223544","CityId":"20224465","AddressId":"404278246","RoadLinkId":"65590100"}}},{"Relevance":1.0,"Distance":56.1,"MatchLevel":"street","MatchQuality":{"Country":1.0,"State":1.0,"County":1.0,"City":1.0,"PostalCode":1.0},"Location":{"LocationId":"NT_3YEd-AtZFIy.IZF1OWnpwC_l_955333318_R","LocationType":"point","DisplayPosition":{"Latitude":42.0700694,"Longitude":2.9529841},"MapView":{"TopLeft":{"Latitude":42.07065,"Longitude":2.95265},"BottomRight":{"Latitude":42.06992,"Longitude":2.95307}},"Address":{"Label":"17464 Sant Jordi Desvalls (Girona), Espanya","Country":"ESP","State":"Catalunya","County":"Girona","City":"Sant Jordi Desvalls","PostalCode":"17464","AdditionalData":[{"value":"Espanya","key":"CountryName"},{"value":"Catalunya","key":"StateName"},{"value":"Girona","key":"CountyName"}]},"MapReference":{"ReferenceId":"955333318","Spot":0.2,"SideOfStreet":"right","CountryId":"20215059","StateId":"20215741","CountyId":"20223544","CityId":"20224465"}}},{"Relevance":1.0,"Distance":56.9,"MatchLevel":"street","MatchQuality":{"Country":1.0,"State":1.0,"County":1.0,"City":1.0,"Street":[1.0],"PostalCode":1.0},"Location":{"LocationId":"NT_lj2tOdwl0tuD7PQBO3BB3A_l_955333298_L","LocationType":"point","DisplayPosition":{"Latitude":42.06999,"Longitude":2.95397},"MapView":{"TopLeft":{"Latitude":42.06999,"Longitude":2.95397},"BottomRight":{"Latitude":42.06972,"Longitude":2.95405}},"Address":{"Label":"Carrer Doctor Joher, 17464 Sant Jordi Desvalls (Girona), Espanya","Country":"ESP","State":"Catalunya","County":"Girona","City":"Sant Jordi Desvalls","Street":"Carrer Doctor Joher","PostalCode":"17464","AdditionalData":[{"value":"Espanya","key":"CountryName"},{"value":"Catalunya","key":"StateName"},{"value":"Girona","key":"CountyName"}]},"MapReference":{"ReferenceId":"955333298","Spot":1.0,"SideOfStreet":"left","CountryId":"20215059","StateId":"20215741","CountyId":"20223544","CityId":"20224465"}}}]}]}}