{"Response":{"MetaInfo":{"Timestamp":"2020-03-28T10:27:07.918+0000","NextPageInformation":"2"},"View":[{"_type":"SearchResultsViewType","ViewId":0,"Result":[{"Relevance":1.0,"Distance":-446.1,"MatchLevel":"landmark","MatchQuality":{"Country":1.0,"State":1.0,"County":1.0,"Name":1.0},"Location":{"LocationId":"NT_WMfmYBuXeSBTBbWnY8AB6A","LocationType":"park","Name":"P. N. Montgrí Illes Medes Baix Ter","DisplayPosition":{"Latitude":42.0149,"Longitude":3.15014},"MapView":{"TopLeft":{"Latitude":42.04789,"Longitude":3.10563},"BottomRight":{"Latitude":41.98191,"Longitude":3.20571}},"Address":{"Label":"(Girona), Espanya","Country":"ESP","State":"Catalunya","County":"Girona","AdditionalData":[{"value":"Espanya","key":"CountryName"},{"value":"Catalunya","key":"StateName"},{"value":"Girona","key":"CountyName"}]},"MapReference":{"CountryId":"20215059","StateId":"20215741","CountyId":"20223544","PlaceId":"1446601530"}}},{"Relevance":1.0,"Distance":0.0,"Direction":0.0,"MatchLevel":"city","MatchQuality":{"Country":1.0,"State":1.0,"County":1.0,"City":1.0,"PostalCode":1.0},"Location":{"LocationId":"NT_AeW8J8nCsgg6sf8RG5UvHB","LocationType":"point","DisplayPosition":{"Latitude":42.0116019,"Longitude":3.188827},"MapView":{"TopLeft":{"Latitude":42.10886,"Longitude":3.10055},"BottomRight":{"Latitude":42.00168,"Longitude":3.22742}},"Address":{"Label":"Torroella de Montgrí, Catalunya, Espanya","Country":"ESP","State":"Catalunya","County":"Girona","City":"Torroella de Montgrí","PostalCode":"17257","AdditionalData":[{"value":"Espanya","key":"CountryName"},{"value":"Catalunya","key":"StateName"},{"value":"Girona","key":"CountyName"}]},"MapReference":{"ReferenceId":"926113923","SideOfStreet":"neither","CountryId":"20215059","StateId":"20215741","CountyId":"20223544","CityId":"20224634"}}},{"Relevance":1.0,"Distance":54.8,"MatchLevel":"street","MatchQuality":{"Country":1.0,"State":1.0,"County":1.0,"City":1.0,"Street":[1.0],"PostalCode":1.0},"Location":{"LocationId":"NT_62VXWRj82o3QtoS.ibPzfA_l_916547089_R","LocationType":"point","DisplayPosition":{"Latitude":42.0114707,"Longitude":3.1881875},"MapView":{"TopLeft":{"Latitude":42.0118,"Longitude":3.18812},"BottomRight":{"Latitude":42.00985,"Longitude":3.18852}},"Address":{"Label":"Carrer Rossinyol, 17257 Torroella de Montgrí (Girona), Espanya","Country":"ESP","State":"Catalunya","County":"Girona","City":"Torroella de Montgrí","Street":"Carrer Rossinyol","PostalCode":"17257","AdditionalData":[{"value":"Espanya","key":"CountryName"},{"value":"Catalunya","key":"StateName"},{"value":"Girona","key":"CountyName"}]},"MapReference":{"ReferenceId":"916547089","Spot":0.83,"SideOfStreet":"right","CountryId":"20215059","StateId":"20215741","CountyId":"20223544","CityId":"20224634"}}},{"Relevance":1.0,"Distance":60.7,"MatchLevel":"street","MatchQuality":{"Country":1.0,"State":1.0,"County":1.0,"City":1.0,"PostalCode":1.0},"Location":{"LocationId":"NT_8OuBCHJrxDwfbomfCDpKjC_l_916547088_R","LocationType":"point","DisplayPosition":{"Latitude":42.01192,"Longitude":3.18823},"MapView":{"TopLeft":{"Latitude":42.01211,"Longitude":3.18812},"BottomRight":{"Latitude":42.0118,"Longitude":3.18823}},"Address":{"Label":"17257 Torroella de Montgrí (Girona), Espanya","Country":"ESP","State":"Catalunya","County":"Girona","City":"Torroella de Montgrí","PostalCode":"17257","AdditionalData":[{"value":"Espanya","key":"CountryName"},{"value":"Catalunya","key":"StateName"},{"value":"Girona","key":"CountyName"}]},"MapReference":{"ReferenceId":"916547088","Spot":0.46,"SideOfStreet":"right","CountryId":"20215059","StateId":"20215741","CountyId":"20223544","CityId":"20224634"}}},{"Relevance":1.0,"Distance":62.4,"MatchLevel":"street","MatchQuality":{"Country":1.0,"State":1.0,"County":1.0,"City":1.0,"Street":[1.0],"PostalCode":1.0},"Location":{"LocationId":"NT_62VXWRj82o3QtoS.ibPzfA_l_916547087_R","LocationType":"point","DisplayPosition":{"Latitude":42.0118,"Longitude":3.18812},"MapView":{"TopLeft":{"Latitude":42.01206,"Longitude":3.18807},"BottomRight":{"Latitude":42.0118,"Longitude":3.18812}},"Address":{"Label":"Carrer Rossinyol, 17257 Torroella de Montgrí (Girona), Espanya","Country":"ESP","State":"Catalunya","County":"Girona","City":"Torroella de Montgrí","Street":"Carrer Rossinyol","PostalCode":"17257","AdditionalData":[{"value":"Espanya","key":"CountryName"},{"value":"Catalunya","key":"StateName"},{"value":"Girona","key":"CountyName"}]},"MapReference":{"ReferenceId":"916547087","Spot":0.0,"SideOfStreet":"right","CountryId":"20215059","StateId":"20215741","CountyId":"20223544","CityId":"20224634"}}},{"Relevance":1.0,"Distance":62.4,"MatchLevel":"street","MatchQuality":{"Country":1.0,"State":1.0,"County":1.0,"City":1.0,"PostalCode":1.0},"Location":{"LocationId":"NT_8OuBCHJrxDwfbomfCDpKjC_l_916547086_R","LocationType":"point","DisplayPosition":{"Latitude":42.0118,"Longitude":3.18812},"MapView":{"TopLeft":{"Latitude":42.0118,"Longitude":3.1875},"BottomRight":{"Latitude":42.0118,"Longitude":3.18812}},"Address":{"Label":"17257 Torroella de Montgrí (Girona), Espanya","Country":"ESP","State":"Catalunya","County":"Girona","City":"Torroella de Montgrí","PostalCode":"17257","AdditionalData":[{"value":"Espanya","key":"CountryName"},{"value":"Catalunya","key":"StateName"},{"value":"Girona","key":"CountyName"}]},"MapReference":{"ReferenceId":"916547086","Spot":1.0,"SideOfStreet":"right","CountryId":"20215059","StateId":"20215741","CountyId":"20223544","CityId":"20224634"}}},{"Relevance":1.0,"Distance":75.5,"MatchLevel":"street","MatchQuality":{"Country":1.0,"State":1.0,"County":1.0,"City":1.0,"PostalCode":1.0},"Location":{"LocationId":"NT_8OuBCHJrxDwfbomfCDpKjC_l_916547096_L","LocationType":"point","DisplayPosition":{"Latitude":42.01221,"Longitude":3.18842},"MapView":{"TopLeft":{"Latitude":42.01238,"Longitude":3.18826},"BottomRight":{"Latitude":42.01221,"Longitude":3.18842}},"Address":{"Label":"17257 Torroella de Montgrí (Girona), Espanya","Country":"ESP","State":"Catalunya","County":"Girona","City":"Torroella de Montgrí","PostalCode":"17257","AdditionalData":[{"value":"Espanya","key":"CountryName"},{"value":"Catalunya","key":"StateName"},{"value":"Girona","key":"CountyName"}]},"MapReference":{"ReferenceId":"916547096","Spot":0.0,"SideOfStreet":"left","CountryId":"20215059","StateId":"20215741","CountyId":"20223544","CityId":"20224634"}}},{"Relevance":1.0,"Distance":75.5,"MatchLevel":"street","MatchQuality":{"Country":1.0,"State":1.0,"County":1.0,"City":1.0,"PostalCode":1.0},"Location":{"LocationId":"NT_8OuBCHJrxDwfbomfCDpKjC_l_916547085_R","LocationType":"point","DisplayPosition":{"Latitude":42.01221,"Longitude":3.18842},"MapView":{"TopLeft":{"Latitude":42.01221,"Longitude":3.18818},"BottomRight":{"Latitude":42.01211,"Longitude":3.18842}},"Address":{"Label":"17257 Torroella de Montgrí (Girona), Espanya","Country":"ESP","State":"Catalunya","County":"Girona","City":"Torroella de Montgrí","PostalCode":"17257","AdditionalData":[{"value":"Espanya","key":"CountryName"},{"value":"Catalunya","key":"StateName"},{"value":"Girona","key":"CountyName"}]},"MapReference":{"ReferenceId":"916547085","Spot":1.0,"SideOfStreet":"right","CountryId":"20215059","StateId":"20215741","CountyId":"20223544","CityId":"20224634"}}},{"Relevance":1.0,"Distance":76.8,"MatchLevel":"street","MatchQuality":{"Country":1.0,"State":1.0,"County":1.0,"City":1.0,"PostalCode":1.0},"Location":{"LocationId":"NT_8OuBCHJrxDwfbomfCDpKjC_l_916547081_R","LocationType":"point","DisplayPosition":{"Latitude":42.0122764,"Longitude":3.1886247},"MapView":{"TopLeft":{"Latitude":42.01232,"Longitude":3.18842},"BottomRight":{"Latitude":42.01221,"Longitude":3.18877}},"Address":{"Label":"17257 Torroella de Montgrí (Girona), Espanya","Country":"ESP","State":"Catalunya","County":"Girona","City":"Torroella de Montgrí","PostalCode":"17257","AdditionalData":[{"value":"Espanya","key":"CountryName"},{"value":"Catalunya","key":"StateName"},{"value":"Girona","key":"CountyName"}]},"MapReference":{"ReferenceId":"916547081","Spot":0.59,"SideOfStreet":"right","CountryId":"20215059","StateId":"20215741","CountyId":"20223544","CityId":"20224634"}}},{"Relevance":1.0,"Distance":77.8,"MatchLevel":"street","MatchQuality":{"Country":1.0,"State":1.0,"County":1.0,"City":1.0,"PostalCode":1.0},"Location":{"LocationId":"NT_8OuBCHJrxDwfbomfCDpKjC_l_916547084_R","LocationType":"point","DisplayPosition":{"Latitude":42.01211,"Longitude":3.18818},"MapView":{"TopLeft":{"Latitude":42.01211,"Longitude":3.18807},"BottomRight":{"Latitude":42.01206,"Longitude":3.18818}},"Address":{"Label":"17257 Torroella de Montgrí (Girona), Espanya","Country":"ESP","State":"Catalunya","County":"Girona","City":"Torroella de Montgrí","PostalCode":"17257","AdditionalData":[{"value":"Espanya","key":"CountryName"},{"value":"Catalunya","key":"StateName"},{"value":"Girona","key":"CountyName"}]},"MapReference":{"ReferenceId":"916547084","Spot":1.0,"SideOfStreet":"right","CountryId":"20215059","StateId":"20215741","CountyId":"20223544","CityId":"20224634"}}}]}]}}