{"Response":{"MetaInfo":{"Timestamp":"2020-03-28T09:44:28.252+0000","NextPageInformation":"2"},"View":[{"_type":"SearchResultsViewType","ViewId":0,"Result":[{"Relevance":1.0,"Distance":0.0,"Direction":0.0,"MatchLevel":"city","MatchQuality":{"Country":1.0,"State":1.0,"County":1.0,"City":1.0,"PostalCode":1.0},"Location":{"LocationId":"NT_cL5NHTVyckYIV3lUrSfmLB","LocationType":"point","DisplayPosition":{"Latitude":42.0735774,"Longitude":-6.0113796},"MapView":{"TopLeft":{"Latitude":42.1242,"Longitude":-6.08112},"BottomRight":{"Latitude":42.01651,"Longitude":-5.90022}},"Address":{"Label":"Santibáñez de Vidriales, Castilla y León, España","Country":"ESP","State":"Castilla y León","County":"Zamora","City":"Santibáñez de Vidriales","PostalCode":"49610","AdditionalData":[{"value":"España","key":"CountryName"},{"value":"Castilla y León","key":"StateName"},{"value":"Zamora","key":"CountyName"}]},"MapReference":{"ReferenceId":"571903519","SideOfStreet":"neither","CountryId":"20215059","StateId":"20221909","CountyId":"20221918","CityId":"20314492"}}},{"Relevance":1.0,"Distance":16.2,"MatchLevel":"houseNumber","MatchQuality":{"Country":1.0,"State":1.0,"County":1.0,"City":1.0,"Street":[1.0],"HouseNumber":1.0,"PostalCode":1.0},"MatchType":"interpolated","Location":{"LocationId":"NT_YkpZYRmYQhNBO9U-b0qtrB_l_592057379_R_yED","LocationType":"point","DisplayPosition":{"Latitude":42.073425,"Longitude":-6.011695},"MapView":{"TopLeft":{"Latitude":42.0745492,"Longitude":-6.0132094},"BottomRight":{"Latitude":42.0723009,"Longitude":-6.0101806}},"Address":{"Label":"Camino Bodegas, 21, 49610 Santibáñez de Vidriales (Zamora), España","Country":"ESP","State":"Castilla y León","County":"Zamora","City":"Santibáñez de Vidriales","Street":"Camino Bodegas","HouseNumber":"21","PostalCode":"49610","AdditionalData":[{"value":"España","key":"CountryName"},{"value":"Castilla y León","key":"StateName"},{"value":"Zamora","key":"CountyName"}]},"MapReference":{"ReferenceId":"592057379","Spot":0.5,"SideOfStreet":"right","CountryId":"20215059","StateId":"20221909","CountyId":"20221918","CityId":"20314492"}}},{"Relevance":1.0,"Distance":33.2,"MatchLevel":"houseNumber","MatchQuality":{"Country":1.0,"State":1.0,"County":1.0,"City":1.0,"Street":[1.0],"HouseNumber":1.0,"PostalCode":1.0},"MatchType":"interpolated","Location":{"LocationId":"NT_YkpZYRmYQhNBO9U-b0qtrB_l_571903536_R_yUD","LocationType":"point","DisplayPosition":{"Latitude":42.07322,"Longitude":-6.01159},"MapView":{"TopLeft":{"Latitude":42.0743442,"Longitude":-6.0131044},"BottomRight":{"Latitude":42.0720959,"Longitude":-6.0100756}},"Address":{"Label":"Camino Bodegas, 25, 49610 Santibáñez de Vidriales (Zamora), España","Country":"ESP","State":"Castilla y León","County":"Zamora","City":"Santibáñez de Vidriales","Street":"Camino Bodegas","HouseNumber":"25","PostalCode":"49610","AdditionalData":[{"value":"España","key":"CountryName"},{"value":"Castilla y León","key":"StateName"},{"value":"Zamora","key":"CountyName"}]},"MapReference":{"ReferenceId":"571903536","Spot":0.5,"SideOfStreet":"right","CountryId":"20215059","StateId":"20221909","CountyId":"20221918","CityId":"20314492"}}},{"Relevance":1.0,"Distance":37.3,"MatchLevel":"houseNumber","MatchQuality":{"Country":1.0,"State":1.0,"County":1.0,"City":1.0,"Street":[1.0],"HouseNumber":1.0,"PostalCode":1.0},"MatchType":"interpolated","Location":{"LocationId":"NT_bem.vrMdaTihYHZAIs0iEA_l_592057577_L_xUD","LocationType":"point","DisplayPosition":{"Latitude":42.07327,"Longitude":-6.0116575},"MapView":{"TopLeft":{"Latitude":42.0743942,"Longitude":-6.0131719},"BottomRight":{"Latitude":42.0721459,"Longitude":-6.0101431}},"Address":{"Label":"Calle Ferial, 15, 49610 Santibáñez de Vidriales (Zamora), España","Country":"ESP","State":"Castilla y León","County":"Zamora","City":"Santibáñez de Vidriales","Street":"Calle Ferial","HouseNumber":"15","PostalCode":"49610","AdditionalData":[{"value":"España","key":"CountryName"},{"value":"Castilla y León","key":"StateName"},{"value":"Zamora","key":"CountyName"}]},"MapReference":{"ReferenceId":"592057577","Spot":0.75,"SideOfStreet":"left","CountryId":"20215059","StateId":"20221909","CountyId":"20221918","CityId":"20314492"}}},{"Relevance":1.0,"Distance":37.7,"MatchLevel":"houseNumber","MatchQuality":{"Country":1.0,"State":1.0,"County":1.0,"City":1.0,"Street":[1.0],"HouseNumber":1.0,"PostalCode":1.0},"MatchType":"interpolated","Location":{"LocationId":"NT_YkpZYRmYQhNBO9U-b0qtrB_zcD","LocationType":"point","DisplayPosition":{"Latitude":42.07369,"Longitude":-6.01185},"MapView":{"TopLeft":{"Latitude":42.0748142,"Longitude":-6.0133645},"BottomRight":{"Latitude":42.0725658,"Longitude":-6.0103355}},"Address":{"Label":"Camino Bodegas, 37, 49610 Santibáñez de Vidriales (Zamora), España","Country":"ESP","State":"Castilla y León","County":"Zamora","City":"Santibáñez de Vidriales","Street":"Camino Bodegas","HouseNumber":"37","PostalCode":"49610","AdditionalData":[{"value":"España","key":"CountryName"},{"value":"Castilla y León","key":"StateName"},{"value":"Zamora","key":"CountyName"}]},"MapReference":{"ReferenceId":"592057378","Spot":0.6,"SideOfStreet":"right","CountryId":"20215059","StateId":"20221909","CountyId":"20221918","CityId":"20314492","AddressId":"348910248","RoadLinkId":"68793478"}}},{"Relevance":1.0,"Distance":44.5,"MatchLevel":"houseNumber","MatchQuality":{"Country":1.0,"State":1.0,"County":1.0,"City":1.0,"Street":[1.0],"HouseNumber":1.0,"PostalCode":1.0},"MatchType":"interpolated","Location":{"LocationId":"NT_zMPi.qkJwZ8JuvKcwOtAUA_xA","LocationType":"point","DisplayPosition":{"Latitude":42.07312,"Longitude":-6.0115},"MapView":{"TopLeft":{"Latitude":42.0742442,"Longitude":-6.0130144},"BottomRight":{"Latitude":42.0719958,"Longitude":-6.0099856}},"Address":{"Label":"Camino Benavente, 1, 49610 Santibáñez de Vidriales (Zamora), España","Country":"ESP","State":"Castilla y León","County":"Zamora","City":"Santibáñez de Vidriales","Street":"Camino Benavente","HouseNumber":"1","PostalCode":"49610","AdditionalData":[{"value":"España","key":"CountryName"},{"value":"Castilla y León","key":"StateName"},{"value":"Zamora","key":"CountyName"}]},"MapReference":{"ReferenceId":"946202512","Spot":0.71,"SideOfStreet":"right","CountryId":"20215059","StateId":"20221909","CountyId":"20221918","CityId":"20314492","AddressId":"348993011","RoadLinkId":"294383265"}}},{"Relevance":1.0,"Distance":50.3,"MatchLevel":"houseNumber","MatchQuality":{"Country":1.0,"State":1.0,"County":1.0,"City":1.0,"Street":[1.0],"HouseNumber":1.0,"PostalCode":1.0},"MatchType":"interpolated","Location":{"LocationId":"NT_bem.vrMdaTihYHZAIs0iEA_xgD","LocationType":"point","DisplayPosition":{"Latitude":42.07315,"Longitude":-6.01158},"MapView":{"TopLeft":{"Latitude":42.0742742,"Longitude":-6.0130944},"BottomRight":{"Latitude":42.0720258,"Longitude":-6.0100656}},"Address":{"Label":"Calle Ferial, 18, 49610 Santibáñez de Vidriales (Zamora), España","Country":"ESP","State":"Castilla y León","County":"Zamora","City":"Santibáñez de Vidriales","Street":"Calle Ferial","HouseNumber":"18","PostalCode":"49610","AdditionalData":[{"value":"España","key":"CountryName"},{"value":"Castilla y León","key":"StateName"},{"value":"Zamora","key":"CountyName"}]},"MapReference":{"ReferenceId":"592057575","Spot":0.1,"SideOfStreet":"left","CountryId":"20215059","StateId":"20221909","CountyId":"20221918","CityId":"20314492","AddressId":"348946191","RoadLinkId":"68325839"}}},{"Relevance":1.0,"Distance":50.4,"MatchLevel":"houseNumber","MatchQuality":{"Country":1.0,"State":1.0,"County":1.0,"City":1.0,"Street":[1.0],"HouseNumber":1.0,"PostalCode":1.0},"MatchType":"interpolated","Location":{"LocationId":"NT_bem.vrMdaTihYHZAIs0iEA_l_592057576_L_3A","LocationType":"point","DisplayPosition":{"Latitude":42.0731715,"Longitude":-6.0118553},"MapView":{"TopLeft":{"Latitude":42.0742956,"Longitude":-6.0133698},"BottomRight":{"Latitude":42.0720473,"Longitude":-6.0103409}},"Address":{"Label":"Calle Ferial, 7, 49610 Santibáñez de Vidriales (Zamora), España","Country":"ESP","State":"Castilla y León","County":"Zamora","City":"Santibáñez de Vidriales","Street":"Calle Ferial","HouseNumber":"7","PostalCode":"49610","AdditionalData":[{"value":"España","key":"CountryName"},{"value":"Castilla y León","key":"StateName"},{"value":"Zamora","key":"CountyName"}]},"MapReference":{"ReferenceId":"592057576","Spot":0.5,"SideOfStreet":"left","CountryId":"20215059","StateId":"20221909","CountyId":"20221918","CityId":"20314492"}}},{"Relevance":1.0,"Distance":54.5,"MatchLevel":"houseNumber","MatchQuality":{"Country":1.0,"State":1.0,"County":1.0,"City":1.0,"Street":[1.0],"HouseNumber":1.0,"PostalCode":1.0},"MatchType":"interpolated","Location":{"LocationId":"NT_UMpV0JOQNrRqEmEDFb8QjA_zA","LocationType":"point","DisplayPosition":{"Latitude":42.07353,"Longitude":-6.01069},"MapView":{"TopLeft":{"Latitude":42.0746542,"Longitude":-6.0122044},"BottomRight":{"Latitude":42.0724058,"Longitude":-6.0091756}},"Address":{"Label":"Calle Doctor Severo Ochoa, 3, 49610 Santibáñez de Vidriales (Zamora), España","Country":"ESP","State":"Castilla y León","County":"Zamora","City":"Santibáñez de Vidriales","Street":"Calle Doctor Severo Ochoa","HouseNumber":"3","PostalCode":"49610","AdditionalData":[{"value":"España","key":"CountryName"},{"value":"Castilla y León","key":"StateName"},{"value":"Zamora","key":"CountyName"}]},"MapReference":{"ReferenceId":"571904027","Spot":0.59,"SideOfStreet":"left","CountryId":"20215059","StateId":"20221909","CountyId":"20221918","CityId":"20314492","AddressId":"348989987","RoadLinkId":"68801870"}}},{"Relevance":1.0,"Distance":57.6,"MatchLevel":"houseNumber","MatchQuality":{"Country":1.0,"State":1.0,"County":1.0,"City":1.0,"Street":[1.0],"HouseNumber":1.0,"PostalCode":1.0},"MatchType":"interpolated","Location":{"LocationId":"NT_zMPi.qkJwZ8JuvKcwOtAUA_zA","LocationType":"point","DisplayPosition":{"Latitude":42.07302,"Longitude":-6.0113},"MapView":{"TopLeft":{"Latitude":42.0741442,"Longitude":-6.0128144},"BottomRight":{"Latitude":42.0718958,"Longitude":-6.0097856}},"Address":{"Label":"Camino Benavente, 3, 49610 Santibáñez de Vidriales (Zamora), España","Country":"ESP","State":"Castilla y León","County":"Zamora","City":"Santibáñez de Vidriales","Street":"Camino Benavente","HouseNumber":"3","PostalCode":"49610","AdditionalData":[{"value":"España","key":"CountryName"},{"value":"Castilla y León","key":"StateName"},{"value":"Zamora","key":"CountyName"}]},"MapReference":{"ReferenceId":"946202511","Spot":0.95,"SideOfStreet":"right","CountryId":"20215059","StateId":"20221909","CountyId":"20221918","CityId":"20314492","AddressId":"348993010","RoadLinkId":"294383264"}}}]}]}}