{"Response":{"MetaInfo":{"Timestamp":"2020-03-28T09:45:38.241+0000","NextPageInformation":"2"},"View":[{"_type":"SearchResultsViewType","ViewId":0,"Result":[{"Relevance":1.0,"Distance":0.0,"Direction":0.0,"MatchLevel":"city","MatchQuality":{"Country":1.0,"State":1.0,"County":1.0,"City":1.0,"PostalCode":1.0},"Location":{"LocationId":"NT_aC6iwGn3Xp7cfCHd5rMqcD","LocationType":"point","DisplayPosition":{"Latitude":42.1043606,"Longitude":-5.7352258},"MapView":{"TopLeft":{"Latitude":42.12075,"Longitude":-5.76994},"BottomRight":{"Latitude":42.07935,"Longitude":-5.66598}},"Address":{"Label":"Pobladura del Valle, Castilla y León, España","Country":"ESP","State":"Castilla y León","County":"Zamora","City":"Pobladura del Valle","PostalCode":"49780","AdditionalData":[{"value":"España","key":"CountryName"},{"value":"Castilla y León","key":"StateName"},{"value":"Zamora","key":"CountyName"}]},"MapReference":{"ReferenceId":"571925130","SideOfStreet":"neither","CountryId":"20215059","StateId":"20221909","CountyId":"20221918","CityId":"20314270"}}},{"Relevance":1.0,"Distance":12.7,"MatchLevel":"houseNumber","MatchQuality":{"Country":1.0,"State":1.0,"County":1.0,"City":1.0,"Street":[1.0],"HouseNumber":1.0,"PostalCode":1.0},"MatchType":"interpolated","Location":{"LocationId":"NT_wNtPXmIvNJX.Wz78kauYzA_0YD","LocationType":"point","DisplayPosition":{"Latitude":42.10438,"Longitude":-5.73544},"MapView":{"TopLeft":{"Latitude":42.1055042,"Longitude":-5.7369552},"BottomRight":{"Latitude":42.1032558,"Longitude":-5.7339248}},"Address":{"Label":"Avenida de Madrid, 46, 49780 Pobladura del Valle (Zamora), España","Country":"ESP","State":"Castilla y León","County":"Zamora","City":"Pobladura del Valle","Street":"Avenida de Madrid","HouseNumber":"46","PostalCode":"49780","AdditionalData":[{"value":"España","key":"CountryName"},{"value":"Castilla y León","key":"StateName"},{"value":"Zamora","key":"CountyName"}]},"MapReference":{"ReferenceId":"946301008","Spot":0.16,"SideOfStreet":"right","CountryId":"20215059","StateId":"20221909","CountyId":"20221918","CityId":"20314270","AddressId":"786982829","RoadLinkId":"564747036"}}},{"Relevance":1.0,"Distance":15.8,"MatchLevel":"houseNumber","MatchQuality":{"Country":1.0,"State":1.0,"County":1.0,"City":1.0,"Street":[1.0],"HouseNumber":1.0,"PostalCode":1.0},"MatchType":"interpolated","Location":{"LocationId":"NT_gs6VKVEneDamdF.DTLoaMA_0QD","LocationType":"point","DisplayPosition":{"Latitude":42.10417,"Longitude":-5.73533},"MapView":{"TopLeft":{"Latitude":42.1052942,"Longitude":-5.7368452},"BottomRight":{"Latitude":42.1030458,"Longitude":-5.7338148}},"Address":{"Label":"Carretera Madrid-Coruña, 44, 49780 Pobladura del Valle (Zamora), España","Country":"ESP","State":"Castilla y León","County":"Zamora","City":"Pobladura del Valle","Street":"Carretera Madrid-Coruña","HouseNumber":"44","PostalCode":"49780","AdditionalData":[{"value":"España","key":"CountryName"},{"value":"Castilla y León","key":"StateName"},{"value":"Zamora","key":"CountyName"}]},"MapReference":{"ReferenceId":"946301007","Spot":0.88,"SideOfStreet":"right","CountryId":"20215059","StateId":"20221909","CountyId":"20221918","CityId":"20314270","AddressId":"405517030","RoadLinkId":"294470083"}}},{"Relevance":1.0,"Distance":16.2,"MatchLevel":"street","MatchQuality":{"Country":1.0,"State":1.0,"County":1.0,"City":1.0,"Street":[1.0],"PostalCode":1.0},"Location":{"LocationId":"NT_fpAgV7yKyjQLa4S2BW.fWA_l_592074728_R","LocationType":"point","DisplayPosition":{"Latitude":42.10428,"Longitude":-5.73539},"MapView":{"TopLeft":{"Latitude":42.10428,"Longitude":-5.73565},"BottomRight":{"Latitude":42.10408,"Longitude":-5.73539}},"Address":{"Label":"Calle Santo Tomás, 49780 Pobladura del Valle (Zamora), España","Country":"ESP","State":"Castilla y León","County":"Zamora","City":"Pobladura del Valle","Street":"Calle Santo Tomás","PostalCode":"49780","AdditionalData":[{"value":"España","key":"CountryName"},{"value":"Castilla y León","key":"StateName"},{"value":"Zamora","key":"CountyName"}]},"MapReference":{"ReferenceId":"592074728","Spot":1.0,"SideOfStreet":"right","CountryId":"20215059","StateId":"20221909","CountyId":"20221918","CityId":"20314270"}}},{"Relevance":1.0,"Distance":31.5,"MatchLevel":"houseNumber","MatchQuality":{"Country":1.0,"State":1.0,"County":1.0,"City":1.0,"Street":[1.0],"HouseNumber":1.0,"PostalCode":1.0},"MatchType":"interpolated","Location":{"LocationId":"NT_MkjlWzoDWWLqJk7FpNxd6B_xUD","LocationType":"point","DisplayPosition":{"Latitude":42.10465,"Longitude":-5.73462},"MapView":{"TopLeft":{"Latitude":42.1057742,"Longitude":-5.7361352},"BottomRight":{"Latitude":42.1035258,"Longitude":-5.7331048}},"Address":{"Label":"Calle Las Cuevas, 15, 49780 Pobladura del Valle (Zamora), España","Country":"ESP","State":"Castilla y León","County":"Zamora","City":"Pobladura del Valle","Street":"Calle Las Cuevas","HouseNumber":"15","PostalCode":"49780","AdditionalData":[{"value":"España","key":"CountryName"},{"value":"Castilla y León","key":"StateName"},{"value":"Zamora","key":"CountyName"}]},"MapReference":{"ReferenceId":"571925116","Spot":0.63,"SideOfStreet":"left","CountryId":"20215059","StateId":"20221909","CountyId":"20221918","CityId":"20314270","AddressId":"405535284","RoadLinkId":"67792405"}}},{"Relevance":1.0,"Distance":34.8,"MatchLevel":"houseNumber","MatchQuality":{"Country":1.0,"State":1.0,"County":1.0,"City":1.0,"Street":[1.0],"HouseNumber":1.0,"PostalCode":1.0},"MatchType":"interpolated","Location":{"LocationId":"NT_fpAgV7yKyjQLa4S2BW.fWA_xA","LocationType":"point","DisplayPosition":{"Latitude":42.10462,"Longitude":-5.73499},"MapView":{"TopLeft":{"Latitude":42.1057442,"Longitude":-5.7365052},"BottomRight":{"Latitude":42.1034958,"Longitude":-5.7334748}},"Address":{"Label":"Calle Santo Tomás, 1, 49780 Pobladura del Valle (Zamora), España","Country":"ESP","State":"Castilla y León","County":"Zamora","City":"Pobladura del Valle","Street":"Calle Santo Tomás","HouseNumber":"1","PostalCode":"49780","AdditionalData":[{"value":"España","key":"CountryName"},{"value":"Castilla y León","key":"StateName"},{"value":"Zamora","key":"CountyName"}]},"MapReference":{"ReferenceId":"592074729","Spot":0.69,"SideOfStreet":"left","CountryId":"20215059","StateId":"20221909","CountyId":"20221918","CityId":"20314270","AddressId":"405552410","RoadLinkId":"68271182"}}},{"Relevance":1.0,"Distance":57.9,"MatchLevel":"street","MatchQuality":{"Country":1.0,"State":1.0,"County":1.0,"City":1.0,"Street":[1.0],"PostalCode":1.0},"Location":{"LocationId":"NT_MkjlWzoDWWLqJk7FpNxd6B_l_592074700_L","LocationType":"point","DisplayPosition":{"Latitude":42.10478,"Longitude":-5.73481},"MapView":{"TopLeft":{"Latitude":42.10568,"Longitude":-5.73616},"BottomRight":{"Latitude":42.10478,"Longitude":-5.73481}},"Address":{"Label":"Calle Las Cuevas, 49780 Pobladura del Valle (Zamora), España","Country":"ESP","State":"Castilla y León","County":"Zamora","City":"Pobladura del Valle","Street":"Calle Las Cuevas","PostalCode":"49780","AdditionalData":[{"value":"España","key":"CountryName"},{"value":"Castilla y León","key":"StateName"},{"value":"Zamora","key":"CountyName"}]},"MapReference":{"ReferenceId":"592074700","Spot":0.0,"SideOfStreet":"left","CountryId":"20215059","StateId":"20221909","CountyId":"20221918","CityId":"20314270"}}},{"Relevance":1.0,"Distance":57.9,"MatchLevel":"street","MatchQuality":{"Country":1.0,"State":1.0,"County":1.0,"City":1.0,"Street":[1.0],"PostalCode":1.0},"Location":{"LocationId":"NT_1gG0FxFKDwBkT7g8dS9S7C_l_592074664_L","LocationType":"point","DisplayPosition":{"Latitude":42.10478,"Longitude":-5.73481},"MapView":{"TopLeft":{"Latitude":42.10491,"Longitude":-5.73481},"BottomRight":{"Latitude":42.10478,"Longitude":-5.73469}},"Address":{"Label":"Paseo Reguero, 49780 Pobladura del Valle (Zamora), España","Country":"ESP","State":"Castilla y León","County":"Zamora","City":"Pobladura del Valle","Street":"Paseo Reguero","PostalCode":"49780","AdditionalData":[{"value":"España","key":"CountryName"},{"value":"Castilla y León","key":"StateName"},{"value":"Zamora","key":"CountyName"}]},"MapReference":{"ReferenceId":"592074664","Spot":0.0,"SideOfStreet":"left","CountryId":"20215059","StateId":"20221909","CountyId":"20221918","CityId":"20314270"}}},{"Relevance":1.0,"Distance":62.1,"MatchLevel":"houseNumber","MatchQuality":{"Country":1.0,"State":1.0,"County":1.0,"City":1.0,"Street":[1.0],"HouseNumber":1.0,"PostalCode":1.0},"MatchType":"interpolated","Location":{"LocationId":"NT_UQ8QA5rqUCIziSVwrx6KZB_zA","LocationType":"point","DisplayPosition":{"Latitude":42.10399,"Longitude":-5.73451},"MapView":{"TopLeft":{"Latitude":42.1051142,"Longitude":-5.7360252},"BottomRight":{"Latitude":42.1028658,"Longitude":-5.7329948}},"Address":{"Label":"Calle Agujero, 3, 49780 Pobladura del Valle (Zamora), España","Country":"ESP","State":"Castilla y León","County":"Zamora","City":"Pobladura del Valle","Street":"Calle Agujero","HouseNumber":"3","PostalCode":"49780","AdditionalData":[{"value":"España","key":"CountryName"},{"value":"Castilla y León","key":"StateName"},{"value":"Zamora","key":"CountyName"}]},"MapReference":{"ReferenceId":"571925109","Spot":0.41,"SideOfStreet":"left","CountryId":"20215059","StateId":"20221909","CountyId":"20221918","CityId":"20314270","AddressId":"405533424","RoadLinkId":"69222376"}}},{"Relevance":1.0,"Distance":75.4,"MatchLevel":"street","MatchQuality":{"Country":1.0,"State":1.0,"County":1.0,"City":1.0,"Street":[1.0],"PostalCode":1.0},"Location":{"LocationId":"NT_1gG0FxFKDwBkT7g8dS9S7C_l_592074682_L","LocationType":"point","DisplayPosition":{"Latitude":42.10491,"Longitude":-5.73469},"MapView":{"TopLeft":{"Latitude":42.10523,"Longitude":-5.73469},"BottomRight":{"Latitude":42.10491,"Longitude":-5.73446}},"Address":{"Label":"Paseo Reguero, 49780 Pobladura del Valle (Zamora), España","Country":"ESP","State":"Castilla y León","County":"Zamora","City":"Pobladura del Valle","Street":"Paseo Reguero","PostalCode":"49780","AdditionalData":[{"value":"España","key":"CountryName"},{"value":"Castilla y León","key":"StateName"},{"value":"Zamora","key":"CountyName"}]},"MapReference":{"ReferenceId":"592074682","Spot":0.0,"SideOfStreet":"left","CountryId":"20215059","StateId":"20221909","CountyId":"20221918","CityId":"20314270"}}}]}]}}