{"Response":{"MetaInfo":{"Timestamp":"2020-03-28T09:42:30.999+0000","NextPageInformation":"2"},"View":[{"_type":"SearchResultsViewType","ViewId":0,"Result":[{"Relevance":1.0,"Distance":0.0,"Direction":0.0,"MatchLevel":"city","MatchQuality":{"Country":1.0,"State":1.0,"County":1.0,"City":1.0,"PostalCode":1.0},"Location":{"LocationId":"NT_kSThSq7wiQUMVan9kZqQJC","LocationType":"point","DisplayPosition":{"Latitude":42.1391461,"Longitude":-0.4180341},"MapView":{"TopLeft":{"Latitude":42.24473,"Longitude":-0.51787},"BottomRight":{"Latitude":42.02803,"Longitude":-0.33679}},"Address":{"Label":"Huesca, Aragón, España","Country":"ESP","State":"Aragón","County":"Huesca","City":"Huesca","PostalCode":"22005","AdditionalData":[{"value":"España","key":"CountryName"},{"value":"Aragón","key":"StateName"},{"value":"Huesca","key":"CountyName"}]},"MapReference":{"ReferenceId":"1270026343","SideOfStreet":"neither","CountryId":"20215059","StateId":"20221894","CountyId":"20221895","CityId":"20247998"}}},{"Relevance":1.0,"Distance":4.7,"MatchLevel":"street","MatchQuality":{"Country":1.0,"State":1.0,"County":1.0,"City":1.0,"PostalCode":1.0},"Location":{"LocationId":"NT_uxWiuycnQ6uvRvrgae7.zA_l_76770773_R","LocationType":"point","DisplayPosition":{"Latitude":42.13914,"Longitude":-0.41809},"MapView":{"TopLeft":{"Latitude":42.13914,"Longitude":-0.41822},"BottomRight":{"Latitude":42.13905,"Longitude":-0.41809}},"Address":{"Label":"22004 Huesca (Huesca), España","Country":"ESP","State":"Aragón","County":"Huesca","City":"Huesca","PostalCode":"22004","AdditionalData":[{"value":"España","key":"CountryName"},{"value":"Aragón","key":"StateName"},{"value":"Huesca","key":"CountyName"}]},"MapReference":{"ReferenceId":"76770773","Spot":1.0,"SideOfStreet":"right","CountryId":"20215059","StateId":"20221894","CountyId":"20221895","CityId":"20247998"}}},{"Relevance":1.0,"Distance":4.7,"MatchLevel":"street","MatchQuality":{"Country":1.0,"State":1.0,"County":1.0,"City":1.0,"PostalCode":1.0},"Location":{"LocationId":"NT_uxWiuycnQ6uvRvrgae7.zA_l_76770798_R","LocationType":"point","DisplayPosition":{"Latitude":42.13914,"Longitude":-0.41809},"MapView":{"TopLeft":{"Latitude":42.13918,"Longitude":-0.41812},"BottomRight":{"Latitude":42.13914,"Longitude":-0.41809}},"Address":{"Label":"22004 Huesca (Huesca), España","Country":"ESP","State":"Aragón","County":"Huesca","City":"Huesca","PostalCode":"22004","AdditionalData":[{"value":"España","key":"CountryName"},{"value":"Aragón","key":"StateName"},{"value":"Huesca","key":"CountyName"}]},"MapReference":{"ReferenceId":"76770798","Spot":0.0,"SideOfStreet":"right","CountryId":"20215059","StateId":"20221894","CountyId":"20221895","CityId":"20247998"}}},{"Relevance":1.0,"Distance":8.0,"MatchLevel":"street","MatchQuality":{"Country":1.0,"State":1.0,"County":1.0,"City":1.0,"PostalCode":1.0},"Location":{"LocationId":"NT_uxWiuycnQ6uvRvrgae7.zA_l_76770800_R","LocationType":"point","DisplayPosition":{"Latitude":42.13918,"Longitude":-0.41812},"MapView":{"TopLeft":{"Latitude":42.13921,"Longitude":-0.41816},"BottomRight":{"Latitude":42.13918,"Longitude":-0.41812}},"Address":{"Label":"22004 Huesca (Huesca), España","Country":"ESP","State":"Aragón","County":"Huesca","City":"Huesca","PostalCode":"22004","AdditionalData":[{"value":"España","key":"CountryName"},{"value":"Aragón","key":"StateName"},{"value":"Huesca","key":"CountyName"}]},"MapReference":{"ReferenceId":"76770800","Spot":0.0,"SideOfStreet":"right","CountryId":"20215059","StateId":"20221894","CountyId":"20221895","CityId":"20247998"}}},{"Relevance":1.0,"Distance":12.6,"MatchLevel":"street","MatchQuality":{"Country":1.0,"State":1.0,"County":1.0,"City":1.0,"PostalCode":1.0},"Location":{"LocationId":"NT_uxWiuycnQ6uvRvrgae7.zA_l_76770774_R","LocationType":"point","DisplayPosition":{"Latitude":42.13921,"Longitude":-0.41816},"MapView":{"TopLeft":{"Latitude":42.13921,"Longitude":-0.4183},"BottomRight":{"Latitude":42.13911,"Longitude":-0.41816}},"Address":{"Label":"22004 Huesca (Huesca), España","Country":"ESP","State":"Aragón","County":"Huesca","City":"Huesca","PostalCode":"22004","AdditionalData":[{"value":"España","key":"CountryName"},{"value":"Aragón","key":"StateName"},{"value":"Huesca","key":"CountyName"}]},"MapReference":{"ReferenceId":"76770774","Spot":1.0,"SideOfStreet":"right","CountryId":"20215059","StateId":"20221894","CountyId":"20221895","CityId":"20247998"}}},{"Relevance":1.0,"Distance":18.7,"MatchLevel":"street","MatchQuality":{"Country":1.0,"State":1.0,"County":1.0,"City":1.0,"PostalCode":1.0},"Location":{"LocationId":"NT_uxWiuycnQ6uvRvrgae7.zA_l_76770779_R","LocationType":"point","DisplayPosition":{"Latitude":42.13905,"Longitude":-0.41822},"MapView":{"TopLeft":{"Latitude":42.13907,"Longitude":-0.41827},"BottomRight":{"Latitude":42.13905,"Longitude":-0.41822}},"Address":{"Label":"22004 Huesca (Huesca), España","Country":"ESP","State":"Aragón","County":"Huesca","City":"Huesca","PostalCode":"22004","AdditionalData":[{"value":"España","key":"CountryName"},{"value":"Aragón","key":"StateName"},{"value":"Huesca","key":"CountyName"}]},"MapReference":{"ReferenceId":"76770779","Spot":0.0,"SideOfStreet":"right","CountryId":"20215059","StateId":"20221894","CountyId":"20221895","CityId":"20247998"}}},{"Relevance":1.0,"Distance":19.0,"MatchLevel":"houseNumber","MatchQuality":{"Country":1.0,"State":1.0,"County":1.0,"City":1.0,"Street":[1.0],"HouseNumber":1.0,"PostalCode":1.0},"MatchType":"interpolated","Location":{"LocationId":"NT_Xuwk9ncdTDOyBBxOiWrFUC_0A","LocationType":"point","DisplayPosition":{"Latitude":42.13928,"Longitude":-0.41789},"MapView":{"TopLeft":{"Latitude":42.1404042,"Longitude":-0.419406},"BottomRight":{"Latitude":42.1381558,"Longitude":-0.416374}},"Address":{"Label":"Calle Félix Lafuente, 4, 22004 Huesca (Huesca), España","Country":"ESP","State":"Aragón","County":"Huesca","City":"Huesca","Street":"Calle Félix Lafuente","HouseNumber":"4","PostalCode":"22004","AdditionalData":[{"value":"España","key":"CountryName"},{"value":"Aragón","key":"StateName"},{"value":"Huesca","key":"CountyName"}]},"MapReference":{"ReferenceId":"71468487","Spot":0.34,"SideOfStreet":"left","CountryId":"20215059","StateId":"20221894","CountyId":"20221895","CityId":"20247998","AddressId":"347974367","RoadLinkId":"65578706"}}},{"Relevance":1.0,"Distance":19.4,"MatchLevel":"street","MatchQuality":{"Country":1.0,"State":1.0,"County":1.0,"City":1.0,"Street":[1.0],"PostalCode":1.0},"Location":{"LocationId":"NT_eAVlYv73VZSX-jnmdQrLxB_l_71468486_R","LocationType":"point","DisplayPosition":{"Latitude":42.1389996,"Longitude":-0.4181626},"MapView":{"TopLeft":{"Latitude":42.13905,"Longitude":-0.41822},"BottomRight":{"Latitude":42.13862,"Longitude":-0.41773}},"Address":{"Label":"Calle Menéndez Pidal, 22004 Huesca (Huesca), España","Country":"ESP","State":"Aragón","County":"Huesca","City":"Huesca","Street":"Calle Menéndez Pidal","PostalCode":"22004","AdditionalData":[{"value":"España","key":"CountryName"},{"value":"Aragón","key":"StateName"},{"value":"Huesca","key":"CountyName"}]},"MapReference":{"ReferenceId":"71468486","Spot":0.88,"SideOfStreet":"right","CountryId":"20215059","StateId":"20221894","CountyId":"20221895","CityId":"20247998"}}},{"Relevance":1.0,"Distance":21.2,"MatchLevel":"street","MatchQuality":{"Country":1.0,"State":1.0,"County":1.0,"City":1.0,"PostalCode":1.0},"Location":{"LocationId":"NT_uxWiuycnQ6uvRvrgae7.zA_l_76770778_R","LocationType":"point","DisplayPosition":{"Latitude":42.13907,"Longitude":-0.41827},"MapView":{"TopLeft":{"Latitude":42.13911,"Longitude":-0.4183},"BottomRight":{"Latitude":42.13907,"Longitude":-0.41827}},"Address":{"Label":"22004 Huesca (Huesca), España","Country":"ESP","State":"Aragón","County":"Huesca","City":"Huesca","PostalCode":"22004","AdditionalData":[{"value":"España","key":"CountryName"},{"value":"Aragón","key":"StateName"},{"value":"Huesca","key":"CountyName"}]},"MapReference":{"ReferenceId":"76770778","Spot":0.0,"SideOfStreet":"right","CountryId":"20215059","StateId":"20221894","CountyId":"20221895","CityId":"20247998"}}},{"Relevance":1.0,"Distance":21.9,"MatchLevel":"houseNumber","MatchQuality":{"Country":1.0,"State":1.0,"County":1.0,"City":1.0,"Street":[1.0],"HouseNumber":1.0,"PostalCode":1.0},"MatchType":"interpolated","Location":{"LocationId":"NT_eAVlYv73VZSX-jnmdQrLxB_yQD","LocationType":"point","DisplayPosition":{"Latitude":42.13928,"Longitude":-0.41824},"MapView":{"TopLeft":{"Latitude":42.1404042,"Longitude":-0.419756},"BottomRight":{"Latitude":42.1381558,"Longitude":-0.416724}},"Address":{"Label":"Calle Menéndez Pidal, 24, 22004 Huesca (Huesca), España","Country":"ESP","State":"Aragón","County":"Huesca","City":"Huesca","Street":"Calle Menéndez Pidal","HouseNumber":"24","PostalCode":"22004","AdditionalData":[{"value":"España","key":"CountryName"},{"value":"Aragón","key":"StateName"},{"value":"Huesca","key":"CountyName"}]},"MapReference":{"ReferenceId":"76770801","Spot":0.14,"SideOfStreet":"right","CountryId":"20215059","StateId":"20221894","CountyId":"20221895","CityId":"20247998","AddressId":"347980665","RoadLinkId":"65163763"}}}]}]}}