{"Response":{"MetaInfo":{"Timestamp":"2020-03-28T09:43:53.797+0000","NextPageInformation":"2"},"View":[{"_type":"SearchResultsViewType","ViewId":0,"Result":[{"Relevance":1.0,"Distance":0.0,"Direction":0.0,"MatchLevel":"city","MatchQuality":{"Country":1.0,"State":1.0,"County":1.0,"City":1.0,"PostalCode":1.0},"Location":{"LocationId":"NT_zQsYntkyWCHk6fDucZ5QbD","LocationType":"point","DisplayPosition":{"Latitude":42.1874798,"Longitude":-7.8034074},"MapView":{"TopLeft":{"Latitude":42.264,"Longitude":-7.87364},"BottomRight":{"Latitude":42.12179,"Longitude":-7.74431}},"Address":{"Label":"Allariz, Galicia, España","Country":"ESP","State":"Galicia","County":"Ourense","City":"Allariz","PostalCode":"32660","AdditionalData":[{"value":"España","key":"CountryName"},{"value":"Galicia","key":"StateName"},{"value":"Ourense","key":"CountyName"}]},"MapReference":{"ReferenceId":"573628397","SideOfStreet":"neither","CountryId":"20215059","StateId":"20226791","CountyId":"20226794","CityId":"20321946"}}},{"Relevance":1.0,"Distance":1.4,"MatchLevel":"street","MatchQuality":{"Country":1.0,"State":1.0,"County":1.0,"City":1.0,"Street":[1.0],"PostalCode":1.0},"Location":{"LocationId":"NT_aqJnMnfqVDjY7.Ke2MmBaD_l_1167450538_L","LocationType":"point","DisplayPosition":{"Latitude":42.1874884,"Longitude":-7.8034205},"MapView":{"TopLeft":{"Latitude":42.18755,"Longitude":-7.80365},"BottomRight":{"Latitude":42.18714,"Longitude":-7.80338}},"Address":{"Label":"Rúa Oliveira, 32660 Allariz (Ourense), España","Country":"ESP","State":"Galicia","County":"Ourense","City":"Allariz","Street":"Rúa Oliveira","PostalCode":"32660","AdditionalData":[{"value":"España","key":"CountryName"},{"value":"Galicia","key":"StateName"},{"value":"Ourense","key":"CountyName"}]},"MapReference":{"ReferenceId":"1167450538","Spot":0.85,"SideOfStreet":"neither","CountryId":"20215059","StateId":"20226791","CountyId":"20226794","CityId":"20321946"}}},{"Relevance":1.0,"Distance":11.1,"MatchLevel":"houseNumber","MatchQuality":{"Country":1.0,"State":1.0,"County":1.0,"City":1.0,"Street":[1.0],"HouseNumber":1.0,"PostalCode":1.0},"MatchType":"interpolated","Location":{"LocationId":"NT_aqJnMnfqVDjY7.Ke2MmBaD_2A","LocationType":"point","DisplayPosition":{"Latitude":42.1875,"Longitude":-7.80324},"MapView":{"TopLeft":{"Latitude":42.1886242,"Longitude":-7.8047572},"BottomRight":{"Latitude":42.1863758,"Longitude":-7.8017228}},"Address":{"Label":"Rúa Oliveira, 6, 32660 Allariz (Ourense), España","Country":"ESP","State":"Galicia","County":"Ourense","City":"Allariz","Street":"Rúa Oliveira","HouseNumber":"6","PostalCode":"32660","AdditionalData":[{"value":"España","key":"CountryName"},{"value":"Galicia","key":"StateName"},{"value":"Ourense","key":"CountyName"}]},"MapReference":{"ReferenceId":"1167450544","Spot":0.53,"SideOfStreet":"left","CountryId":"20215059","StateId":"20226791","CountyId":"20226794","CityId":"20321946","AddressId":"351006225","RoadLinkId":"474080762"}}},{"Relevance":1.0,"Distance":18.6,"MatchLevel":"houseNumber","MatchQuality":{"Country":1.0,"State":1.0,"County":1.0,"City":1.0,"Street":[1.0],"HouseNumber":1.0,"PostalCode":1.0},"MatchType":"interpolated","Location":{"LocationId":"NT_aqJnMnfqVDjY7.Ke2MmBaD_yA","LocationType":"point","DisplayPosition":{"Latitude":42.18761,"Longitude":-7.80355},"MapView":{"TopLeft":{"Latitude":42.1887342,"Longitude":-7.8050672},"BottomRight":{"Latitude":42.1864858,"Longitude":-7.8020328}},"Address":{"Label":"Rúa Oliveira, 2, 32660 Allariz (Ourense), España","Country":"ESP","State":"Galicia","County":"Ourense","City":"Allariz","Street":"Rúa Oliveira","HouseNumber":"2","PostalCode":"32660","AdditionalData":[{"value":"España","key":"CountryName"},{"value":"Galicia","key":"StateName"},{"value":"Ourense","key":"CountyName"}]},"MapReference":{"ReferenceId":"1167450545","Spot":0.61,"SideOfStreet":"left","CountryId":"20215059","StateId":"20226791","CountyId":"20226794","CityId":"20321946","AddressId":"351006223","RoadLinkId":"474080763"}}},{"Relevance":1.0,"Distance":27.3,"MatchLevel":"street","MatchQuality":{"Country":1.0,"State":1.0,"County":1.0,"City":1.0,"PostalCode":1.0},"Location":{"LocationId":"NT_avKEx6-Xu0UL32RLecVmvD_l_1167450947_L","LocationType":"point","DisplayPosition":{"Latitude":42.1873231,"Longitude":-7.8031517},"MapView":{"TopLeft":{"Latitude":42.18744,"Longitude":-7.80327},"BottomRight":{"Latitude":42.18713,"Longitude":-7.80308}},"Address":{"Label":"32660 Allariz (Ourense), España","Country":"ESP","State":"Galicia","County":"Ourense","City":"Allariz","PostalCode":"32660","AdditionalData":[{"value":"España","key":"CountryName"},{"value":"Galicia","key":"StateName"},{"value":"Ourense","key":"CountyName"}]},"MapReference":{"ReferenceId":"1167450947","Spot":0.62,"SideOfStreet":"left","CountryId":"20215059","StateId":"20226791","CountyId":"20226794","CityId":"20321946"}}},{"Relevance":1.0,"Distance":28.1,"MatchLevel":"street","MatchQuality":{"Country":1.0,"State":1.0,"County":1.0,"City":1.0,"Street":[1.0],"PostalCode":1.0},"Location":{"LocationId":"NT_aqJnMnfqVDjY7.Ke2MmBaD_l_1167450537_R","LocationType":"point","DisplayPosition":{"Latitude":42.18765,"Longitude":-7.80366},"MapView":{"TopLeft":{"Latitude":42.18765,"Longitude":-7.80396},"BottomRight":{"Latitude":42.18725,"Longitude":-7.80366}},"Address":{"Label":"Rúa Oliveira, 32660 Allariz (Ourense), España","Country":"ESP","State":"Galicia","County":"Ourense","City":"Allariz","Street":"Rúa Oliveira","PostalCode":"32660","AdditionalData":[{"value":"España","key":"CountryName"},{"value":"Galicia","key":"StateName"},{"value":"Ourense","key":"CountyName"}]},"MapReference":{"ReferenceId":"1167450537","Spot":1.0,"SideOfStreet":"right","CountryId":"20215059","StateId":"20226791","CountyId":"20226794","CityId":"20321946"}}},{"Relevance":1.0,"Distance":28.1,"MatchLevel":"street","MatchQuality":{"Country":1.0,"State":1.0,"County":1.0,"City":1.0,"Street":[1.0],"PostalCode":1.0},"Location":{"LocationId":"NT_aqJnMnfqVDjY7.Ke2MmBaD_l_1167450541_L","LocationType":"point","DisplayPosition":{"Latitude":42.18765,"Longitude":-7.80366},"MapView":{"TopLeft":{"Latitude":42.18773,"Longitude":-7.8039},"BottomRight":{"Latitude":42.18765,"Longitude":-7.80366}},"Address":{"Label":"Rúa Oliveira, 32660 Allariz (Ourense), España","Country":"ESP","State":"Galicia","County":"Ourense","City":"Allariz","Street":"Rúa Oliveira","PostalCode":"32660","AdditionalData":[{"value":"España","key":"CountryName"},{"value":"Galicia","key":"StateName"},{"value":"Ourense","key":"CountyName"}]},"MapReference":{"ReferenceId":"1167450541","Spot":0.0,"SideOfStreet":"left","CountryId":"20215059","StateId":"20226791","CountyId":"20226794","CityId":"20321946"}}},{"Relevance":1.0,"Distance":37.6,"MatchLevel":"houseNumber","MatchQuality":{"Country":1.0,"State":1.0,"County":1.0,"City":1.0,"Street":[1.0],"HouseNumber":1.0,"PostalCode":1.0},"MatchType":"interpolated","Location":{"LocationId":"NT_aqJnMnfqVDjY7.Ke2MmBaD_4A","LocationType":"point","DisplayPosition":{"Latitude":42.18742,"Longitude":-7.80296},"MapView":{"TopLeft":{"Latitude":42.1885442,"Longitude":-7.8044772},"BottomRight":{"Latitude":42.1862958,"Longitude":-7.8014428}},"Address":{"Label":"Rúa Oliveira, 8, 32660 Allariz (Ourense), España","Country":"ESP","State":"Galicia","County":"Ourense","City":"Allariz","Street":"Rúa Oliveira","HouseNumber":"8","PostalCode":"32660","AdditionalData":[{"value":"España","key":"CountryName"},{"value":"Galicia","key":"StateName"},{"value":"Ourense","key":"CountyName"}]},"MapReference":{"ReferenceId":"573625454","Spot":0.61,"SideOfStreet":"left","CountryId":"20215059","StateId":"20226791","CountyId":"20226794","CityId":"20321946","AddressId":"350982600","RoadLinkId":"67738134"}}},{"Relevance":1.0,"Distance":40.5,"MatchLevel":"street","MatchQuality":{"Country":1.0,"State":1.0,"County":1.0,"City":1.0,"Street":[1.0],"PostalCode":1.0},"Location":{"LocationId":"NT_B6HA2ZOO18ZwfZ6Wcb9s9C_l_1167450943_R","LocationType":"point","DisplayPosition":{"Latitude":42.18713,"Longitude":-7.80327},"MapView":{"TopLeft":{"Latitude":42.18713,"Longitude":-7.80327},"BottomRight":{"Latitude":42.18702,"Longitude":-7.80273}},"Address":{"Label":"Travesía Alfredo Nan, 32660 Allariz (Ourense), España","Country":"ESP","State":"Galicia","County":"Ourense","City":"Allariz","Street":"Travesía Alfredo Nan","PostalCode":"32660","AdditionalData":[{"value":"España","key":"CountryName"},{"value":"Galicia","key":"StateName"},{"value":"Ourense","key":"CountyName"}]},"MapReference":{"ReferenceId":"1167450943","Spot":1.0,"SideOfStreet":"right","CountryId":"20215059","StateId":"20226791","CountyId":"20226794","CityId":"20321946"}}},{"Relevance":1.0,"Distance":40.5,"MatchLevel":"street","MatchQuality":{"Country":1.0,"State":1.0,"County":1.0,"City":1.0,"PostalCode":1.0},"Location":{"LocationId":"NT_avKEx6-Xu0UL32RLecVmvD_l_1167450946_R","LocationType":"point","DisplayPosition":{"Latitude":42.18713,"Longitude":-7.80327},"MapView":{"TopLeft":{"Latitude":42.18714,"Longitude":-7.80365},"BottomRight":{"Latitude":42.18703,"Longitude":-7.80327}},"Address":{"Label":"32660 Allariz (Ourense), España","Country":"ESP","State":"Galicia","County":"Ourense","City":"Allariz","PostalCode":"32660","AdditionalData":[{"value":"España","key":"CountryName"},{"value":"Galicia","key":"StateName"},{"value":"Ourense","key":"CountyName"}]},"MapReference":{"ReferenceId":"1167450946","Spot":0.0,"SideOfStreet":"right","CountryId":"20215059","StateId":"20226791","CountyId":"20226794","CityId":"20321946"}}}]}]}}