{"Response":{"MetaInfo":{"Timestamp":"2020-03-28T11:39:37.178+0000","NextPageInformation":"2"},"View":[{"_type":"SearchResultsViewType","ViewId":0,"Result":[{"Relevance":1.0,"Distance":0.0,"Direction":0.0,"MatchLevel":"district","MatchQuality":{"Country":1.0,"County":1.0,"City":1.0,"District":1.0,"PostalCode":1.0},"Location":{"LocationId":"NT_lIREuZE.U8GtJO6cpg5f5D","LocationType":"point","DisplayPosition":{"Latitude":42.1577159,"Longitude":24.3124785},"MapView":{"TopLeft":{"Latitude":42.16435,"Longitude":24.30275},"BottomRight":{"Latitude":42.15101,"Longitude":24.32141}},"Address":{"Label":"Главиница, Пазарджик, България","Country":"BGR","County":"Пазарджик","City":"Пазарджик","District":"Главиница","PostalCode":"4409","AdditionalData":[{"value":"България","key":"CountryName"},{"value":"Пазарджик","key":"CountyName"}]},"MapReference":{"ReferenceId":"1113840351","SideOfStreet":"neither","CountryId":"20656214","CountyId":"23719403","CityId":"23718479","DistrictId":"23719135"}}},{"Relevance":1.0,"Distance":8.4,"MatchLevel":"street","MatchQuality":{"Country":1.0,"County":1.0,"City":1.0,"District":1.0,"Street":[1.0],"PostalCode":1.0},"Location":{"LocationId":"NT_v94thVLVYCz4fg3jvq0zIB_l_816207624_L","LocationType":"point","DisplayPosition":{"Latitude":42.1576721,"Longitude":24.3125621},"MapView":{"TopLeft":{"Latitude":42.15847,"Longitude":24.31254},"BottomRight":{"Latitude":42.15763,"Longitude":24.31298}},"Address":{"Label":"Улица 1-ва, 4409 Пазарджик, България","Country":"BGR","County":"Пазарджик","City":"Пазарджик","District":"Главиница","Street":"Улица 1-ва","PostalCode":"4409","AdditionalData":[{"value":"България","key":"CountryName"},{"value":"Пазарджик","key":"CountyName"}]},"MapReference":{"ReferenceId":"816207624","Spot":0.05,"SideOfStreet":"left","CountryId":"20656214","CountyId":"23719403","CityId":"23718479","DistrictId":"23719135"}}},{"Relevance":1.0,"Distance":8.9,"MatchLevel":"street","MatchQuality":{"Country":1.0,"County":1.0,"City":1.0,"District":1.0,"Street":[1.0],"PostalCode":1.0},"Location":{"LocationId":"NT_gC3cuvFPHGtm9sqv8MpCJA_l_816206464_R","LocationType":"point","DisplayPosition":{"Latitude":42.157636,"Longitude":24.3124715},"MapView":{"TopLeft":{"Latitude":42.15775,"Longitude":24.31116},"BottomRight":{"Latitude":42.15763,"Longitude":24.31254}},"Address":{"Label":"Улица 15-та, 4409 Пазарджик, България","Country":"BGR","County":"Пазарджик","City":"Пазарджик","District":"Главиница","Street":"Улица 15-та","PostalCode":"4409","AdditionalData":[{"value":"България","key":"CountryName"},{"value":"Пазарджик","key":"CountyName"}]},"MapReference":{"ReferenceId":"816206464","Spot":0.05,"SideOfStreet":"right","CountryId":"20656214","CountyId":"23719403","CityId":"23718479","DistrictId":"23719135"}}},{"Relevance":1.0,"Distance":10.8,"MatchLevel":"street","MatchQuality":{"Country":1.0,"County":1.0,"City":1.0,"District":1.0,"Street":[1.0],"PostalCode":1.0},"Location":{"LocationId":"NT_v94thVLVYCz4fg3jvq0zIB_l_816206466_L","LocationType":"point","DisplayPosition":{"Latitude":42.15763,"Longitude":24.31254},"MapView":{"TopLeft":{"Latitude":42.15763,"Longitude":24.31152},"BottomRight":{"Latitude":42.1559,"Longitude":24.31254}},"Address":{"Label":"Улица 1-ва, 4409 Пазарджик, България","Country":"BGR","County":"Пазарджик","City":"Пазарджик","District":"Главиница","Street":"Улица 1-ва","PostalCode":"4409","AdditionalData":[{"value":"България","key":"CountryName"},{"value":"Пазарджик","key":"CountyName"}]},"MapReference":{"ReferenceId":"816206466","Spot":1.0,"SideOfStreet":"left","CountryId":"20656214","CountyId":"23719403","CityId":"23718479","DistrictId":"23719135"}}},{"Relevance":1.0,"Distance":10.8,"MatchLevel":"street","MatchQuality":{"Country":1.0,"County":1.0,"City":1.0,"District":1.0,"Street":[1.0],"PostalCode":1.0},"Location":{"LocationId":"NT_gC3cuvFPHGtm9sqv8MpCJA_l_816206463_R","LocationType":"point","DisplayPosition":{"Latitude":42.15763,"Longitude":24.31254},"MapView":{"TopLeft":{"Latitude":42.15763,"Longitude":24.31254},"BottomRight":{"Latitude":42.1576,"Longitude":24.31266}},"Address":{"Label":"Улица 15-та, 4409 Пазарджик, България","Country":"BGR","County":"Пазарджик","City":"Пазарджик","District":"Главиница","Street":"Улица 15-та","PostalCode":"4409","AdditionalData":[{"value":"България","key":"CountryName"},{"value":"Пазарджик","key":"CountyName"}]},"MapReference":{"ReferenceId":"816206463","Spot":1.0,"SideOfStreet":"right","CountryId":"20656214","CountyId":"23719403","CityId":"23718479","DistrictId":"23719135"}}},{"Relevance":1.0,"Distance":19.5,"MatchLevel":"street","MatchQuality":{"Country":1.0,"County":1.0,"City":1.0,"District":1.0,"Street":[1.0],"PostalCode":1.0},"Location":{"LocationId":"NT_JpJxRWcsEGEd-x7Ul3m6QA_l_1113847669_L","LocationType":"point","DisplayPosition":{"Latitude":42.1576068,"Longitude":24.312664},"MapView":{"TopLeft":{"Latitude":42.15811,"Longitude":24.31266},"BottomRight":{"Latitude":42.1576,"Longitude":24.31296}},"Address":{"Label":"Улица 1-ва, 4409 Пазарджик, България","Country":"BGR","County":"Пазарджик","City":"Пазарджик","District":"Главиница","Street":"Улица 1-ва","PostalCode":"4409","AdditionalData":[{"value":"България","key":"CountryName"},{"value":"Пазарджик","key":"CountyName"}]},"MapReference":{"ReferenceId":"1113847669","Spot":0.01,"SideOfStreet":"left","CountryId":"20656214","CountyId":"23719403","CityId":"23718479","DistrictId":"23719135"}}},{"Relevance":1.0,"Distance":19.7,"MatchLevel":"street","MatchQuality":{"Country":1.0,"County":1.0,"City":1.0,"District":1.0,"Street":[1.0],"PostalCode":1.0},"Location":{"LocationId":"NT_JpJxRWcsEGEd-x7Ul3m6QA_l_1113840347_L","LocationType":"point","DisplayPosition":{"Latitude":42.1576,"Longitude":24.31266},"MapView":{"TopLeft":{"Latitude":42.1576,"Longitude":24.31244},"BottomRight":{"Latitude":42.1572,"Longitude":24.31266}},"Address":{"Label":"Улица 1-ва, 4409 Пазарджик, България","Country":"BGR","County":"Пазарджик","City":"Пазарджик","District":"Главиница","Street":"Улица 1-ва","PostalCode":"4409","AdditionalData":[{"value":"България","key":"CountryName"},{"value":"Пазарджик","key":"CountyName"}]},"MapReference":{"ReferenceId":"1113840347","Spot":1.0,"SideOfStreet":"left","CountryId":"20656214","CountyId":"23719403","CityId":"23718479","DistrictId":"23719135"}}},{"Relevance":1.0,"Distance":19.7,"MatchLevel":"street","MatchQuality":{"Country":1.0,"County":1.0,"City":1.0,"District":1.0,"Street":[1.0],"PostalCode":1.0},"Location":{"LocationId":"NT_gC3cuvFPHGtm9sqv8MpCJA_l_810033830_R","LocationType":"point","DisplayPosition":{"Latitude":42.1576,"Longitude":24.31266},"MapView":{"TopLeft":{"Latitude":42.1576,"Longitude":24.31266},"BottomRight":{"Latitude":42.15722,"Longitude":24.31397}},"Address":{"Label":"Улица 15-та, 4409 Пазарджик, България","Country":"BGR","County":"Пазарджик","City":"Пазарджик","District":"Главиница","Street":"Улица 15-та","PostalCode":"4409","AdditionalData":[{"value":"България","key":"CountryName"},{"value":"Пазарджик","key":"CountyName"}]},"MapReference":{"ReferenceId":"810033830","Spot":1.0,"SideOfStreet":"right","CountryId":"20656214","CountyId":"23719403","CityId":"23718479","DistrictId":"23719135"}}},{"Relevance":1.0,"Distance":57.5,"MatchLevel":"street","MatchQuality":{"Country":1.0,"County":1.0,"City":1.0,"District":1.0,"Street":[1.0],"PostalCode":1.0},"Location":{"LocationId":"NT_JpJxRWcsEGEd-x7Ul3m6QA_l_1113840346_L","LocationType":"point","DisplayPosition":{"Latitude":42.1572,"Longitude":24.31244},"MapView":{"TopLeft":{"Latitude":42.1572,"Longitude":24.31232},"BottomRight":{"Latitude":42.15698,"Longitude":24.31244}},"Address":{"Label":"Улица 1-ва, 4409 Пазарджик, България","Country":"BGR","County":"Пазарджик","City":"Пазарджик","District":"Главиница","Street":"Улица 1-ва","PostalCode":"4409","AdditionalData":[{"value":"България","key":"CountryName"},{"value":"Пазарджик","key":"CountyName"}]},"MapReference":{"ReferenceId":"1113840346","Spot":1.0,"SideOfStreet":"left","CountryId":"20656214","CountyId":"23719403","CityId":"23718479","DistrictId":"23719135"}}},{"Relevance":1.0,"Distance":59.1,"MatchLevel":"street","MatchQuality":{"Country":1.0,"County":1.0,"City":1.0,"District":1.0,"Street":[1.0],"PostalCode":1.0},"Location":{"LocationId":"NT_JpJxRWcsEGEd-x7Ul3m6QA_l_1113847670_L","LocationType":"point","DisplayPosition":{"Latitude":42.15811,"Longitude":24.31296},"MapView":{"TopLeft":{"Latitude":42.15861,"Longitude":24.31296},"BottomRight":{"Latitude":42.15811,"Longitude":24.31324}},"Address":{"Label":"Улица 1-ва, 4409 Пазарджик, България","Country":"BGR","County":"Пазарджик","City":"Пазарджик","District":"Главиница","Street":"Улица 1-ва","PostalCode":"4409","AdditionalData":[{"value":"България","key":"CountryName"},{"value":"Пазарджик","key":"CountyName"}]},"MapReference":{"ReferenceId":"1113847670","Spot":0.0,"SideOfStreet":"left","CountryId":"20656214","CountyId":"23719403","CityId":"23718479","DistrictId":"23719135"}}}]}]}}