{"Response":{"MetaInfo":{"Timestamp":"2020-03-28T09:38:07.912+0000","NextPageInformation":"2"},"View":[{"_type":"SearchResultsViewType","ViewId":0,"Result":[{"Relevance":1.0,"Distance":0.0,"Direction":0.0,"MatchLevel":"district","MatchQuality":{"Country":1.0,"State":1.0,"County":1.0,"City":1.0,"District":1.0,"PostalCode":1.0},"Location":{"LocationId":"NT_-dmVJGY-ysTywUb84PTUNB","LocationType":"point","DisplayPosition":{"Latitude":42.1038147,"Longitude":2.776934},"MapView":{"TopLeft":{"Latitude":42.10719,"Longitude":2.7615},"BottomRight":{"Latitude":42.10088,"Longitude":2.78022}},"Address":{"Label":"Les Pedreres, Porqueres, Catalunya, Espanya","Country":"ESP","State":"Catalunya","County":"Girona","City":"Porqueres","District":"Les Pedreres","PostalCode":"17834","AdditionalData":[{"value":"Espanya","key":"CountryName"},{"value":"Catalunya","key":"StateName"},{"value":"Girona","key":"CountyName"}]},"MapReference":{"ReferenceId":"926059012","SideOfStreet":"neither","CountryId":"20215059","StateId":"20215741","CountyId":"20223544","CityId":"20224274","DistrictId":"20675382"}}},{"Relevance":1.0,"Distance":19.3,"MatchLevel":"houseNumber","MatchQuality":{"Country":1.0,"State":1.0,"County":1.0,"City":1.0,"District":1.0,"Street":[1.0],"HouseNumber":1.0,"PostalCode":1.0},"MatchType":"interpolated","Location":{"LocationId":"NT_VBJ0GRMf7dxNZ3wDPNZhqA_5A","LocationType":"point","DisplayPosition":{"Latitude":42.10371,"Longitude":2.77712},"MapView":{"TopLeft":{"Latitude":42.1048342,"Longitude":2.7756048},"BottomRight":{"Latitude":42.1025858,"Longitude":2.7786352}},"Address":{"Label":"Carrer Mestral, 9, 17834 Porqueres (Girona), Espanya","Country":"ESP","State":"Catalunya","County":"Girona","City":"Porqueres","District":"Les Pedreres","Street":"Carrer Mestral","HouseNumber":"9","PostalCode":"17834","AdditionalData":[{"value":"Espanya","key":"CountryName"},{"value":"Catalunya","key":"StateName"},{"value":"Girona","key":"CountyName"}]},"MapReference":{"ReferenceId":"539651006","Spot":0.63,"SideOfStreet":"right","CountryId":"20215059","StateId":"20215741","CountyId":"20223544","CityId":"20224274","DistrictId":"20675382","AddressId":"404179719","RoadLinkId":"65680787"}}},{"Relevance":1.0,"Distance":26.1,"MatchLevel":"houseNumber","MatchQuality":{"Country":1.0,"State":1.0,"County":1.0,"City":1.0,"District":1.0,"Street":[1.0],"HouseNumber":1.0,"PostalCode":1.0},"MatchType":"interpolated","Location":{"LocationId":"NT_53Z4QUk82533przHqskXnD_yA","LocationType":"point","DisplayPosition":{"Latitude":42.10405,"Longitude":2.77717},"MapView":{"TopLeft":{"Latitude":42.1051742,"Longitude":2.7756548},"BottomRight":{"Latitude":42.1029258,"Longitude":2.7786852}},"Address":{"Label":"Carrer Gregal, 2, 17834 Porqueres (Girona), Espanya","Country":"ESP","State":"Catalunya","County":"Girona","City":"Porqueres","District":"Les Pedreres","Street":"Carrer Gregal","HouseNumber":"2","PostalCode":"17834","AdditionalData":[{"value":"Espanya","key":"CountryName"},{"value":"Catalunya","key":"StateName"},{"value":"Girona","key":"CountyName"}]},"MapReference":{"ReferenceId":"574716659","Spot":0.49,"SideOfStreet":"left","CountryId":"20215059","StateId":"20215741","CountyId":"20223544","CityId":"20224274","DistrictId":"20675382","AddressId":"404168073","RoadLinkId":"65623146"}}},{"Relevance":1.0,"Distance":30.2,"MatchLevel":"houseNumber","MatchQuality":{"Country":1.0,"State":1.0,"County":1.0,"City":1.0,"District":1.0,"Street":[1.0],"HouseNumber":1.0,"PostalCode":1.0},"MatchType":"interpolated","Location":{"LocationId":"NT_uO1KSHoNRs0.mhagRZxcQA_l_539651019_L_1A","LocationType":"point","DisplayPosition":{"Latitude":42.1036232,"Longitude":2.7773245},"MapView":{"TopLeft":{"Latitude":42.1047474,"Longitude":2.7758093},"BottomRight":{"Latitude":42.1024991,"Longitude":2.7788396}},"Address":{"Label":"Plaça President Companys, 5, 17834 Porqueres (Girona), Espanya","Country":"ESP","State":"Catalunya","County":"Girona","City":"Porqueres","District":"Les Pedreres","Street":"Plaça President Companys","HouseNumber":"5","PostalCode":"17834","AdditionalData":[{"value":"Espanya","key":"CountryName"},{"value":"Catalunya","key":"StateName"},{"value":"Girona","key":"CountyName"}]},"MapReference":{"ReferenceId":"539651019","Spot":0.5,"SideOfStreet":"left","CountryId":"20215059","StateId":"20215741","CountyId":"20223544","CityId":"20224274","DistrictId":"20675382"}}},{"Relevance":1.0,"Distance":36.3,"MatchLevel":"houseNumber","MatchQuality":{"Country":1.0,"State":1.0,"County":1.0,"City":1.0,"District":1.0,"Street":[1.0],"HouseNumber":1.0,"PostalCode":1.0},"MatchType":"interpolated","Location":{"LocationId":"NT_Wuf63qsB-xSJgdplnZWFOB_zAD","LocationType":"point","DisplayPosition":{"Latitude":42.10349,"Longitude":2.77689},"MapView":{"TopLeft":{"Latitude":42.1046142,"Longitude":2.7753748},"BottomRight":{"Latitude":42.1023658,"Longitude":2.7784052}},"Address":{"Label":"Carrer Balmes, 30, 17834 Porqueres (Girona), Espanya","Country":"ESP","State":"Catalunya","County":"Girona","City":"Porqueres","District":"Les Pedreres","Street":"Carrer Balmes","HouseNumber":"30","PostalCode":"17834","AdditionalData":[{"value":"Espanya","key":"CountryName"},{"value":"Catalunya","key":"StateName"},{"value":"Girona","key":"CountyName"}]},"MapReference":{"ReferenceId":"539651018","Spot":0.07,"SideOfStreet":"left","CountryId":"20215059","StateId":"20215741","CountyId":"20223544","CityId":"20224274","DistrictId":"20675382","AddressId":"404126148","RoadLinkId":"66088345"}}},{"Relevance":1.0,"Distance":37.7,"MatchLevel":"houseNumber","MatchQuality":{"Country":1.0,"State":1.0,"County":1.0,"City":1.0,"District":1.0,"Street":[1.0],"HouseNumber":1.0,"PostalCode":1.0},"MatchType":"interpolated","Location":{"LocationId":"NT_uO1KSHoNRs0.mhagRZxcQA_l_539651030_L_2A","LocationType":"point","DisplayPosition":{"Latitude":42.1034513,"Longitude":2.7772964},"MapView":{"TopLeft":{"Latitude":42.1045754,"Longitude":2.7757812},"BottomRight":{"Latitude":42.1023271,"Longitude":2.7788115}},"Address":{"Label":"Plaça President Companys, 6, 17834 Porqueres (Girona), Espanya","Country":"ESP","State":"Catalunya","County":"Girona","City":"Porqueres","District":"Les Pedreres","Street":"Plaça President Companys","HouseNumber":"6","PostalCode":"17834","AdditionalData":[{"value":"Espanya","key":"CountryName"},{"value":"Catalunya","key":"StateName"},{"value":"Girona","key":"CountyName"}]},"MapReference":{"ReferenceId":"539651030","Spot":0.53,"SideOfStreet":"left","CountryId":"20215059","StateId":"20215741","CountyId":"20223544","CityId":"20224274","DistrictId":"20675382"}}},{"Relevance":1.0,"Distance":38.6,"MatchLevel":"street","MatchQuality":{"Country":1.0,"State":1.0,"County":1.0,"City":1.0,"District":1.0,"Street":[1.0],"PostalCode":1.0},"Location":{"LocationId":"NT_uO1KSHoNRs0.mhagRZxcQA_l_539651046_R","LocationType":"point","DisplayPosition":{"Latitude":42.10347,"Longitude":2.77699},"MapView":{"TopLeft":{"Latitude":42.10347,"Longitude":2.77699},"BottomRight":{"Latitude":42.10344,"Longitude":2.77719}},"Address":{"Label":"Plaça President Companys, 17834 Porqueres (Girona), Espanya","Country":"ESP","State":"Catalunya","County":"Girona","City":"Porqueres","District":"Les Pedreres","Street":"Plaça President Companys","PostalCode":"17834","AdditionalData":[{"value":"Espanya","key":"CountryName"},{"value":"Catalunya","key":"StateName"},{"value":"Girona","key":"CountyName"}]},"MapReference":{"ReferenceId":"539651046","Spot":1.0,"SideOfStreet":"right","CountryId":"20215059","StateId":"20215741","CountyId":"20223544","CityId":"20224274","DistrictId":"20675382"}}},{"Relevance":1.0,"Distance":41.2,"MatchLevel":"houseNumber","MatchQuality":{"Country":1.0,"State":1.0,"County":1.0,"City":1.0,"District":1.0,"Street":[1.0],"HouseNumber":1.0,"PostalCode":1.0},"MatchType":"interpolated","Location":{"LocationId":"NT_uO1KSHoNRs0.mhagRZxcQA_l_539651061_L_0A","LocationType":"point","DisplayPosition":{"Latitude":42.10347,"Longitude":2.77739},"MapView":{"TopLeft":{"Latitude":42.1045942,"Longitude":2.7758749},"BottomRight":{"Latitude":42.1023459,"Longitude":2.7789052}},"Address":{"Label":"Plaça President Companys, 4, 17834 Porqueres (Girona), Espanya","Country":"ESP","State":"Catalunya","County":"Girona","City":"Porqueres","District":"Les Pedreres","Street":"Plaça President Companys","HouseNumber":"4","PostalCode":"17834","AdditionalData":[{"value":"Espanya","key":"CountryName"},{"value":"Catalunya","key":"StateName"},{"value":"Girona","key":"CountyName"}]},"MapReference":{"ReferenceId":"539651061","Spot":0.0,"SideOfStreet":"left","CountryId":"20215059","StateId":"20215741","CountyId":"20223544","CityId":"20224274","DistrictId":"20675382"}}},{"Relevance":1.0,"Distance":46.7,"MatchLevel":"landmark","MatchQuality":{"Country":1.0,"State":1.0,"County":1.0,"City":1.0,"District":1.0,"Street":[1.0],"PostalCode":1.0,"Name":1.0},"Location":{"LocationId":"NT_6RYAvTV4SjyfD-JvI8fzKD_p_5GK6JlIFnJQKe8NqUJy.tD","LocationType":"park","Name":"Parc de Manel Saderra","DisplayPosition":{"Latitude":42.10293,"Longitude":2.7773},"MapView":{"TopLeft":{"Latitude":42.10354,"Longitude":2.77626},"BottomRight":{"Latitude":42.10218,"Longitude":2.77786}},"Address":{"Label":"Carrer Enric Granados, 17834 Porqueres (Girona), Espanya","Country":"ESP","State":"Catalunya","County":"Girona","City":"Porqueres","District":"Les Pedreres","Street":"Carrer Enric Granados","PostalCode":"17834","AdditionalData":[{"value":"Espanya","key":"CountryName"},{"value":"Catalunya","key":"StateName"},{"value":"Girona","key":"CountyName"}]},"MapReference":{"CountryId":"20215059","StateId":"20215741","CountyId":"20223544","CityId":"20224274","DistrictId":"20675382","PlaceId":"1104655332"}}},{"Relevance":1.0,"Distance":51.0,"MatchLevel":"houseNumber","MatchQuality":{"Country":1.0,"State":1.0,"County":1.0,"City":1.0,"District":1.0,"Street":[1.0],"HouseNumber":1.0,"PostalCode":1.0},"MatchType":"interpolated","Location":{"LocationId":"NT_OLWXPU6htF7pe6R5i0Gq-C_zYD","LocationType":"point","DisplayPosition":{"Latitude":42.10428,"Longitude":2.77731},"MapView":{"TopLeft":{"Latitude":42.1054042,"Longitude":2.7757948},"BottomRight":{"Latitude":42.1031558,"Longitude":2.7788252}},"Address":{"Label":"Carrer Isaac Albéniz, 36, 17834 Porqueres (Girona), Espanya","Country":"ESP","State":"Catalunya","County":"Girona","City":"Porqueres","District":"Les Pedreres","Street":"Carrer Isaac Albéniz","HouseNumber":"36","PostalCode":"17834","AdditionalData":[{"value":"Espanya","key":"CountryName"},{"value":"Catalunya","key":"StateName"},{"value":"Girona","key":"CountyName"}]},"MapReference":{"ReferenceId":"1173208213","Spot":0.66,"SideOfStreet":"left","CountryId":"20215059","StateId":"20215741","CountyId":"20223544","CityId":"20224274","DistrictId":"20675382","AddressId":"404135330","RoadLinkId":"480497109"}}}]}]}}