{"Response":{"MetaInfo":{"Timestamp":"2020-03-28T09:37:49.603+0000","NextPageInformation":"2"},"View":[{"_type":"SearchResultsViewType","ViewId":0,"Result":[{"Relevance":1.0,"Distance":0.0,"Direction":0.0,"MatchLevel":"city","MatchQuality":{"Country":1.0,"State":1.0,"County":1.0,"City":1.0,"PostalCode":1.0},"Location":{"LocationId":"NT_82zmrZKa2H0yIV3XqyWPmD","LocationType":"point","DisplayPosition":{"Latitude":42.2579355,"Longitude":2.9680053},"MapView":{"TopLeft":{"Latitude":42.29152,"Longitude":2.92971},"BottomRight":{"Latitude":42.23774,"Longitude":3.02969}},"Address":{"Label":"Figueres, Catalunya, Espanya","Country":"ESP","State":"Catalunya","County":"Girona","City":"Figueres","PostalCode":"17600","AdditionalData":[{"value":"Espanya","key":"CountryName"},{"value":"Catalunya","key":"StateName"},{"value":"Girona","key":"CountyName"}]},"MapReference":{"ReferenceId":"1220823137","SideOfStreet":"neither","CountryId":"20215059","StateId":"20215741","CountyId":"20223544","CityId":"20223882"}}},{"Relevance":1.0,"Distance":14.6,"MatchLevel":"houseNumber","MatchQuality":{"Country":1.0,"State":1.0,"County":1.0,"City":1.0,"Street":[1.0],"HouseNumber":1.0,"PostalCode":1.0},"MatchType":"interpolated","Location":{"LocationId":"NT_KhGN01rQJEtmYadSPCjZBB_xkTO","LocationType":"point","DisplayPosition":{"Latitude":42.2578,"Longitude":2.9678},"MapView":{"TopLeft":{"Latitude":42.2589242,"Longitude":2.9662811},"BottomRight":{"Latitude":42.2566758,"Longitude":2.9693189}},"Address":{"Label":"Carrer Nou, 199, 17600 Figueres (Girona), Espanya","Country":"ESP","State":"Catalunya","County":"Girona","City":"Figueres","Street":"Carrer Nou","HouseNumber":"199","PostalCode":"17600","AdditionalData":[{"value":"Espanya","key":"CountryName"},{"value":"Catalunya","key":"StateName"},{"value":"Girona","key":"CountyName"}]},"MapReference":{"ReferenceId":"761898438","Spot":0.44,"SideOfStreet":"right","CountryId":"20215059","StateId":"20215741","CountyId":"20223544","CityId":"20223882","AddressId":"349900819","RoadLinkId":"156112143"}}},{"Relevance":1.0,"Distance":26.5,"MatchLevel":"houseNumber","MatchQuality":{"Country":1.0,"State":1.0,"County":1.0,"City":1.0,"Street":[1.0],"HouseNumber":1.0,"PostalCode":1.0},"MatchType":"interpolated","Location":{"LocationId":"NT_KhGN01rQJEtmYadSPCjZBB_xkjM","LocationType":"point","DisplayPosition":{"Latitude":42.25803,"Longitude":2.96771},"MapView":{"TopLeft":{"Latitude":42.2591542,"Longitude":2.9661911},"BottomRight":{"Latitude":42.2569058,"Longitude":2.9692289}},"Address":{"Label":"Carrer Nou, 192, 17600 Figueres (Girona), Espanya","Country":"ESP","State":"Catalunya","County":"Girona","City":"Figueres","Street":"Carrer Nou","HouseNumber":"192","PostalCode":"17600","AdditionalData":[{"value":"Espanya","key":"CountryName"},{"value":"Catalunya","key":"StateName"},{"value":"Girona","key":"CountyName"}]},"MapReference":{"ReferenceId":"761898439","Spot":0.3,"SideOfStreet":"left","CountryId":"20215059","StateId":"20215741","CountyId":"20223544","CityId":"20223882","AddressId":"349471063","RoadLinkId":"156112144"}}},{"Relevance":1.0,"Distance":27.8,"MatchLevel":"street","MatchQuality":{"Country":1.0,"State":1.0,"County":1.0,"City":1.0,"PostalCode":1.0},"Location":{"LocationId":"NT_fs10lk8lsUyNLUQmSW3gzA_l_544802004_L","LocationType":"point","DisplayPosition":{"Latitude":42.2576875,"Longitude":2.9680445},"MapView":{"TopLeft":{"Latitude":42.25769,"Longitude":2.96787},"BottomRight":{"Latitude":42.25766,"Longitude":2.96806}},"Address":{"Label":"17600 Figueres (Girona), Espanya","Country":"ESP","State":"Catalunya","County":"Girona","City":"Figueres","PostalCode":"17600","AdditionalData":[{"value":"Espanya","key":"CountryName"},{"value":"Catalunya","key":"StateName"},{"value":"Girona","key":"CountyName"}]},"MapReference":{"ReferenceId":"544802004","Spot":0.92,"SideOfStreet":"left","CountryId":"20215059","StateId":"20215741","CountyId":"20223544","CityId":"20223882"}}},{"Relevance":1.0,"Distance":29.7,"MatchLevel":"street","MatchQuality":{"Country":1.0,"State":1.0,"County":1.0,"City":1.0,"PostalCode":1.0},"Location":{"LocationId":"NT_fs10lk8lsUyNLUQmSW3gzA_l_544801990_R","LocationType":"point","DisplayPosition":{"Latitude":42.25818,"Longitude":2.96786},"MapView":{"TopLeft":{"Latitude":42.25828,"Longitude":2.96772},"BottomRight":{"Latitude":42.25815,"Longitude":2.96793}},"Address":{"Label":"17600 Figueres (Girona), Espanya","Country":"ESP","State":"Catalunya","County":"Girona","City":"Figueres","PostalCode":"17600","AdditionalData":[{"value":"Espanya","key":"CountryName"},{"value":"Catalunya","key":"StateName"},{"value":"Girona","key":"CountyName"}]},"MapReference":{"ReferenceId":"544801990","Spot":0.53,"SideOfStreet":"right","CountryId":"20215059","StateId":"20215741","CountyId":"20223544","CityId":"20223882"}}},{"Relevance":1.0,"Distance":33.5,"MatchLevel":"street","MatchQuality":{"Country":1.0,"State":1.0,"County":1.0,"City":1.0,"PostalCode":1.0},"Location":{"LocationId":"NT_fs10lk8lsUyNLUQmSW3gzA_l_544801991_L","LocationType":"point","DisplayPosition":{"Latitude":42.25815,"Longitude":2.96772},"MapView":{"TopLeft":{"Latitude":42.25824,"Longitude":2.96756},"BottomRight":{"Latitude":42.25815,"Longitude":2.96772}},"Address":{"Label":"17600 Figueres (Girona), Espanya","Country":"ESP","State":"Catalunya","County":"Girona","City":"Figueres","PostalCode":"17600","AdditionalData":[{"value":"Espanya","key":"CountryName"},{"value":"Catalunya","key":"StateName"},{"value":"Girona","key":"CountyName"}]},"MapReference":{"ReferenceId":"544801991","Spot":0.0,"SideOfStreet":"left","CountryId":"20215059","StateId":"20215741","CountyId":"20223544","CityId":"20223882"}}},{"Relevance":1.0,"Distance":38.8,"MatchLevel":"street","MatchQuality":{"Country":1.0,"State":1.0,"County":1.0,"City":1.0,"PostalCode":1.0},"Location":{"LocationId":"NT_fs10lk8lsUyNLUQmSW3gzA_l_544802544_R","LocationType":"point","DisplayPosition":{"Latitude":42.25828,"Longitude":2.96793},"MapView":{"TopLeft":{"Latitude":42.25853,"Longitude":2.96793},"BottomRight":{"Latitude":42.25828,"Longitude":2.96929}},"Address":{"Label":"17600 Figueres (Girona), Espanya","Country":"ESP","State":"Catalunya","County":"Girona","City":"Figueres","PostalCode":"17600","AdditionalData":[{"value":"Espanya","key":"CountryName"},{"value":"Catalunya","key":"StateName"},{"value":"Girona","key":"CountyName"}]},"MapReference":{"ReferenceId":"544802544","Spot":0.0,"SideOfStreet":"right","CountryId":"20215059","StateId":"20215741","CountyId":"20223544","CityId":"20223882"}}},{"Relevance":1.0,"Distance":38.8,"MatchLevel":"street","MatchQuality":{"Country":1.0,"State":1.0,"County":1.0,"City":1.0,"PostalCode":1.0},"Location":{"LocationId":"NT_fs10lk8lsUyNLUQmSW3gzA_l_544801984_R","LocationType":"point","DisplayPosition":{"Latitude":42.25828,"Longitude":2.96793},"MapView":{"TopLeft":{"Latitude":42.25836,"Longitude":2.96791},"BottomRight":{"Latitude":42.25828,"Longitude":2.96793}},"Address":{"Label":"17600 Figueres (Girona), Espanya","Country":"ESP","State":"Catalunya","County":"Girona","City":"Figueres","PostalCode":"17600","AdditionalData":[{"value":"Espanya","key":"CountryName"},{"value":"Catalunya","key":"StateName"},{"value":"Girona","key":"CountyName"}]},"MapReference":{"ReferenceId":"544801984","Spot":0.0,"SideOfStreet":"right","CountryId":"20215059","StateId":"20215741","CountyId":"20223544","CityId":"20223882"}}},{"Relevance":1.0,"Distance":39.5,"MatchLevel":"houseNumber","MatchQuality":{"Country":1.0,"State":1.0,"County":1.0,"City":1.0,"Street":[1.0],"HouseNumber":1.0,"PostalCode":1.0},"MatchType":"interpolated","Location":{"LocationId":"NT_KhGN01rQJEtmYadSPCjZBB_yATM","LocationType":"point","DisplayPosition":{"Latitude":42.25756,"Longitude":2.96791},"MapView":{"TopLeft":{"Latitude":42.2586842,"Longitude":2.9663911},"BottomRight":{"Latitude":42.2564358,"Longitude":2.9694289}},"Address":{"Label":"Carrer Nou, 201, 17600 Figueres (Girona), Espanya","Country":"ESP","State":"Catalunya","County":"Girona","City":"Figueres","Street":"Carrer Nou","HouseNumber":"201","PostalCode":"17600","AdditionalData":[{"value":"Espanya","key":"CountryName"},{"value":"Catalunya","key":"StateName"},{"value":"Girona","key":"CountyName"}]},"MapReference":{"ReferenceId":"544802015","Spot":0.77,"SideOfStreet":"right","CountryId":"20215059","StateId":"20215741","CountyId":"20223544","CityId":"20223882","AddressId":"349620007","RoadLinkId":"65562277"}}},{"Relevance":1.0,"Distance":47.8,"MatchLevel":"street","MatchQuality":{"Country":1.0,"State":1.0,"County":1.0,"City":1.0,"PostalCode":1.0},"Location":{"LocationId":"NT_fs10lk8lsUyNLUQmSW3gzA_l_544801983_L","LocationType":"point","DisplayPosition":{"Latitude":42.25836,"Longitude":2.96791},"MapView":{"TopLeft":{"Latitude":42.25839,"Longitude":2.96788},"BottomRight":{"Latitude":42.25836,"Longitude":2.96791}},"Address":{"Label":"17600 Figueres (Girona), Espanya","Country":"ESP","State":"Catalunya","County":"Girona","City":"Figueres","PostalCode":"17600","AdditionalData":[{"value":"Espanya","key":"CountryName"},{"value":"Catalunya","key":"StateName"},{"value":"Girona","key":"CountyName"}]},"MapReference":{"ReferenceId":"544801983","Spot":0.0,"SideOfStreet":"left","CountryId":"20215059","StateId":"20215741","CountyId":"20223544","CityId":"20223882"}}}]}]}}