{"Response":{"MetaInfo":{"Timestamp":"2020-03-28T09:44:52.211+0000","NextPageInformation":"2"},"View":[{"_type":"SearchResultsViewType","ViewId":0,"Result":[{"Relevance":1.0,"Distance":0.0,"Direction":0.0,"MatchLevel":"district","MatchQuality":{"Country":1.0,"State":1.0,"County":1.0,"City":1.0,"District":1.0,"PostalCode":1.0},"Location":{"LocationId":"NT_x-nl-bhKlPOtbsF7xY0b7C","LocationType":"point","DisplayPosition":{"Latitude":42.2298509,"Longitude":-8.7029703},"MapView":{"TopLeft":{"Latitude":42.23248,"Longitude":-8.71335},"BottomRight":{"Latitude":42.22258,"Longitude":-8.69982}},"Address":{"Label":"Doblada, Vigo, Galicia, España","Country":"ESP","State":"Galicia","County":"Pontevedra","City":"Vigo","District":"Doblada","PostalCode":"36205","AdditionalData":[{"value":"España","key":"CountryName"},{"value":"Galicia","key":"StateName"},{"value":"Pontevedra","key":"CountyName"}]},"MapReference":{"ReferenceId":"571876895","SideOfStreet":"neither","CountryId":"20215059","StateId":"20226791","CountyId":"20226795","CityId":"20322392"}}},{"Relevance":1.0,"Distance":18.9,"MatchLevel":"houseNumber","MatchQuality":{"Country":1.0,"State":1.0,"County":1.0,"City":1.0,"District":1.0,"Street":[1.0],"HouseNumber":1.0,"PostalCode":1.0},"MatchType":"interpolated","Location":{"LocationId":"NT_BMkmGQlmEJKNn2yioM.1IC_yMD","LocationType":"point","DisplayPosition":{"Latitude":42.22991,"Longitude":-8.70329},"MapView":{"TopLeft":{"Latitude":42.2310342,"Longitude":-8.7048082},"BottomRight":{"Latitude":42.2287858,"Longitude":-8.7017718}},"Address":{"Label":"Rúa do Cristo, 23, 36205 Vigo (Pontevedra), España","Country":"ESP","State":"Galicia","County":"Pontevedra","City":"Vigo","District":"Doblada","Street":"Rúa do Cristo","HouseNumber":"23","PostalCode":"36205","AdditionalData":[{"value":"España","key":"CountryName"},{"value":"Galicia","key":"StateName"},{"value":"Pontevedra","key":"CountyName"}]},"MapReference":{"ReferenceId":"571876923","Spot":0.35,"SideOfStreet":"right","CountryId":"20215059","StateId":"20226791","CountyId":"20226795","CityId":"20322392","AddressId":"268816749","RoadLinkId":"68545351"}}},{"Relevance":1.0,"Distance":47.3,"MatchLevel":"houseNumber","MatchQuality":{"Country":1.0,"State":1.0,"County":1.0,"City":1.0,"District":1.0,"Street":[1.0],"HouseNumber":1.0,"PostalCode":1.0},"MatchType":"interpolated","Location":{"LocationId":"NT_svxX2XCxjDkJ5COeJTqQ5C_yQD","LocationType":"point","DisplayPosition":{"Latitude":42.22975,"Longitude":-8.70214},"MapView":{"TopLeft":{"Latitude":42.2308742,"Longitude":-8.7036582},"BottomRight":{"Latitude":42.2286258,"Longitude":-8.7006218}},"Address":{"Label":"Rúa Sagunto, 24, 36205 Vigo (Pontevedra), España","Country":"ESP","State":"Galicia","County":"Pontevedra","City":"Vigo","District":"Doblada","Street":"Rúa Sagunto","HouseNumber":"24","PostalCode":"36205","AdditionalData":[{"value":"España","key":"CountryName"},{"value":"Galicia","key":"StateName"},{"value":"Pontevedra","key":"CountyName"}]},"MapReference":{"ReferenceId":"571876856","Spot":0.22,"SideOfStreet":"left","CountryId":"20215059","StateId":"20226791","CountyId":"20226795","CityId":"20322392","AddressId":"268823298","RoadLinkId":"69297929"}}},{"Relevance":1.0,"Distance":54.4,"MatchLevel":"houseNumber","MatchQuality":{"Country":1.0,"State":1.0,"County":1.0,"City":1.0,"District":1.0,"Street":[1.0],"HouseNumber":1.0,"PostalCode":1.0},"MatchType":"interpolated","Location":{"LocationId":"NT_OSQqE1wyTgszR78CsquLND_l_571869052_R_ykD","LocationType":"point","DisplayPosition":{"Latitude":42.23001,"Longitude":-8.70373},"MapView":{"TopLeft":{"Latitude":42.2311342,"Longitude":-8.7052482},"BottomRight":{"Latitude":42.2288859,"Longitude":-8.7022118}},"Address":{"Label":"Rúa Cruz Blanca, 29, 36205 Vigo (Pontevedra), España","Country":"ESP","State":"Galicia","County":"Pontevedra","City":"Vigo","District":"Doblada","Street":"Rúa Cruz Blanca","HouseNumber":"29","PostalCode":"36205","AdditionalData":[{"value":"España","key":"CountryName"},{"value":"Galicia","key":"StateName"},{"value":"Pontevedra","key":"CountyName"}]},"MapReference":{"ReferenceId":"571869052","Spot":0.0,"SideOfStreet":"right","CountryId":"20215059","StateId":"20226791","CountyId":"20226795","CityId":"20322392"}}},{"Relevance":1.0,"Distance":57.6,"MatchLevel":"houseNumber","MatchQuality":{"Country":1.0,"State":1.0,"County":1.0,"City":1.0,"District":1.0,"Street":[1.0],"HouseNumber":1.0,"PostalCode":1.0},"MatchType":"interpolated","Location":{"LocationId":"NT_Ib7uAr0b96p1ucaleWYMiC_zMD","LocationType":"point","DisplayPosition":{"Latitude":42.22986,"Longitude":-8.70373},"MapView":{"TopLeft":{"Latitude":42.2309842,"Longitude":-8.7052482},"BottomRight":{"Latitude":42.2287358,"Longitude":-8.7022118}},"Address":{"Label":"Rúa José Antela Conde, 33, 36205 Vigo (Pontevedra), España","Country":"ESP","State":"Galicia","County":"Pontevedra","City":"Vigo","District":"Doblada","Street":"Rúa José Antela Conde","HouseNumber":"33","PostalCode":"36205","AdditionalData":[{"value":"España","key":"CountryName"},{"value":"Galicia","key":"StateName"},{"value":"Pontevedra","key":"CountyName"}]},"MapReference":{"ReferenceId":"571876888","Spot":0.21,"SideOfStreet":"right","CountryId":"20215059","StateId":"20226791","CountyId":"20226795","CityId":"20322392","AddressId":"268805876","RoadLinkId":"69136494"}}},{"Relevance":1.0,"Distance":57.8,"MatchLevel":"houseNumber","MatchQuality":{"Country":1.0,"State":1.0,"County":1.0,"City":1.0,"District":1.0,"Street":[1.0],"HouseNumber":1.0,"PostalCode":1.0},"MatchType":"interpolated","Location":{"LocationId":"NT_3Ihq6AjnsXiISHpLmKBPcC_zED","LocationType":"point","DisplayPosition":{"Latitude":42.23001,"Longitude":-8.70373},"MapView":{"TopLeft":{"Latitude":42.2311342,"Longitude":-8.7052482},"BottomRight":{"Latitude":42.2288858,"Longitude":-8.7022118}},"Address":{"Label":"Rúa de Vanessa Lage Carreira, 31, 36205 Vigo (Pontevedra), España","Country":"ESP","State":"Galicia","County":"Pontevedra","City":"Vigo","District":"Doblada","Street":"Rúa de Vanessa Lage Carreira","HouseNumber":"31","PostalCode":"36205","AdditionalData":[{"value":"España","key":"CountryName"},{"value":"Galicia","key":"StateName"},{"value":"Pontevedra","key":"CountyName"}]},"MapReference":{"ReferenceId":"571876892","Spot":1.0,"SideOfStreet":"right","CountryId":"20215059","StateId":"20226791","CountyId":"20226795","CityId":"20322392","AddressId":"268798882","RoadLinkId":"68657863"}}},{"Relevance":1.0,"Distance":59.6,"MatchLevel":"houseNumber","MatchQuality":{"Country":1.0,"State":1.0,"County":1.0,"City":1.0,"District":1.0,"Street":[1.0],"HouseNumber":1.0,"PostalCode":1.0},"MatchType":"interpolated","Location":{"LocationId":"NT_BMkmGQlmEJKNn2yioM.1IC_ygD","LocationType":"point","DisplayPosition":{"Latitude":42.22939,"Longitude":-8.70343},"MapView":{"TopLeft":{"Latitude":42.2305142,"Longitude":-8.7049482},"BottomRight":{"Latitude":42.2282658,"Longitude":-8.7019118}},"Address":{"Label":"Rúa do Cristo, 28, 36205 Vigo (Pontevedra), España","Country":"ESP","State":"Galicia","County":"Pontevedra","City":"Vigo","District":"Doblada","Street":"Rúa do Cristo","HouseNumber":"28","PostalCode":"36205","AdditionalData":[{"value":"España","key":"CountryName"},{"value":"Galicia","key":"StateName"},{"value":"Pontevedra","key":"CountyName"}]},"MapReference":{"ReferenceId":"571876901","Spot":0.24,"SideOfStreet":"right","CountryId":"20215059","StateId":"20226791","CountyId":"20226795","CityId":"20322392","AddressId":"268799281","RoadLinkId":"68860046"}}},{"Relevance":1.0,"Distance":62.5,"MatchLevel":"houseNumber","MatchQuality":{"Country":1.0,"State":1.0,"County":1.0,"City":1.0,"District":1.0,"Street":[1.0],"HouseNumber":1.0,"PostalCode":1.0},"MatchType":"interpolated","Location":{"LocationId":"NT_BMkmGQlmEJKNn2yioM.1IC_zcD","LocationType":"point","DisplayPosition":{"Latitude":42.22932,"Longitude":-8.70331},"MapView":{"TopLeft":{"Latitude":42.2304442,"Longitude":-8.7048282},"BottomRight":{"Latitude":42.2281958,"Longitude":-8.7017918}},"Address":{"Label":"Rúa do Cristo, 37, 36205 Vigo (Pontevedra), España","Country":"ESP","State":"Galicia","County":"Pontevedra","City":"Vigo","District":"Doblada","Street":"Rúa do Cristo","HouseNumber":"37","PostalCode":"36205","AdditionalData":[{"value":"España","key":"CountryName"},{"value":"Galicia","key":"StateName"},{"value":"Pontevedra","key":"CountyName"}]},"MapReference":{"ReferenceId":"571876925","Spot":1.0,"SideOfStreet":"right","CountryId":"20215059","StateId":"20226791","CountyId":"20226795","CityId":"20322392","AddressId":"268799288","RoadLinkId":"69152319"}}},{"Relevance":1.0,"Distance":71.0,"MatchLevel":"houseNumber","MatchQuality":{"Country":1.0,"State":1.0,"County":1.0,"City":1.0,"District":1.0,"Street":[1.0],"HouseNumber":1.0,"PostalCode":1.0},"MatchType":"interpolated","Location":{"LocationId":"NT_lYT-rlPMDW7JDmrJPnpsJD_3A","LocationType":"point","DisplayPosition":{"Latitude":42.22918,"Longitude":-8.7028},"MapView":{"TopLeft":{"Latitude":42.2303042,"Longitude":-8.7043182},"BottomRight":{"Latitude":42.2280558,"Longitude":-8.7012818}},"Address":{"Label":"Rúa Palencia, 7, 36205 Vigo (Pontevedra), España","Country":"ESP","State":"Galicia","County":"Pontevedra","City":"Vigo","District":"Doblada","Street":"Rúa Palencia","HouseNumber":"7","PostalCode":"36205","AdditionalData":[{"value":"España","key":"CountryName"},{"value":"Galicia","key":"StateName"},{"value":"Pontevedra","key":"CountyName"}]},"MapReference":{"ReferenceId":"571876865","Spot":0.44,"SideOfStreet":"left","CountryId":"20215059","StateId":"20226791","CountyId":"20226795","CityId":"20322392","AddressId":"268819326","RoadLinkId":"68785507"}}},{"Relevance":1.0,"Distance":76.0,"MatchLevel":"houseNumber","MatchQuality":{"Country":1.0,"State":1.0,"County":1.0,"City":1.0,"District":1.0,"Street":[1.0],"HouseNumber":1.0,"PostalCode":1.0},"MatchType":"interpolated","Location":{"LocationId":"NT_Ib7uAr0b96p1ucaleWYMiC_0ED","LocationType":"point","DisplayPosition":{"Latitude":42.22976,"Longitude":-8.70388},"MapView":{"TopLeft":{"Latitude":42.2308842,"Longitude":-8.7053982},"BottomRight":{"Latitude":42.2286358,"Longitude":-8.7023618}},"Address":{"Label":"Rúa José Antela Conde, 41, 36205 Vigo (Pontevedra), España","Country":"ESP","State":"Galicia","County":"Pontevedra","City":"Vigo","District":"Doblada","Street":"Rúa José Antela Conde","HouseNumber":"41","PostalCode":"36205","AdditionalData":[{"value":"España","key":"CountryName"},{"value":"Galicia","key":"StateName"},{"value":"Pontevedra","key":"CountyName"}]},"MapReference":{"ReferenceId":"571876916","Spot":0.0,"SideOfStreet":"left","CountryId":"20215059","StateId":"20226791","CountyId":"20226795","CityId":"20322392","AddressId":"268801492","RoadLinkId":"68814011"}}}]}]}}