{"Response":{"MetaInfo":{"Timestamp":"2020-03-28T11:27:43.198+0000","NextPageInformation":"2"},"View":[{"_type":"SearchResultsViewType","ViewId":0,"Result":[{"Relevance":1.0,"Distance":0.0,"Direction":0.0,"MatchLevel":"city","MatchQuality":{"Country":1.0,"State":1.0,"County":1.0,"City":1.0,"PostalCode":1.0},"Location":{"LocationId":"NT_X0DNqSJF8OWnwdp.1HU-EA","LocationType":"point","DisplayPosition":{"Latitude":42.3518327,"Longitude":14.173538},"MapView":{"TopLeft":{"Latitude":42.41949,"Longitude":14.08147},"BottomRight":{"Latitude":42.31693,"Longitude":14.22988}},"Address":{"Label":"Chieti, Abruzzo, Italia","Country":"ITA","State":"Abruzzo","County":"CH","City":"Chieti","PostalCode":"66100","AdditionalData":[{"value":"Italia","key":"CountryName"},{"value":"Abruzzo","key":"StateName"},{"value":"Chieti","key":"CountyName"}]},"MapReference":{"ReferenceId":"1035116181","SideOfStreet":"neither","CountryId":"20110484","StateId":"20127658","CountyId":"20217729","CityId":"20217793"}}},{"Relevance":1.0,"Distance":7.5,"MatchLevel":"houseNumber","MatchQuality":{"Country":1.0,"State":1.0,"County":1.0,"City":1.0,"Street":[1.0],"HouseNumber":1.0,"PostalCode":1.0},"MatchType":"interpolated","Location":{"LocationId":"NT_8DAYK.AuR5F1h6nb9Gid0B_yA","LocationType":"point","DisplayPosition":{"Latitude":42.3519,"Longitude":14.17353},"MapView":{"TopLeft":{"Latitude":42.3530242,"Longitude":14.1720089},"BottomRight":{"Latitude":42.3507758,"Longitude":14.1750511}},"Address":{"Label":"Via Padre Alessandro Valignani, 2, 66100 Chieti CH, Italia","Country":"ITA","State":"Abruzzo","County":"CH","City":"Chieti","Street":"Via Padre Alessandro Valignani","HouseNumber":"2","PostalCode":"66100","AdditionalData":[{"value":"Italia","key":"CountryName"},{"value":"Abruzzo","key":"StateName"},{"value":"Chieti","key":"CountyName"}]},"MapReference":{"ReferenceId":"851464708","Spot":1.0,"SideOfStreet":"left","CountryId":"20110484","StateId":"20127658","CountyId":"20217729","CityId":"20217793","AddressId":"777455056","RoadLinkId":"230763613"}}},{"Relevance":1.0,"Distance":7.5,"MatchLevel":"street","MatchQuality":{"Country":1.0,"State":1.0,"County":1.0,"City":1.0,"Street":[1.0],"PostalCode":1.0},"Location":{"LocationId":"NT_0J8t6e2oCAxP9snhTnGDPA_l_851464048_L","LocationType":"point","DisplayPosition":{"Latitude":42.3519,"Longitude":14.17353},"MapView":{"TopLeft":{"Latitude":42.35197,"Longitude":14.17325},"BottomRight":{"Latitude":42.3519,"Longitude":14.17353}},"Address":{"Label":"Piazza Giuseppe Garibaldi, 66100 Chieti CH, Italia","Country":"ITA","State":"Abruzzo","County":"CH","City":"Chieti","Street":"Piazza Giuseppe Garibaldi","PostalCode":"66100","AdditionalData":[{"value":"Italia","key":"CountryName"},{"value":"Abruzzo","key":"StateName"},{"value":"Chieti","key":"CountyName"}]},"MapReference":{"ReferenceId":"851464048","Spot":0.0,"SideOfStreet":"left","CountryId":"20110484","StateId":"20127658","CountyId":"20217729","CityId":"20217793"}}},{"Relevance":1.0,"Distance":30.6,"MatchLevel":"houseNumber","MatchQuality":{"Country":1.0,"State":1.0,"County":1.0,"City":1.0,"Street":[1.0],"HouseNumber":1.0,"PostalCode":1.0},"MatchType":"interpolated","Location":{"LocationId":"NT_0J8t6e2oCAxP9snhTnGDPA_zA","LocationType":"point","DisplayPosition":{"Latitude":42.35198,"Longitude":14.1732},"MapView":{"TopLeft":{"Latitude":42.3531042,"Longitude":14.1716789},"BottomRight":{"Latitude":42.3508558,"Longitude":14.1747211}},"Address":{"Label":"Piazza Giuseppe Garibaldi, 3, 66100 Chieti CH, Italia","Country":"ITA","State":"Abruzzo","County":"CH","City":"Chieti","Street":"Piazza Giuseppe Garibaldi","HouseNumber":"3","PostalCode":"66100","AdditionalData":[{"value":"Italia","key":"CountryName"},{"value":"Abruzzo","key":"StateName"},{"value":"Chieti","key":"CountyName"}]},"MapReference":{"ReferenceId":"553649338","Spot":0.06,"SideOfStreet":"left","CountryId":"20110484","StateId":"20127658","CountyId":"20217729","CityId":"20217793","AddressId":"777492869","RoadLinkId":"57043749"}}},{"Relevance":1.0,"Distance":63.9,"MatchLevel":"houseNumber","MatchQuality":{"Country":1.0,"State":1.0,"County":1.0,"City":1.0,"Street":[1.0],"HouseNumber":1.0,"PostalCode":1.0},"MatchType":"interpolated","Location":{"LocationId":"NT_0J8t6e2oCAxP9snhTnGDPA_xkD","LocationType":"point","DisplayPosition":{"Latitude":42.35238,"Longitude":14.17328},"MapView":{"TopLeft":{"Latitude":42.3535042,"Longitude":14.1717589},"BottomRight":{"Latitude":42.3512558,"Longitude":14.1748011}},"Address":{"Label":"Piazza Giuseppe Garibaldi, 19, 66100 Chieti CH, Italia","Country":"ITA","State":"Abruzzo","County":"CH","City":"Chieti","Street":"Piazza Giuseppe Garibaldi","HouseNumber":"19","PostalCode":"66100","AdditionalData":[{"value":"Italia","key":"CountryName"},{"value":"Abruzzo","key":"StateName"},{"value":"Chieti","key":"CountyName"}]},"MapReference":{"ReferenceId":"553650172","Spot":0.44,"SideOfStreet":"right","CountryId":"20110484","StateId":"20127658","CountyId":"20217729","CityId":"20217793","AddressId":"573941323","RoadLinkId":"56356248"}}},{"Relevance":1.0,"Distance":72.7,"MatchLevel":"street","MatchQuality":{"Country":1.0,"State":1.0,"County":1.0,"City":1.0,"Street":[1.0],"PostalCode":1.0},"Location":{"LocationId":"NT_8DAYK.AuR5F1h6nb9Gid0B_l_851464707_L","LocationType":"point","DisplayPosition":{"Latitude":42.35159,"Longitude":14.17436},"MapView":{"TopLeft":{"Latitude":42.35159,"Longitude":14.17436},"BottomRight":{"Latitude":42.35149,"Longitude":14.17462}},"Address":{"Label":"Via Padre Alessandro Valignani, 66100 Chieti CH, Italia","Country":"ITA","State":"Abruzzo","County":"CH","City":"Chieti","Street":"Via Padre Alessandro Valignani","PostalCode":"66100","AdditionalData":[{"value":"Italia","key":"CountryName"},{"value":"Abruzzo","key":"StateName"},{"value":"Chieti","key":"CountyName"}]},"MapReference":{"ReferenceId":"851464707","Spot":1.0,"SideOfStreet":"left","CountryId":"20110484","StateId":"20127658","CountyId":"20217729","CityId":"20217793"}}},{"Relevance":1.0,"Distance":85.1,"MatchLevel":"houseNumber","MatchQuality":{"Country":1.0,"State":1.0,"County":1.0,"City":1.0,"Street":[1.0],"HouseNumber":1.0,"PostalCode":1.0},"MatchType":"interpolated","Location":{"LocationId":"NT_mb4LSGEhBMez2gXjhmd3xA_zA","LocationType":"point","DisplayPosition":{"Latitude":42.35176,"Longitude":14.1724},"MapView":{"TopLeft":{"Latitude":42.3528842,"Longitude":14.1708789},"BottomRight":{"Latitude":42.3506358,"Longitude":14.1739211}},"Address":{"Label":"Via Tommaso di Petta, 3, 66100 Chieti CH, Italia","Country":"ITA","State":"Abruzzo","County":"CH","City":"Chieti","Street":"Via Tommaso di Petta","HouseNumber":"3","PostalCode":"66100","AdditionalData":[{"value":"Italia","key":"CountryName"},{"value":"Abruzzo","key":"StateName"},{"value":"Chieti","key":"CountyName"}]},"MapReference":{"ReferenceId":"553649385","Spot":0.69,"SideOfStreet":"right","CountryId":"20110484","StateId":"20127658","CountyId":"20217729","CityId":"20217793","AddressId":"573957112","RoadLinkId":"56035535"}}},{"Relevance":1.0,"Distance":88.3,"MatchLevel":"street","MatchQuality":{"Country":1.0,"State":1.0,"County":1.0,"City":1.0,"Street":[1.0],"PostalCode":1.0},"Location":{"LocationId":"NT_ep5v8Xl19lmMXpOSivuWPD_l_553649373_L","LocationType":"point","DisplayPosition":{"Latitude":42.3517003,"Longitude":14.1745975},"MapView":{"TopLeft":{"Latitude":42.35189,"Longitude":14.17459},"BottomRight":{"Latitude":42.35149,"Longitude":14.17468}},"Address":{"Label":"Via Michele Milano, 66100 Chieti CH, Italia","Country":"ITA","State":"Abruzzo","County":"CH","City":"Chieti","Street":"Via Michele Milano","PostalCode":"66100","AdditionalData":[{"value":"Italia","key":"CountryName"},{"value":"Abruzzo","key":"StateName"},{"value":"Chieti","key":"CountyName"}]},"MapReference":{"ReferenceId":"553649373","Spot":0.51,"SideOfStreet":"left","CountryId":"20110484","StateId":"20127658","CountyId":"20217729","CityId":"20217793"}}},{"Relevance":1.0,"Distance":96.7,"MatchLevel":"street","MatchQuality":{"Country":1.0,"State":1.0,"County":1.0,"City":1.0,"Street":[1.0],"PostalCode":1.0},"Location":{"LocationId":"NT_f.hUAMO3ItDlj.FWtZjWIA_l_553649389_L","LocationType":"point","DisplayPosition":{"Latitude":42.35149,"Longitude":14.17462},"MapView":{"TopLeft":{"Latitude":42.35149,"Longitude":14.17455},"BottomRight":{"Latitude":42.35125,"Longitude":14.17464}},"Address":{"Label":"Via Tiro a Segno, 66100 Chieti CH, Italia","Country":"ITA","State":"Abruzzo","County":"CH","City":"Chieti","Street":"Via Tiro a Segno","PostalCode":"66100","AdditionalData":[{"value":"Italia","key":"CountryName"},{"value":"Abruzzo","key":"StateName"},{"value":"Chieti","key":"CountyName"}]},"MapReference":{"ReferenceId":"553649389","Spot":1.0,"SideOfStreet":"left","CountryId":"20110484","StateId":"20127658","CountyId":"20217729","CityId":"20217793"}}},{"Relevance":1.0,"Distance":98.7,"MatchLevel":"houseNumber","MatchQuality":{"Country":1.0,"State":1.0,"County":1.0,"City":1.0,"Street":[1.0],"HouseNumber":1.0,"PostalCode":1.0},"MatchType":"interpolated","Location":{"LocationId":"NT_f.hUAMO3ItDlj.FWtZjWIA_1cD","LocationType":"point","DisplayPosition":{"Latitude":42.35115,"Longitude":14.17272},"MapView":{"TopLeft":{"Latitude":42.3522742,"Longitude":14.1711989},"BottomRight":{"Latitude":42.3500258,"Longitude":14.1742411}},"Address":{"Label":"Via Tiro a Segno, 57, 66100 Chieti CH, Italia","Country":"ITA","State":"Abruzzo","County":"CH","City":"Chieti","Street":"Via Tiro a Segno","HouseNumber":"57","PostalCode":"66100","AdditionalData":[{"value":"Italia","key":"CountryName"},{"value":"Abruzzo","key":"StateName"},{"value":"Chieti","key":"CountyName"}]},"MapReference":{"ReferenceId":"1171657909","Spot":0.14,"SideOfStreet":"left","CountryId":"20110484","StateId":"20127658","CountyId":"20217729","CityId":"20217793","AddressId":"573960655","RoadLinkId":"478730874"}}}]}]}}