{"Response":{"MetaInfo":{"Timestamp":"2020-03-28T09:38:07.671+0000","NextPageInformation":"2"},"View":[{"_type":"SearchResultsViewType","ViewId":0,"Result":[{"Relevance":1.0,"Distance":0.0,"Direction":0.0,"MatchLevel":"city","MatchQuality":{"Country":1.0,"State":1.0,"County":1.0,"City":1.0,"PostalCode":1.0},"Location":{"LocationId":"NT_ePyj1Pqfmw4eyzIlcAIMOA","LocationType":"point","DisplayPosition":{"Latitude":42.3645501,"Longitude":3.150198},"MapView":{"TopLeft":{"Latitude":42.39773,"Longitude":3.07664},"BottomRight":{"Latitude":42.34063,"Longitude":3.17411}},"Address":{"Label":"Llançà, Catalunya, Espanya","Country":"ESP","State":"Catalunya","County":"Girona","City":"Llançà","PostalCode":"17490","AdditionalData":[{"value":"Espanya","key":"CountryName"},{"value":"Catalunya","key":"StateName"},{"value":"Girona","key":"CountyName"}]},"MapReference":{"ReferenceId":"1195532369","SideOfStreet":"neither","CountryId":"20215059","StateId":"20215741","CountyId":"20223544","CityId":"20224017"}}},{"Relevance":1.0,"Distance":20.5,"MatchLevel":"houseNumber","MatchQuality":{"Country":1.0,"State":1.0,"County":1.0,"City":1.0,"Street":[1.0],"HouseNumber":1.0,"PostalCode":1.0},"MatchType":"interpolated","Location":{"LocationId":"NT_8FJ13HC8cA8D92mEaDyHBB_l_539649628_R_xYD","LocationType":"point","DisplayPosition":{"Latitude":42.36432,"Longitude":3.15023},"MapView":{"TopLeft":{"Latitude":42.3654442,"Longitude":3.1487086},"BottomRight":{"Latitude":42.3631959,"Longitude":3.1517514}},"Address":{"Label":"Carrer Dolors Falcó, 16, 17490 Llançà (Girona), Espanya","Country":"ESP","State":"Catalunya","County":"Girona","City":"Llançà","Street":"Carrer Dolors Falcó","HouseNumber":"16","PostalCode":"17490","AdditionalData":[{"value":"Espanya","key":"CountryName"},{"value":"Catalunya","key":"StateName"},{"value":"Girona","key":"CountyName"}]},"MapReference":{"ReferenceId":"539649628","Spot":0.5,"SideOfStreet":"right","CountryId":"20215059","StateId":"20215741","CountyId":"20223544","CityId":"20224017"}}},{"Relevance":1.0,"Distance":26.3,"MatchLevel":"street","MatchQuality":{"Country":1.0,"State":1.0,"County":1.0,"City":1.0,"Street":[1.0],"PostalCode":1.0},"Location":{"LocationId":"NT_8FJ13HC8cA8D92mEaDyHBB_l_539649635_R","LocationType":"point","DisplayPosition":{"Latitude":42.3647819,"Longitude":3.1501318},"MapView":{"TopLeft":{"Latitude":42.36489,"Longitude":3.14995},"BottomRight":{"Latitude":42.36473,"Longitude":3.15051}},"Address":{"Label":"Carrer Dolors Falcó, 17490 Llançà (Girona), Espanya","Country":"ESP","State":"Catalunya","County":"Girona","City":"Llançà","Street":"Carrer Dolors Falcó","PostalCode":"17490","AdditionalData":[{"value":"Espanya","key":"CountryName"},{"value":"Catalunya","key":"StateName"},{"value":"Girona","key":"CountyName"}]},"MapReference":{"ReferenceId":"539649635","Spot":0.32,"SideOfStreet":"right","CountryId":"20215059","StateId":"20215741","CountyId":"20223544","CityId":"20224017"}}},{"Relevance":1.0,"Distance":28.6,"MatchLevel":"street","MatchQuality":{"Country":1.0,"State":1.0,"County":1.0,"City":1.0,"Street":[1.0],"PostalCode":1.0},"Location":{"LocationId":"NT_8FJ13HC8cA8D92mEaDyHBB_l_539649646_R","LocationType":"point","DisplayPosition":{"Latitude":42.36473,"Longitude":3.14995},"MapView":{"TopLeft":{"Latitude":42.36494,"Longitude":3.14972},"BottomRight":{"Latitude":42.36473,"Longitude":3.14995}},"Address":{"Label":"Carrer Dolors Falcó, 17490 Llançà (Girona), Espanya","Country":"ESP","State":"Catalunya","County":"Girona","City":"Llançà","Street":"Carrer Dolors Falcó","PostalCode":"17490","AdditionalData":[{"value":"Espanya","key":"CountryName"},{"value":"Catalunya","key":"StateName"},{"value":"Girona","key":"CountyName"}]},"MapReference":{"ReferenceId":"539649646","Spot":0.0,"SideOfStreet":"right","CountryId":"20215059","StateId":"20215741","CountyId":"20223544","CityId":"20224017"}}},{"Relevance":1.0,"Distance":58.5,"MatchLevel":"street","MatchQuality":{"Country":1.0,"State":1.0,"County":1.0,"City":1.0,"Street":[1.0],"PostalCode":1.0},"Location":{"LocationId":"NT_I52DXcTgQcqbKbLGePudsC_l_1195532369_R","LocationType":"point","DisplayPosition":{"Latitude":42.36494,"Longitude":3.14972},"MapView":{"TopLeft":{"Latitude":42.36494,"Longitude":3.14934},"BottomRight":{"Latitude":42.36473,"Longitude":3.14972}},"Address":{"Label":"Carrer Portbou, 17490 Llançà (Girona), Espanya","Country":"ESP","State":"Catalunya","County":"Girona","City":"Llançà","Street":"Carrer Portbou","PostalCode":"17490","AdditionalData":[{"value":"Espanya","key":"CountryName"},{"value":"Catalunya","key":"StateName"},{"value":"Girona","key":"CountyName"}]},"MapReference":{"ReferenceId":"1195532369","Spot":1.0,"SideOfStreet":"right","CountryId":"20215059","StateId":"20215741","CountyId":"20223544","CityId":"20224017"}}},{"Relevance":1.0,"Distance":60.4,"MatchLevel":"street","MatchQuality":{"Country":1.0,"State":1.0,"County":1.0,"City":1.0,"Street":[1.0],"PostalCode":1.0},"Location":{"LocationId":"NT_MgPSn243GW4vezgiQxWJ6D_l_539649379_R","LocationType":"point","DisplayPosition":{"Latitude":42.3649989,"Longitude":3.1497838},"MapView":{"TopLeft":{"Latitude":42.36524,"Longitude":3.14972},"BottomRight":{"Latitude":42.36494,"Longitude":3.14996}},"Address":{"Label":"Carrer Portbou, 17490 Llançà (Girona), Espanya","Country":"ESP","State":"Catalunya","County":"Girona","City":"Llançà","Street":"Carrer Portbou","PostalCode":"17490","AdditionalData":[{"value":"Espanya","key":"CountryName"},{"value":"Catalunya","key":"StateName"},{"value":"Girona","key":"CountyName"}]},"MapReference":{"ReferenceId":"539649379","Spot":0.22,"SideOfStreet":"right","CountryId":"20215059","StateId":"20215741","CountyId":"20223544","CityId":"20224017"}}},{"Relevance":1.0,"Distance":63.1,"MatchLevel":"street","MatchQuality":{"Country":1.0,"State":1.0,"County":1.0,"City":1.0,"PostalCode":1.0},"Location":{"LocationId":"NT_B3F.DbTUCc3kCS5W2GyUcC_l_539649694_L","LocationType":"point","DisplayPosition":{"Latitude":42.36425,"Longitude":3.15085},"MapView":{"TopLeft":{"Latitude":42.36461,"Longitude":3.15085},"BottomRight":{"Latitude":42.36406,"Longitude":3.15138}},"Address":{"Label":"17490 Llançà (Girona), Espanya","Country":"ESP","State":"Catalunya","County":"Girona","City":"Llançà","PostalCode":"17490","AdditionalData":[{"value":"Espanya","key":"CountryName"},{"value":"Catalunya","key":"StateName"},{"value":"Girona","key":"CountyName"}]},"MapReference":{"ReferenceId":"539649694","Spot":0.26,"SideOfStreet":"left","CountryId":"20215059","StateId":"20215741","CountyId":"20223544","CityId":"20224017"}}},{"Relevance":1.0,"Distance":73.3,"MatchLevel":"street","MatchQuality":{"Country":1.0,"State":1.0,"County":1.0,"City":1.0,"Street":[1.0],"PostalCode":1.0},"Location":{"LocationId":"NT_I52DXcTgQcqbKbLGePudsC_l_1195532368_R","LocationType":"point","DisplayPosition":{"Latitude":42.36473,"Longitude":3.14934},"MapView":{"TopLeft":{"Latitude":42.36473,"Longitude":3.14711},"BottomRight":{"Latitude":42.36295,"Longitude":3.14934}},"Address":{"Label":"Carrer Portbou, 17490 Llançà (Girona), Espanya","Country":"ESP","State":"Catalunya","County":"Girona","City":"Llançà","Street":"Carrer Portbou","PostalCode":"17490","AdditionalData":[{"value":"Espanya","key":"CountryName"},{"value":"Catalunya","key":"StateName"},{"value":"Girona","key":"CountyName"}]},"MapReference":{"ReferenceId":"1195532368","Spot":1.0,"SideOfStreet":"right","CountryId":"20215059","StateId":"20215741","CountyId":"20223544","CityId":"20224017"}}},{"Relevance":1.0,"Distance":73.3,"MatchLevel":"street","MatchQuality":{"Country":1.0,"State":1.0,"County":1.0,"City":1.0,"PostalCode":1.0},"Location":{"LocationId":"NT_B3F.DbTUCc3kCS5W2GyUcC_l_1195532367_L","LocationType":"point","DisplayPosition":{"Latitude":42.36473,"Longitude":3.14934},"MapView":{"TopLeft":{"Latitude":42.36477,"Longitude":3.14651},"BottomRight":{"Latitude":42.36288,"Longitude":3.14934}},"Address":{"Label":"17490 Llançà (Girona), Espanya","Country":"ESP","State":"Catalunya","County":"Girona","City":"Llançà","PostalCode":"17490","AdditionalData":[{"value":"Espanya","key":"CountryName"},{"value":"Catalunya","key":"StateName"},{"value":"Girona","key":"CountyName"}]},"MapReference":{"ReferenceId":"1195532367","Spot":1.0,"SideOfStreet":"left","CountryId":"20215059","StateId":"20215741","CountyId":"20223544","CityId":"20224017"}}},{"Relevance":1.0,"Distance":74.9,"MatchLevel":"street","MatchQuality":{"Country":1.0,"State":1.0,"County":1.0,"City":1.0,"PostalCode":1.0},"Location":{"LocationId":"NT_B3F.DbTUCc3kCS5W2GyUcC_l_539649622_L","LocationType":"point","DisplayPosition":{"Latitude":42.36392,"Longitude":3.15052},"MapView":{"TopLeft":{"Latitude":42.36406,"Longitude":3.15052},"BottomRight":{"Latitude":42.36392,"Longitude":3.15096}},"Address":{"Label":"17490 Llançà (Girona), Espanya","Country":"ESP","State":"Catalunya","County":"Girona","City":"Llançà","PostalCode":"17490","AdditionalData":[{"value":"Espanya","key":"CountryName"},{"value":"Catalunya","key":"StateName"},{"value":"Girona","key":"CountyName"}]},"MapReference":{"ReferenceId":"539649622","Spot":0.0,"SideOfStreet":"left","CountryId":"20215059","StateId":"20215741","CountyId":"20223544","CityId":"20224017"}}}]}]}}