{"Response":{"MetaInfo":{"Timestamp":"2020-03-28T09:34:11.753+0000","NextPageInformation":"2"},"View":[{"_type":"SearchResultsViewType","ViewId":0,"Result":[{"Relevance":1.0,"Distance":0.0,"Direction":0.0,"MatchLevel":"district","MatchQuality":{"Country":1.0,"County":1.0,"City":1.0,"District":1.0,"PostalCode":1.0},"Location":{"LocationId":"NT_YSSDBQZVy8xXGEPxBFqisD","LocationType":"point","DisplayPosition":{"Latitude":42.4273047,"Longitude":25.6201709},"MapView":{"TopLeft":{"Latitude":42.43335,"Longitude":25.6137},"BottomRight":{"Latitude":42.42222,"Longitude":25.62816}},"Address":{"Label":"кв. Възраждане, Стара Загора, България","Country":"BGR","County":"Стара Загора","City":"Стара Загора","District":"кв. Възраждане","PostalCode":"6003","AdditionalData":[{"value":"България","key":"CountryName"},{"value":"Стара Загора","key":"CountyName"}]},"MapReference":{"ReferenceId":"1243344414","SideOfStreet":"neither","CountryId":"20656214","CountyId":"23719429","CityId":"23719280"}}},{"Relevance":1.0,"Distance":8.2,"MatchLevel":"houseNumber","MatchQuality":{"Country":1.0,"County":1.0,"City":1.0,"District":1.0,"Street":[1.0],"HouseNumber":1.0,"PostalCode":1.0},"MatchType":"interpolated","Location":{"LocationId":"NT_NG4TTIK7s7zBdGBhz3hJtA_xMTO","LocationType":"point","DisplayPosition":{"Latitude":42.42729,"Longitude":25.62044},"MapView":{"TopLeft":{"Latitude":42.4284142,"Longitude":25.618917},"BottomRight":{"Latitude":42.4261658,"Longitude":25.621963}},"Address":{"Label":"Улица Св. Отец Паисий 139, 6000 Стара Загора, България","Country":"BGR","County":"Стара Загора","City":"Стара Загора","District":"кв. Възраждане","Street":"Улица Св. Отец Паисий","HouseNumber":"139","PostalCode":"6000","AdditionalData":[{"value":"България","key":"CountryName"},{"value":"Стара Загора","key":"CountyName"}]},"MapReference":{"ReferenceId":"809954380","Spot":0.29,"SideOfStreet":"left","CountryId":"20656214","CountyId":"23719429","CityId":"23719280","AddressId":"296771568","RoadLinkId":"197274599"}}},{"Relevance":1.0,"Distance":22.4,"MatchLevel":"houseNumber","MatchQuality":{"Country":1.0,"County":1.0,"City":1.0,"District":1.0,"Street":[1.0],"HouseNumber":1.0,"PostalCode":1.0},"MatchType":"interpolated","Location":{"LocationId":"NT_xdMHVdiHciu9BKXgdieuND_0kD","LocationType":"point","DisplayPosition":{"Latitude":42.42711,"Longitude":25.62024},"MapView":{"TopLeft":{"Latitude":42.4282342,"Longitude":25.618717},"BottomRight":{"Latitude":42.4259858,"Longitude":25.621763}},"Address":{"Label":"Улица Ген. Столетов 49, 6004 Стара Загора, България","Country":"BGR","County":"Стара Загора","City":"Стара Загора","District":"кв. Възраждане","Street":"Улица Ген. Столетов","HouseNumber":"49","PostalCode":"6004","AdditionalData":[{"value":"България","key":"CountryName"},{"value":"Стара Загора","key":"CountyName"}]},"MapReference":{"ReferenceId":"809954931","Spot":0.7,"SideOfStreet":"left","CountryId":"20656214","CountyId":"23719429","CityId":"23719280","AddressId":"296820985","RoadLinkId":"197196157"}}},{"Relevance":1.0,"Distance":25.0,"MatchLevel":"street","MatchQuality":{"Country":1.0,"County":1.0,"City":1.0,"District":1.0,"PostalCode":1.0},"Location":{"LocationId":"NT_fiKHlann.-adzHqPPu.V8B_l_863941846_R","LocationType":"point","DisplayPosition":{"Latitude":42.42746,"Longitude":25.61995},"MapView":{"TopLeft":{"Latitude":42.42746,"Longitude":25.61957},"BottomRight":{"Latitude":42.4274,"Longitude":25.61995}},"Address":{"Label":"6004 Стара Загора, България","Country":"BGR","County":"Стара Загора","City":"Стара Загора","District":"кв. Възраждане","PostalCode":"6004","AdditionalData":[{"value":"България","key":"CountryName"},{"value":"Стара Загора","key":"CountyName"}]},"MapReference":{"ReferenceId":"863941846","Spot":1.0,"SideOfStreet":"right","CountryId":"20656214","CountyId":"23719429","CityId":"23719280"}}},{"Relevance":1.0,"Distance":30.5,"MatchLevel":"houseNumber","MatchQuality":{"Country":1.0,"County":1.0,"City":1.0,"District":1.0,"Street":[1.0],"HouseNumber":1.0,"PostalCode":1.0},"MatchType":"interpolated","Location":{"LocationId":"NT_C.MiLm.fYDjnmryUBdjeMB_l_864106806_L_xQTM","LocationType":"point","DisplayPosition":{"Latitude":42.42763,"Longitude":25.62033},"MapView":{"TopLeft":{"Latitude":42.4287542,"Longitude":25.618807},"BottomRight":{"Latitude":42.4265059,"Longitude":25.621853}},"Address":{"Label":"Улица Св. Отец Паисий 141, 6004 Стара Загора, България","Country":"BGR","County":"Стара Загора","City":"Стара Загора","District":"кв. Възраждане","Street":"Улица Св. Отец Паисий","HouseNumber":"141","PostalCode":"6004","AdditionalData":[{"value":"България","key":"CountryName"},{"value":"Стара Загора","key":"CountyName"}]},"MapReference":{"ReferenceId":"864106806","Spot":0.0,"SideOfStreet":"left","CountryId":"20656214","CountyId":"23719429","CityId":"23719280"}}},{"Relevance":1.0,"Distance":30.7,"MatchLevel":"street","MatchQuality":{"Country":1.0,"County":1.0,"City":1.0,"District":1.0,"Street":[1.0],"PostalCode":1.0},"Location":{"LocationId":"NT_NG4TTIK7s7zBdGBhz3hJtA_l_809756588_L","LocationType":"point","DisplayPosition":{"Latitude":42.42715,"Longitude":25.62048},"MapView":{"TopLeft":{"Latitude":42.42715,"Longitude":25.62048},"BottomRight":{"Latitude":42.42666,"Longitude":25.62063}},"Address":{"Label":"Улица Св. Отец Паисий, 6000 Стара Загора, България","Country":"BGR","County":"Стара Загора","City":"Стара Загора","District":"кв. Възраждане","Street":"Улица Св. Отец Паисий","PostalCode":"6000","AdditionalData":[{"value":"България","key":"CountryName"},{"value":"Стара Загора","key":"CountyName"}]},"MapReference":{"ReferenceId":"809756588","Spot":1.0,"SideOfStreet":"left","CountryId":"20656214","CountyId":"23719429","CityId":"23719280"}}},{"Relevance":1.0,"Distance":46.3,"MatchLevel":"street","MatchQuality":{"Country":1.0,"County":1.0,"City":1.0,"District":1.0,"Street":[1.0],"PostalCode":1.0},"Location":{"LocationId":"NT_XG-DGSRcucFID5LGUBT9SB_l_809815445_R","LocationType":"point","DisplayPosition":{"Latitude":42.4271408,"Longitude":25.6196519},"MapView":{"TopLeft":{"Latitude":42.4274,"Longitude":25.61957},"BottomRight":{"Latitude":42.42702,"Longitude":25.61969}},"Address":{"Label":"Улица Света Троица, 6004 Стара Загора, България","Country":"BGR","County":"Стара Загора","City":"Стара Загора","District":"кв. Възраждане","Street":"Улица Света Троица","PostalCode":"6004","AdditionalData":[{"value":"България","key":"CountryName"},{"value":"Стара Загора","key":"CountyName"}]},"MapReference":{"ReferenceId":"809815445","Spot":0.32,"SideOfStreet":"right","CountryId":"20656214","CountyId":"23719429","CityId":"23719280"}}},{"Relevance":1.0,"Distance":50.4,"MatchLevel":"street","MatchQuality":{"Country":1.0,"County":1.0,"City":1.0,"District":1.0,"Street":[1.0],"PostalCode":1.0},"Location":{"LocationId":"NT_XG-DGSRcucFID5LGUBT9SB_l_809842179_R","LocationType":"point","DisplayPosition":{"Latitude":42.4274,"Longitude":25.61957},"MapView":{"TopLeft":{"Latitude":42.42768,"Longitude":25.61948},"BottomRight":{"Latitude":42.4274,"Longitude":25.61957}},"Address":{"Label":"Улица Света Троица, 6004 Стара Загора, България","Country":"BGR","County":"Стара Загора","City":"Стара Загора","District":"кв. Възраждане","Street":"Улица Света Троица","PostalCode":"6004","AdditionalData":[{"value":"България","key":"CountryName"},{"value":"Стара Загора","key":"CountyName"}]},"MapReference":{"ReferenceId":"809842179","Spot":0.0,"SideOfStreet":"right","CountryId":"20656214","CountyId":"23719429","CityId":"23719280"}}},{"Relevance":1.0,"Distance":50.6,"MatchLevel":"street","MatchQuality":{"Country":1.0,"County":1.0,"City":1.0,"District":1.0,"Street":[1.0],"PostalCode":1.0},"Location":{"LocationId":"NT_XG-DGSRcucFID5LGUBT9SB_l_1058376764_R","LocationType":"point","DisplayPosition":{"Latitude":42.42702,"Longitude":25.61969},"MapView":{"TopLeft":{"Latitude":42.42702,"Longitude":25.61969},"BottomRight":{"Latitude":42.42677,"Longitude":25.61978}},"Address":{"Label":"Улица Света Троица, 6004 Стара Загора, България","Country":"BGR","County":"Стара Загора","City":"Стара Загора","District":"кв. Възраждане","Street":"Улица Света Троица","PostalCode":"6004","AdditionalData":[{"value":"България","key":"CountryName"},{"value":"Стара Загора","key":"CountyName"}]},"MapReference":{"ReferenceId":"1058376764","Spot":1.0,"SideOfStreet":"right","CountryId":"20656214","CountyId":"23719429","CityId":"23719280"}}},{"Relevance":1.0,"Distance":55.8,"MatchLevel":"houseNumber","MatchQuality":{"Country":1.0,"County":1.0,"City":1.0,"District":1.0,"Street":[1.0],"HouseNumber":1.0,"PostalCode":1.0},"MatchType":"interpolated","Location":{"LocationId":"NT_xdMHVdiHciu9BKXgdieuND_5AD","LocationType":"point","DisplayPosition":{"Latitude":42.42722,"Longitude":25.62088},"MapView":{"TopLeft":{"Latitude":42.4283442,"Longitude":25.619357},"BottomRight":{"Latitude":42.4260958,"Longitude":25.622403}},"Address":{"Label":"Улица Ген. Столетов 90, 6004 Стара Загора, България","Country":"BGR","County":"Стара Загора","City":"Стара Загора","District":"кв. Възраждане","Street":"Улица Ген. Столетов","HouseNumber":"90","PostalCode":"6004","AdditionalData":[{"value":"България","key":"CountryName"},{"value":"Стара Загора","key":"CountyName"}]},"MapReference":{"ReferenceId":"809835597","Spot":0.48,"SideOfStreet":"left","CountryId":"20656214","CountyId":"23719429","CityId":"23719280","AddressId":"296754281","RoadLinkId":"197196202"}}}]}]}}