{"Response":{"MetaInfo":{"Timestamp":"2020-03-28T11:24:12.680+0000","NextPageInformation":"2"},"View":[{"_type":"SearchResultsViewType","ViewId":0,"Result":[{"Relevance":1.0,"Distance":0.0,"Direction":0.0,"MatchLevel":"city","MatchQuality":{"Country":1.0,"State":1.0,"County":1.0,"City":1.0,"PostalCode":1.0},"Location":{"LocationId":"NT_aV2lLaUHd65FQyGipKaGrD","LocationType":"point","DisplayPosition":{"Latitude":42.4246358,"Longitude":14.2746006},"MapView":{"TopLeft":{"Latitude":42.44527,"Longitude":14.22677},"BottomRight":{"Latitude":42.3802,"Longitude":14.32741}},"Address":{"Label":"Francavilla al Mare, Abruzzo, Italia","Country":"ITA","State":"Abruzzo","County":"CH","City":"Francavilla al Mare","PostalCode":"66023","AdditionalData":[{"value":"Italia","key":"CountryName"},{"value":"Abruzzo","key":"StateName"},{"value":"Chieti","key":"CountyName"}]},"MapReference":{"ReferenceId":"915368106","SideOfStreet":"neither","CountryId":"20110484","StateId":"20127658","CountyId":"20217729","CityId":"20217834"}}},{"Relevance":1.0,"Distance":37.2,"MatchLevel":"houseNumber","MatchQuality":{"Country":1.0,"State":1.0,"County":1.0,"City":1.0,"Street":[1.0],"HouseNumber":1.0,"PostalCode":1.0},"MatchType":"interpolated","Location":{"LocationId":"NT_5doJojRc1p-yTVW1YpLqEA_0YE","LocationType":"point","DisplayPosition":{"Latitude":42.42494,"Longitude":14.27479},"MapView":{"TopLeft":{"Latitude":42.4260642,"Longitude":14.2732671},"BottomRight":{"Latitude":42.4238158,"Longitude":14.2763129}},"Address":{"Label":"Via Edoardo Scarfoglio, 4F, 66023 Francavilla al Mare CH, Italia","Country":"ITA","State":"Abruzzo","County":"CH","City":"Francavilla al Mare","Street":"Via Edoardo Scarfoglio","HouseNumber":"4F","PostalCode":"66023","AdditionalData":[{"value":"Italia","key":"CountryName"},{"value":"Abruzzo","key":"StateName"},{"value":"Chieti","key":"CountyName"}]},"MapReference":{"ReferenceId":"555056860","Spot":0.42,"SideOfStreet":"right","CountryId":"20110484","StateId":"20127658","CountyId":"20217729","CityId":"20217834","AddressId":"602832879","RoadLinkId":"56253173"}}},{"Relevance":1.0,"Distance":39.0,"MatchLevel":"houseNumber","MatchQuality":{"Country":1.0,"State":1.0,"County":1.0,"City":1.0,"Street":[1.0],"HouseNumber":1.0,"PostalCode":1.0},"MatchType":"interpolated","Location":{"LocationId":"NT_5doJojRc1p-yTVW1YpLqEA_1ME","LocationType":"point","DisplayPosition":{"Latitude":42.4242,"Longitude":14.27382},"MapView":{"TopLeft":{"Latitude":42.4253242,"Longitude":14.2722971},"BottomRight":{"Latitude":42.4230758,"Longitude":14.2753429}},"Address":{"Label":"Via Edoardo Scarfoglio, 5C, 66023 Francavilla al Mare CH, Italia","Country":"ITA","State":"Abruzzo","County":"CH","City":"Francavilla al Mare","Street":"Via Edoardo Scarfoglio","HouseNumber":"5C","PostalCode":"66023","AdditionalData":[{"value":"Italia","key":"CountryName"},{"value":"Abruzzo","key":"StateName"},{"value":"Chieti","key":"CountyName"}]},"MapReference":{"ReferenceId":"555056981","Spot":0.0,"SideOfStreet":"right","CountryId":"20110484","StateId":"20127658","CountyId":"20217729","CityId":"20217834","AddressId":"602844514","RoadLinkId":"56057995"}}},{"Relevance":1.0,"Distance":44.3,"MatchLevel":"street","MatchQuality":{"Country":1.0,"State":1.0,"County":1.0,"City":1.0,"Street":[1.0],"PostalCode":1.0},"Location":{"LocationId":"NT_.F.Jjmr0pKLRZNoj0ZJl7C_l_555063916_L","LocationType":"point","DisplayPosition":{"Latitude":42.42424,"Longitude":14.27466},"MapView":{"TopLeft":{"Latitude":42.42428,"Longitude":14.27466},"BottomRight":{"Latitude":42.42424,"Longitude":14.27528}},"Address":{"Label":"Strada Statale di Fondo Valle Alento, 66023 Francavilla al Mare CH, Italia","Country":"ITA","State":"Abruzzo","County":"CH","City":"Francavilla al Mare","Street":"Strada Statale di Fondo Valle Alento","PostalCode":"66023","AdditionalData":[{"value":"Italia","key":"CountryName"},{"value":"Abruzzo","key":"StateName"},{"value":"Chieti","key":"CountyName"}]},"MapReference":{"ReferenceId":"555063916","Spot":0.0,"SideOfStreet":"left","CountryId":"20110484","StateId":"20127658","CountyId":"20217729","CityId":"20217834"}}},{"Relevance":1.0,"Distance":44.3,"MatchLevel":"street","MatchQuality":{"Country":1.0,"State":1.0,"County":1.0,"City":1.0,"PostalCode":1.0},"Location":{"LocationId":"NT_Ese76H4efjKS8VvqyOAYBD_l_555063917_R","LocationType":"point","DisplayPosition":{"Latitude":42.42424,"Longitude":14.27466},"MapView":{"TopLeft":{"Latitude":42.42424,"Longitude":14.27466},"BottomRight":{"Latitude":42.42409,"Longitude":14.27521}},"Address":{"Label":"66023 Francavilla al Mare CH, Italia","Country":"ITA","State":"Abruzzo","County":"CH","City":"Francavilla al Mare","PostalCode":"66023","AdditionalData":[{"value":"Italia","key":"CountryName"},{"value":"Abruzzo","key":"StateName"},{"value":"Chieti","key":"CountyName"}]},"MapReference":{"ReferenceId":"555063917","Spot":1.0,"SideOfStreet":"right","CountryId":"20110484","StateId":"20127658","CountyId":"20217729","CityId":"20217834"}}},{"Relevance":1.0,"Distance":44.3,"MatchLevel":"street","MatchQuality":{"Country":1.0,"State":1.0,"County":1.0,"City":1.0,"Street":[1.0],"PostalCode":1.0},"Location":{"LocationId":"NT_.F.Jjmr0pKLRZNoj0ZJl7C_l_799691262_L","LocationType":"point","DisplayPosition":{"Latitude":42.4242378,"Longitude":14.2746255},"MapView":{"TopLeft":{"Latitude":42.42424,"Longitude":14.27434},"BottomRight":{"Latitude":42.42422,"Longitude":14.27466}},"Address":{"Label":"Strada Statale di Fondo Valle Alento, 66023 Francavilla al Mare CH, Italia","Country":"ITA","State":"Abruzzo","County":"CH","City":"Francavilla al Mare","Street":"Strada Statale di Fondo Valle Alento","PostalCode":"66023","AdditionalData":[{"value":"Italia","key":"CountryName"},{"value":"Abruzzo","key":"StateName"},{"value":"Chieti","key":"CountyName"}]},"MapReference":{"ReferenceId":"799691262","Spot":0.89,"SideOfStreet":"left","CountryId":"20110484","StateId":"20127658","CountyId":"20217729","CityId":"20217834"}}},{"Relevance":1.0,"Distance":50.9,"MatchLevel":"street","MatchQuality":{"Country":1.0,"State":1.0,"County":1.0,"City":1.0,"Street":[1.0],"PostalCode":1.0},"Location":{"LocationId":"NT_AbAZTo3S0NI3pVyPuMtWpA_l_799691261_L","LocationType":"point","DisplayPosition":{"Latitude":42.42422,"Longitude":14.27434},"MapView":{"TopLeft":{"Latitude":42.42422,"Longitude":14.27382},"BottomRight":{"Latitude":42.4242,"Longitude":14.27434}},"Address":{"Label":"Strada Statale di Fondo Valle Alento, 66023 Francavilla al Mare CH, Italia","Country":"ITA","State":"Abruzzo","County":"CH","City":"Francavilla al Mare","Street":"Strada Statale di Fondo Valle Alento","PostalCode":"66023","AdditionalData":[{"value":"Italia","key":"CountryName"},{"value":"Abruzzo","key":"StateName"},{"value":"Chieti","key":"CountyName"}]},"MapReference":{"ReferenceId":"799691261","Spot":1.0,"SideOfStreet":"left","CountryId":"20110484","StateId":"20127658","CountyId":"20217729","CityId":"20217834"}}},{"Relevance":1.0,"Distance":56.6,"MatchLevel":"street","MatchQuality":{"Country":1.0,"State":1.0,"County":1.0,"City":1.0,"Street":[1.0],"PostalCode":1.0},"Location":{"LocationId":"NT_5doJojRc1p-yTVW1YpLqEA_l_1260703134_R","LocationType":"point","DisplayPosition":{"Latitude":42.42509,"Longitude":14.27429},"MapView":{"TopLeft":{"Latitude":42.4251,"Longitude":14.27335},"BottomRight":{"Latitude":42.425,"Longitude":14.27429}},"Address":{"Label":"Via Edoardo Scarfoglio, 66023 Francavilla al Mare CH, Italia","Country":"ITA","State":"Abruzzo","County":"CH","City":"Francavilla al Mare","Street":"Via Edoardo Scarfoglio","PostalCode":"66023","AdditionalData":[{"value":"Italia","key":"CountryName"},{"value":"Abruzzo","key":"StateName"},{"value":"Chieti","key":"CountyName"}]},"MapReference":{"ReferenceId":"1260703134","Spot":1.0,"SideOfStreet":"right","CountryId":"20110484","StateId":"20127658","CountyId":"20217729","CityId":"20217834"}}},{"Relevance":1.0,"Distance":66.8,"MatchLevel":"street","MatchQuality":{"Country":1.0,"State":1.0,"County":1.0,"City":1.0,"PostalCode":1.0},"Location":{"LocationId":"NT_Ese76H4efjKS8VvqyOAYBD_l_555063895_L","LocationType":"point","DisplayPosition":{"Latitude":42.42423,"Longitude":14.2752},"MapView":{"TopLeft":{"Latitude":42.42428,"Longitude":14.27518},"BottomRight":{"Latitude":42.42409,"Longitude":14.27528}},"Address":{"Label":"66023 Francavilla al Mare CH, Italia","Country":"ITA","State":"Abruzzo","County":"CH","City":"Francavilla al Mare","PostalCode":"66023","AdditionalData":[{"value":"Italia","key":"CountryName"},{"value":"Abruzzo","key":"StateName"},{"value":"Chieti","key":"CountyName"}]},"MapReference":{"ReferenceId":"555063895","Spot":0.61,"SideOfStreet":"left","CountryId":"20110484","StateId":"20127658","CountyId":"20217729","CityId":"20217834"}}},{"Relevance":1.0,"Distance":68.4,"MatchLevel":"street","MatchQuality":{"Country":1.0,"State":1.0,"County":1.0,"City":1.0,"PostalCode":1.0},"Location":{"LocationId":"NT_Ese76H4efjKS8VvqyOAYBD_l_555063918_L","LocationType":"point","DisplayPosition":{"Latitude":42.42428,"Longitude":14.27528},"MapView":{"TopLeft":{"Latitude":42.42429,"Longitude":14.27528},"BottomRight":{"Latitude":42.42428,"Longitude":14.27535}},"Address":{"Label":"66023 Francavilla al Mare CH, Italia","Country":"ITA","State":"Abruzzo","County":"CH","City":"Francavilla al Mare","PostalCode":"66023","AdditionalData":[{"value":"Italia","key":"CountryName"},{"value":"Abruzzo","key":"StateName"},{"value":"Chieti","key":"CountyName"}]},"MapReference":{"ReferenceId":"555063918","Spot":0.0,"SideOfStreet":"left","CountryId":"20110484","StateId":"20127658","CountyId":"20217729","CityId":"20217834"}}}]}]}}