{"Response":{"MetaInfo":{"Timestamp":"2020-03-28T10:52:59.157+0000","NextPageInformation":"2"},"View":[{"_type":"SearchResultsViewType","ViewId":0,"Result":[{"Relevance":1.0,"Distance":0.0,"Direction":0.0,"MatchLevel":"district","MatchQuality":{"Country":1.0,"County":1.0,"City":1.0,"District":1.0,"PostalCode":1.0},"Location":{"LocationId":"NT_33Uks8NPjvw3MQdiZ.HPbC","LocationType":"point","DisplayPosition":{"Latitude":42.4875285,"Longitude":26.5147807},"MapView":{"TopLeft":{"Latitude":42.48746,"Longitude":26.51367},"BottomRight":{"Latitude":42.4832,"Longitude":26.5192}},"Address":{"Label":"жк Ген. Владимир Заимов, Ямбол, България","Country":"BGR","County":"Ямбол","City":"Ямбол","District":"жк Ген. Владимир Заимов","PostalCode":"8600","AdditionalData":[{"value":"България","key":"CountryName"},{"value":"Ямбол","key":"CountyName"}]},"MapReference":{"ReferenceId":"809898870","SideOfStreet":"neither","CountryId":"20656214","CountyId":"23719415","CityId":"23719360"}}},{"Relevance":1.0,"Distance":8.3,"MatchLevel":"street","MatchQuality":{"Country":1.0,"County":1.0,"City":1.0,"District":1.0,"Street":[1.0],"PostalCode":1.0},"Location":{"LocationId":"NT_SMierFn1vkmmKseRnjnReA_l_957056818_R","LocationType":"point","DisplayPosition":{"Latitude":42.48746,"Longitude":26.51474},"MapView":{"TopLeft":{"Latitude":42.48761,"Longitude":26.51421},"BottomRight":{"Latitude":42.48746,"Longitude":26.51474}},"Address":{"Label":"Улица Димитър Благоев, 8600 Ямбол, България","Country":"BGR","County":"Ямбол","City":"Ямбол","District":"Център","Street":"Улица Димитър Благоев","PostalCode":"8600","AdditionalData":[{"value":"България","key":"CountryName"},{"value":"Ямбол","key":"CountyName"}]},"MapReference":{"ReferenceId":"957056818","Spot":0.0,"SideOfStreet":"right","CountryId":"20656214","CountyId":"23719415","CityId":"23719360"}}},{"Relevance":1.0,"Distance":27.6,"MatchLevel":"houseNumber","MatchQuality":{"Country":1.0,"County":1.0,"City":1.0,"District":1.0,"Street":[1.0],"HouseNumber":1.0,"PostalCode":1.0},"MatchType":"interpolated","Location":{"LocationId":"NT_K-oxZ--KsCzl.pvwJO7V.A_2AD","LocationType":"point","DisplayPosition":{"Latitude":42.48737,"Longitude":26.51504},"MapView":{"TopLeft":{"Latitude":42.4884942,"Longitude":26.5135156},"BottomRight":{"Latitude":42.4862458,"Longitude":26.5165644}},"Address":{"Label":"Улица Димитър Благоев 60, 8600 Ямбол, България","Country":"BGR","County":"Ямбол","City":"Ямбол","District":"жк Ген. Владимир Заимов","Street":"Улица Димитър Благоев","HouseNumber":"60","PostalCode":"8600","AdditionalData":[{"value":"България","key":"CountryName"},{"value":"Ямбол","key":"CountyName"}]},"MapReference":{"ReferenceId":"957056817","Spot":0.39,"SideOfStreet":"left","CountryId":"20656214","CountyId":"23719415","CityId":"23719360","AddressId":"296715477","RoadLinkId":"300017366"}}},{"Relevance":1.0,"Distance":37.8,"MatchLevel":"houseNumber","MatchQuality":{"Country":1.0,"County":1.0,"City":1.0,"District":1.0,"Street":[1.0],"HouseNumber":1.0,"PostalCode":1.0},"MatchType":"interpolated","Location":{"LocationId":"NT_SM.6uetJRxbk-6NQnvCkHB_zAD","LocationType":"point","DisplayPosition":{"Latitude":42.48785,"Longitude":26.51493},"MapView":{"TopLeft":{"Latitude":42.4889742,"Longitude":26.5134056},"BottomRight":{"Latitude":42.4867258,"Longitude":26.5164544}},"Address":{"Label":"Улица Панайот Хитов 30, 8600 Ямбол, България","Country":"BGR","County":"Ямбол","City":"Ямбол","District":"Ямбол","Street":"Улица Панайот Хитов","HouseNumber":"30","PostalCode":"8600","AdditionalData":[{"value":"България","key":"CountryName"},{"value":"Ямбол","key":"CountyName"}]},"MapReference":{"ReferenceId":"809980695","Spot":0.72,"SideOfStreet":"right","CountryId":"20656214","CountyId":"23719415","CityId":"23719360","DistrictId":"23717353","AddressId":"296705787","RoadLinkId":"197132437"}}},{"Relevance":1.0,"Distance":38.8,"MatchLevel":"houseNumber","MatchQuality":{"Country":1.0,"County":1.0,"City":1.0,"District":1.0,"Street":[1.0],"HouseNumber":1.0,"PostalCode":1.0},"MatchType":"interpolated","Location":{"LocationId":"NT_lOclvDbwcD9sCKPGuJAWxD_yYD","LocationType":"point","DisplayPosition":{"Latitude":42.48721,"Longitude":26.51461},"MapView":{"TopLeft":{"Latitude":42.4883342,"Longitude":26.5130856},"BottomRight":{"Latitude":42.4860858,"Longitude":26.5161344}},"Address":{"Label":"Улица Панайот Хитов 26, 8600 Ямбол, България","Country":"BGR","County":"Ямбол","City":"Ямбол","District":"жк Ген. Владимир Заимов","Street":"Улица Панайот Хитов","HouseNumber":"26","PostalCode":"8600","AdditionalData":[{"value":"България","key":"CountryName"},{"value":"Ямбол","key":"CountyName"}]},"MapReference":{"ReferenceId":"809979305","Spot":0.68,"SideOfStreet":"right","CountryId":"20656214","CountyId":"23719415","CityId":"23719360","AddressId":"296726356","RoadLinkId":"197132570"}}},{"Relevance":1.0,"Distance":46.2,"MatchLevel":"houseNumber","MatchQuality":{"Country":1.0,"County":1.0,"City":1.0,"District":1.0,"Street":[1.0],"HouseNumber":1.0,"PostalCode":1.0},"MatchType":"interpolated","Location":{"LocationId":"NT_K-oxZ--KsCzl.pvwJO7V.A_2QD","LocationType":"point","DisplayPosition":{"Latitude":42.48731,"Longitude":26.51526},"MapView":{"TopLeft":{"Latitude":42.4884342,"Longitude":26.5137356},"BottomRight":{"Latitude":42.4861858,"Longitude":26.5167844}},"Address":{"Label":"Улица Димитър Благоев 64, 8600 Ямбол, България","Country":"BGR","County":"Ямбол","City":"Ямбол","District":"жк Ген. Владимир Заимов","Street":"Улица Димитър Благоев","HouseNumber":"64","PostalCode":"8600","AdditionalData":[{"value":"България","key":"CountryName"},{"value":"Ямбол","key":"CountyName"}]},"MapReference":{"ReferenceId":"957056816","Spot":0.95,"SideOfStreet":"left","CountryId":"20656214","CountyId":"23719415","CityId":"23719360","AddressId":"296715475","RoadLinkId":"300017365"}}},{"Relevance":1.0,"Distance":47.7,"MatchLevel":"houseNumber","MatchQuality":{"Country":1.0,"County":1.0,"City":1.0,"District":1.0,"Street":[1.0],"HouseNumber":1.0,"PostalCode":1.0},"MatchType":"interpolated","Location":{"LocationId":"NT_SMierFn1vkmmKseRnjnReA_1YD","LocationType":"point","DisplayPosition":{"Latitude":42.48761,"Longitude":26.51421},"MapView":{"TopLeft":{"Latitude":42.4887342,"Longitude":26.5126856},"BottomRight":{"Latitude":42.4864858,"Longitude":26.5157344}},"Address":{"Label":"Улица Димитър Благоев 56, 8600 Ямбол, България","Country":"BGR","County":"Ямбол","City":"Ямбол","District":"Център","Street":"Улица Димитър Благоев","HouseNumber":"56","PostalCode":"8600","AdditionalData":[{"value":"България","key":"CountryName"},{"value":"Ямбол","key":"CountyName"}]},"MapReference":{"ReferenceId":"957056819","Spot":0.0,"SideOfStreet":"left","CountryId":"20656214","CountyId":"23719415","CityId":"23719360","AddressId":"296721069","RoadLinkId":"300017368"}}},{"Relevance":1.0,"Distance":55.7,"MatchLevel":"street","MatchQuality":{"Country":1.0,"County":1.0,"City":1.0,"District":1.0,"Street":[1.0],"PostalCode":1.0},"Location":{"LocationId":"NT_SM.6uetJRxbk-6NQnvCkHB_l_809808133_R","LocationType":"point","DisplayPosition":{"Latitude":42.488,"Longitude":26.51501},"MapView":{"TopLeft":{"Latitude":42.4882,"Longitude":26.51501},"BottomRight":{"Latitude":42.488,"Longitude":26.51511}},"Address":{"Label":"Улица Панайот Хитов, 8600 Ямбол, България","Country":"BGR","County":"Ямбол","City":"Ямбол","District":"Ямбол","Street":"Улица Панайот Хитов","PostalCode":"8600","AdditionalData":[{"value":"България","key":"CountryName"},{"value":"Ямбол","key":"CountyName"}]},"MapReference":{"ReferenceId":"809808133","Spot":0.0,"SideOfStreet":"right","CountryId":"20656214","CountyId":"23719415","CityId":"23719360","DistrictId":"23717353"}}},{"Relevance":1.0,"Distance":55.7,"MatchLevel":"street","MatchQuality":{"Country":1.0,"County":1.0,"City":1.0,"District":1.0,"PostalCode":1.0},"Location":{"LocationId":"NT_I.DnFQjZL.BYc1plRDL0FA_l_941770710_L","LocationType":"point","DisplayPosition":{"Latitude":42.488,"Longitude":26.51501},"MapView":{"TopLeft":{"Latitude":42.488,"Longitude":26.51501},"BottomRight":{"Latitude":42.48796,"Longitude":26.51515}},"Address":{"Label":"8600 Ямбол, България","Country":"BGR","County":"Ямбол","City":"Ямбол","District":"Ямбол","PostalCode":"8600","AdditionalData":[{"value":"България","key":"CountryName"},{"value":"Ямбол","key":"CountyName"}]},"MapReference":{"ReferenceId":"941770710","Spot":1.0,"SideOfStreet":"left","CountryId":"20656214","CountyId":"23719415","CityId":"23719360","DistrictId":"23717353"}}},{"Relevance":1.0,"Distance":56.7,"MatchLevel":"street","MatchQuality":{"Country":1.0,"County":1.0,"City":1.0,"District":1.0,"PostalCode":1.0},"Location":{"LocationId":"NT_I.DnFQjZL.BYc1plRDL0FA_l_941770709_L","LocationType":"point","DisplayPosition":{"Latitude":42.48796,"Longitude":26.51515},"MapView":{"TopLeft":{"Latitude":42.48796,"Longitude":26.51515},"BottomRight":{"Latitude":42.48754,"Longitude":26.51662}},"Address":{"Label":"8600 Ямбол, България","Country":"BGR","County":"Ямбол","City":"Ямбол","District":"Ямбол","PostalCode":"8600","AdditionalData":[{"value":"България","key":"CountryName"},{"value":"Ямбол","key":"CountyName"}]},"MapReference":{"ReferenceId":"941770709","Spot":1.0,"SideOfStreet":"left","CountryId":"20656214","CountyId":"23719415","CityId":"23719360","DistrictId":"23717353"}}}]}]}}