{"Response":{"MetaInfo":{"Timestamp":"2020-03-28T10:16:24.188+0000","NextPageInformation":"2"},"View":[{"_type":"SearchResultsViewType","ViewId":0,"Result":[{"Relevance":1.0,"Distance":0.0,"Direction":0.0,"MatchLevel":"district","MatchQuality":{"Country":1.0,"County":1.0,"City":1.0,"District":1.0,"PostalCode":1.0},"Location":{"LocationId":"NT_uhdePH4JoNK.Cs4qOradFD","LocationType":"point","DisplayPosition":{"Latitude":42.5967489,"Longitude":25.2050212},"MapView":{"TopLeft":{"Latitude":42.60381,"Longitude":25.19539},"BottomRight":{"Latitude":42.58525,"Longitude":25.21875}},"Address":{"Label":"Павел баня, България","Country":"BGR","County":"Стара Загора","City":"Павел баня","District":"Павел баня","PostalCode":"6155","AdditionalData":[{"value":"България","key":"CountryName"},{"value":"Стара Загора","key":"CountyName"}]},"MapReference":{"ReferenceId":"811199653","SideOfStreet":"neither","CountryId":"20656214","CountyId":"23719429","CityId":"23719282","DistrictId":"23717158"}}},{"Relevance":1.0,"Distance":2.0,"MatchLevel":"houseNumber","MatchQuality":{"Country":1.0,"County":1.0,"City":1.0,"District":1.0,"Street":[1.0],"HouseNumber":1.0,"PostalCode":1.0},"MatchType":"interpolated","Location":{"LocationId":"NT_bC0ZHLV32LjlQGybMJ6DoC_yA","LocationType":"point","DisplayPosition":{"Latitude":42.59676,"Longitude":25.20504},"MapView":{"TopLeft":{"Latitude":42.5978842,"Longitude":25.2035129},"BottomRight":{"Latitude":42.5956358,"Longitude":25.2065671}},"Address":{"Label":"Улица Георги Раковски 2, 6155 Павел баня, България","Country":"BGR","County":"Стара Загора","City":"Павел баня","District":"Павел баня","Street":"Улица Георги Раковски","HouseNumber":"2","PostalCode":"6155","AdditionalData":[{"value":"България","key":"CountryName"},{"value":"Стара Загора","key":"CountyName"}]},"MapReference":{"ReferenceId":"816249144","Spot":0.73,"SideOfStreet":"left","CountryId":"20656214","CountyId":"23719429","CityId":"23719282","DistrictId":"23717158","AddressId":"344122122","RoadLinkId":"203663474"}}},{"Relevance":1.0,"Distance":25.9,"MatchLevel":"houseNumber","MatchQuality":{"Country":1.0,"County":1.0,"City":1.0,"District":1.0,"Street":[1.0],"HouseNumber":1.0,"PostalCode":1.0},"MatchType":"interpolated","Location":{"LocationId":"NT_MTuLaBawtN5GwFvzZD3FMA_yUD","LocationType":"point","DisplayPosition":{"Latitude":42.59701,"Longitude":25.20464},"MapView":{"TopLeft":{"Latitude":42.5981342,"Longitude":25.2031129},"BottomRight":{"Latitude":42.5958858,"Longitude":25.2061671}},"Address":{"Label":"Улица Освобождение 25, 6155 Павел баня, България","Country":"BGR","County":"Стара Загора","City":"Павел баня","District":"Павел баня","Street":"Улица Освобождение","HouseNumber":"25","PostalCode":"6155","AdditionalData":[{"value":"България","key":"CountryName"},{"value":"Стара Загора","key":"CountyName"}]},"MapReference":{"ReferenceId":"816249138","Spot":0.71,"SideOfStreet":"right","CountryId":"20656214","CountyId":"23719429","CityId":"23719282","DistrictId":"23717158","AddressId":"344111172","RoadLinkId":"203663468"}}},{"Relevance":1.0,"Distance":30.5,"MatchLevel":"houseNumber","MatchQuality":{"Country":1.0,"County":1.0,"City":1.0,"District":1.0,"Street":[1.0],"HouseNumber":1.0,"PostalCode":1.0},"MatchType":"interpolated","Location":{"LocationId":"NT_MTuLaBawtN5GwFvzZD3FMA_yMD","LocationType":"point","DisplayPosition":{"Latitude":42.59714,"Longitude":25.20508},"MapView":{"TopLeft":{"Latitude":42.5982642,"Longitude":25.2035529},"BottomRight":{"Latitude":42.5960158,"Longitude":25.2066071}},"Address":{"Label":"Улица Освобождение 23, 6155 Павел баня, България","Country":"BGR","County":"Стара Загора","City":"Павел баня","District":"Павел баня","Street":"Улица Освобождение","HouseNumber":"23","PostalCode":"6155","AdditionalData":[{"value":"България","key":"CountryName"},{"value":"Стара Загора","key":"CountyName"}]},"MapReference":{"ReferenceId":"816249146","Spot":0.67,"SideOfStreet":"right","CountryId":"20656214","CountyId":"23719429","CityId":"23719282","DistrictId":"23717158","AddressId":"594061089","RoadLinkId":"203663476"}}},{"Relevance":1.0,"Distance":48.0,"MatchLevel":"houseNumber","MatchQuality":{"Country":1.0,"County":1.0,"City":1.0,"District":1.0,"Street":[1.0],"HouseNumber":1.0,"PostalCode":1.0},"MatchType":"interpolated","Location":{"LocationId":"NT_.dzmlIrbLwvmjYEngNcsGA_zA","LocationType":"point","DisplayPosition":{"Latitude":42.59634,"Longitude":25.20428},"MapView":{"TopLeft":{"Latitude":42.5974642,"Longitude":25.2027529},"BottomRight":{"Latitude":42.5952158,"Longitude":25.2058071}},"Address":{"Label":"Улица Опълченска 3, 6155 Павел баня, България","Country":"BGR","County":"Стара Загора","City":"Павел баня","District":"Павел баня","Street":"Улица Опълченска","HouseNumber":"3","PostalCode":"6155","AdditionalData":[{"value":"България","key":"CountryName"},{"value":"Стара Загора","key":"CountyName"}]},"MapReference":{"ReferenceId":"816249142","Spot":0.47,"SideOfStreet":"right","CountryId":"20656214","CountyId":"23719429","CityId":"23719282","DistrictId":"23717158","AddressId":"344128818","RoadLinkId":"203663472"}}},{"Relevance":1.0,"Distance":51.8,"MatchLevel":"houseNumber","MatchQuality":{"Country":1.0,"County":1.0,"City":1.0,"District":1.0,"Street":[1.0],"HouseNumber":1.0,"PostalCode":1.0},"MatchType":"interpolated","Location":{"LocationId":"NT_MTuLaBawtN5GwFvzZD3FMA_yED","LocationType":"point","DisplayPosition":{"Latitude":42.59723,"Longitude":25.20538},"MapView":{"TopLeft":{"Latitude":42.5983542,"Longitude":25.2038529},"BottomRight":{"Latitude":42.5961058,"Longitude":25.2069071}},"Address":{"Label":"Улица Освобождение 21, 6155 Павел баня, България","Country":"BGR","County":"Стара Загора","City":"Павел баня","District":"Павел баня","Street":"Улица Освобождение","HouseNumber":"21","PostalCode":"6155","AdditionalData":[{"value":"България","key":"CountryName"},{"value":"Стара Загора","key":"CountyName"}]},"MapReference":{"ReferenceId":"816249145","Spot":0.45,"SideOfStreet":"right","CountryId":"20656214","CountyId":"23719429","CityId":"23719282","DistrictId":"23717158","AddressId":"344056542","RoadLinkId":"203663475"}}},{"Relevance":1.0,"Distance":65.3,"MatchLevel":"houseNumber","MatchQuality":{"Country":1.0,"County":1.0,"City":1.0,"District":1.0,"Street":[1.0],"HouseNumber":1.0,"PostalCode":1.0},"MatchType":"interpolated","Location":{"LocationId":"NT_ZDiVHXg-pbGO2EQ0XRjtzA_yA","LocationType":"point","DisplayPosition":{"Latitude":42.59713,"Longitude":25.20571},"MapView":{"TopLeft":{"Latitude":42.5982542,"Longitude":25.2041829},"BottomRight":{"Latitude":42.5960058,"Longitude":25.2072371}},"Address":{"Label":"Улица Акация 2, 6155 Павел баня, България","Country":"BGR","County":"Стара Загора","City":"Павел баня","District":"Павел баня","Street":"Улица Акация","HouseNumber":"2","PostalCode":"6155","AdditionalData":[{"value":"България","key":"CountryName"},{"value":"Стара Загора","key":"CountyName"}]},"MapReference":{"ReferenceId":"816249287","Spot":0.82,"SideOfStreet":"left","CountryId":"20656214","CountyId":"23719429","CityId":"23719282","DistrictId":"23717158","AddressId":"344132713","RoadLinkId":"203663617"}}},{"Relevance":1.0,"Distance":67.1,"MatchLevel":"houseNumber","MatchQuality":{"Country":1.0,"County":1.0,"City":1.0,"District":1.0,"Street":[1.0],"HouseNumber":1.0,"PostalCode":1.0},"MatchType":"interpolated","Location":{"LocationId":"NT_Je78SOpOMiU45unTnxoCwA_yAD","LocationType":"point","DisplayPosition":{"Latitude":42.5959,"Longitude":25.20485},"MapView":{"TopLeft":{"Latitude":42.5970242,"Longitude":25.2033229},"BottomRight":{"Latitude":42.5947758,"Longitude":25.2063771}},"Address":{"Label":"Улица Георги Бенковски 20, 6155 Павел баня, България","Country":"BGR","County":"Стара Загора","City":"Павел баня","District":"Павел баня","Street":"Улица Георги Бенковски","HouseNumber":"20","PostalCode":"6155","AdditionalData":[{"value":"България","key":"CountryName"},{"value":"Стара Загора","key":"CountyName"}]},"MapReference":{"ReferenceId":"816249147","Spot":0.39,"SideOfStreet":"left","CountryId":"20656214","CountyId":"23719429","CityId":"23719282","DistrictId":"23717158","AddressId":"344105932","RoadLinkId":"203663477"}}},{"Relevance":1.0,"Distance":74.6,"MatchLevel":"houseNumber","MatchQuality":{"Country":1.0,"County":1.0,"City":1.0,"District":1.0,"Street":[1.0],"HouseNumber":1.0,"PostalCode":1.0},"MatchType":"interpolated","Location":{"LocationId":"NT_MTuLaBawtN5GwFvzZD3FMA_zED","LocationType":"point","DisplayPosition":{"Latitude":42.59685,"Longitude":25.20405},"MapView":{"TopLeft":{"Latitude":42.5979742,"Longitude":25.2025229},"BottomRight":{"Latitude":42.5957258,"Longitude":25.2055771}},"Address":{"Label":"Улица Освобождение 31, 6155 Павел баня, България","Country":"BGR","County":"Стара Загора","City":"Павел баня","District":"Павел баня","Street":"Улица Освобождение","HouseNumber":"31","PostalCode":"6155","AdditionalData":[{"value":"България","key":"CountryName"},{"value":"Стара Загора","key":"CountyName"}]},"MapReference":{"ReferenceId":"816249139","Spot":0.7,"SideOfStreet":"right","CountryId":"20656214","CountyId":"23719429","CityId":"23719282","DistrictId":"23717158","AddressId":"344129307","RoadLinkId":"203663469"}}},{"Relevance":1.0,"Distance":90.2,"MatchLevel":"houseNumber","MatchQuality":{"Country":1.0,"County":1.0,"City":1.0,"District":1.0,"Street":[1.0],"HouseNumber":1.0,"PostalCode":1.0},"MatchType":"interpolated","Location":{"LocationId":"NT_Je78SOpOMiU45unTnxoCwA_xQD","LocationType":"point","DisplayPosition":{"Latitude":42.59606,"Longitude":25.20577},"MapView":{"TopLeft":{"Latitude":42.5971842,"Longitude":25.2042429},"BottomRight":{"Latitude":42.5949358,"Longitude":25.2072971}},"Address":{"Label":"Улица Георги Бенковски 14, 6155 Павел баня, България","Country":"BGR","County":"Стара Загора","City":"Павел баня","District":"Павел баня","Street":"Улица Георги Бенковски","HouseNumber":"14","PostalCode":"6155","AdditionalData":[{"value":"България","key":"CountryName"},{"value":"Стара Загора","key":"CountyName"}]},"MapReference":{"ReferenceId":"816249149","Spot":0.19,"SideOfStreet":"left","CountryId":"20656214","CountyId":"23719429","CityId":"23719282","DistrictId":"23717158","AddressId":"344144374","RoadLinkId":"203663479"}}}]}]}}