{"Response":{"MetaInfo":{"Timestamp":"2020-03-28T11:03:54.221+0000","NextPageInformation":"2"},"View":[{"_type":"SearchResultsViewType","ViewId":0,"Result":[{"Relevance":1.0,"Distance":-35.4,"MatchLevel":"landmark","MatchQuality":{"Country":1.0,"State":1.0,"County":1.0,"City":1.0,"PostalCode":1.0,"Name":1.0},"Location":{"LocationId":"NT_2XLCyKAgmQnZljKmSc.cFD","LocationType":"industrialComplex","Name":"Parque Industrial El Bierzo","DisplayPosition":{"Latitude":42.55326,"Longitude":-6.61552},"MapView":{"TopLeft":{"Latitude":42.55633,"Longitude":-6.62123},"BottomRight":{"Latitude":42.55018,"Longitude":-6.61046}},"Address":{"Label":"24402 Ponferrada (León), España","Country":"ESP","State":"Castilla y León","County":"León","City":"Ponferrada","PostalCode":"24402","AdditionalData":[{"value":"España","key":"CountryName"},{"value":"Castilla y León","key":"StateName"},{"value":"León","key":"CountyName"}]},"MapReference":{"CountryId":"20215059","StateId":"20221909","CountyId":"20221912","CityId":"20306043","PlaceId":"554958862"}}},{"Relevance":1.0,"Distance":0.0,"Direction":0.0,"MatchLevel":"city","MatchQuality":{"Country":1.0,"State":1.0,"County":1.0,"City":1.0,"PostalCode":1.0},"Location":{"LocationId":"NT_siu2xpOTQebMabWpVz5O5A","LocationType":"point","DisplayPosition":{"Latitude":42.5539323,"Longitude":-6.6116437},"MapView":{"TopLeft":{"Latitude":42.61268,"Longitude":-6.71249},"BottomRight":{"Latitude":42.3862,"Longitude":-6.40704}},"Address":{"Label":"Ponferrada, Castilla y León, España","Country":"ESP","State":"Castilla y León","County":"León","City":"Ponferrada","PostalCode":"24402","AdditionalData":[{"value":"España","key":"CountryName"},{"value":"Castilla y León","key":"StateName"},{"value":"León","key":"CountyName"}]},"MapReference":{"ReferenceId":"984012369","SideOfStreet":"neither","CountryId":"20215059","StateId":"20221909","CountyId":"20221912","CityId":"20306043"}}},{"Relevance":1.0,"Distance":4.4,"MatchLevel":"street","MatchQuality":{"Country":1.0,"State":1.0,"County":1.0,"City":1.0,"Street":[1.0],"PostalCode":1.0},"Location":{"LocationId":"NT_uVnUBOnMnboIDGAueQbizA_l_580718335_L","LocationType":"point","DisplayPosition":{"Latitude":42.5539077,"Longitude":-6.6116019},"MapView":{"TopLeft":{"Latitude":42.5542,"Longitude":-6.61173},"BottomRight":{"Latitude":42.55292,"Longitude":-6.61136}},"Address":{"Label":"Calle Francisco González, 24404 Ponferrada (León), España","Country":"ESP","State":"Castilla y León","County":"León","City":"Ponferrada","Street":"Calle Francisco González","PostalCode":"24404","AdditionalData":[{"value":"España","key":"CountryName"},{"value":"Castilla y León","key":"StateName"},{"value":"León","key":"CountyName"}]},"MapReference":{"ReferenceId":"580718335","Spot":0.82,"SideOfStreet":"left","CountryId":"20215059","StateId":"20221909","CountyId":"20221912","CityId":"20306043"}}},{"Relevance":1.0,"Distance":19.9,"MatchLevel":"houseNumber","MatchQuality":{"Country":1.0,"State":1.0,"County":1.0,"City":1.0,"Street":[1.0],"HouseNumber":1.0,"PostalCode":1.0},"MatchType":"interpolated","Location":{"LocationId":"NT_PEpZb6e0zOVjeNnBHKpheB_l_1062478291_L_0kD","LocationType":"point","DisplayPosition":{"Latitude":42.5542,"Longitude":-6.61143},"MapView":{"TopLeft":{"Latitude":42.5553242,"Longitude":-6.6129561},"BottomRight":{"Latitude":42.5530759,"Longitude":-6.609904}},"Address":{"Label":"Calle Camino de Santiago, 49, 24404 Ponferrada (León), España","Country":"ESP","State":"Castilla y León","County":"León","City":"Ponferrada","Street":"Calle Camino de Santiago","HouseNumber":"49","PostalCode":"24404","AdditionalData":[{"value":"España","key":"CountryName"},{"value":"Castilla y León","key":"StateName"},{"value":"León","key":"CountyName"}]},"MapReference":{"ReferenceId":"1062478291","Spot":0.0,"SideOfStreet":"left","CountryId":"20215059","StateId":"20221909","CountyId":"20221912","CityId":"20306043"}}},{"Relevance":1.0,"Distance":32.2,"MatchLevel":"houseNumber","MatchQuality":{"Country":1.0,"State":1.0,"County":1.0,"City":1.0,"Street":[1.0],"HouseNumber":1.0,"PostalCode":1.0},"MatchType":"interpolated","Location":{"LocationId":"NT_PEpZb6e0zOVjeNnBHKpheB_l_949339959_L_0cD","LocationType":"point","DisplayPosition":{"Latitude":42.554075,"Longitude":-6.611185},"MapView":{"TopLeft":{"Latitude":42.5551992,"Longitude":-6.6127111},"BottomRight":{"Latitude":42.5529509,"Longitude":-6.609659}},"Address":{"Label":"Calle Camino de Santiago, 47, 24404 Ponferrada (León), España","Country":"ESP","State":"Castilla y León","County":"León","City":"Ponferrada","Street":"Calle Camino de Santiago","HouseNumber":"47","PostalCode":"24404","AdditionalData":[{"value":"España","key":"CountryName"},{"value":"Castilla y León","key":"StateName"},{"value":"León","key":"CountyName"}]},"MapReference":{"ReferenceId":"949339959","Spot":0.48,"SideOfStreet":"left","CountryId":"20215059","StateId":"20221909","CountyId":"20221912","CityId":"20306043"}}},{"Relevance":1.0,"Distance":35.9,"MatchLevel":"houseNumber","MatchQuality":{"Country":1.0,"State":1.0,"County":1.0,"City":1.0,"Street":[1.0],"HouseNumber":1.0,"PostalCode":1.0},"MatchType":"interpolated","Location":{"LocationId":"NT_PEpZb6e0zOVjeNnBHKpheB_l_1062478292_L_1MD","LocationType":"point","DisplayPosition":{"Latitude":42.5543598,"Longitude":-6.6117396},"MapView":{"TopLeft":{"Latitude":42.5554839,"Longitude":-6.6132657},"BottomRight":{"Latitude":42.5532356,"Longitude":-6.6102135}},"Address":{"Label":"Calle Camino de Santiago, 53, 24404 Ponferrada (León), España","Country":"ESP","State":"Castilla y León","County":"León","City":"Ponferrada","Street":"Calle Camino de Santiago","HouseNumber":"53","PostalCode":"24404","AdditionalData":[{"value":"España","key":"CountryName"},{"value":"Castilla y León","key":"StateName"},{"value":"León","key":"CountyName"}]},"MapReference":{"ReferenceId":"1062478292","Spot":0.6,"SideOfStreet":"left","CountryId":"20215059","StateId":"20221909","CountyId":"20221912","CityId":"20306043"}}},{"Relevance":1.0,"Distance":46.1,"MatchLevel":"houseNumber","MatchQuality":{"Country":1.0,"State":1.0,"County":1.0,"City":1.0,"Street":[1.0],"HouseNumber":1.0,"PostalCode":1.0},"MatchType":"interpolated","Location":{"LocationId":"NT_x7UIgQN8r30Vh6VOcCgPwD_xED","LocationType":"point","DisplayPosition":{"Latitude":42.55364,"Longitude":-6.61213},"MapView":{"TopLeft":{"Latitude":42.5547642,"Longitude":-6.613656},"BottomRight":{"Latitude":42.5525158,"Longitude":-6.610604}},"Address":{"Label":"Calle Burdeos, 11, 24404 Ponferrada (León), España","Country":"ESP","State":"Castilla y León","County":"León","City":"Ponferrada","Street":"Calle Burdeos","HouseNumber":"11","PostalCode":"24404","AdditionalData":[{"value":"España","key":"CountryName"},{"value":"Castilla y León","key":"StateName"},{"value":"León","key":"CountyName"}]},"MapReference":{"ReferenceId":"580715024","Spot":0.11,"SideOfStreet":"right","CountryId":"20215059","StateId":"20221909","CountyId":"20221912","CityId":"20306043","AddressId":"349216978","RoadLinkId":"69003891"}}},{"Relevance":1.0,"Distance":51.6,"MatchLevel":"houseNumber","MatchQuality":{"Country":1.0,"State":1.0,"County":1.0,"City":1.0,"Street":[1.0],"HouseNumber":1.0,"PostalCode":1.0},"MatchType":"interpolated","Location":{"LocationId":"NT_PEpZb6e0zOVjeNnBHKpheB_l_949339961_L_1UD","LocationType":"point","DisplayPosition":{"Latitude":42.55445,"Longitude":-6.61193},"MapView":{"TopLeft":{"Latitude":42.5555742,"Longitude":-6.6134561},"BottomRight":{"Latitude":42.5533259,"Longitude":-6.610404}},"Address":{"Label":"Calle Camino de Santiago, 55, 24404 Ponferrada (León), España","Country":"ESP","State":"Castilla y León","County":"León","City":"Ponferrada","Street":"Calle Camino de Santiago","HouseNumber":"55","PostalCode":"24404","AdditionalData":[{"value":"España","key":"CountryName"},{"value":"Castilla y León","key":"StateName"},{"value":"León","key":"CountyName"}]},"MapReference":{"ReferenceId":"949339961","Spot":0.2,"SideOfStreet":"left","CountryId":"20215059","StateId":"20221909","CountyId":"20221912","CityId":"20306043"}}},{"Relevance":1.0,"Distance":58.3,"MatchLevel":"houseNumber","MatchQuality":{"Country":1.0,"State":1.0,"County":1.0,"City":1.0,"Street":[1.0],"HouseNumber":1.0,"PostalCode":1.0},"MatchType":"interpolated","Location":{"LocationId":"NT_PEpZb6e0zOVjeNnBHKpheB_l_949339958_L_0MD","LocationType":"point","DisplayPosition":{"Latitude":42.55393,"Longitude":-6.610895},"MapView":{"TopLeft":{"Latitude":42.5550542,"Longitude":-6.6124211},"BottomRight":{"Latitude":42.5528059,"Longitude":-6.609369}},"Address":{"Label":"Calle Camino de Santiago, 43, 24404 Ponferrada (León), España","Country":"ESP","State":"Castilla y León","County":"León","City":"Ponferrada","Street":"Calle Camino de Santiago","HouseNumber":"43","PostalCode":"24404","AdditionalData":[{"value":"España","key":"CountryName"},{"value":"Castilla y León","key":"StateName"},{"value":"León","key":"CountyName"}]},"MapReference":{"ReferenceId":"949339958","Spot":0.5,"SideOfStreet":"left","CountryId":"20215059","StateId":"20221909","CountyId":"20221912","CityId":"20306043"}}},{"Relevance":1.0,"Distance":61.3,"MatchLevel":"houseNumber","MatchQuality":{"Country":1.0,"State":1.0,"County":1.0,"City":1.0,"Street":[1.0],"HouseNumber":1.0,"PostalCode":1.0},"MatchType":"interpolated","Location":{"LocationId":"NT_DKY0K7a0BU.aTAU3y1f9tA_yA","LocationType":"point","DisplayPosition":{"Latitude":42.55449,"Longitude":-6.61153},"MapView":{"TopLeft":{"Latitude":42.5556142,"Longitude":-6.6130561},"BottomRight":{"Latitude":42.5533658,"Longitude":-6.6100039}},"Address":{"Label":"Calle Manuel Fraga, 2, 24404 Ponferrada (León), España","Country":"ESP","State":"Castilla y León","County":"León","City":"Ponferrada","Street":"Calle Manuel Fraga","HouseNumber":"2","PostalCode":"24404","AdditionalData":[{"value":"España","key":"CountryName"},{"value":"Castilla y León","key":"StateName"},{"value":"León","key":"CountyName"}]},"MapReference":{"ReferenceId":"1062478293","Spot":0.22,"SideOfStreet":"right","CountryId":"20215059","StateId":"20221909","CountyId":"20221912","CityId":"20306043","AddressId":"713998686","RoadLinkId":"384607565"}}}]}]}}