{"Response":{"MetaInfo":{"Timestamp":"2020-03-28T11:26:01.858+0000","NextPageInformation":"2"},"View":[{"_type":"SearchResultsViewType","ViewId":0,"Result":[{"Relevance":1.0,"Distance":0.0,"Direction":0.0,"MatchLevel":"city","MatchQuality":{"Country":1.0,"State":1.0,"County":1.0,"City":1.0,"PostalCode":1.0},"Location":{"LocationId":"NT_I97OMn2y.LEl5jISoNVQfD","LocationType":"point","DisplayPosition":{"Latitude":42.5779199,"Longitude":13.9853971},"MapView":{"TopLeft":{"Latitude":42.64467,"Longitude":13.89574},"BottomRight":{"Latitude":42.53067,"Longitude":14.06827}},"Address":{"Label":"Atri, Abruzzo, Italia","Country":"ITA","State":"Abruzzo","County":"TE","City":"Atri","PostalCode":"64032","AdditionalData":[{"value":"Italia","key":"CountryName"},{"value":"Abruzzo","key":"StateName"},{"value":"Teramo","key":"CountyName"}]},"MapReference":{"ReferenceId":"550614622","SideOfStreet":"neither","CountryId":"20110484","StateId":"20127658","CountyId":"20127662","CityId":"20217451"}}},{"Relevance":1.0,"Distance":8.9,"MatchLevel":"houseNumber","MatchQuality":{"Country":1.0,"State":1.0,"County":1.0,"City":1.0,"Street":[1.0],"HouseNumber":1.0,"PostalCode":1.0},"MatchType":"interpolated","Location":{"LocationId":"NT_B0CZWA.NVYVjMUHN1mtEIC_2QzLxA","LocationType":"point","DisplayPosition":{"Latitude":42.57784,"Longitude":13.98539},"MapView":{"TopLeft":{"Latitude":42.5789642,"Longitude":13.9838634},"BottomRight":{"Latitude":42.5767158,"Longitude":13.9869166}},"Address":{"Label":"Viale Risorgimento, 64/1, 64032 Atri TE, Italia","Country":"ITA","State":"Abruzzo","County":"TE","City":"Atri","Street":"Viale Risorgimento","HouseNumber":"64/1","PostalCode":"64032","AdditionalData":[{"value":"Italia","key":"CountryName"},{"value":"Abruzzo","key":"StateName"},{"value":"Teramo","key":"CountyName"}]},"MapReference":{"ReferenceId":"550730633","Spot":0.63,"SideOfStreet":"left","CountryId":"20110484","StateId":"20127658","CountyId":"20127662","CityId":"20217451","AddressId":"602932517","RoadLinkId":"55972026"}}},{"Relevance":1.0,"Distance":16.1,"MatchLevel":"landmark","MatchQuality":{"Country":1.0,"State":1.0,"County":1.0,"City":1.0,"Street":[1.0],"PostalCode":1.0,"Name":1.0},"Location":{"LocationId":"NT_naNMJnbP8Rdi93V88Kqf3D_p_fXitIuwdEcwJdNALnneGuA","LocationType":"hospital","Name":"Ospedale Civile San Liberatore","DisplayPosition":{"Latitude":42.57719,"Longitude":13.98881},"MapView":{"TopLeft":{"Latitude":42.57862,"Longitude":13.98555},"BottomRight":{"Latitude":42.57658,"Longitude":13.98942}},"Address":{"Label":"Piazza Emilio Alessandrini, 64032 Atri TE, Italia","Country":"ITA","State":"Abruzzo","County":"TE","City":"Atri","Street":"Piazza Emilio Alessandrini","PostalCode":"64032","AdditionalData":[{"value":"Italia","key":"CountryName"},{"value":"Abruzzo","key":"StateName"},{"value":"Teramo","key":"CountyName"}]},"MapReference":{"CountryId":"20110484","StateId":"20127658","CountyId":"20127662","CityId":"20217451","PlaceId":"1137765068"}}},{"Relevance":1.0,"Distance":16.1,"MatchLevel":"street","MatchQuality":{"Country":1.0,"State":1.0,"County":1.0,"City":1.0,"Street":[1.0],"PostalCode":1.0},"Location":{"LocationId":"NT_Q6j30vd7Tv-WEoiHdQIiAA_l_550625051_L","LocationType":"point","DisplayPosition":{"Latitude":42.5779759,"Longitude":13.985579},"MapView":{"TopLeft":{"Latitude":42.57821,"Longitude":13.98555},"BottomRight":{"Latitude":42.57782,"Longitude":13.98559}},"Address":{"Label":"Via Luigi Mascherpa, 64032 Atri TE, Italia","Country":"ITA","State":"Abruzzo","County":"TE","City":"Atri","Street":"Via Luigi Mascherpa","PostalCode":"64032","AdditionalData":[{"value":"Italia","key":"CountryName"},{"value":"Abruzzo","key":"StateName"},{"value":"Teramo","key":"CountyName"}]},"MapReference":{"ReferenceId":"550625051","Spot":0.39,"SideOfStreet":"left","CountryId":"20110484","StateId":"20127658","CountyId":"20127662","CityId":"20217451"}}},{"Relevance":1.0,"Distance":26.0,"MatchLevel":"houseNumber","MatchQuality":{"Country":1.0,"State":1.0,"County":1.0,"City":1.0,"Street":[1.0],"HouseNumber":1.0,"PostalCode":1.0},"MatchType":"interpolated","Location":{"LocationId":"NT_B0CZWA.NVYVjMUHN1mtEIC_xAzNvED","LocationType":"point","DisplayPosition":{"Latitude":42.57786,"Longitude":13.98507},"MapView":{"TopLeft":{"Latitude":42.5789842,"Longitude":13.9835434},"BottomRight":{"Latitude":42.5767358,"Longitude":13.9865966}},"Address":{"Label":"Viale Risorgimento, 107/1, 64032 Atri TE, Italia","Country":"ITA","State":"Abruzzo","County":"TE","City":"Atri","Street":"Viale Risorgimento","HouseNumber":"107/1","PostalCode":"64032","AdditionalData":[{"value":"Italia","key":"CountryName"},{"value":"Abruzzo","key":"StateName"},{"value":"Teramo","key":"CountyName"}]},"MapReference":{"ReferenceId":"1155079029","Spot":0.42,"SideOfStreet":"right","CountryId":"20110484","StateId":"20127658","CountyId":"20127662","CityId":"20217451","AddressId":"602896325","RoadLinkId":"461264481"}}},{"Relevance":1.0,"Distance":50.5,"MatchLevel":"street","MatchQuality":{"Country":1.0,"State":1.0,"County":1.0,"City":1.0,"Street":[1.0],"PostalCode":1.0},"Location":{"LocationId":"NT_j6Mh6OzG6kJbunvPfMEbsB_l_1155321807_R","LocationType":"point","DisplayPosition":{"Latitude":42.5779199,"Longitude":13.98478},"MapView":{"TopLeft":{"Latitude":42.57805,"Longitude":13.98468},"BottomRight":{"Latitude":42.57789,"Longitude":13.98478}},"Address":{"Label":"Piazza Ariodante Mambelli, 64032 Atri TE, Italia","Country":"ITA","State":"Abruzzo","County":"TE","City":"Atri","Street":"Piazza Ariodante Mambelli","PostalCode":"64032","AdditionalData":[{"value":"Italia","key":"CountryName"},{"value":"Abruzzo","key":"StateName"},{"value":"Teramo","key":"CountyName"}]},"MapReference":{"ReferenceId":"1155321807","Spot":0.13,"SideOfStreet":"right","CountryId":"20110484","StateId":"20127658","CountyId":"20127662","CityId":"20217451"}}},{"Relevance":1.0,"Distance":50.6,"MatchLevel":"houseNumber","MatchQuality":{"Country":1.0,"State":1.0,"County":1.0,"City":1.0,"Street":[1.0],"HouseNumber":1.0,"PostalCode":1.0},"MatchType":"interpolated","Location":{"LocationId":"NT_B0CZWA.NVYVjMUHN1mtEIC_l_1155079030_R_5ED","LocationType":"point","DisplayPosition":{"Latitude":42.57789,"Longitude":13.98478},"MapView":{"TopLeft":{"Latitude":42.5790142,"Longitude":13.9832533},"BottomRight":{"Latitude":42.5767659,"Longitude":13.9863066}},"Address":{"Label":"Viale Risorgimento, 91, 64032 Atri TE, Italia","Country":"ITA","State":"Abruzzo","County":"TE","City":"Atri","Street":"Viale Risorgimento","HouseNumber":"91","PostalCode":"64032","AdditionalData":[{"value":"Italia","key":"CountryName"},{"value":"Abruzzo","key":"StateName"},{"value":"Teramo","key":"CountyName"}]},"MapReference":{"ReferenceId":"1155079030","Spot":0.0,"SideOfStreet":"right","CountryId":"20110484","StateId":"20127658","CountyId":"20127662","CityId":"20217451"}}},{"Relevance":1.0,"Distance":50.8,"MatchLevel":"houseNumber","MatchQuality":{"Country":1.0,"State":1.0,"County":1.0,"City":1.0,"Street":[1.0],"HouseNumber":1.0,"PostalCode":1.0},"MatchType":"interpolated","Location":{"LocationId":"NT_j6Mh6OzG6kJbunvPfMEbsB_l_550730640_R_xAD","LocationType":"point","DisplayPosition":{"Latitude":42.5778625,"Longitude":13.98462},"MapView":{"TopLeft":{"Latitude":42.5789867,"Longitude":13.9830934},"BottomRight":{"Latitude":42.5767384,"Longitude":13.9861466}},"Address":{"Label":"Piazza Ariodante Mambelli, 10, 64032 Atri TE, Italia","Country":"ITA","State":"Abruzzo","County":"TE","City":"Atri","Street":"Piazza Ariodante Mambelli","HouseNumber":"10","PostalCode":"64032","AdditionalData":[{"value":"Italia","key":"CountryName"},{"value":"Abruzzo","key":"StateName"},{"value":"Teramo","key":"CountyName"}]},"MapReference":{"ReferenceId":"550730640","Spot":0.75,"SideOfStreet":"right","CountryId":"20110484","StateId":"20127658","CountyId":"20127662","CityId":"20217451"}}},{"Relevance":1.0,"Distance":60.8,"MatchLevel":"houseNumber","MatchQuality":{"Country":1.0,"State":1.0,"County":1.0,"City":1.0,"Street":[1.0],"HouseNumber":1.0,"PostalCode":1.0},"MatchType":"interpolated","Location":{"LocationId":"NT_j6Mh6OzG6kJbunvPfMEbsB_38SM","LocationType":"point","DisplayPosition":{"Latitude":42.57803,"Longitude":13.98467},"MapView":{"TopLeft":{"Latitude":42.5791542,"Longitude":13.9831434},"BottomRight":{"Latitude":42.5769058,"Longitude":13.9861966}},"Address":{"Label":"Piazza Ariodante Mambelli, 7/1, 64032 Atri TE, Italia","Country":"ITA","State":"Abruzzo","County":"TE","City":"Atri","Street":"Piazza Ariodante Mambelli","HouseNumber":"7/1","PostalCode":"64032","AdditionalData":[{"value":"Italia","key":"CountryName"},{"value":"Abruzzo","key":"StateName"},{"value":"Teramo","key":"CountyName"}]},"MapReference":{"ReferenceId":"1155321809","Spot":0.86,"SideOfStreet":"left","CountryId":"20110484","StateId":"20127658","CountyId":"20127662","CityId":"20217451","AddressId":"602892369","RoadLinkId":"461515297"}}},{"Relevance":1.0,"Distance":62.9,"MatchLevel":"houseNumber","MatchQuality":{"Country":1.0,"State":1.0,"County":1.0,"City":1.0,"Street":[1.0],"HouseNumber":1.0,"PostalCode":1.0},"MatchType":"interpolated","Location":{"LocationId":"NT_XcqREeJaw.ZRhyJtCH2E8A_l_1150173453_R_4MD","LocationType":"point","DisplayPosition":{"Latitude":42.5779,"Longitude":13.98463},"MapView":{"TopLeft":{"Latitude":42.5790242,"Longitude":13.9831033},"BottomRight":{"Latitude":42.5767758,"Longitude":13.9861566}},"Address":{"Label":"Viale Risorgimento, 83, 64032 Atri TE, Italia","Country":"ITA","State":"Abruzzo","County":"TE","City":"Atri","Street":"Viale Risorgimento","HouseNumber":"83","PostalCode":"64032","AdditionalData":[{"value":"Italia","key":"CountryName"},{"value":"Abruzzo","key":"StateName"},{"value":"Teramo","key":"CountyName"}]},"MapReference":{"ReferenceId":"1150173453","Spot":0.0,"SideOfStreet":"right","CountryId":"20110484","StateId":"20127658","CountyId":"20127662","CityId":"20217451"}}}]}]}}