{"Response":{"MetaInfo":{"Timestamp":"2020-03-28T09:44:16.054+0000","NextPageInformation":"2"},"View":[{"_type":"SearchResultsViewType","ViewId":0,"Result":[{"Relevance":1.0,"Distance":0.0,"Direction":0.0,"MatchLevel":"city","MatchQuality":{"Country":1.0,"State":1.0,"County":1.0,"City":1.0,"PostalCode":1.0},"Location":{"LocationId":"NT_unIWyf9pjslv.MfEKB6m3C","LocationType":"point","DisplayPosition":{"Latitude":42.5541397,"Longitude":-8.9886204},"MapView":{"TopLeft":{"Latitude":42.63776,"Longitude":-9.09071},"BottomRight":{"Latitude":42.46333,"Longitude":-8.95057}},"Address":{"Label":"Ribeira, Galicia, España","Country":"ESP","State":"Galicia","County":"A Coruña","City":"Ribeira","PostalCode":"15960","AdditionalData":[{"value":"España","key":"CountryName"},{"value":"Galicia","key":"StateName"},{"value":"A Coruña","key":"CountyName"}]},"MapReference":{"ReferenceId":"539480359","SideOfStreet":"neither","CountryId":"20215059","StateId":"20226791","CountyId":"20226792","CityId":"20323417"}}},{"Relevance":1.0,"Distance":10.8,"MatchLevel":"street","MatchQuality":{"Country":1.0,"State":1.0,"County":1.0,"City":1.0,"Street":[1.0],"PostalCode":1.0},"Location":{"LocationId":"NT_GF-vD6soA0U2d7YmzbrUsA_l_851211751_L","LocationType":"point","DisplayPosition":{"Latitude":42.5542046,"Longitude":-8.9885231},"MapView":{"TopLeft":{"Latitude":42.55432,"Longitude":-8.9886},"BottomRight":{"Latitude":42.55414,"Longitude":-8.98848}},"Address":{"Label":"CP-7307, 15960 Ribeira (A Coruña), España","Country":"ESP","State":"Galicia","County":"A Coruña","City":"Ribeira","Street":"CP-7307","PostalCode":"15960","AdditionalData":[{"value":"España","key":"CountryName"},{"value":"Galicia","key":"StateName"},{"value":"A Coruña","key":"CountyName"}]},"MapReference":{"ReferenceId":"851211751","Spot":0.36,"SideOfStreet":"left","CountryId":"20215059","StateId":"20226791","CountyId":"20226792","CityId":"20323417"}}},{"Relevance":1.0,"Distance":11.5,"MatchLevel":"street","MatchQuality":{"Country":1.0,"State":1.0,"County":1.0,"City":1.0,"Street":[1.0],"PostalCode":1.0},"Location":{"LocationId":"NT_GF-vD6soA0U2d7YmzbrUsA_l_851211750_L","LocationType":"point","DisplayPosition":{"Latitude":42.55414,"Longitude":-8.98848},"MapView":{"TopLeft":{"Latitude":42.55414,"Longitude":-8.98848},"BottomRight":{"Latitude":42.55364,"Longitude":-8.98816}},"Address":{"Label":"CP-7307, 15960 Ribeira (A Coruña), España","Country":"ESP","State":"Galicia","County":"A Coruña","City":"Ribeira","Street":"CP-7307","PostalCode":"15960","AdditionalData":[{"value":"España","key":"CountryName"},{"value":"Galicia","key":"StateName"},{"value":"A Coruña","key":"CountyName"}]},"MapReference":{"ReferenceId":"851211750","Spot":1.0,"SideOfStreet":"left","CountryId":"20215059","StateId":"20226791","CountyId":"20226792","CityId":"20323417"}}},{"Relevance":1.0,"Distance":20.1,"MatchLevel":"street","MatchQuality":{"Country":1.0,"State":1.0,"County":1.0,"City":1.0,"PostalCode":1.0},"Location":{"LocationId":"NT_zJ4luqpcQuV7CVdzmCd9yA_l_592096561_L","LocationType":"point","DisplayPosition":{"Latitude":42.55432,"Longitude":-8.9886},"MapView":{"TopLeft":{"Latitude":42.55446,"Longitude":-8.98867},"BottomRight":{"Latitude":42.55432,"Longitude":-8.9886}},"Address":{"Label":"15960 Ribeira (A Coruña), España","Country":"ESP","State":"Galicia","County":"A Coruña","City":"Ribeira","PostalCode":"15960","AdditionalData":[{"value":"España","key":"CountryName"},{"value":"Galicia","key":"StateName"},{"value":"A Coruña","key":"CountyName"}]},"MapReference":{"ReferenceId":"592096561","Spot":0.0,"SideOfStreet":"left","CountryId":"20215059","StateId":"20226791","CountyId":"20226792","CityId":"20323417"}}},{"Relevance":1.0,"Distance":20.1,"MatchLevel":"street","MatchQuality":{"Country":1.0,"State":1.0,"County":1.0,"City":1.0,"PostalCode":1.0},"Location":{"LocationId":"NT_zJ4luqpcQuV7CVdzmCd9yA_l_594741912_L","LocationType":"point","DisplayPosition":{"Latitude":42.55432,"Longitude":-8.9886},"MapView":{"TopLeft":{"Latitude":42.55438,"Longitude":-8.98869},"BottomRight":{"Latitude":42.55432,"Longitude":-8.9886}},"Address":{"Label":"15960 Ribeira (A Coruña), España","Country":"ESP","State":"Galicia","County":"A Coruña","City":"Ribeira","PostalCode":"15960","AdditionalData":[{"value":"España","key":"CountryName"},{"value":"Galicia","key":"StateName"},{"value":"A Coruña","key":"CountyName"}]},"MapReference":{"ReferenceId":"594741912","Spot":0.0,"SideOfStreet":"left","CountryId":"20215059","StateId":"20226791","CountyId":"20226792","CityId":"20323417"}}},{"Relevance":1.0,"Distance":20.3,"MatchLevel":"landmark","MatchQuality":{"Country":1.0,"State":1.0,"Name":1.0},"Location":{"LocationId":"NT_oT-mx3.Wtwp3Gy1VEGSq4D","LocationType":"bayHarbor","Name":"Ría de Arousa","DisplayPosition":{"Latitude":42.5673,"Longitude":-8.93767},"MapView":{"TopLeft":{"Latitude":42.6873,"Longitude":-9.012},"BottomRight":{"Latitude":42.44729,"Longitude":-8.76752}},"Address":{"Label":"España","Country":"ESP","State":"Galicia","AdditionalData":[{"value":"España","key":"CountryName"},{"value":"Galicia","key":"StateName"}]},"MapReference":{"CountryId":"20215059","StateId":"20226791","PlaceId":"559230039"}}},{"Relevance":1.0,"Distance":26.4,"MatchLevel":"street","MatchQuality":{"Country":1.0,"State":1.0,"County":1.0,"City":1.0,"Street":[1.0],"PostalCode":1.0},"Location":{"LocationId":"NT_WbZGAF2VGNXMvOQ4bmt5TA_l_539480314_R","LocationType":"point","DisplayPosition":{"Latitude":42.553976,"Longitude":-8.9888542},"MapView":{"TopLeft":{"Latitude":42.55431,"Longitude":-8.98915},"BottomRight":{"Latitude":42.55382,"Longitude":-8.98875}},"Address":{"Label":"Praza Porto, 15960 Ribeira (A Coruña), España","Country":"ESP","State":"Galicia","County":"A Coruña","City":"Ribeira","Street":"Praza Porto","PostalCode":"15960","AdditionalData":[{"value":"España","key":"CountryName"},{"value":"Galicia","key":"StateName"},{"value":"A Coruña","key":"CountyName"}]},"MapReference":{"ReferenceId":"539480314","Spot":0.3,"SideOfStreet":"right","CountryId":"20215059","StateId":"20226791","CountyId":"20226792","CityId":"20323417"}}},{"Relevance":1.0,"Distance":27.3,"MatchLevel":"street","MatchQuality":{"Country":1.0,"State":1.0,"County":1.0,"City":1.0,"PostalCode":1.0},"Location":{"LocationId":"NT_zJ4luqpcQuV7CVdzmCd9yA_l_594741913_L","LocationType":"point","DisplayPosition":{"Latitude":42.55438,"Longitude":-8.98869},"MapView":{"TopLeft":{"Latitude":42.55446,"Longitude":-8.98904},"BottomRight":{"Latitude":42.55438,"Longitude":-8.98869}},"Address":{"Label":"15960 Ribeira (A Coruña), España","Country":"ESP","State":"Galicia","County":"A Coruña","City":"Ribeira","PostalCode":"15960","AdditionalData":[{"value":"España","key":"CountryName"},{"value":"Galicia","key":"StateName"},{"value":"A Coruña","key":"CountyName"}]},"MapReference":{"ReferenceId":"594741913","Spot":0.0,"SideOfStreet":"left","CountryId":"20215059","StateId":"20226791","CountyId":"20226792","CityId":"20323417"}}},{"Relevance":1.0,"Distance":35.8,"MatchLevel":"street","MatchQuality":{"Country":1.0,"State":1.0,"County":1.0,"City":1.0,"PostalCode":1.0},"Location":{"LocationId":"NT_zJ4luqpcQuV7CVdzmCd9yA_l_592096565_L","LocationType":"point","DisplayPosition":{"Latitude":42.55446,"Longitude":-8.98867},"MapView":{"TopLeft":{"Latitude":42.55479,"Longitude":-8.98885},"BottomRight":{"Latitude":42.55446,"Longitude":-8.98867}},"Address":{"Label":"15960 Ribeira (A Coruña), España","Country":"ESP","State":"Galicia","County":"A Coruña","City":"Ribeira","PostalCode":"15960","AdditionalData":[{"value":"España","key":"CountryName"},{"value":"Galicia","key":"StateName"},{"value":"A Coruña","key":"CountyName"}]},"MapReference":{"ReferenceId":"592096565","Spot":0.0,"SideOfStreet":"left","CountryId":"20215059","StateId":"20226791","CountyId":"20226792","CityId":"20323417"}}},{"Relevance":1.0,"Distance":35.8,"MatchLevel":"street","MatchQuality":{"Country":1.0,"State":1.0,"County":1.0,"City":1.0,"PostalCode":1.0},"Location":{"LocationId":"NT_zJ4luqpcQuV7CVdzmCd9yA_l_592096562_R","LocationType":"point","DisplayPosition":{"Latitude":42.55446,"Longitude":-8.98867},"MapView":{"TopLeft":{"Latitude":42.55449,"Longitude":-8.98906},"BottomRight":{"Latitude":42.55446,"Longitude":-8.98867}},"Address":{"Label":"15960 Ribeira (A Coruña), España","Country":"ESP","State":"Galicia","County":"A Coruña","City":"Ribeira","PostalCode":"15960","AdditionalData":[{"value":"España","key":"CountryName"},{"value":"Galicia","key":"StateName"},{"value":"A Coruña","key":"CountyName"}]},"MapReference":{"ReferenceId":"592096562","Spot":1.0,"SideOfStreet":"right","CountryId":"20215059","StateId":"20226791","CountyId":"20226792","CityId":"20323417"}}}]}]}}