{"Response":{"MetaInfo":{"Timestamp":"2020-03-28T10:52:46.436+0000","NextPageInformation":"2"},"View":[{"_type":"SearchResultsViewType","ViewId":0,"Result":[{"Relevance":1.0,"Distance":0.0,"Direction":0.0,"MatchLevel":"district","MatchQuality":{"Country":1.0,"County":1.0,"City":1.0,"District":1.0,"PostalCode":1.0},"Location":{"LocationId":"NT_mf3zVuv51e8soMKI1IKvFD","LocationType":"point","DisplayPosition":{"Latitude":42.6813993,"Longitude":26.330623},"MapView":{"TopLeft":{"Latitude":42.69299,"Longitude":26.32605},"BottomRight":{"Latitude":42.67801,"Longitude":26.33969}},"Address":{"Label":"кв. Ново село, Сливен, България","Country":"BGR","County":"Сливен","City":"Сливен","District":"кв. Ново село","PostalCode":"8802","AdditionalData":[{"value":"България","key":"CountryName"},{"value":"Сливен","key":"CountyName"}]},"MapReference":{"ReferenceId":"1112091228","SideOfStreet":"neither","CountryId":"20656214","CountyId":"23719441","CityId":"23718531"}}},{"Relevance":1.0,"Distance":8.6,"MatchLevel":"street","MatchQuality":{"Country":1.0,"County":1.0,"City":1.0,"District":1.0,"Street":[1.0],"PostalCode":1.0},"Location":{"LocationId":"NT_yvNGTEGvPyGzk4wmsHVmhD_l_809967010_R","LocationType":"point","DisplayPosition":{"Latitude":42.6814041,"Longitude":26.3305185},"MapView":{"TopLeft":{"Latitude":42.68209,"Longitude":26.3305},"BottomRight":{"Latitude":42.681,"Longitude":26.33055}},"Address":{"Label":"Улица Владислав Очков, 8804 Сливен, България","Country":"BGR","County":"Сливен","City":"Сливен","District":"кв. Ново село","Street":"Улица Владислав Очков","PostalCode":"8804","AdditionalData":[{"value":"България","key":"CountryName"},{"value":"Сливен","key":"CountyName"}]},"MapReference":{"ReferenceId":"809967010","Spot":0.37,"SideOfStreet":"right","CountryId":"20656214","CountyId":"23719441","CityId":"23718531"}}},{"Relevance":1.0,"Distance":47.8,"MatchLevel":"houseNumber","MatchQuality":{"Country":1.0,"County":1.0,"City":1.0,"District":1.0,"Street":[1.0],"HouseNumber":1.0,"PostalCode":1.0},"MatchType":"interpolated","Location":{"LocationId":"NT_RccaY5Gqmb1gRy2Epoc02B_zA","LocationType":"point","DisplayPosition":{"Latitude":42.681,"Longitude":26.33018},"MapView":{"TopLeft":{"Latitude":42.6821242,"Longitude":26.3286508},"BottomRight":{"Latitude":42.6798758,"Longitude":26.3317092}},"Address":{"Label":"Улица Роза Люксембург 3, 8804 Сливен, България","Country":"BGR","County":"Сливен","City":"Сливен","District":"кв. Ново село","Street":"Улица Роза Люксембург","HouseNumber":"3","PostalCode":"8804","AdditionalData":[{"value":"България","key":"CountryName"},{"value":"Сливен","key":"CountyName"}]},"MapReference":{"ReferenceId":"809967755","Spot":0.33,"SideOfStreet":"right","CountryId":"20656214","CountyId":"23719441","CityId":"23718531","AddressId":"677351112","RoadLinkId":"197227315"}}},{"Relevance":1.0,"Distance":68.7,"MatchLevel":"street","MatchQuality":{"Country":1.0,"County":1.0,"City":1.0,"District":1.0,"PostalCode":1.0},"Location":{"LocationId":"NT_YV7hY6ixe9DipjG8J-YlmD_l_1120842253_R","LocationType":"point","DisplayPosition":{"Latitude":42.68198,"Longitude":26.33091},"MapView":{"TopLeft":{"Latitude":42.682,"Longitude":26.33091},"BottomRight":{"Latitude":42.68198,"Longitude":26.33157}},"Address":{"Label":"8804 Сливен, България","Country":"BGR","County":"Сливен","City":"Сливен","District":"кв. Ново село","PostalCode":"8804","AdditionalData":[{"value":"България","key":"CountryName"},{"value":"Сливен","key":"CountyName"}]},"MapReference":{"ReferenceId":"1120842253","Spot":0.0,"SideOfStreet":"right","CountryId":"20656214","CountyId":"23719441","CityId":"23718531"}}},{"Relevance":1.0,"Distance":78.4,"MatchLevel":"houseNumber","MatchQuality":{"Country":1.0,"County":1.0,"City":1.0,"District":1.0,"Street":[1.0],"HouseNumber":1.0,"PostalCode":1.0},"MatchType":"interpolated","Location":{"LocationId":"NT_l9rsQNXiuYQge1mytMsq3C_xA","LocationType":"point","DisplayPosition":{"Latitude":42.6821,"Longitude":26.33073},"MapView":{"TopLeft":{"Latitude":42.6832242,"Longitude":26.3292008},"BottomRight":{"Latitude":42.6809758,"Longitude":26.3322592}},"Address":{"Label":"Улица Сергей Румянцев 1, 8804 Сливен, България","Country":"BGR","County":"Сливен","City":"Сливен","District":"кв. Ново село","Street":"Улица Сергей Румянцев","HouseNumber":"1","PostalCode":"8804","AdditionalData":[{"value":"България","key":"CountryName"},{"value":"Сливен","key":"CountyName"}]},"MapReference":{"ReferenceId":"1120842249","Spot":0.18,"SideOfStreet":"left","CountryId":"20656214","CountyId":"23719441","CityId":"23718531","AddressId":"296683663","RoadLinkId":"430958301"}}},{"Relevance":1.0,"Distance":81.3,"MatchLevel":"street","MatchQuality":{"Country":1.0,"County":1.0,"City":1.0,"District":1.0,"PostalCode":1.0},"Location":{"LocationId":"NT_YV7hY6ixe9DipjG8J-YlmD_l_1120842251_L","LocationType":"point","DisplayPosition":{"Latitude":42.68157,"Longitude":26.33159},"MapView":{"TopLeft":{"Latitude":42.682,"Longitude":26.33157},"BottomRight":{"Latitude":42.68157,"Longitude":26.33159}},"Address":{"Label":"8804 Сливен, България","Country":"BGR","County":"Сливен","City":"Сливен","District":"кв. Ново село","PostalCode":"8804","AdditionalData":[{"value":"България","key":"CountryName"},{"value":"Сливен","key":"CountyName"}]},"MapReference":{"ReferenceId":"1120842251","Spot":0.0,"SideOfStreet":"left","CountryId":"20656214","CountyId":"23719441","CityId":"23718531"}}},{"Relevance":1.0,"Distance":89.6,"MatchLevel":"houseNumber","MatchQuality":{"Country":1.0,"County":1.0,"City":1.0,"District":1.0,"Street":[1.0],"HouseNumber":1.0,"PostalCode":1.0},"MatchType":"interpolated","Location":{"LocationId":"NT_yvNGTEGvPyGzk4wmsHVmhD_xED","LocationType":"point","DisplayPosition":{"Latitude":42.6806,"Longitude":26.33048},"MapView":{"TopLeft":{"Latitude":42.6817242,"Longitude":26.3289508},"BottomRight":{"Latitude":42.6794758,"Longitude":26.3320092}},"Address":{"Label":"Улица Владислав Очков 11, 8804 Сливен, България","Country":"BGR","County":"Сливен","City":"Сливен","District":"кв. Ново село","Street":"Улица Владислав Очков","HouseNumber":"11","PostalCode":"8804","AdditionalData":[{"value":"България","key":"CountryName"},{"value":"Сливен","key":"CountyName"}]},"MapReference":{"ReferenceId":"809950686","Spot":0.54,"SideOfStreet":"left","CountryId":"20656214","CountyId":"23719441","CityId":"23718531","AddressId":"296679615","RoadLinkId":"197253843"}}},{"Relevance":1.0,"Distance":97.0,"MatchLevel":"houseNumber","MatchQuality":{"Country":1.0,"County":1.0,"City":1.0,"District":1.0,"Street":[1.0],"HouseNumber":1.0,"PostalCode":1.0},"MatchType":"interpolated","Location":{"LocationId":"NT_yvNGTEGvPyGzk4wmsHVmhD_yA","LocationType":"point","DisplayPosition":{"Latitude":42.68227,"Longitude":26.33056},"MapView":{"TopLeft":{"Latitude":42.6833942,"Longitude":26.3290308},"BottomRight":{"Latitude":42.6811458,"Longitude":26.3320892}},"Address":{"Label":"Улица Владислав Очков 2, 8804 Сливен, България","Country":"BGR","County":"Сливен","City":"Сливен","District":"кв. Ново село","Street":"Улица Владислав Очков","HouseNumber":"2","PostalCode":"8804","AdditionalData":[{"value":"България","key":"CountryName"},{"value":"Сливен","key":"CountyName"}]},"MapReference":{"ReferenceId":"809813404","Spot":0.26,"SideOfStreet":"right","CountryId":"20656214","CountyId":"23719441","CityId":"23718531","AddressId":"296760219","RoadLinkId":"197253848"}}},{"Relevance":1.0,"Distance":102.2,"MatchLevel":"street","MatchQuality":{"Country":1.0,"County":1.0,"City":1.0,"District":1.0,"PostalCode":1.0},"Location":{"LocationId":"NT_YV7hY6ixe9DipjG8J-YlmD_l_1120842252_L","LocationType":"point","DisplayPosition":{"Latitude":42.682,"Longitude":26.33157},"MapView":{"TopLeft":{"Latitude":42.68212,"Longitude":26.33156},"BottomRight":{"Latitude":42.682,"Longitude":26.33157}},"Address":{"Label":"8804 Сливен, България","Country":"BGR","County":"Сливен","City":"Сливен","District":"кв. Ново село","PostalCode":"8804","AdditionalData":[{"value":"България","key":"CountryName"},{"value":"Сливен","key":"CountyName"}]},"MapReference":{"ReferenceId":"1120842252","Spot":0.0,"SideOfStreet":"left","CountryId":"20656214","CountyId":"23719441","CityId":"23718531"}}},{"Relevance":1.0,"Distance":112.7,"MatchLevel":"houseNumber","MatchQuality":{"Country":1.0,"County":1.0,"City":1.0,"District":1.0,"Street":[1.0],"HouseNumber":1.0,"PostalCode":1.0},"MatchType":"interpolated","Location":{"LocationId":"NT_RccaY5Gqmb1gRy2Epoc02B_0YD","LocationType":"point","DisplayPosition":{"Latitude":42.68101,"Longitude":26.32935},"MapView":{"TopLeft":{"Latitude":42.6821342,"Longitude":26.3278208},"BottomRight":{"Latitude":42.6798858,"Longitude":26.3308792}},"Address":{"Label":"Улица Роза Люксембург 46, 8804 Сливен, България","Country":"BGR","County":"Сливен","City":"Сливен","District":"кв. Ново село","Street":"Улица Роза Люксембург","HouseNumber":"46","PostalCode":"8804","AdditionalData":[{"value":"България","key":"CountryName"},{"value":"Сливен","key":"CountyName"}]},"MapReference":{"ReferenceId":"809922954","Spot":0.17,"SideOfStreet":"left","CountryId":"20656214","CountyId":"23719441","CityId":"23718531","AddressId":"296787078","RoadLinkId":"197227323"}}}]}]}}