{"Response":{"MetaInfo":{"Timestamp":"2020-03-28T10:52:39.974+0000","NextPageInformation":"2"},"View":[{"_type":"SearchResultsViewType","ViewId":0,"Result":[{"Relevance":1.0,"Distance":0.0,"Direction":0.0,"MatchLevel":"district","MatchQuality":{"Country":1.0,"County":1.0,"City":1.0,"District":1.0,"PostalCode":1.0},"Location":{"LocationId":"NT_xIw4pIm6j1cnP.u2CPBhzA","LocationType":"point","DisplayPosition":{"Latitude":42.6791919,"Longitude":26.3109433},"MapView":{"TopLeft":{"Latitude":42.68074,"Longitude":26.29844},"BottomRight":{"Latitude":42.67136,"Longitude":26.31662}},"Address":{"Label":"кв. Клуцохор, Сливен, България","Country":"BGR","County":"Сливен","City":"Сливен","District":"кв. Клуцохор","PostalCode":"8800","AdditionalData":[{"value":"България","key":"CountryName"},{"value":"Сливен","key":"CountyName"}]},"MapReference":{"ReferenceId":"809724259","SideOfStreet":"neither","CountryId":"20656214","CountyId":"23719441","CityId":"23718531"}}},{"Relevance":1.0,"Distance":11.7,"MatchLevel":"street","MatchQuality":{"Country":1.0,"County":1.0,"City":1.0,"District":1.0,"Street":[1.0],"PostalCode":1.0},"Location":{"LocationId":"NT_Do.s1rN16bYB3OxoOSbgTB_l_865251767_R","LocationType":"point","DisplayPosition":{"Latitude":42.6792968,"Longitude":26.3109405},"MapView":{"TopLeft":{"Latitude":42.6793,"Longitude":26.31069},"BottomRight":{"Latitude":42.67929,"Longitude":26.31106}},"Address":{"Label":"Улица Георги Икономов, 8800 Сливен, България","Country":"BGR","County":"Сливен","City":"Сливен","District":"кв. Клуцохор","Street":"Улица Георги Икономов","PostalCode":"8800","AdditionalData":[{"value":"България","key":"CountryName"},{"value":"Сливен","key":"CountyName"}]},"MapReference":{"ReferenceId":"865251767","Spot":0.68,"SideOfStreet":"right","CountryId":"20656214","CountyId":"23719441","CityId":"23718531"}}},{"Relevance":1.0,"Distance":15.3,"MatchLevel":"street","MatchQuality":{"Country":1.0,"County":1.0,"City":1.0,"District":1.0,"Street":[1.0],"PostalCode":1.0},"Location":{"LocationId":"NT_Do.s1rN16bYB3OxoOSbgTB_l_809966585_R","LocationType":"point","DisplayPosition":{"Latitude":42.6793,"Longitude":26.31106},"MapView":{"TopLeft":{"Latitude":42.67952,"Longitude":26.31106},"BottomRight":{"Latitude":42.6793,"Longitude":26.31151}},"Address":{"Label":"Улица Георги Икономов, 8800 Сливен, България","Country":"BGR","County":"Сливен","City":"Сливен","District":"кв. Клуцохор","Street":"Улица Георги Икономов","PostalCode":"8800","AdditionalData":[{"value":"България","key":"CountryName"},{"value":"Сливен","key":"CountyName"}]},"MapReference":{"ReferenceId":"809966585","Spot":0.0,"SideOfStreet":"right","CountryId":"20656214","CountyId":"23719441","CityId":"23718531"}}},{"Relevance":1.0,"Distance":15.3,"MatchLevel":"street","MatchQuality":{"Country":1.0,"County":1.0,"City":1.0,"District":1.0,"PostalCode":1.0},"Location":{"LocationId":"NT_1dhLPYnQLEZWZHKbh5LtAB_l_866296564_L","LocationType":"point","DisplayPosition":{"Latitude":42.6793,"Longitude":26.31106},"MapView":{"TopLeft":{"Latitude":42.6793,"Longitude":26.31106},"BottomRight":{"Latitude":42.67922,"Longitude":26.31121}},"Address":{"Label":"8800 Сливен, България","Country":"BGR","County":"Сливен","City":"Сливен","District":"кв. Клуцохор","PostalCode":"8800","AdditionalData":[{"value":"България","key":"CountryName"},{"value":"Сливен","key":"CountyName"}]},"MapReference":{"ReferenceId":"866296564","Spot":1.0,"SideOfStreet":"left","CountryId":"20656214","CountyId":"23719441","CityId":"23718531"}}},{"Relevance":1.0,"Distance":22.0,"MatchLevel":"street","MatchQuality":{"Country":1.0,"County":1.0,"City":1.0,"District":1.0,"PostalCode":1.0},"Location":{"LocationId":"NT_1dhLPYnQLEZWZHKbh5LtAB_l_1120351747_L","LocationType":"point","DisplayPosition":{"Latitude":42.67922,"Longitude":26.31121},"MapView":{"TopLeft":{"Latitude":42.67922,"Longitude":26.31121},"BottomRight":{"Latitude":42.679,"Longitude":26.31154}},"Address":{"Label":"8800 Сливен, България","Country":"BGR","County":"Сливен","City":"Сливен","District":"кв. Клуцохор","PostalCode":"8800","AdditionalData":[{"value":"България","key":"CountryName"},{"value":"Сливен","key":"CountyName"}]},"MapReference":{"ReferenceId":"1120351747","Spot":1.0,"SideOfStreet":"left","CountryId":"20656214","CountyId":"23719441","CityId":"23718531"}}},{"Relevance":1.0,"Distance":22.0,"MatchLevel":"street","MatchQuality":{"Country":1.0,"County":1.0,"City":1.0,"District":1.0,"PostalCode":1.0},"Location":{"LocationId":"NT_1dhLPYnQLEZWZHKbh5LtAB_l_1120351748_R","LocationType":"point","DisplayPosition":{"Latitude":42.67922,"Longitude":26.31121},"MapView":{"TopLeft":{"Latitude":42.67927,"Longitude":26.31121},"BottomRight":{"Latitude":42.67893,"Longitude":26.31203}},"Address":{"Label":"8800 Сливен, България","Country":"BGR","County":"Сливен","City":"Сливен","District":"кв. Клуцохор","PostalCode":"8800","AdditionalData":[{"value":"България","key":"CountryName"},{"value":"Сливен","key":"CountyName"}]},"MapReference":{"ReferenceId":"1120351748","Spot":1.0,"SideOfStreet":"right","CountryId":"20656214","CountyId":"23719441","CityId":"23718531"}}},{"Relevance":1.0,"Distance":36.9,"MatchLevel":"houseNumber","MatchQuality":{"Country":1.0,"County":1.0,"City":1.0,"District":1.0,"Street":[1.0],"HouseNumber":1.0,"PostalCode":1.0},"MatchType":"interpolated","Location":{"LocationId":"NT_QvWC2ivCOcfydwt9At0V0A_xA","LocationType":"point","DisplayPosition":{"Latitude":42.67966,"Longitude":26.31129},"MapView":{"TopLeft":{"Latitude":42.6807842,"Longitude":26.3097609},"BottomRight":{"Latitude":42.6785358,"Longitude":26.3128191}},"Address":{"Label":"Булевард 6-ти септември 1, 8800 Сливен, България","Country":"BGR","County":"Сливен","City":"Сливен","District":"кв. Клуцохор","Street":"Булевард 6-ти септември","HouseNumber":"1","PostalCode":"8800","AdditionalData":[{"value":"България","key":"CountryName"},{"value":"Сливен","key":"CountyName"}]},"MapReference":{"ReferenceId":"1044596482","Spot":0.39,"SideOfStreet":"left","CountryId":"20656214","CountyId":"23719441","CityId":"23718531","AddressId":"344173873","RoadLinkId":"364808252"}}},{"Relevance":1.0,"Distance":40.2,"MatchLevel":"houseNumber","MatchQuality":{"Country":1.0,"County":1.0,"City":1.0,"District":1.0,"Street":[1.0],"HouseNumber":1.0,"PostalCode":1.0},"MatchType":"interpolated","Location":{"LocationId":"NT_Do.s1rN16bYB3OxoOSbgTB_xAD","LocationType":"point","DisplayPosition":{"Latitude":42.67926,"Longitude":26.31046},"MapView":{"TopLeft":{"Latitude":42.6803842,"Longitude":26.3089309},"BottomRight":{"Latitude":42.6781358,"Longitude":26.3119891}},"Address":{"Label":"Улица Георги Икономов 10, 8800 Сливен, България","Country":"BGR","County":"Сливен","City":"Сливен","District":"кв. Клуцохор","Street":"Улица Георги Икономов","HouseNumber":"10","PostalCode":"8800","AdditionalData":[{"value":"България","key":"CountryName"},{"value":"Сливен","key":"CountyName"}]},"MapReference":{"ReferenceId":"865750269","Spot":0.51,"SideOfStreet":"left","CountryId":"20656214","CountyId":"23719441","CityId":"23718531","AddressId":"296706752","RoadLinkId":"238939339"}}},{"Relevance":1.0,"Distance":41.1,"MatchLevel":"houseNumber","MatchQuality":{"Country":1.0,"County":1.0,"City":1.0,"District":1.0,"Street":[1.0],"HouseNumber":1.0,"PostalCode":1.0},"MatchType":"interpolated","Location":{"LocationId":"NT_VVvVnmpAjvJ7TNB9d8qZ7B_2A","LocationType":"point","DisplayPosition":{"Latitude":42.67892,"Longitude":26.30994},"MapView":{"TopLeft":{"Latitude":42.6800442,"Longitude":26.3084109},"BottomRight":{"Latitude":42.6777958,"Longitude":26.3114691}},"Address":{"Label":"Улица Московска 6, 8800 Сливен, България","Country":"BGR","County":"Сливен","City":"Сливен","District":"кв. Клуцохор","Street":"Улица Московска","HouseNumber":"6","PostalCode":"8800","AdditionalData":[{"value":"България","key":"CountryName"},{"value":"Сливен","key":"CountyName"}]},"MapReference":{"ReferenceId":"865251772","Spot":0.51,"SideOfStreet":"right","CountryId":"20656214","CountyId":"23719441","CityId":"23718531","AddressId":"344164630","RoadLinkId":"238571697"}}},{"Relevance":1.0,"Distance":59.0,"MatchLevel":"street","MatchQuality":{"Country":1.0,"County":1.0,"City":1.0,"District":1.0,"Street":[1.0],"PostalCode":1.0},"Location":{"LocationId":"NT_qH0jXFo0nhqIHzJUVBbLIB_l_809909756_L","LocationType":"point","DisplayPosition":{"Latitude":42.67952,"Longitude":26.31151},"MapView":{"TopLeft":{"Latitude":42.67952,"Longitude":26.31151},"BottomRight":{"Latitude":42.67902,"Longitude":26.31213}},"Address":{"Label":"Улица Стефан Караджа, 8800 Сливен, България","Country":"BGR","County":"Сливен","City":"Сливен","District":"кв. Клуцохор","Street":"Улица Стефан Караджа","PostalCode":"8800","AdditionalData":[{"value":"България","key":"CountryName"},{"value":"Сливен","key":"CountyName"}]},"MapReference":{"ReferenceId":"809909756","Spot":1.0,"SideOfStreet":"left","CountryId":"20656214","CountyId":"23719441","CityId":"23718531"}}}]}]}}