{"Response":{"MetaInfo":{"Timestamp":"2020-03-28T10:52:50.961+0000","NextPageInformation":"2"},"View":[{"_type":"SearchResultsViewType","ViewId":0,"Result":[{"Relevance":1.0,"Distance":0.0,"Direction":0.0,"MatchLevel":"district","MatchQuality":{"Country":1.0,"County":1.0,"City":1.0,"District":1.0,"PostalCode":1.0},"Location":{"LocationId":"NT_0YIB3E4goqNr1EsI6F6cgD","LocationType":"point","DisplayPosition":{"Latitude":42.6851386,"Longitude":23.2464802},"MapView":{"TopLeft":{"Latitude":42.70082,"Longitude":23.21086},"BottomRight":{"Latitude":42.66516,"Longitude":23.27749}},"Address":{"Label":"Овча купел, София, България","Country":"BGR","County":"София-град","City":"София","District":"Овча купел","PostalCode":"1632","AdditionalData":[{"value":"България","key":"CountryName"},{"value":"София-град","key":"CountyName"}]},"MapReference":{"ReferenceId":"587933384","SideOfStreet":"neither","CountryId":"20656214","CountyId":"20665318","CityId":"20665319","DistrictId":"20665351"}}},{"Relevance":1.0,"Distance":5.0,"MatchLevel":"street","MatchQuality":{"Country":1.0,"County":1.0,"City":1.0,"District":1.0,"PostalCode":1.0},"Location":{"LocationId":"NT_qxUYgeVZRaVumyL3SGrleC_l_1147346700_R","LocationType":"point","DisplayPosition":{"Latitude":42.6850948,"Longitude":23.2464656},"MapView":{"TopLeft":{"Latitude":42.68512,"Longitude":23.24568},"BottomRight":{"Latitude":42.68497,"Longitude":23.24671}},"Address":{"Label":"1632 София, България","Country":"BGR","County":"София-град","City":"София","District":"Овча купел","PostalCode":"1632","AdditionalData":[{"value":"България","key":"CountryName"},{"value":"София-град","key":"CountyName"}]},"MapReference":{"ReferenceId":"1147346700","Spot":0.26,"SideOfStreet":"right","CountryId":"20656214","CountyId":"20665318","CityId":"20665319","DistrictId":"20665351"}}},{"Relevance":1.0,"Distance":14.4,"MatchLevel":"street","MatchQuality":{"Country":1.0,"County":1.0,"City":1.0,"District":1.0,"PostalCode":1.0},"Location":{"LocationId":"NT_qxUYgeVZRaVumyL3SGrleC_l_1007160535_L","LocationType":"point","DisplayPosition":{"Latitude":42.6852446,"Longitude":23.2465812},"MapView":{"TopLeft":{"Latitude":42.68562,"Longitude":23.24631},"BottomRight":{"Latitude":42.68497,"Longitude":23.24671}},"Address":{"Label":"1632 София, България","Country":"BGR","County":"София-град","City":"София","District":"Овча купел","PostalCode":"1632","AdditionalData":[{"value":"България","key":"CountryName"},{"value":"София-град","key":"CountyName"}]},"MapReference":{"ReferenceId":"1007160535","Spot":0.4,"SideOfStreet":"left","CountryId":"20656214","CountyId":"20665318","CityId":"20665319","DistrictId":"20665351"}}},{"Relevance":1.0,"Distance":26.5,"MatchLevel":"street","MatchQuality":{"Country":1.0,"County":1.0,"City":1.0,"District":1.0,"PostalCode":1.0},"Location":{"LocationId":"NT_qxUYgeVZRaVumyL3SGrleC_l_1016404005_R","LocationType":"point","DisplayPosition":{"Latitude":42.68497,"Longitude":23.24671},"MapView":{"TopLeft":{"Latitude":42.68497,"Longitude":23.24671},"BottomRight":{"Latitude":42.68486,"Longitude":23.24717}},"Address":{"Label":"1632 София, България","Country":"BGR","County":"София-град","City":"София","District":"Овча купел","PostalCode":"1632","AdditionalData":[{"value":"България","key":"CountryName"},{"value":"София-град","key":"CountyName"}]},"MapReference":{"ReferenceId":"1016404005","Spot":1.0,"SideOfStreet":"right","CountryId":"20656214","CountyId":"20665318","CityId":"20665319","DistrictId":"20665351"}}},{"Relevance":1.0,"Distance":43.0,"MatchLevel":"street","MatchQuality":{"Country":1.0,"County":1.0,"City":1.0,"District":1.0,"PostalCode":1.0},"Location":{"LocationId":"NT_qxUYgeVZRaVumyL3SGrleC_l_1147452662_L","LocationType":"point","DisplayPosition":{"Latitude":42.6847873,"Longitude":23.2466997},"MapView":{"TopLeft":{"Latitude":42.68486,"Longitude":23.24664},"BottomRight":{"Latitude":42.68475,"Longitude":23.24717}},"Address":{"Label":"1632 София, България","Country":"BGR","County":"София-град","City":"София","District":"Овча купел","PostalCode":"1632","AdditionalData":[{"value":"България","key":"CountryName"},{"value":"София-град","key":"CountyName"}]},"MapReference":{"ReferenceId":"1147452662","Spot":0.13,"SideOfStreet":"left","CountryId":"20656214","CountyId":"20665318","CityId":"20665319","DistrictId":"20665351"}}},{"Relevance":1.0,"Distance":45.1,"MatchLevel":"street","MatchQuality":{"Country":1.0,"County":1.0,"City":1.0,"District":1.0,"PostalCode":1.0},"Location":{"LocationId":"NT_qxUYgeVZRaVumyL3SGrleC_l_1147452661_L","LocationType":"point","DisplayPosition":{"Latitude":42.68475,"Longitude":23.24664},"MapView":{"TopLeft":{"Latitude":42.68475,"Longitude":23.24648},"BottomRight":{"Latitude":42.68456,"Longitude":23.24664}},"Address":{"Label":"1632 София, България","Country":"BGR","County":"София-град","City":"София","District":"Овча купел","PostalCode":"1632","AdditionalData":[{"value":"България","key":"CountryName"},{"value":"София-град","key":"CountyName"}]},"MapReference":{"ReferenceId":"1147452661","Spot":1.0,"SideOfStreet":"left","CountryId":"20656214","CountyId":"20665318","CityId":"20665319","DistrictId":"20665351"}}},{"Relevance":1.0,"Distance":54.0,"MatchLevel":"street","MatchQuality":{"Country":1.0,"County":1.0,"City":1.0,"District":1.0,"PostalCode":1.0},"Location":{"LocationId":"NT_qxUYgeVZRaVumyL3SGrleC_l_1007160533_L","LocationType":"point","DisplayPosition":{"Latitude":42.6855973,"Longitude":23.2462622},"MapView":{"TopLeft":{"Latitude":42.686,"Longitude":23.2447},"BottomRight":{"Latitude":42.68533,"Longitude":23.24631}},"Address":{"Label":"1632 София, България","Country":"BGR","County":"София-град","City":"София","District":"Овча купел","PostalCode":"1632","AdditionalData":[{"value":"България","key":"CountryName"},{"value":"София-град","key":"CountyName"}]},"MapReference":{"ReferenceId":"1007160533","Spot":0.03,"SideOfStreet":"left","CountryId":"20656214","CountyId":"20665318","CityId":"20665319","DistrictId":"20665351"}}},{"Relevance":1.0,"Distance":55.3,"MatchLevel":"street","MatchQuality":{"Country":1.0,"County":1.0,"City":1.0,"District":1.0,"PostalCode":1.0},"Location":{"LocationId":"NT_qxUYgeVZRaVumyL3SGrleC_l_1020213780_R","LocationType":"point","DisplayPosition":{"Latitude":42.68562,"Longitude":23.24631},"MapView":{"TopLeft":{"Latitude":42.68594,"Longitude":23.24631},"BottomRight":{"Latitude":42.68562,"Longitude":23.24687}},"Address":{"Label":"1632 София, България","Country":"BGR","County":"София-град","City":"София","District":"Овча купел","PostalCode":"1632","AdditionalData":[{"value":"България","key":"CountryName"},{"value":"София-град","key":"CountyName"}]},"MapReference":{"ReferenceId":"1020213780","Spot":0.0,"SideOfStreet":"right","CountryId":"20656214","CountyId":"20665318","CityId":"20665319","DistrictId":"20665351"}}},{"Relevance":1.0,"Distance":64.3,"MatchLevel":"street","MatchQuality":{"Country":1.0,"County":1.0,"City":1.0,"District":1.0,"PostalCode":1.0},"Location":{"LocationId":"NT_qxUYgeVZRaVumyL3SGrleC_l_1147452664_R","LocationType":"point","DisplayPosition":{"Latitude":42.68486,"Longitude":23.24717},"MapView":{"TopLeft":{"Latitude":42.68486,"Longitude":23.24717},"BottomRight":{"Latitude":42.68456,"Longitude":23.24781}},"Address":{"Label":"1632 София, България","Country":"BGR","County":"София-град","City":"София","District":"Овча купел","PostalCode":"1632","AdditionalData":[{"value":"България","key":"CountryName"},{"value":"София-град","key":"CountyName"}]},"MapReference":{"ReferenceId":"1147452664","Spot":1.0,"SideOfStreet":"right","CountryId":"20656214","CountyId":"20665318","CityId":"20665319","DistrictId":"20665351"}}},{"Relevance":1.0,"Distance":64.3,"MatchLevel":"street","MatchQuality":{"Country":1.0,"County":1.0,"City":1.0,"District":1.0,"PostalCode":1.0},"Location":{"LocationId":"NT_qxUYgeVZRaVumyL3SGrleC_l_850224858_L","LocationType":"point","DisplayPosition":{"Latitude":42.68456,"Longitude":23.24648},"MapView":{"TopLeft":{"Latitude":42.68456,"Longitude":23.24568},"BottomRight":{"Latitude":42.68442,"Longitude":23.24648}},"Address":{"Label":"1632 София, България","Country":"BGR","County":"София-град","City":"София","District":"Овча купел","PostalCode":"1632","AdditionalData":[{"value":"България","key":"CountryName"},{"value":"София-град","key":"CountyName"}]},"MapReference":{"ReferenceId":"850224858","Spot":1.0,"SideOfStreet":"left","CountryId":"20656214","CountyId":"20665318","CityId":"20665319","DistrictId":"20665351"}}}]}]}}