{"Response":{"MetaInfo":{"Timestamp":"2020-03-28T11:21:42.513+0000","NextPageInformation":"2"},"View":[{"_type":"SearchResultsViewType","ViewId":0,"Result":[{"Relevance":1.0,"Distance":-51.1,"MatchLevel":"landmark","MatchQuality":{"Country":1.0,"County":1.0,"City":1.0,"District":1.0,"Street":[1.0],"HouseNumber":1.0,"PostalCode":1.0,"Name":1.0},"Location":{"LocationId":"NT_aFQ3MsWXIggWYOom-UPkGA_p_irWLrZx.kyVeub-k.A9otB","LocationType":"hospital","Name":"Opća bolnica Dubrovnik","DisplayPosition":{"Latitude":42.64807,"Longitude":18.07668},"MapView":{"TopLeft":{"Latitude":42.6491942,"Longitude":18.0751516},"BottomRight":{"Latitude":42.6469458,"Longitude":18.0782084}},"Address":{"Label":"Ulica dr. Roka Mišetića 2, HR-20000 Dubrovnik, Hrvatska","Country":"HRV","County":"Dubrovačko-neretvanska županija","City":"Dubrovnik","District":"Gorica","Street":"Ulica dr. Roka Mišetića","HouseNumber":"2","PostalCode":"20000","AdditionalData":[{"value":"Hrvatska","key":"CountryName"},{"value":"Dubrovačko-neretvanska županija","key":"CountyName"}]},"MapReference":{"CountryId":"20633739","CountyId":"20641515","CityId":"20641522","PlaceId":"555681009"}}},{"Relevance":1.0,"Distance":0.0,"Direction":0.0,"MatchLevel":"district","MatchQuality":{"Country":1.0,"County":1.0,"City":1.0,"District":1.0,"PostalCode":1.0},"Location":{"LocationId":"NT_DXOwOS.jYG.rfLmx1W5h2B","LocationType":"point","DisplayPosition":{"Latitude":42.6490378,"Longitude":18.0766844},"MapView":{"TopLeft":{"Latitude":42.65157,"Longitude":18.07302},"BottomRight":{"Latitude":42.64339,"Longitude":18.09172}},"Address":{"Label":"Gorica, Dubrovnik, Hrvatska","Country":"HRV","County":"Dubrovačko-neretvanska županija","City":"Dubrovnik","District":"Gorica","PostalCode":"20000","AdditionalData":[{"value":"Hrvatska","key":"CountryName"},{"value":"Dubrovačko-neretvanska županija","key":"CountyName"}]},"MapReference":{"ReferenceId":"834212737","SideOfStreet":"neither","CountryId":"20633739","CountyId":"20641515","CityId":"20641522"}}},{"Relevance":1.0,"Distance":22.5,"MatchLevel":"houseNumber","MatchQuality":{"Country":1.0,"County":1.0,"City":1.0,"District":1.0,"Street":[1.0],"HouseNumber":1.0,"PostalCode":1.0},"MatchType":"interpolated","Location":{"LocationId":"NT_4kTaQXX-RN8y2ozO.RQHbC_0EE","LocationType":"point","DisplayPosition":{"Latitude":42.64921,"Longitude":18.07654},"MapView":{"TopLeft":{"Latitude":42.6503342,"Longitude":18.0750116},"BottomRight":{"Latitude":42.6480858,"Longitude":18.0780684}},"Address":{"Label":"Ulica dr. Ante Šercera 4A, HR-20000 Dubrovnik, Hrvatska","Country":"HRV","County":"Dubrovačko-neretvanska županija","City":"Dubrovnik","District":"Gorica","Street":"Ulica dr. Ante Šercera","HouseNumber":"4A","PostalCode":"20000","AdditionalData":[{"value":"Hrvatska","key":"CountryName"},{"value":"Dubrovačko-neretvanska županija","key":"CountyName"}]},"MapReference":{"ReferenceId":"1110234168","Spot":1.0,"SideOfStreet":"right","CountryId":"20633739","CountyId":"20641515","CityId":"20641522","AddressId":"768234832","RoadLinkId":"420758430"}}},{"Relevance":1.0,"Distance":29.0,"MatchLevel":"street","MatchQuality":{"Country":1.0,"County":1.0,"City":1.0,"District":1.0,"Street":[1.0],"PostalCode":1.0},"Location":{"LocationId":"NT_4kTaQXX-RN8y2ozO.RQHbC_l_957242787_L","LocationType":"point","DisplayPosition":{"Latitude":42.64914,"Longitude":18.07701},"MapView":{"TopLeft":{"Latitude":42.64914,"Longitude":18.07701},"BottomRight":{"Latitude":42.64912,"Longitude":18.07715}},"Address":{"Label":"Ulica dr. Ante Šercera, HR-20000 Dubrovnik, Hrvatska","Country":"HRV","County":"Dubrovačko-neretvanska županija","City":"Dubrovnik","District":"Gorica","Street":"Ulica dr. Ante Šercera","PostalCode":"20000","AdditionalData":[{"value":"Hrvatska","key":"CountryName"},{"value":"Dubrovačko-neretvanska županija","key":"CountyName"}]},"MapReference":{"ReferenceId":"957242787","Spot":1.0,"SideOfStreet":"left","CountryId":"20633739","CountyId":"20641515","CityId":"20641522"}}},{"Relevance":1.0,"Distance":29.0,"MatchLevel":"street","MatchQuality":{"Country":1.0,"County":1.0,"City":1.0,"District":1.0,"Street":[1.0],"PostalCode":1.0},"Location":{"LocationId":"NT_4kTaQXX-RN8y2ozO.RQHbC_l_585758508_L","LocationType":"point","DisplayPosition":{"Latitude":42.64914,"Longitude":18.07701},"MapView":{"TopLeft":{"Latitude":42.64985,"Longitude":18.07701},"BottomRight":{"Latitude":42.64914,"Longitude":18.07718}},"Address":{"Label":"Ulica dr. Ante Šercera, HR-20000 Dubrovnik, Hrvatska","Country":"HRV","County":"Dubrovačko-neretvanska županija","City":"Dubrovnik","District":"Gorica","Street":"Ulica dr. Ante Šercera","PostalCode":"20000","AdditionalData":[{"value":"Hrvatska","key":"CountryName"},{"value":"Dubrovačko-neretvanska županija","key":"CountyName"}]},"MapReference":{"ReferenceId":"585758508","Spot":0.0,"SideOfStreet":"left","CountryId":"20633739","CountyId":"20641515","CityId":"20641522"}}},{"Relevance":1.0,"Distance":39.2,"MatchLevel":"street","MatchQuality":{"Country":1.0,"County":1.0,"City":1.0,"District":1.0,"Street":[1.0],"PostalCode":1.0},"Location":{"LocationId":"NT_4kTaQXX-RN8y2ozO.RQHbC_l_957242788_L","LocationType":"point","DisplayPosition":{"Latitude":42.64912,"Longitude":18.07715},"MapView":{"TopLeft":{"Latitude":42.64982,"Longitude":18.07715},"BottomRight":{"Latitude":42.64912,"Longitude":18.07734}},"Address":{"Label":"Ulica dr. Ante Šercera, HR-20000 Dubrovnik, Hrvatska","Country":"HRV","County":"Dubrovačko-neretvanska županija","City":"Dubrovnik","District":"Gorica","Street":"Ulica dr. Ante Šercera","PostalCode":"20000","AdditionalData":[{"value":"Hrvatska","key":"CountryName"},{"value":"Dubrovačko-neretvanska županija","key":"CountyName"}]},"MapReference":{"ReferenceId":"957242788","Spot":0.0,"SideOfStreet":"left","CountryId":"20633739","CountyId":"20641515","CityId":"20641522"}}},{"Relevance":1.0,"Distance":51.2,"MatchLevel":"street","MatchQuality":{"Country":1.0,"County":1.0,"City":1.0,"District":1.0,"Street":[1.0],"PostalCode":1.0},"Location":{"LocationId":"NT_4kTaQXX-RN8y2ozO.RQHbC_l_585758534_L","LocationType":"point","DisplayPosition":{"Latitude":42.6488,"Longitude":18.07722},"MapView":{"TopLeft":{"Latitude":42.64978,"Longitude":18.07722},"BottomRight":{"Latitude":42.6488,"Longitude":18.07765}},"Address":{"Label":"Ulica dr. Ante Šercera, HR-20000 Dubrovnik, Hrvatska","Country":"HRV","County":"Dubrovačko-neretvanska županija","City":"Dubrovnik","District":"Gorica","Street":"Ulica dr. Ante Šercera","PostalCode":"20000","AdditionalData":[{"value":"Hrvatska","key":"CountryName"},{"value":"Dubrovačko-neretvanska županija","key":"CountyName"}]},"MapReference":{"ReferenceId":"585758534","Spot":0.0,"SideOfStreet":"left","CountryId":"20633739","CountyId":"20641515","CityId":"20641522"}}},{"Relevance":1.0,"Distance":51.2,"MatchLevel":"street","MatchQuality":{"Country":1.0,"County":1.0,"City":1.0,"District":1.0,"Street":[1.0],"PostalCode":1.0},"Location":{"LocationId":"NT_4kTaQXX-RN8y2ozO.RQHbC_l_585758533_L","LocationType":"point","DisplayPosition":{"Latitude":42.6488,"Longitude":18.07722},"MapView":{"TopLeft":{"Latitude":42.6488,"Longitude":18.07722},"BottomRight":{"Latitude":42.64845,"Longitude":18.0774}},"Address":{"Label":"Ulica dr. Ante Šercera, HR-20000 Dubrovnik, Hrvatska","Country":"HRV","County":"Dubrovačko-neretvanska županija","City":"Dubrovnik","District":"Gorica","Street":"Ulica dr. Ante Šercera","PostalCode":"20000","AdditionalData":[{"value":"Hrvatska","key":"CountryName"},{"value":"Dubrovačko-neretvanska županija","key":"CountyName"}]},"MapReference":{"ReferenceId":"585758533","Spot":1.0,"SideOfStreet":"left","CountryId":"20633739","CountyId":"20641515","CityId":"20641522"}}},{"Relevance":1.0,"Distance":52.0,"MatchLevel":"street","MatchQuality":{"Country":1.0,"County":1.0,"City":1.0,"District":1.0,"Street":[1.0],"PostalCode":1.0},"Location":{"LocationId":"NT_4kTaQXX-RN8y2ozO.RQHbC_l_585758535_L","LocationType":"point","DisplayPosition":{"Latitude":42.6487655,"Longitude":18.0772018},"MapView":{"TopLeft":{"Latitude":42.6488,"Longitude":18.07702},"BottomRight":{"Latitude":42.64842,"Longitude":18.07722}},"Address":{"Label":"Ulica dr. Ante Šercera, HR-20000 Dubrovnik, Hrvatska","Country":"HRV","County":"Dubrovačko-neretvanska županija","City":"Dubrovnik","District":"Gorica","Street":"Ulica dr. Ante Šercera","PostalCode":"20000","AdditionalData":[{"value":"Hrvatska","key":"CountryName"},{"value":"Dubrovačko-neretvanska županija","key":"CountyName"}]},"MapReference":{"ReferenceId":"585758535","Spot":0.91,"SideOfStreet":"left","CountryId":"20633739","CountyId":"20641515","CityId":"20641522"}}},{"Relevance":1.0,"Distance":53.5,"MatchLevel":"houseNumber","MatchQuality":{"Country":1.0,"County":1.0,"City":1.0,"District":1.0,"Street":[1.0],"HouseNumber":1.0,"PostalCode":1.0},"MatchType":"interpolated","Location":{"LocationId":"NT_7WSj66eUYyx9lHYBZl-PoC_0EE","LocationType":"point","DisplayPosition":{"Latitude":42.64846,"Longitude":18.07681},"MapView":{"TopLeft":{"Latitude":42.6495842,"Longitude":18.0752816},"BottomRight":{"Latitude":42.6473358,"Longitude":18.0783384}},"Address":{"Label":"Ulica dr. Roka Mišetića 4A, HR-20000 Dubrovnik, Hrvatska","Country":"HRV","County":"Dubrovačko-neretvanska županija","City":"Dubrovnik","District":"Gorica","Street":"Ulica dr. Roka Mišetića","HouseNumber":"4A","PostalCode":"20000","AdditionalData":[{"value":"Hrvatska","key":"CountryName"},{"value":"Dubrovačko-neretvanska županija","key":"CountyName"}]},"MapReference":{"ReferenceId":"957242789","Spot":0.59,"SideOfStreet":"left","CountryId":"20633739","CountyId":"20641515","CityId":"20641522","AddressId":"704170137","RoadLinkId":"300198211"}}}]}]}}