{"Response":{"MetaInfo":{"Timestamp":"2020-03-28T10:16:21.177+0000","NextPageInformation":"2"},"View":[{"_type":"SearchResultsViewType","ViewId":0,"Result":[{"Relevance":1.0,"Distance":0.0,"Direction":0.0,"MatchLevel":"district","MatchQuality":{"Country":1.0,"County":1.0,"City":1.0,"District":1.0,"PostalCode":1.0},"Location":{"LocationId":"NT_hCNNvMdhSmCTKH6wEWsJKB","LocationType":"point","DisplayPosition":{"Latitude":42.6677717,"Longitude":25.4097293},"MapView":{"TopLeft":{"Latitude":42.67524,"Longitude":25.39786},"BottomRight":{"Latitude":42.66026,"Longitude":25.41535}},"Address":{"Label":"Енина, Казанлък, България","Country":"BGR","County":"Стара Загора","City":"Казанлък","District":"Енина","PostalCode":"6142","AdditionalData":[{"value":"България","key":"CountryName"},{"value":"Стара Загора","key":"CountyName"}]},"MapReference":{"ReferenceId":"816183041","SideOfStreet":"neither","CountryId":"20656214","CountyId":"23719429","CityId":"23719292","DistrictId":"23718149"}}},{"Relevance":1.0,"Distance":8.4,"MatchLevel":"houseNumber","MatchQuality":{"Country":1.0,"County":1.0,"City":1.0,"District":1.0,"Street":[1.0],"HouseNumber":1.0,"PostalCode":1.0},"MatchType":"interpolated","Location":{"LocationId":"NT_laqzLwmFxD-wEZQRkiV0zC_xA","LocationType":"point","DisplayPosition":{"Latitude":42.66771,"Longitude":25.40967},"MapView":{"TopLeft":{"Latitude":42.6688342,"Longitude":25.4081412},"BottomRight":{"Latitude":42.6665858,"Longitude":25.4111988}},"Address":{"Label":"Улица Димитър Рогозов 1, 6142 Казанлък, България","Country":"BGR","County":"Стара Загора","City":"Казанлък","District":"Енина","Street":"Улица Димитър Рогозов","HouseNumber":"1","PostalCode":"6142","AdditionalData":[{"value":"България","key":"CountryName"},{"value":"Стара Загора","key":"CountyName"}]},"MapReference":{"ReferenceId":"816186601","Spot":0.18,"SideOfStreet":"right","CountryId":"20656214","CountyId":"23719429","CityId":"23719292","DistrictId":"23718149","AddressId":"676769659","RoadLinkId":"203594975"}}},{"Relevance":1.0,"Distance":15.0,"MatchLevel":"houseNumber","MatchQuality":{"Country":1.0,"County":1.0,"City":1.0,"District":1.0,"Street":[1.0],"HouseNumber":1.0,"PostalCode":1.0},"MatchType":"interpolated","Location":{"LocationId":"NT_ciHoXHv8QCxWAUTZiI4P0A_yA","LocationType":"point","DisplayPosition":{"Latitude":42.66756,"Longitude":25.40994},"MapView":{"TopLeft":{"Latitude":42.6686842,"Longitude":25.4084112},"BottomRight":{"Latitude":42.6664358,"Longitude":25.4114688}},"Address":{"Label":"Улица Анастасия Тошева 2, 6142 Казанлък, България","Country":"BGR","County":"Стара Загора","City":"Казанлък","District":"Енина","Street":"Улица Анастасия Тошева","HouseNumber":"2","PostalCode":"6142","AdditionalData":[{"value":"България","key":"CountryName"},{"value":"Стара Загора","key":"CountyName"}]},"MapReference":{"ReferenceId":"816186602","Spot":0.21,"SideOfStreet":"left","CountryId":"20656214","CountyId":"23719429","CityId":"23719292","DistrictId":"23718149","AddressId":"676821564","RoadLinkId":"203594976"}}},{"Relevance":1.0,"Distance":33.6,"MatchLevel":"street","MatchQuality":{"Country":1.0,"County":1.0,"City":1.0,"District":1.0,"PostalCode":1.0},"Location":{"LocationId":"NT_AoMzLek76aRnYL7-yLyQEB_l_816183061_L","LocationType":"point","DisplayPosition":{"Latitude":42.66747,"Longitude":25.40972},"MapView":{"TopLeft":{"Latitude":42.66747,"Longitude":25.40969},"BottomRight":{"Latitude":42.66729,"Longitude":25.40972}},"Address":{"Label":"6142 Казанлък, България","Country":"BGR","County":"Стара Загора","City":"Казанлък","District":"Енина","PostalCode":"6142","AdditionalData":[{"value":"България","key":"CountryName"},{"value":"Стара Загора","key":"CountyName"}]},"MapReference":{"ReferenceId":"816183061","Spot":1.0,"SideOfStreet":"left","CountryId":"20656214","CountyId":"23719429","CityId":"23719292","DistrictId":"23718149"}}},{"Relevance":1.0,"Distance":40.0,"MatchLevel":"houseNumber","MatchQuality":{"Country":1.0,"County":1.0,"City":1.0,"District":1.0,"Street":[1.0],"HouseNumber":1.0,"PostalCode":1.0},"MatchType":"interpolated","Location":{"LocationId":"NT_Kgfgkc8yizX9az8b3vuYaB_0A","LocationType":"point","DisplayPosition":{"Latitude":42.66727,"Longitude":25.40988},"MapView":{"TopLeft":{"Latitude":42.6683942,"Longitude":25.4083512},"BottomRight":{"Latitude":42.6661458,"Longitude":25.4114088}},"Address":{"Label":"Улица Христо Курдев 4, 6142 Казанлък, България","Country":"BGR","County":"Стара Загора","City":"Казанлък","District":"Енина","Street":"Улица Христо Курдев","HouseNumber":"4","PostalCode":"6142","AdditionalData":[{"value":"България","key":"CountryName"},{"value":"Стара Загора","key":"CountyName"}]},"MapReference":{"ReferenceId":"816183064","Spot":0.86,"SideOfStreet":"right","CountryId":"20656214","CountyId":"23719429","CityId":"23719292","DistrictId":"23718149","AddressId":"676787266","RoadLinkId":"203591675"}}},{"Relevance":1.0,"Distance":41.6,"MatchLevel":"landmark","MatchQuality":{"Country":1.0,"County":1.0,"City":1.0,"PostalCode":1.0,"Name":1.0},"Location":{"LocationId":"NT_Gx74DkBBj214D2paKJEynB","LocationType":"river","Name":"Енинска река","DisplayPosition":{"Latitude":42.66048,"Longitude":25.40737},"MapView":{"TopLeft":{"Latitude":42.67097,"Longitude":25.40221},"BottomRight":{"Latitude":42.64999,"Longitude":25.40995}},"Address":{"Label":"6100 Казанлък, България","Country":"BGR","County":"Стара Загора","City":"Казанлък","PostalCode":"6100","AdditionalData":[{"value":"България","key":"CountryName"},{"value":"Стара Загора","key":"CountyName"}]},"MapReference":{"CountryId":"20656214","CountyId":"23719429","CityId":"23719292","PlaceId":"1515169515"}}},{"Relevance":1.0,"Distance":53.7,"MatchLevel":"street","MatchQuality":{"Country":1.0,"County":1.0,"City":1.0,"District":1.0,"PostalCode":1.0},"Location":{"LocationId":"NT_AoMzLek76aRnYL7-yLyQEB_l_816183060_L","LocationType":"point","DisplayPosition":{"Latitude":42.66729,"Longitude":25.40969},"MapView":{"TopLeft":{"Latitude":42.66729,"Longitude":25.40845},"BottomRight":{"Latitude":42.66714,"Longitude":25.40969}},"Address":{"Label":"6142 Казанлък, България","Country":"BGR","County":"Стара Загора","City":"Казанлък","District":"Енина","PostalCode":"6142","AdditionalData":[{"value":"България","key":"CountryName"},{"value":"Стара Загора","key":"CountyName"}]},"MapReference":{"ReferenceId":"816183060","Spot":1.0,"SideOfStreet":"left","CountryId":"20656214","CountyId":"23719429","CityId":"23719292","DistrictId":"23718149"}}},{"Relevance":1.0,"Distance":53.7,"MatchLevel":"street","MatchQuality":{"Country":1.0,"County":1.0,"City":1.0,"District":1.0,"PostalCode":1.0},"Location":{"LocationId":"NT_AoMzLek76aRnYL7-yLyQEB_l_816183062_L","LocationType":"point","DisplayPosition":{"Latitude":42.66729,"Longitude":25.40969},"MapView":{"TopLeft":{"Latitude":42.66729,"Longitude":25.40949},"BottomRight":{"Latitude":42.66667,"Longitude":25.40969}},"Address":{"Label":"6142 Казанлък, България","Country":"BGR","County":"Стара Загора","City":"Казанлък","District":"Енина","PostalCode":"6142","AdditionalData":[{"value":"България","key":"CountryName"},{"value":"Стара Загора","key":"CountyName"}]},"MapReference":{"ReferenceId":"816183062","Spot":1.0,"SideOfStreet":"left","CountryId":"20656214","CountyId":"23719429","CityId":"23719292","DistrictId":"23718149"}}},{"Relevance":1.0,"Distance":70.3,"MatchLevel":"street","MatchQuality":{"Country":1.0,"County":1.0,"City":1.0,"District":1.0,"PostalCode":1.0},"Location":{"LocationId":"NT_AoMzLek76aRnYL7-yLyQEB_l_1183656695_R","LocationType":"point","DisplayPosition":{"Latitude":42.66777,"Longitude":25.40887},"MapView":{"TopLeft":{"Latitude":42.66777,"Longitude":25.40829},"BottomRight":{"Latitude":42.66775,"Longitude":25.40887}},"Address":{"Label":"6142 Казанлък, България","Country":"BGR","County":"Стара Загора","City":"Казанлък","District":"Енина","PostalCode":"6142","AdditionalData":[{"value":"България","key":"CountryName"},{"value":"Стара Загора","key":"CountyName"}]},"MapReference":{"ReferenceId":"1183656695","Spot":1.0,"SideOfStreet":"right","CountryId":"20656214","CountyId":"23719429","CityId":"23719292","DistrictId":"23718149"}}},{"Relevance":1.0,"Distance":72.5,"MatchLevel":"houseNumber","MatchQuality":{"Country":1.0,"County":1.0,"City":1.0,"District":1.0,"Street":[1.0],"HouseNumber":1.0,"PostalCode":1.0},"MatchType":"interpolated","Location":{"LocationId":"NT_aEMGn6gLYvy0tx5me1tVJA_xAD","LocationType":"point","DisplayPosition":{"Latitude":42.66847,"Longitude":25.41001},"MapView":{"TopLeft":{"Latitude":42.6695942,"Longitude":25.4084811},"BottomRight":{"Latitude":42.6673458,"Longitude":25.4115389}},"Address":{"Label":"Улица Даскал Петко 10, 6142 Казанлък, България","Country":"BGR","County":"Стара Загора","City":"Казанлък","District":"Енина","Street":"Улица Даскал Петко","HouseNumber":"10","PostalCode":"6142","AdditionalData":[{"value":"България","key":"CountryName"},{"value":"Стара Загора","key":"CountyName"}]},"MapReference":{"ReferenceId":"816186604","Spot":0.55,"SideOfStreet":"left","CountryId":"20656214","CountyId":"23719429","CityId":"23719292","DistrictId":"23718149","AddressId":"676799466","RoadLinkId":"203594978"}}}]}]}}