{"Response":{"MetaInfo":{"Timestamp":"2020-03-28T09:34:01.714+0000","NextPageInformation":"2"},"View":[{"_type":"SearchResultsViewType","ViewId":0,"Result":[{"Relevance":1.0,"Distance":0.0,"Direction":0.0,"MatchLevel":"district","MatchQuality":{"Country":1.0,"County":1.0,"City":1.0,"District":1.0,"PostalCode":1.0},"Location":{"LocationId":"NT_OLtVWZFktnNb70GKMaN6cA","LocationType":"point","DisplayPosition":{"Latitude":42.6989408,"Longitude":23.3271314},"MapView":{"TopLeft":{"Latitude":42.70515,"Longitude":23.32172},"BottomRight":{"Latitude":42.69193,"Longitude":23.3474}},"Address":{"Label":"Център, София, България","Country":"BGR","County":"София-град","City":"София","District":"Център","PostalCode":"1527","AdditionalData":[{"value":"България","key":"CountryName"},{"value":"София-град","key":"CountyName"}]},"MapReference":{"CountryId":"20656214","CountyId":"20665318","CityId":"20665319"}}},{"Relevance":1.0,"Distance":14.6,"MatchLevel":"street","MatchQuality":{"Country":1.0,"County":1.0,"City":1.0,"District":1.0,"PostalCode":1.0},"Location":{"LocationId":"NT_kh2sb6BwEO.yrjktnKH7LD_l_1137655910_L","LocationType":"point","DisplayPosition":{"Latitude":42.69894,"Longitude":23.32731},"MapView":{"TopLeft":{"Latitude":42.69898,"Longitude":23.32731},"BottomRight":{"Latitude":42.69894,"Longitude":23.32781}},"Address":{"Label":"1000 София, България","Country":"BGR","County":"София-град","City":"София","District":"Оборище","PostalCode":"1000","AdditionalData":[{"value":"България","key":"CountryName"},{"value":"София-град","key":"CountyName"}]},"MapReference":{"ReferenceId":"1137655910","Spot":0.0,"SideOfStreet":"left","CountryId":"20656214","CountyId":"20665318","CityId":"20665319","DistrictId":"20665350"}}},{"Relevance":1.0,"Distance":15.8,"MatchLevel":"houseNumber","MatchQuality":{"Country":1.0,"County":1.0,"City":1.0,"District":1.0,"Street":[1.0],"HouseNumber":1.0,"PostalCode":1.0},"MatchType":"interpolated","Location":{"LocationId":"NT_JXbnTCeUSaGLgXBrtCXpVD_4A","LocationType":"point","DisplayPosition":{"Latitude":42.6989,"Longitude":23.32677},"MapView":{"TopLeft":{"Latitude":42.7000242,"Longitude":23.3252404},"BottomRight":{"Latitude":42.6977758,"Longitude":23.3282996}},"Address":{"Label":"Улица Бачо Киро 8, 1000 София, България","Country":"BGR","County":"София-град","City":"София","District":"Оборище","Street":"Улица Бачо Киро","HouseNumber":"8","PostalCode":"1000","AdditionalData":[{"value":"България","key":"CountryName"},{"value":"София-град","key":"CountyName"}]},"MapReference":{"ReferenceId":"828993285","Spot":0.5,"SideOfStreet":"right","CountryId":"20656214","CountyId":"20665318","CityId":"20665319","DistrictId":"20665350","AddressId":"595426433","RoadLinkId":"213359512"}}},{"Relevance":1.0,"Distance":26.2,"MatchLevel":"houseNumber","MatchQuality":{"Country":1.0,"County":1.0,"City":1.0,"District":1.0,"Street":[1.0],"HouseNumber":1.0,"PostalCode":1.0},"MatchType":"interpolated","Location":{"LocationId":"NT_zlkRKxTWiaIbli5cdpqfYB_xED","LocationType":"point","DisplayPosition":{"Latitude":42.69912,"Longitude":23.32779},"MapView":{"TopLeft":{"Latitude":42.7002442,"Longitude":23.3262604},"BottomRight":{"Latitude":42.6979958,"Longitude":23.3293196}},"Address":{"Label":"Улица Будапеща 11, 1000 София, България","Country":"BGR","County":"София-град","City":"София","District":"Оборище","Street":"Улица Будапеща","HouseNumber":"11","PostalCode":"1000","AdditionalData":[{"value":"България","key":"CountryName"},{"value":"София-град","key":"CountyName"}]},"MapReference":{"ReferenceId":"1137655909","Spot":0.21,"SideOfStreet":"left","CountryId":"20656214","CountyId":"20665318","CityId":"20665319","DistrictId":"20665350","AddressId":"595249108","RoadLinkId":"445565771"}}},{"Relevance":1.0,"Distance":27.9,"MatchLevel":"houseNumber","MatchQuality":{"Country":1.0,"County":1.0,"City":1.0,"District":1.0,"Street":[1.0],"HouseNumber":1.0,"PostalCode":1.0},"MatchType":"interpolated","Location":{"LocationId":"NT_zlkRKxTWiaIbli5cdpqfYB_3A","LocationType":"point","DisplayPosition":{"Latitude":42.69894,"Longitude":23.32782},"MapView":{"TopLeft":{"Latitude":42.7000642,"Longitude":23.3262904},"BottomRight":{"Latitude":42.6978158,"Longitude":23.3293496}},"Address":{"Label":"Улица Будапеща 7, 1000 София, България","Country":"BGR","County":"София-град","City":"София","District":"Оборище","Street":"Улица Будапеща","HouseNumber":"7","PostalCode":"1000","AdditionalData":[{"value":"България","key":"CountryName"},{"value":"София-град","key":"CountyName"}]},"MapReference":{"ReferenceId":"1137655908","Spot":0.96,"SideOfStreet":"left","CountryId":"20656214","CountyId":"20665318","CityId":"20665319","DistrictId":"20665350","AddressId":"595249111","RoadLinkId":"445565770"}}},{"Relevance":1.0,"Distance":59.4,"MatchLevel":"houseNumber","MatchQuality":{"Country":1.0,"County":1.0,"City":1.0,"District":1.0,"Street":[1.0],"HouseNumber":1.0,"PostalCode":1.0},"MatchType":"interpolated","Location":{"LocationId":"NT_sWtkq5xxwCRepb3cb99hWB_xQD","LocationType":"point","DisplayPosition":{"Latitude":42.69959,"Longitude":23.32733},"MapView":{"TopLeft":{"Latitude":42.7007142,"Longitude":23.3258004},"BottomRight":{"Latitude":42.6984658,"Longitude":23.3288596}},"Address":{"Label":"Улица Искър 14, 1000 София, България","Country":"BGR","County":"София-град","City":"София","District":"Оборище","Street":"Улица Искър","HouseNumber":"14","PostalCode":"1000","AdditionalData":[{"value":"България","key":"CountryName"},{"value":"София-град","key":"CountyName"}]},"MapReference":{"ReferenceId":"587931112","Spot":0.64,"SideOfStreet":"right","CountryId":"20656214","CountyId":"20665318","CityId":"20665319","DistrictId":"20665350","AddressId":"595426871","RoadLinkId":"71789281"}}},{"Relevance":1.0,"Distance":74.5,"MatchLevel":"houseNumber","MatchQuality":{"Country":1.0,"County":1.0,"City":1.0,"District":1.0,"Street":[1.0],"HouseNumber":1.0,"PostalCode":1.0},"MatchType":"interpolated","Location":{"LocationId":"NT_sWtkq5xxwCRepb3cb99hWB_xAD","LocationType":"point","DisplayPosition":{"Latitude":42.69951,"Longitude":23.3264},"MapView":{"TopLeft":{"Latitude":42.7006342,"Longitude":23.3248704},"BottomRight":{"Latitude":42.6983858,"Longitude":23.3279296}},"Address":{"Label":"Улица Искър 10, 1000 София, България","Country":"BGR","County":"София-град","City":"София","District":"Оборище","Street":"Улица Искър","HouseNumber":"10","PostalCode":"1000","AdditionalData":[{"value":"България","key":"CountryName"},{"value":"София-град","key":"CountyName"}]},"MapReference":{"ReferenceId":"587931132","Spot":0.73,"SideOfStreet":"right","CountryId":"20656214","CountyId":"20665318","CityId":"20665319","DistrictId":"20665350","AddressId":"595426878","RoadLinkId":"71798531"}}},{"Relevance":1.0,"Distance":88.7,"MatchLevel":"houseNumber","MatchQuality":{"Country":1.0,"County":1.0,"City":1.0,"District":1.0,"Street":[1.0],"HouseNumber":1.0,"PostalCode":1.0},"MatchType":"interpolated","Location":{"LocationId":"NT_JXbnTCeUSaGLgXBrtCXpVD_xgD","LocationType":"point","DisplayPosition":{"Latitude":42.69968,"Longitude":23.32663},"MapView":{"TopLeft":{"Latitude":42.7008042,"Longitude":23.3251004},"BottomRight":{"Latitude":42.6985558,"Longitude":23.3281596}},"Address":{"Label":"Улица Бачо Киро 18, 1000 София, България","Country":"BGR","County":"София-град","City":"София","District":"Оборище","Street":"Улица Бачо Киро","HouseNumber":"18","PostalCode":"1000","AdditionalData":[{"value":"България","key":"CountryName"},{"value":"София-град","key":"CountyName"}]},"MapReference":{"ReferenceId":"587931113","Spot":0.19,"SideOfStreet":"right","CountryId":"20656214","CountyId":"20665318","CityId":"20665319","DistrictId":"20665350","AddressId":"595426544","RoadLinkId":"71806356"}}},{"Relevance":1.0,"Distance":91.2,"MatchLevel":"houseNumber","MatchQuality":{"Country":1.0,"County":1.0,"City":1.0,"District":1.0,"Street":[1.0],"HouseNumber":1.0,"PostalCode":1.0},"MatchType":"interpolated","Location":{"LocationId":"NT_ESF-RJJGxRBzJOIWP6welC_xED","LocationType":"point","DisplayPosition":{"Latitude":42.69801,"Longitude":23.32764},"MapView":{"TopLeft":{"Latitude":42.6991342,"Longitude":23.3261104},"BottomRight":{"Latitude":42.6968858,"Longitude":23.3291696}},"Address":{"Label":"Булевард Княз Ал. Дондуков 11, 1000 София, България","Country":"BGR","County":"София-град","City":"София","District":"Оборище","Street":"Булевард Княз Ал. Дондуков","HouseNumber":"11","PostalCode":"1000","AdditionalData":[{"value":"България","key":"CountryName"},{"value":"София-град","key":"CountyName"}]},"MapReference":{"ReferenceId":"1181022171","Spot":0.54,"SideOfStreet":"left","CountryId":"20656214","CountyId":"20665318","CityId":"20665319","DistrictId":"20665350","AddressId":"595249194","RoadLinkId":"489038242"}}},{"Relevance":1.0,"Distance":91.3,"MatchLevel":"houseNumber","MatchQuality":{"Country":1.0,"County":1.0,"City":1.0,"District":1.0,"Street":[1.0],"HouseNumber":1.0,"PostalCode":1.0},"MatchType":"interpolated","Location":{"LocationId":"NT_JXbnTCeUSaGLgXBrtCXpVD_l_828993284_R_0A","LocationType":"point","DisplayPosition":{"Latitude":42.69809,"Longitude":23.326915},"MapView":{"TopLeft":{"Latitude":42.6992142,"Longitude":23.3253854},"BottomRight":{"Latitude":42.6969659,"Longitude":23.3284446}},"Address":{"Label":"Улица Бачо Киро 4, 1000 София, България","Country":"BGR","County":"София-град","City":"София","District":"Оборище","Street":"Улица Бачо Киро","HouseNumber":"4","PostalCode":"1000","AdditionalData":[{"value":"България","key":"CountryName"},{"value":"София-град","key":"CountyName"}]},"MapReference":{"ReferenceId":"828993284","Spot":0.49,"SideOfStreet":"right","CountryId":"20656214","CountyId":"20665318","CityId":"20665319","DistrictId":"20665350"}}}]}]}}