{"Response":{"MetaInfo":{"Timestamp":"2020-03-28T11:54:07.661+0000","NextPageInformation":"2"},"View":[{"_type":"SearchResultsViewType","ViewId":0,"Result":[{"Relevance":1.0,"Distance":0.0,"Direction":0.0,"MatchLevel":"city","MatchQuality":{"Country":1.0,"State":1.0,"County":1.0,"City":1.0,"PostalCode":1.0},"Location":{"LocationId":"NT_NP7j06a1qECVDkZTjBqmWC","LocationType":"point","DisplayPosition":{"Latitude":42.692747,"Longitude":2.68836},"MapView":{"TopLeft":{"Latitude":42.72832,"Longitude":2.66081},"BottomRight":{"Latitude":42.66503,"Longitude":2.71141}},"Address":{"Label":"Millas, Occitanie, France","Country":"FRA","State":"Occitanie","County":"Pyrénées-Orientales","City":"Millas","PostalCode":"66170","AdditionalData":[{"value":"France","key":"CountryName"},{"value":"Occitanie","key":"StateName"},{"value":"Pyrénées-Orientales","key":"CountyName"}]},"MapReference":{"ReferenceId":"582681358","SideOfStreet":"neither","CountryId":"20000001","StateId":"20050212","CountyId":"20107629","CityId":"20107950"}}},{"Relevance":1.0,"Distance":19.4,"MatchLevel":"street","MatchQuality":{"Country":1.0,"State":1.0,"County":1.0,"City":1.0,"PostalCode":1.0},"Location":{"LocationId":"NT_1-XAHY5Z.qDb5QFWzmVOdB_l_582681373_R","LocationType":"point","DisplayPosition":{"Latitude":42.6927288,"Longitude":2.6881239},"MapView":{"TopLeft":{"Latitude":42.69303,"Longitude":2.68736},"BottomRight":{"Latitude":42.69252,"Longitude":2.68813}},"Address":{"Label":"66170 Millas, France","Country":"FRA","State":"Occitanie","County":"Pyrénées-Orientales","City":"Millas","PostalCode":"66170","AdditionalData":[{"value":"France","key":"CountryName"},{"value":"Occitanie","key":"StateName"},{"value":"Pyrénées-Orientales","key":"CountyName"}]},"MapReference":{"ReferenceId":"582681373","Spot":0.76,"SideOfStreet":"right","CountryId":"20000001","StateId":"20050212","CountyId":"20107629","CityId":"20107950"}}},{"Relevance":1.0,"Distance":26.4,"MatchLevel":"houseNumber","MatchQuality":{"Country":1.0,"State":1.0,"County":1.0,"City":1.0,"Street":[1.0],"HouseNumber":1.0,"PostalCode":1.0},"MatchType":"interpolated","Location":{"LocationId":"NT_r.Q4JaQMHNVZFM9Vr6pa4B_xMDN","LocationType":"point","DisplayPosition":{"Latitude":42.69248,"Longitude":2.68837},"MapView":{"TopLeft":{"Latitude":42.6936042,"Longitude":2.6868405},"BottomRight":{"Latitude":42.6913558,"Longitude":2.6898995}},"Address":{"Label":"134 Avenue Jean Jaurès, 66170 Millas, France","Country":"FRA","State":"Occitanie","County":"Pyrénées-Orientales","City":"Millas","Street":"Avenue Jean Jaurès","HouseNumber":"134","PostalCode":"66170","AdditionalData":[{"value":"France","key":"CountryName"},{"value":"Occitanie","key":"StateName"},{"value":"Pyrénées-Orientales","key":"CountyName"}]},"MapReference":{"ReferenceId":"582681358","Spot":0.64,"SideOfStreet":"right","CountryId":"20000001","StateId":"20050212","CountyId":"20107629","CityId":"20107950","AddressId":"316961626","RoadLinkId":"50721934"}}},{"Relevance":1.0,"Distance":40.2,"MatchLevel":"street","MatchQuality":{"Country":1.0,"State":1.0,"County":1.0,"City":1.0,"Street":[1.0],"PostalCode":1.0},"Location":{"LocationId":"NT_r.Q4JaQMHNVZFM9Vr6pa4B_l_582681371_R","LocationType":"point","DisplayPosition":{"Latitude":42.6925,"Longitude":2.688},"MapView":{"TopLeft":{"Latitude":42.69252,"Longitude":2.68736},"BottomRight":{"Latitude":42.6925,"Longitude":2.688}},"Address":{"Label":"Avenue Jean Jaurès, 66170 Millas, France","Country":"FRA","State":"Occitanie","County":"Pyrénées-Orientales","City":"Millas","Street":"Avenue Jean Jaurès","PostalCode":"66170","AdditionalData":[{"value":"France","key":"CountryName"},{"value":"Occitanie","key":"StateName"},{"value":"Pyrénées-Orientales","key":"CountyName"}]},"MapReference":{"ReferenceId":"582681371","Spot":0.0,"SideOfStreet":"right","CountryId":"20000001","StateId":"20050212","CountyId":"20107629","CityId":"20107950"}}},{"Relevance":1.0,"Distance":62.7,"MatchLevel":"street","MatchQuality":{"Country":1.0,"State":1.0,"County":1.0,"City":1.0,"Street":[1.0],"PostalCode":1.0},"Location":{"LocationId":"NT_Db2E3Qq.BADuaJVP9tFR5C_l_582681367_L","LocationType":"point","DisplayPosition":{"Latitude":42.69246,"Longitude":2.68902},"MapView":{"TopLeft":{"Latitude":42.69246,"Longitude":2.68902},"BottomRight":{"Latitude":42.69236,"Longitude":2.68903}},"Address":{"Label":"Avenue du Canigou, 66170 Millas, France","Country":"FRA","State":"Occitanie","County":"Pyrénées-Orientales","City":"Millas","Street":"Avenue du Canigou","PostalCode":"66170","AdditionalData":[{"value":"France","key":"CountryName"},{"value":"Occitanie","key":"StateName"},{"value":"Pyrénées-Orientales","key":"CountyName"}]},"MapReference":{"ReferenceId":"582681367","Spot":1.0,"SideOfStreet":"left","CountryId":"20000001","StateId":"20050212","CountyId":"20107629","CityId":"20107950"}}},{"Relevance":1.0,"Distance":85.5,"MatchLevel":"street","MatchQuality":{"Country":1.0,"State":1.0,"County":1.0,"City":1.0,"Street":[1.0],"PostalCode":1.0},"Location":{"LocationId":"NT_KFa6IIY0IwAZLHa9aj6edD_l_582681372_L","LocationType":"point","DisplayPosition":{"Latitude":42.69252,"Longitude":2.68736},"MapView":{"TopLeft":{"Latitude":42.69252,"Longitude":2.68611},"BottomRight":{"Latitude":42.69251,"Longitude":2.68736}},"Address":{"Label":"Avenue Jean Jaurès, 66170 Millas, France","Country":"FRA","State":"Occitanie","County":"Pyrénées-Orientales","City":"Millas","Street":"Avenue Jean Jaurès","PostalCode":"66170","AdditionalData":[{"value":"France","key":"CountryName"},{"value":"Occitanie","key":"StateName"},{"value":"Pyrénées-Orientales","key":"CountyName"}]},"MapReference":{"ReferenceId":"582681372","Spot":1.0,"SideOfStreet":"left","CountryId":"20000001","StateId":"20050212","CountyId":"20107629","CityId":"20107950"}}},{"Relevance":1.0,"Distance":88.0,"MatchLevel":"houseNumber","MatchQuality":{"Country":1.0,"State":1.0,"County":1.0,"City":1.0,"Street":[1.0],"HouseNumber":1.0,"PostalCode":1.0},"MatchType":"interpolated","Location":{"LocationId":"NT_Db2E3Qq.BADuaJVP9tFR5C_0A","LocationType":"point","DisplayPosition":{"Latitude":42.69209,"Longitude":2.68902},"MapView":{"TopLeft":{"Latitude":42.6932142,"Longitude":2.6874906},"BottomRight":{"Latitude":42.6909658,"Longitude":2.6905494}},"Address":{"Label":"4 Avenue du Canigou, 66170 Millas, France","Country":"FRA","State":"Occitanie","County":"Pyrénées-Orientales","City":"Millas","Street":"Avenue du Canigou","HouseNumber":"4","PostalCode":"66170","AdditionalData":[{"value":"France","key":"CountryName"},{"value":"Occitanie","key":"StateName"},{"value":"Pyrénées-Orientales","key":"CountyName"}]},"MapReference":{"ReferenceId":"582681366","Spot":0.39,"SideOfStreet":"left","CountryId":"20000001","StateId":"20050212","CountyId":"20107629","CityId":"20107950","AddressId":"379450124","RoadLinkId":"50933528"}}},{"Relevance":1.0,"Distance":90.4,"MatchLevel":"houseNumber","MatchQuality":{"Country":1.0,"State":1.0,"County":1.0,"City":1.0,"Street":[1.0],"HouseNumber":1.0,"PostalCode":1.0},"MatchType":"interpolated","Location":{"LocationId":"NT_r.Q4JaQMHNVZFM9Vr6pa4B_xMDMCB","LocationType":"point","DisplayPosition":{"Latitude":42.69245,"Longitude":2.68939},"MapView":{"TopLeft":{"Latitude":42.6935742,"Longitude":2.6878605},"BottomRight":{"Latitude":42.6913258,"Longitude":2.6909195}},"Address":{"Label":"130B Avenue Jean Jaurès, 66170 Millas, France","Country":"FRA","State":"Occitanie","County":"Pyrénées-Orientales","City":"Millas","Street":"Avenue Jean Jaurès","HouseNumber":"130B","PostalCode":"66170","AdditionalData":[{"value":"France","key":"CountryName"},{"value":"Occitanie","key":"StateName"},{"value":"Pyrénées-Orientales","key":"CountyName"}]},"MapReference":{"ReferenceId":"582681369","Spot":0.63,"SideOfStreet":"right","CountryId":"20000001","StateId":"20050212","CountyId":"20107629","CityId":"20107950","AddressId":"571355455","RoadLinkId":"50544605"}}},{"Relevance":1.0,"Distance":93.1,"MatchLevel":"houseNumber","MatchQuality":{"Country":1.0,"State":1.0,"County":1.0,"City":1.0,"Street":[1.0],"HouseNumber":1.0,"PostalCode":1.0},"MatchType":"interpolated","Location":{"LocationId":"NT_fS6GYlwJzCdlKnlWdGxPpA_3A","LocationType":"point","DisplayPosition":{"Latitude":42.6919,"Longitude":2.68837},"MapView":{"TopLeft":{"Latitude":42.6930242,"Longitude":2.6868406},"BottomRight":{"Latitude":42.6907758,"Longitude":2.6898994}},"Address":{"Label":"7 Rue de l'Avenir, 66170 Millas, France","Country":"FRA","State":"Occitanie","County":"Pyrénées-Orientales","City":"Millas","Street":"Rue de l'Avenir","HouseNumber":"7","PostalCode":"66170","AdditionalData":[{"value":"France","key":"CountryName"},{"value":"Occitanie","key":"StateName"},{"value":"Pyrénées-Orientales","key":"CountyName"}]},"MapReference":{"ReferenceId":"582681361","Spot":0.32,"SideOfStreet":"left","CountryId":"20000001","StateId":"20050212","CountyId":"20107629","CityId":"20107950","AddressId":"379379208","RoadLinkId":"51193990"}}},{"Relevance":1.0,"Distance":107.5,"MatchLevel":"houseNumber","MatchQuality":{"Country":1.0,"State":1.0,"County":1.0,"City":1.0,"Street":[1.0],"HouseNumber":1.0,"PostalCode":1.0},"MatchType":"interpolated","Location":{"LocationId":"NT_JBxHwomvom1GIEsFcCwJUB_xITMwA","LocationType":"point","DisplayPosition":{"Latitude":42.69342,"Longitude":2.68737},"MapView":{"TopLeft":{"Latitude":42.6945442,"Longitude":2.6858405},"BottomRight":{"Latitude":42.6922958,"Longitude":2.6888995}},"Address":{"Label":"1210 Rue des Eaux Vives, 66170 Millas, France","Country":"FRA","State":"Occitanie","County":"Pyrénées-Orientales","City":"Millas","Street":"Rue des Eaux Vives","HouseNumber":"1210","PostalCode":"66170","AdditionalData":[{"value":"France","key":"CountryName"},{"value":"Occitanie","key":"StateName"},{"value":"Pyrénées-Orientales","key":"CountyName"}]},"MapReference":{"ReferenceId":"1037727498","Spot":0.43,"SideOfStreet":"right","CountryId":"20000001","StateId":"20050212","CountyId":"20107629","CityId":"20107950","AddressId":"571250815","RoadLinkId":"359690274"}}}]}]}}