{"Response":{"MetaInfo":{"Timestamp":"2020-03-28T09:34:14.223+0000","NextPageInformation":"2"},"View":[{"_type":"SearchResultsViewType","ViewId":0,"Result":[{"Relevance":1.0,"Distance":0.0,"Direction":0.0,"MatchLevel":"district","MatchQuality":{"Country":1.0,"County":1.0,"City":1.0,"District":1.0,"PostalCode":1.0},"Location":{"LocationId":"NT_deFhiJzSFu.uw1AP3mC0OD","LocationType":"point","DisplayPosition":{"Latitude":42.6935691,"Longitude":23.3637289},"MapView":{"TopLeft":{"Latitude":42.70582,"Longitude":23.33763},"BottomRight":{"Latitude":42.66941,"Longitude":23.45364}},"Address":{"Label":"Слатина, София, България","Country":"BGR","County":"София-град","City":"София","District":"Слатина","PostalCode":"1113","AdditionalData":[{"value":"България","key":"CountryName"},{"value":"София-град","key":"CountyName"}]},"MapReference":{"ReferenceId":"1180837930","SideOfStreet":"neither","CountryId":"20656214","CountyId":"20665318","CityId":"20665319","DistrictId":"20665355"}}},{"Relevance":1.0,"Distance":7.2,"MatchLevel":"houseNumber","MatchQuality":{"Country":1.0,"County":1.0,"City":1.0,"District":1.0,"Street":[1.0],"HouseNumber":1.0,"PostalCode":1.0},"MatchType":"interpolated","Location":{"LocationId":"NT_5yuksuya.98Tyeo9q.6lOB_2Adk","LocationType":"point","DisplayPosition":{"Latitude":42.69363,"Longitude":23.3637},"MapView":{"TopLeft":{"Latitude":42.6947542,"Longitude":23.3621705},"BottomRight":{"Latitude":42.6925058,"Longitude":23.3652295}},"Address":{"Label":"Улица Погледец 6Б, 1505 София, България","Country":"BGR","County":"София-град","City":"София","District":"Слатина","Street":"Улица Погледец","HouseNumber":"6Б","PostalCode":"1505","AdditionalData":[{"value":"България","key":"CountryName"},{"value":"София-град","key":"CountyName"}]},"MapReference":{"ReferenceId":"587933326","Spot":0.44,"SideOfStreet":"left","CountryId":"20656214","CountyId":"20665318","CityId":"20665319","DistrictId":"20665355","AddressId":"296744308","RoadLinkId":"71798992"}}},{"Relevance":1.0,"Distance":39.6,"MatchLevel":"houseNumber","MatchQuality":{"Country":1.0,"County":1.0,"City":1.0,"District":1.0,"Street":[1.0],"HouseNumber":1.0,"PostalCode":1.0},"MatchType":"interpolated","Location":{"LocationId":"NT_xOAMQ12lO81YZ9Jk-nEiTB_zYD","LocationType":"point","DisplayPosition":{"Latitude":42.69403,"Longitude":23.3635},"MapView":{"TopLeft":{"Latitude":42.6951542,"Longitude":23.3619705},"BottomRight":{"Latitude":42.6929058,"Longitude":23.3650295}},"Address":{"Label":"Улица Бричебор 36, 1505 София, България","Country":"BGR","County":"София-град","City":"София","District":"Слатина","Street":"Улица Бричебор","HouseNumber":"36","PostalCode":"1505","AdditionalData":[{"value":"България","key":"CountryName"},{"value":"София-град","key":"CountyName"}]},"MapReference":{"ReferenceId":"587933173","Spot":0.24,"SideOfStreet":"left","CountryId":"20656214","CountyId":"20665318","CityId":"20665319","DistrictId":"20665355","AddressId":"296691645","RoadLinkId":"71793902"}}},{"Relevance":1.0,"Distance":47.8,"MatchLevel":"houseNumber","MatchQuality":{"Country":1.0,"County":1.0,"City":1.0,"District":1.0,"Street":[1.0],"HouseNumber":1.0,"PostalCode":1.0},"MatchType":"interpolated","Location":{"LocationId":"NT_5yuksuya.98Tyeo9q.6lOB_xED","LocationType":"point","DisplayPosition":{"Latitude":42.69314,"Longitude":23.36369},"MapView":{"TopLeft":{"Latitude":42.6942642,"Longitude":23.3621605},"BottomRight":{"Latitude":42.6920158,"Longitude":23.3652195}},"Address":{"Label":"Улица Погледец 11, 1505 София, България","Country":"BGR","County":"София-град","City":"София","District":"Слатина","Street":"Улица Погледец","HouseNumber":"11","PostalCode":"1505","AdditionalData":[{"value":"България","key":"CountryName"},{"value":"София-град","key":"CountyName"}]},"MapReference":{"ReferenceId":"880701311","Spot":0.61,"SideOfStreet":"right","CountryId":"20656214","CountyId":"20665318","CityId":"20665319","DistrictId":"20665355","AddressId":"296707496","RoadLinkId":"249376290"}}},{"Relevance":1.0,"Distance":50.1,"MatchLevel":"houseNumber","MatchQuality":{"Country":1.0,"County":1.0,"City":1.0,"District":1.0,"Street":[1.0],"HouseNumber":1.0,"PostalCode":1.0},"MatchType":"interpolated","Location":{"LocationId":"NT_JnMXNROp9GZRu3KNTAEQOD_yA","LocationType":"point","DisplayPosition":{"Latitude":42.69341,"Longitude":23.36284},"MapView":{"TopLeft":{"Latitude":42.6945342,"Longitude":23.3613105},"BottomRight":{"Latitude":42.6922858,"Longitude":23.3643695}},"Address":{"Label":"Улица Петър Митов 2, 1505 София, България","Country":"BGR","County":"София-град","City":"София","District":"Слатина","Street":"Улица Петър Митов","HouseNumber":"2","PostalCode":"1505","AdditionalData":[{"value":"България","key":"CountryName"},{"value":"София-град","key":"CountyName"}]},"MapReference":{"ReferenceId":"880699358","Spot":0.57,"SideOfStreet":"right","CountryId":"20656214","CountyId":"20665318","CityId":"20665319","DistrictId":"20665355","AddressId":"581302801","RoadLinkId":"249745976"}}},{"Relevance":1.0,"Distance":52.4,"MatchLevel":"houseNumber","MatchQuality":{"Country":1.0,"County":1.0,"City":1.0,"District":1.0,"Street":[1.0],"HouseNumber":1.0,"PostalCode":1.0},"MatchType":"interpolated","Location":{"LocationId":"NT_5yuksuya.98Tyeo9q.6lOB_zA","LocationType":"point","DisplayPosition":{"Latitude":42.69407,"Longitude":23.36375},"MapView":{"TopLeft":{"Latitude":42.6951942,"Longitude":23.3622205},"BottomRight":{"Latitude":42.6929458,"Longitude":23.3652795}},"Address":{"Label":"Улица Погледец 3, 1505 София, България","Country":"BGR","County":"София-град","City":"София","District":"Слатина","Street":"Улица Погледец","HouseNumber":"3","PostalCode":"1505","AdditionalData":[{"value":"България","key":"CountryName"},{"value":"София-град","key":"CountyName"}]},"MapReference":{"ReferenceId":"587933172","Spot":0.15,"SideOfStreet":"right","CountryId":"20656214","CountyId":"20665318","CityId":"20665319","DistrictId":"20665355","AddressId":"296767754","RoadLinkId":"71798205"}}},{"Relevance":1.0,"Distance":57.8,"MatchLevel":"houseNumber","MatchQuality":{"Country":1.0,"County":1.0,"City":1.0,"District":1.0,"Street":[1.0],"HouseNumber":1.0,"PostalCode":1.0},"MatchType":"interpolated","Location":{"LocationId":"NT_pds.x6aqScc7U47Um814-C_xANk","LocationType":"point","DisplayPosition":{"Latitude":42.69321,"Longitude":23.36424},"MapView":{"TopLeft":{"Latitude":42.6943342,"Longitude":23.3627105},"BottomRight":{"Latitude":42.6920858,"Longitude":23.3657695}},"Address":{"Label":"Улица Царичина 1А, 1505 София, България","Country":"BGR","County":"София-град","City":"София","District":"Слатина","Street":"Улица Царичина","HouseNumber":"1А","PostalCode":"1505","AdditionalData":[{"value":"България","key":"CountryName"},{"value":"София-град","key":"CountyName"}]},"MapReference":{"ReferenceId":"587933400","Spot":0.54,"SideOfStreet":"right","CountryId":"20656214","CountyId":"20665318","CityId":"20665319","DistrictId":"20665355","AddressId":"296753512","RoadLinkId":"71797575"}}},{"Relevance":1.0,"Distance":71.3,"MatchLevel":"houseNumber","MatchQuality":{"Country":1.0,"County":1.0,"City":1.0,"District":1.0,"Street":[1.0],"HouseNumber":1.0,"PostalCode":1.0},"MatchType":"interpolated","Location":{"LocationId":"NT_VtnM3jUJraFczzVPbYnLwC_yA","LocationType":"point","DisplayPosition":{"Latitude":42.69387,"Longitude":23.36473},"MapView":{"TopLeft":{"Latitude":42.6949942,"Longitude":23.3632005},"BottomRight":{"Latitude":42.6927458,"Longitude":23.3662595}},"Address":{"Label":"Улица Асенова крепост 2, 1505 София, България","Country":"BGR","County":"София-град","City":"София","District":"Слатина","Street":"Улица Асенова крепост","HouseNumber":"2","PostalCode":"1505","AdditionalData":[{"value":"България","key":"CountryName"},{"value":"София-град","key":"CountyName"}]},"MapReference":{"ReferenceId":"587933399","Spot":0.75,"SideOfStreet":"left","CountryId":"20656214","CountyId":"20665318","CityId":"20665319","DistrictId":"20665355","AddressId":"296685393","RoadLinkId":"71779056"}}},{"Relevance":1.0,"Distance":75.2,"MatchLevel":"houseNumber","MatchQuality":{"Country":1.0,"County":1.0,"City":1.0,"District":1.0,"Street":[1.0],"HouseNumber":1.0,"PostalCode":1.0},"MatchType":"interpolated","Location":{"LocationId":"NT_7z97-jSYMFHUlGefrcqRgB_yYD","LocationType":"point","DisplayPosition":{"Latitude":42.69434,"Longitude":23.36415},"MapView":{"TopLeft":{"Latitude":42.6954642,"Longitude":23.3626205},"BottomRight":{"Latitude":42.6932158,"Longitude":23.3656795}},"Address":{"Label":"Улица Боян Магесник 26, 1505 София, България","Country":"BGR","County":"София-град","City":"София","District":"Слатина","Street":"Улица Боян Магесник","HouseNumber":"26","PostalCode":"1505","AdditionalData":[{"value":"България","key":"CountryName"},{"value":"София-град","key":"CountyName"}]},"MapReference":{"ReferenceId":"587933146","Spot":0.77,"SideOfStreet":"left","CountryId":"20656214","CountyId":"20665318","CityId":"20665319","DistrictId":"20665355","AddressId":"296719583","RoadLinkId":"71797701"}}},{"Relevance":1.0,"Distance":81.2,"MatchLevel":"street","MatchQuality":{"Country":1.0,"County":1.0,"City":1.0,"District":1.0,"PostalCode":1.0},"Location":{"LocationId":"NT_fxFhzD0SyNqb0x6KMCrdoB_l_1035351229_R","LocationType":"point","DisplayPosition":{"Latitude":42.69284,"Longitude":23.36368},"MapView":{"TopLeft":{"Latitude":42.69284,"Longitude":23.36368},"BottomRight":{"Latitude":42.6928,"Longitude":23.36393}},"Address":{"Label":"1505 София, България","Country":"BGR","County":"София-град","City":"София","District":"Слатина","PostalCode":"1505","AdditionalData":[{"value":"България","key":"CountryName"},{"value":"София-град","key":"CountyName"}]},"MapReference":{"ReferenceId":"1035351229","Spot":1.0,"SideOfStreet":"right","CountryId":"20656214","CountyId":"20665318","CityId":"20665319","DistrictId":"20665355"}}}]}]}}