{"Response":{"MetaInfo":{"Timestamp":"2020-03-28T10:16:20.708+0000","NextPageInformation":"2"},"View":[{"_type":"SearchResultsViewType","ViewId":0,"Result":[{"Relevance":1.0,"Distance":0.0,"Direction":0.0,"MatchLevel":"district","MatchQuality":{"Country":1.0,"County":1.0,"City":1.0,"District":1.0,"PostalCode":1.0},"Location":{"LocationId":"NT_59h9LJK90mfRdhCFJRYqsA","LocationType":"point","DisplayPosition":{"Latitude":42.6344162,"Longitude":25.2324496},"MapView":{"TopLeft":{"Latitude":42.64121,"Longitude":25.2223},"BottomRight":{"Latitude":42.62739,"Longitude":25.24201}},"Address":{"Label":"Долно Сахране, Павел баня, България","Country":"BGR","County":"Стара Загора","City":"Павел баня","District":"Долно Сахране","PostalCode":"6161","AdditionalData":[{"value":"България","key":"CountryName"},{"value":"Стара Загора","key":"CountyName"}]},"MapReference":{"ReferenceId":"1244802785","SideOfStreet":"neither","CountryId":"20656214","CountyId":"23719429","CityId":"23719282","DistrictId":"23719497"}}},{"Relevance":1.0,"Distance":2.7,"MatchLevel":"street","MatchQuality":{"Country":1.0,"County":1.0,"City":1.0,"District":1.0,"Street":[1.0],"PostalCode":1.0},"Location":{"LocationId":"NT_9fAHL7lJVb4pnJ.hA5dVoA_l_816233869_L","LocationType":"point","DisplayPosition":{"Latitude":42.634393,"Longitude":25.232459},"MapView":{"TopLeft":{"Latitude":42.63494,"Longitude":25.23218},"BottomRight":{"Latitude":42.63428,"Longitude":25.23381}},"Address":{"Label":"Улица Васил Левски, 6161 Павел баня, България","Country":"BGR","County":"Стара Загора","City":"Павел баня","District":"Долно Сахране","Street":"Улица Васил Левски","PostalCode":"6161","AdditionalData":[{"value":"България","key":"CountryName"},{"value":"Стара Загора","key":"CountyName"}]},"MapReference":{"ReferenceId":"816233869","Spot":0.17,"SideOfStreet":"neither","CountryId":"20656214","CountyId":"23719429","CityId":"23719282","DistrictId":"23719497"}}},{"Relevance":1.0,"Distance":26.8,"MatchLevel":"street","MatchQuality":{"Country":1.0,"County":1.0,"City":1.0,"District":1.0,"Street":[1.0],"PostalCode":1.0},"Location":{"LocationId":"NT_KsgSY783Y.LrBSz-r9DW0A_l_816233871_R","LocationType":"point","DisplayPosition":{"Latitude":42.63428,"Longitude":25.23218},"MapView":{"TopLeft":{"Latitude":42.63441,"Longitude":25.23205},"BottomRight":{"Latitude":42.63428,"Longitude":25.23218}},"Address":{"Label":"Улица Христо Ботев, 6161 Павел баня, България","Country":"BGR","County":"Стара Загора","City":"Павел баня","District":"Долно Сахране","Street":"Улица Христо Ботев","PostalCode":"6161","AdditionalData":[{"value":"България","key":"CountryName"},{"value":"Стара Загора","key":"CountyName"}]},"MapReference":{"ReferenceId":"816233871","Spot":0.0,"SideOfStreet":"right","CountryId":"20656214","CountyId":"23719429","CityId":"23719282","DistrictId":"23719497"}}},{"Relevance":1.0,"Distance":28.0,"MatchLevel":"street","MatchQuality":{"Country":1.0,"County":1.0,"City":1.0,"District":1.0,"Street":[1.0],"PostalCode":1.0},"Location":{"LocationId":"NT_KsgSY783Y.LrBSz-r9DW0A_l_816233870_R","LocationType":"point","DisplayPosition":{"Latitude":42.6342133,"Longitude":25.2322467},"MapView":{"TopLeft":{"Latitude":42.63428,"Longitude":25.23218},"BottomRight":{"Latitude":42.6338,"Longitude":25.23261}},"Address":{"Label":"Улица Христо Ботев, 6161 Павел баня, България","Country":"BGR","County":"Стара Загора","City":"Павел баня","District":"Долно Сахране","Street":"Улица Христо Ботев","PostalCode":"6161","AdditionalData":[{"value":"България","key":"CountryName"},{"value":"Стара Загора","key":"CountyName"}]},"MapReference":{"ReferenceId":"816233870","Spot":0.85,"SideOfStreet":"right","CountryId":"20656214","CountyId":"23719429","CityId":"23719282","DistrictId":"23719497"}}},{"Relevance":1.0,"Distance":29.1,"MatchLevel":"street","MatchQuality":{"Country":1.0,"County":1.0,"City":1.0,"District":1.0,"Street":[1.0],"PostalCode":1.0},"Location":{"LocationId":"NT_RDIsJRlEqYoac1Q0heImwA_l_811209395_R","LocationType":"point","DisplayPosition":{"Latitude":42.6346084,"Longitude":25.2322073},"MapView":{"TopLeft":{"Latitude":42.6347,"Longitude":25.23205},"BottomRight":{"Latitude":42.63441,"Longitude":25.23228}},"Address":{"Label":"Улица Незабравка, 6161 Павел баня, България","Country":"BGR","County":"Стара Загора","City":"Павел баня","District":"Долно Сахране","Street":"Улица Незабравка","PostalCode":"6161","AdditionalData":[{"value":"България","key":"CountryName"},{"value":"Стара Загора","key":"CountyName"}]},"MapReference":{"ReferenceId":"811209395","Spot":0.68,"SideOfStreet":"right","CountryId":"20656214","CountyId":"23719429","CityId":"23719282","DistrictId":"23719497"}}},{"Relevance":1.0,"Distance":32.7,"MatchLevel":"street","MatchQuality":{"Country":1.0,"County":1.0,"City":1.0,"District":1.0,"Street":[1.0],"PostalCode":1.0},"Location":{"LocationId":"NT_KsgSY783Y.LrBSz-r9DW0A_l_811209394_R","LocationType":"point","DisplayPosition":{"Latitude":42.63441,"Longitude":25.23205},"MapView":{"TopLeft":{"Latitude":42.6347,"Longitude":25.23168},"BottomRight":{"Latitude":42.63441,"Longitude":25.23205}},"Address":{"Label":"Улица Христо Ботев, 6161 Павел баня, България","Country":"BGR","County":"Стара Загора","City":"Павел баня","District":"Долно Сахране","Street":"Улица Христо Ботев","PostalCode":"6161","AdditionalData":[{"value":"България","key":"CountryName"},{"value":"Стара Загора","key":"CountyName"}]},"MapReference":{"ReferenceId":"811209394","Spot":0.0,"SideOfStreet":"right","CountryId":"20656214","CountyId":"23719429","CityId":"23719282","DistrictId":"23719497"}}},{"Relevance":1.0,"Distance":34.5,"MatchLevel":"street","MatchQuality":{"Country":1.0,"County":1.0,"City":1.0,"District":1.0,"Street":[1.0],"PostalCode":1.0},"Location":{"LocationId":"NT_RDIsJRlEqYoac1Q0heImwA_l_816233841_R","LocationType":"point","DisplayPosition":{"Latitude":42.6347,"Longitude":25.23228},"MapView":{"TopLeft":{"Latitude":42.63556,"Longitude":25.23226},"BottomRight":{"Latitude":42.6347,"Longitude":25.23233}},"Address":{"Label":"Улица Незабравка, 6161 Павел баня, България","Country":"BGR","County":"Стара Загора","City":"Павел баня","District":"Долно Сахране","Street":"Улица Незабравка","PostalCode":"6161","AdditionalData":[{"value":"България","key":"CountryName"},{"value":"Стара Загора","key":"CountyName"}]},"MapReference":{"ReferenceId":"816233841","Spot":0.0,"SideOfStreet":"right","CountryId":"20656214","CountyId":"23719429","CityId":"23719282","DistrictId":"23719497"}}},{"Relevance":1.0,"Distance":69.8,"MatchLevel":"street","MatchQuality":{"Country":1.0,"County":1.0,"City":1.0,"District":1.0,"Street":[1.0],"PostalCode":1.0},"Location":{"LocationId":"NT_hm-D.CEg3XEr9BKk0cqfNA_l_844964376_L","LocationType":"point","DisplayPosition":{"Latitude":42.6338,"Longitude":25.23261},"MapView":{"TopLeft":{"Latitude":42.6338,"Longitude":25.23126},"BottomRight":{"Latitude":42.63344,"Longitude":25.23261}},"Address":{"Label":"Улица Малина, 6161 Павел баня, България","Country":"BGR","County":"Стара Загора","City":"Павел баня","District":"Долно Сахране","Street":"Улица Малина","PostalCode":"6161","AdditionalData":[{"value":"България","key":"CountryName"},{"value":"Стара Загора","key":"CountyName"}]},"MapReference":{"ReferenceId":"844964376","Spot":1.0,"SideOfStreet":"left","CountryId":"20656214","CountyId":"23719429","CityId":"23719282","DistrictId":"23719497"}}},{"Relevance":1.0,"Distance":69.8,"MatchLevel":"street","MatchQuality":{"Country":1.0,"County":1.0,"City":1.0,"District":1.0,"Street":[1.0],"PostalCode":1.0},"Location":{"LocationId":"NT_KsgSY783Y.LrBSz-r9DW0A_l_811209391_R","LocationType":"point","DisplayPosition":{"Latitude":42.6338,"Longitude":25.23261},"MapView":{"TopLeft":{"Latitude":42.6338,"Longitude":25.23261},"BottomRight":{"Latitude":42.6337,"Longitude":25.23266}},"Address":{"Label":"Улица Христо Ботев, 6161 Павел баня, България","Country":"BGR","County":"Стара Загора","City":"Павел баня","District":"Долно Сахране","Street":"Улица Христо Ботев","PostalCode":"6161","AdditionalData":[{"value":"България","key":"CountryName"},{"value":"Стара Загора","key":"CountyName"}]},"MapReference":{"ReferenceId":"811209391","Spot":1.0,"SideOfStreet":"right","CountryId":"20656214","CountyId":"23719429","CityId":"23719282","DistrictId":"23719497"}}},{"Relevance":1.0,"Distance":70.4,"MatchLevel":"street","MatchQuality":{"Country":1.0,"County":1.0,"City":1.0,"District":1.0,"Street":[1.0],"PostalCode":1.0},"Location":{"LocationId":"NT_P5hZ3ir2i.-Fv96hj94mGC_l_811209396_R","LocationType":"point","DisplayPosition":{"Latitude":42.6347,"Longitude":25.23168},"MapView":{"TopLeft":{"Latitude":42.6347,"Longitude":25.23025},"BottomRight":{"Latitude":42.63381,"Longitude":25.23168}},"Address":{"Label":"Улица Христо Лафчиев, 6161 Павел баня, България","Country":"BGR","County":"Стара Загора","City":"Павел баня","District":"Долно Сахране","Street":"Улица Христо Лафчиев","PostalCode":"6161","AdditionalData":[{"value":"България","key":"CountryName"},{"value":"Стара Загора","key":"CountyName"}]},"MapReference":{"ReferenceId":"811209396","Spot":1.0,"SideOfStreet":"right","CountryId":"20656214","CountyId":"23719429","CityId":"23719282","DistrictId":"23719497"}}}]}]}}