{"Response":{"MetaInfo":{"Timestamp":"2020-03-28T11:50:23.827+0000","NextPageInformation":"2"},"View":[{"_type":"SearchResultsViewType","ViewId":0,"Result":[{"Relevance":1.0,"Distance":-380.1,"MatchLevel":"landmark","MatchQuality":{"Country":1.0,"State":1.0,"Name":1.0},"Location":{"LocationId":"NT_g3E67BXLD5XHf3mTUWEdUD","LocationType":"park","Name":"P.N.R. des Pyrénées Catalanes","DisplayPosition":{"Latitude":42.52805,"Longitude":2.10187},"MapView":{"TopLeft":{"Latitude":42.70904,"Longitude":1.72344},"BottomRight":{"Latitude":42.34705,"Longitude":2.47213}},"Address":{"Label":"France","Country":"FRA","State":"Occitanie","AdditionalData":[{"value":"France","key":"CountryName"},{"value":"Occitanie","key":"StateName"}]},"MapReference":{"CountryId":"20000001","StateId":"20050212","PlaceId":"1512585858"}}},{"Relevance":1.0,"Distance":0.0,"Direction":0.0,"MatchLevel":"district","MatchQuality":{"Country":1.0,"State":1.0,"County":1.0,"City":1.0,"District":1.0,"PostalCode":1.0},"Location":{"LocationId":"NT_JvMxjG1xIYlYOY6FkluQoB","LocationType":"point","DisplayPosition":{"Latitude":42.606815,"Longitude":2.401934},"MapView":{"TopLeft":{"Latitude":42.61146,"Longitude":2.3893},"BottomRight":{"Latitude":42.60475,"Longitude":2.40534}},"Address":{"Label":"Ria, Ria-Sirach, Occitanie, France","Country":"FRA","State":"Occitanie","County":"Pyrénées-Orientales","City":"Ria-Sirach","District":"Ria","PostalCode":"66500","AdditionalData":[{"value":"France","key":"CountryName"},{"value":"Occitanie","key":"StateName"},{"value":"Pyrénées-Orientales","key":"CountyName"}]},"MapReference":{"ReferenceId":"579595116","SideOfStreet":"neither","CountryId":"20000001","StateId":"20050212","CountyId":"20107629","CityId":"20108100","DistrictId":"20108102"}}},{"Relevance":1.0,"Distance":38.8,"MatchLevel":"houseNumber","MatchQuality":{"Country":1.0,"State":1.0,"County":1.0,"City":1.0,"District":1.0,"Street":[1.0],"HouseNumber":1.0,"PostalCode":1.0},"MatchType":"interpolated","Location":{"LocationId":"NT_ptZDXoOSjZiqyAHQwP3g3A_l_1121058445_L_4A","LocationType":"point","DisplayPosition":{"Latitude":42.6071062,"Longitude":2.4016729},"MapView":{"TopLeft":{"Latitude":42.6082304,"Longitude":2.4001455},"BottomRight":{"Latitude":42.6059821,"Longitude":2.4032002}},"Address":{"Label":"8 Route de Mont-Louis à Perpignan, 66500 Ria-Sirach, France","Country":"FRA","State":"Occitanie","County":"Pyrénées-Orientales","City":"Ria-Sirach","District":"Ria","Street":"Route de Mont-Louis à Perpignan","HouseNumber":"8","PostalCode":"66500","AdditionalData":[{"value":"France","key":"CountryName"},{"value":"Occitanie","key":"StateName"},{"value":"Pyrénées-Orientales","key":"CountyName"}]},"MapReference":{"ReferenceId":"1121058445","Spot":0.51,"SideOfStreet":"left","CountryId":"20000001","StateId":"20050212","CountyId":"20107629","CityId":"20108100","DistrictId":"20108102"}}},{"Relevance":1.0,"Distance":51.8,"MatchLevel":"houseNumber","MatchQuality":{"Country":1.0,"State":1.0,"County":1.0,"City":1.0,"District":1.0,"Street":[1.0],"HouseNumber":1.0,"PostalCode":1.0},"MatchType":"interpolated","Location":{"LocationId":"NT_Boc-9xtR6kSvtvnd2mTFgA_l_1185827355_L_2A","LocationType":"point","DisplayPosition":{"Latitude":42.6072746,"Longitude":2.4020349},"MapView":{"TopLeft":{"Latitude":42.6083987,"Longitude":2.4005076},"BottomRight":{"Latitude":42.6061504,"Longitude":2.4035623}},"Address":{"Label":"6 Route de Mont-Louis à Perpignan, 66500 Ria-Sirach, France","Country":"FRA","State":"Occitanie","County":"Pyrénées-Orientales","City":"Ria-Sirach","District":"Ria","Street":"Route de Mont-Louis à Perpignan","HouseNumber":"6","PostalCode":"66500","AdditionalData":[{"value":"France","key":"CountryName"},{"value":"Occitanie","key":"StateName"},{"value":"Pyrénées-Orientales","key":"CountyName"}]},"MapReference":{"ReferenceId":"1185827355","Spot":0.49,"SideOfStreet":"left","CountryId":"20000001","StateId":"20050212","CountyId":"20107629","CityId":"20108100","DistrictId":"20108102"}}},{"Relevance":1.0,"Distance":69.9,"MatchLevel":"street","MatchQuality":{"Country":1.0,"State":1.0,"County":1.0,"City":1.0,"District":1.0,"Street":[1.0],"PostalCode":1.0},"Location":{"LocationId":"NT_ptZDXoOSjZiqyAHQwP3g3A_l_1185827356_R","LocationType":"point","DisplayPosition":{"Latitude":42.60739,"Longitude":2.40228},"MapView":{"TopLeft":{"Latitude":42.60755,"Longitude":2.40228},"BottomRight":{"Latitude":42.60739,"Longitude":2.40263}},"Address":{"Label":"Route de Mont-Louis à Perpignan, 66500 Ria-Sirach, France","Country":"FRA","State":"Occitanie","County":"Pyrénées-Orientales","City":"Ria-Sirach","District":"Ria","Street":"Route de Mont-Louis à Perpignan","PostalCode":"66500","AdditionalData":[{"value":"France","key":"CountryName"},{"value":"Occitanie","key":"StateName"},{"value":"Pyrénées-Orientales","key":"CountyName"}]},"MapReference":{"ReferenceId":"1185827356","Spot":0.0,"SideOfStreet":"right","CountryId":"20000001","StateId":"20050212","CountyId":"20107629","CityId":"20108100","DistrictId":"20108102"}}},{"Relevance":1.0,"Distance":75.7,"MatchLevel":"houseNumber","MatchQuality":{"Country":1.0,"State":1.0,"County":1.0,"City":1.0,"District":1.0,"Street":[1.0],"HouseNumber":1.0,"PostalCode":1.0},"MatchType":"interpolated","Location":{"LocationId":"NT_Boc-9xtR6kSvtvnd2mTFgA_l_1121058444_R_xA","LocationType":"point","DisplayPosition":{"Latitude":42.6068392,"Longitude":2.4009739},"MapView":{"TopLeft":{"Latitude":42.6079634,"Longitude":2.3994465},"BottomRight":{"Latitude":42.6057151,"Longitude":2.4025012}},"Address":{"Label":"1 Route de Mont-Louis à Perpignan, 66500 Ria-Sirach, France","Country":"FRA","State":"Occitanie","County":"Pyrénées-Orientales","City":"Ria-Sirach","District":"Ria","Street":"Route de Mont-Louis à Perpignan","HouseNumber":"1","PostalCode":"66500","AdditionalData":[{"value":"France","key":"CountryName"},{"value":"Occitanie","key":"StateName"},{"value":"Pyrénées-Orientales","key":"CountyName"}]},"MapReference":{"ReferenceId":"1121058444","Spot":0.5,"SideOfStreet":"right","CountryId":"20000001","StateId":"20050212","CountyId":"20107629","CityId":"20108100","DistrictId":"20108102"}}},{"Relevance":1.0,"Distance":99.6,"MatchLevel":"street","MatchQuality":{"Country":1.0,"State":1.0,"County":1.0,"City":1.0,"District":1.0,"Street":[1.0],"PostalCode":1.0},"Location":{"LocationId":"NT_Boc-9xtR6kSvtvnd2mTFgA_l_1185827357_R","LocationType":"point","DisplayPosition":{"Latitude":42.60755,"Longitude":2.40263},"MapView":{"TopLeft":{"Latitude":42.60776,"Longitude":2.40263},"BottomRight":{"Latitude":42.60755,"Longitude":2.40309}},"Address":{"Label":"N116, 66500 Ria-Sirach, France","Country":"FRA","State":"Occitanie","County":"Pyrénées-Orientales","City":"Ria-Sirach","District":"Ria","Street":"N116","PostalCode":"66500","AdditionalData":[{"value":"France","key":"CountryName"},{"value":"Occitanie","key":"StateName"},{"value":"Pyrénées-Orientales","key":"CountyName"}]},"MapReference":{"ReferenceId":"1185827357","Spot":0.0,"SideOfStreet":"right","CountryId":"20000001","StateId":"20050212","CountyId":"20107629","CityId":"20108100","DistrictId":"20108102"}}},{"Relevance":1.0,"Distance":141.4,"MatchLevel":"street","MatchQuality":{"Country":1.0,"State":1.0,"County":1.0,"City":1.0,"District":1.0,"Street":[1.0],"PostalCode":1.0},"Location":{"LocationId":"NT_Boc-9xtR6kSvtvnd2mTFgA_l_1185827358_R","LocationType":"point","DisplayPosition":{"Latitude":42.60776,"Longitude":2.40309},"MapView":{"TopLeft":{"Latitude":42.60803,"Longitude":2.40309},"BottomRight":{"Latitude":42.60776,"Longitude":2.40365}},"Address":{"Label":"N116, 66500 Ria-Sirach, France","Country":"FRA","State":"Occitanie","County":"Pyrénées-Orientales","City":"Ria-Sirach","District":"Ria","Street":"N116","PostalCode":"66500","AdditionalData":[{"value":"France","key":"CountryName"},{"value":"Occitanie","key":"StateName"},{"value":"Pyrénées-Orientales","key":"CountyName"}]},"MapReference":{"ReferenceId":"1185827358","Spot":0.0,"SideOfStreet":"right","CountryId":"20000001","StateId":"20050212","CountyId":"20107629","CityId":"20108100","DistrictId":"20108102"}}},{"Relevance":1.0,"Distance":155.2,"MatchLevel":"street","MatchQuality":{"Country":1.0,"State":1.0,"County":1.0,"City":1.0,"District":1.0,"Street":[1.0],"PostalCode":1.0},"Location":{"LocationId":"NT_kHhfA30IxY8SXAu5-EQ0eB_l_579595572_L","LocationType":"point","DisplayPosition":{"Latitude":42.60772,"Longitude":2.40049},"MapView":{"TopLeft":{"Latitude":42.60809,"Longitude":2.39943},"BottomRight":{"Latitude":42.6077,"Longitude":2.40049}},"Address":{"Label":"Chemin du Moulin, 66500 Ria-Sirach, France","Country":"FRA","State":"Occitanie","County":"Pyrénées-Orientales","City":"Ria-Sirach","District":"Ria","Street":"Chemin du Moulin","PostalCode":"66500","AdditionalData":[{"value":"France","key":"CountryName"},{"value":"Occitanie","key":"StateName"},{"value":"Pyrénées-Orientales","key":"CountyName"}]},"MapReference":{"ReferenceId":"579595572","Spot":0.0,"SideOfStreet":"left","CountryId":"20000001","StateId":"20050212","CountyId":"20107629","CityId":"20108100","DistrictId":"20108102"}}},{"Relevance":1.0,"Distance":168.6,"MatchLevel":"street","MatchQuality":{"Country":1.0,"State":1.0,"County":1.0,"City":1.0,"Street":[1.0],"PostalCode":1.0},"Location":{"LocationId":"NT_.tNzqp8JTZEVSYo32oUekD_l_579595795_R","LocationType":"point","DisplayPosition":{"Latitude":42.6053126,"Longitude":2.4016608},"MapView":{"TopLeft":{"Latitude":42.60543,"Longitude":2.40007},"BottomRight":{"Latitude":42.60524,"Longitude":2.40188}},"Address":{"Label":"Traverse de Sirach, 66500 Ria-Sirach, France","Country":"FRA","State":"Occitanie","County":"Pyrénées-Orientales","City":"Ria-Sirach","Street":"Traverse de Sirach","PostalCode":"66500","AdditionalData":[{"value":"France","key":"CountryName"},{"value":"Occitanie","key":"StateName"},{"value":"Pyrénées-Orientales","key":"CountyName"}]},"MapReference":{"ReferenceId":"579595795","Spot":0.13,"SideOfStreet":"right","CountryId":"20000001","StateId":"20050212","CountyId":"20107629","CityId":"20108100"}}}]}]}}