{"Response":{"MetaInfo":{"Timestamp":"2020-03-28T10:53:06.800+0000","NextPageInformation":"2"},"View":[{"_type":"SearchResultsViewType","ViewId":0,"Result":[{"Relevance":1.0,"Distance":0.0,"Direction":0.0,"MatchLevel":"district","MatchQuality":{"Country":1.0,"County":1.0,"City":1.0,"District":1.0,"PostalCode":1.0},"Location":{"LocationId":"NT_zB598M1uuIYyi4w2AgSCWD","LocationType":"point","DisplayPosition":{"Latitude":42.7843742,"Longitude":23.2746672},"MapView":{"TopLeft":{"Latitude":42.78927,"Longitude":23.26448},"BottomRight":{"Latitude":42.77553,"Longitude":23.28133}},"Address":{"Label":"Мрамор, София, България","Country":"BGR","County":"София-град","City":"София","District":"Мрамор","PostalCode":"1261","AdditionalData":[{"value":"България","key":"CountryName"},{"value":"София-град","key":"CountyName"}]},"MapReference":{"ReferenceId":"1180580981","SideOfStreet":"neither","CountryId":"20656214","CountyId":"20665318","CityId":"20665319","DistrictId":"20665346"}}},{"Relevance":1.0,"Distance":12.7,"MatchLevel":"houseNumber","MatchQuality":{"Country":1.0,"County":1.0,"City":1.0,"District":1.0,"Street":[1.0],"HouseNumber":1.0,"PostalCode":1.0},"MatchType":"interpolated","Location":{"LocationId":"NT_aV8hzzIeCMejk1MqFhvYbD_5A","LocationType":"point","DisplayPosition":{"Latitude":42.78448,"Longitude":23.27461},"MapView":{"TopLeft":{"Latitude":42.7856042,"Longitude":23.2730783},"BottomRight":{"Latitude":42.7833558,"Longitude":23.2761417}},"Address":{"Label":"Улица Майски Ден 9, 1261 София, България","Country":"BGR","County":"София-град","City":"София","District":"Мрамор","Street":"Улица Майски Ден","HouseNumber":"9","PostalCode":"1261","AdditionalData":[{"value":"България","key":"CountryName"},{"value":"София-град","key":"CountyName"}]},"MapReference":{"ReferenceId":"1006592458","Spot":0.98,"SideOfStreet":"right","CountryId":"20656214","CountyId":"20665318","CityId":"20665319","DistrictId":"20665346","AddressId":"676727422","RoadLinkId":"331809946"}}},{"Relevance":1.0,"Distance":13.7,"MatchLevel":"street","MatchQuality":{"Country":1.0,"County":1.0,"City":1.0,"District":1.0,"PostalCode":1.0},"Location":{"LocationId":"NT_ZUYvKQYGAeSngbHOCfJeXD_l_1006592460_L","LocationType":"point","DisplayPosition":{"Latitude":42.78449,"Longitude":23.27461},"MapView":{"TopLeft":{"Latitude":42.78456,"Longitude":23.27372},"BottomRight":{"Latitude":42.78449,"Longitude":23.27461}},"Address":{"Label":"1261 София, България","Country":"BGR","County":"София-град","City":"София","District":"Мрамор","PostalCode":"1261","AdditionalData":[{"value":"България","key":"CountryName"},{"value":"София-град","key":"CountyName"}]},"MapReference":{"ReferenceId":"1006592460","Spot":0.0,"SideOfStreet":"left","CountryId":"20656214","CountyId":"20665318","CityId":"20665319","DistrictId":"20665346"}}},{"Relevance":1.0,"Distance":14.8,"MatchLevel":"houseNumber","MatchQuality":{"Country":1.0,"County":1.0,"City":1.0,"District":1.0,"Street":[1.0],"HouseNumber":1.0,"PostalCode":1.0},"MatchType":"interpolated","Location":{"LocationId":"NT_fj7UNhAMYEbYqPOQMm-qHB_xANk","LocationType":"point","DisplayPosition":{"Latitude":42.78402,"Longitude":23.27477},"MapView":{"TopLeft":{"Latitude":42.7851442,"Longitude":23.2732383},"BottomRight":{"Latitude":42.7828958,"Longitude":23.2763017}},"Address":{"Label":"Улица Република 1А, 1261 София, България","Country":"BGR","County":"София-град","City":"София","District":"Мрамор","Street":"Улица Република","HouseNumber":"1А","PostalCode":"1261","AdditionalData":[{"value":"България","key":"CountryName"},{"value":"София-град","key":"CountyName"}]},"MapReference":{"ReferenceId":"587948620","Spot":0.8,"SideOfStreet":"right","CountryId":"20656214","CountyId":"20665318","CityId":"20665319","DistrictId":"20665346","AddressId":"676734658","RoadLinkId":"71820561"}}},{"Relevance":1.0,"Distance":25.4,"MatchLevel":"houseNumber","MatchQuality":{"Country":1.0,"County":1.0,"City":1.0,"District":1.0,"Street":[1.0],"HouseNumber":1.0,"PostalCode":1.0},"MatchType":"interpolated","Location":{"LocationId":"NT_aV8hzzIeCMejk1MqFhvYbD_3A","LocationType":"point","DisplayPosition":{"Latitude":42.7846,"Longitude":23.27462},"MapView":{"TopLeft":{"Latitude":42.7857242,"Longitude":23.2730883},"BottomRight":{"Latitude":42.7834758,"Longitude":23.2761517}},"Address":{"Label":"Улица Майски Ден 7, 1261 София, България","Country":"BGR","County":"София-град","City":"София","District":"Мрамор","Street":"Улица Майски Ден","HouseNumber":"7","PostalCode":"1261","AdditionalData":[{"value":"България","key":"CountryName"},{"value":"София-град","key":"CountyName"}]},"MapReference":{"ReferenceId":"1006592459","Spot":0.15,"SideOfStreet":"right","CountryId":"20656214","CountyId":"20665318","CityId":"20665319","DistrictId":"20665346","AddressId":"676760978","RoadLinkId":"331809947"}}},{"Relevance":1.0,"Distance":44.5,"MatchLevel":"houseNumber","MatchQuality":{"Country":1.0,"County":1.0,"City":1.0,"District":1.0,"Street":[1.0],"HouseNumber":1.0,"PostalCode":1.0},"MatchType":"interpolated","Location":{"LocationId":"NT_fj7UNhAMYEbYqPOQMm-qHB_0A","LocationType":"point","DisplayPosition":{"Latitude":42.78401,"Longitude":23.27444},"MapView":{"TopLeft":{"Latitude":42.7851342,"Longitude":23.2729083},"BottomRight":{"Latitude":42.7828858,"Longitude":23.2759717}},"Address":{"Label":"Улица Република 4, 1261 София, България","Country":"BGR","County":"София-град","City":"София","District":"Мрамор","Street":"Улица Република","HouseNumber":"4","PostalCode":"1261","AdditionalData":[{"value":"България","key":"CountryName"},{"value":"София-град","key":"CountyName"}]},"MapReference":{"ReferenceId":"1243535152","Spot":0.82,"SideOfStreet":"right","CountryId":"20656214","CountyId":"20665318","CityId":"20665319","DistrictId":"20665346","AddressId":"676757310","RoadLinkId":"564860463"}}},{"Relevance":1.0,"Distance":67.9,"MatchLevel":"houseNumber","MatchQuality":{"Country":1.0,"County":1.0,"City":1.0,"District":1.0,"Street":[1.0],"HouseNumber":1.0,"PostalCode":1.0},"MatchType":"interpolated","Location":{"LocationId":"NT_QznFRIKM3hhCpOzqCFTY2A_5A","LocationType":"point","DisplayPosition":{"Latitude":42.78474,"Longitude":23.27572},"MapView":{"TopLeft":{"Latitude":42.7858642,"Longitude":23.2741883},"BottomRight":{"Latitude":42.7836158,"Longitude":23.2772517}},"Address":{"Label":"Улица Ал. Стамболийски 9, 1261 София, България","Country":"BGR","County":"София-град","City":"София","District":"Мрамор","Street":"Улица Ал. Стамболийски","HouseNumber":"9","PostalCode":"1261","AdditionalData":[{"value":"България","key":"CountryName"},{"value":"София-град","key":"CountyName"}]},"MapReference":{"ReferenceId":"587948619","Spot":0.58,"SideOfStreet":"left","CountryId":"20656214","CountyId":"20665318","CityId":"20665319","DistrictId":"20665346","AddressId":"676745327","RoadLinkId":"71812708"}}},{"Relevance":1.0,"Distance":78.4,"MatchLevel":"street","MatchQuality":{"Country":1.0,"County":1.0,"City":1.0,"District":1.0,"Street":[1.0],"PostalCode":1.0},"Location":{"LocationId":"NT_fj7UNhAMYEbYqPOQMm-qHB_l_1243535151_L","LocationType":"point","DisplayPosition":{"Latitude":42.78397,"Longitude":23.27388},"MapView":{"TopLeft":{"Latitude":42.78397,"Longitude":23.27376},"BottomRight":{"Latitude":42.78396,"Longitude":23.27388}},"Address":{"Label":"Улица Република, 1261 София, България","Country":"BGR","County":"София-град","City":"София","District":"Мрамор","Street":"Улица Република","PostalCode":"1261","AdditionalData":[{"value":"България","key":"CountryName"},{"value":"София-град","key":"CountyName"}]},"MapReference":{"ReferenceId":"1243535151","Spot":1.0,"SideOfStreet":"left","CountryId":"20656214","CountyId":"20665318","CityId":"20665319","DistrictId":"20665346"}}},{"Relevance":1.0,"Distance":79.7,"MatchLevel":"street","MatchQuality":{"Country":1.0,"County":1.0,"City":1.0,"District":1.0,"Street":[1.0],"PostalCode":1.0},"Location":{"LocationId":"NT_GZFFVC9Pg9XLSj3l605f9D_l_947668893_R","LocationType":"point","DisplayPosition":{"Latitude":42.78455,"Longitude":23.27372},"MapView":{"TopLeft":{"Latitude":42.78465,"Longitude":23.27372},"BottomRight":{"Latitude":42.78455,"Longitude":23.27372}},"Address":{"Label":"Улица Васил Левски, 1261 София, България","Country":"BGR","County":"София-град","City":"София","District":"Мрамор","Street":"Улица Васил Левски","PostalCode":"1261","AdditionalData":[{"value":"България","key":"CountryName"},{"value":"София-град","key":"CountyName"}]},"MapReference":{"ReferenceId":"947668893","Spot":0.0,"SideOfStreet":"right","CountryId":"20656214","CountyId":"20665318","CityId":"20665319","DistrictId":"20665346"}}},{"Relevance":1.0,"Distance":80.4,"MatchLevel":"houseNumber","MatchQuality":{"Country":1.0,"County":1.0,"City":1.0,"District":1.0,"Street":[1.0],"HouseNumber":1.0,"PostalCode":1.0},"MatchType":"interpolated","Location":{"LocationId":"NT_GZFFVC9Pg9XLSj3l605f9D_0AD","LocationType":"point","DisplayPosition":{"Latitude":42.78411,"Longitude":23.27375},"MapView":{"TopLeft":{"Latitude":42.7852342,"Longitude":23.2722183},"BottomRight":{"Latitude":42.7829858,"Longitude":23.2752817}},"Address":{"Label":"Улица Васил Левски 40, 1261 София, България","Country":"BGR","County":"София-град","City":"София","District":"Мрамор","Street":"Улица Васил Левски","HouseNumber":"40","PostalCode":"1261","AdditionalData":[{"value":"България","key":"CountryName"},{"value":"София-град","key":"CountyName"}]},"MapReference":{"ReferenceId":"947668895","Spot":0.02,"SideOfStreet":"left","CountryId":"20656214","CountyId":"20665318","CityId":"20665319","DistrictId":"20665346","AddressId":"676747343","RoadLinkId":"295273513"}}}]}]}}