{"Response":{"MetaInfo":{"Timestamp":"2020-03-28T10:53:21.862+0000","NextPageInformation":"2"},"View":[{"_type":"SearchResultsViewType","ViewId":0,"Result":[{"Relevance":1.0,"Distance":0.0,"Direction":0.0,"MatchLevel":"city","MatchQuality":{"Country":1.0,"County":1.0,"City":1.0,"PostalCode":1.0},"Location":{"LocationId":"NT_Kl.vfv0BDRa.9XR.IbiP0D","LocationType":"point","DisplayPosition":{"Latitude":42.7961121,"Longitude":23.451249},"MapView":{"TopLeft":{"Latitude":42.79164,"Longitude":23.21084},"BottomRight":{"Latitude":42.60377,"Longitude":23.52474}},"Address":{"Label":"София, България","Country":"BGR","County":"София-град","City":"София","PostalCode":"1000","AdditionalData":[{"value":"България","key":"CountryName"},{"value":"София-град","key":"CountyName"}]},"MapReference":{"ReferenceId":"828975850","SideOfStreet":"neither","CountryId":"20656214","CountyId":"20665318","CityId":"20665319"}}},{"Relevance":1.0,"Distance":9.4,"MatchLevel":"houseNumber","MatchQuality":{"Country":1.0,"County":1.0,"City":1.0,"District":1.0,"Street":[1.0],"HouseNumber":1.0,"PostalCode":1.0},"MatchType":"interpolated","Location":{"LocationId":"NT_xdb1-WM.Ga40Nl7D16r61A_l_763880932_L_1ED","LocationType":"point","DisplayPosition":{"Latitude":42.795898,"Longitude":23.4512632},"MapView":{"TopLeft":{"Latitude":42.7970221,"Longitude":23.4497312},"BottomRight":{"Latitude":42.7947738,"Longitude":23.4527952}},"Address":{"Label":"Булевард Димитър Тошков 51, 1513 София, България","Country":"BGR","County":"София-град","City":"София","District":"Локорско","Street":"Булевард Димитър Тошков","HouseNumber":"51","PostalCode":"1513","AdditionalData":[{"value":"България","key":"CountryName"},{"value":"София-град","key":"CountyName"}]},"MapReference":{"ReferenceId":"763880932","Spot":0.6,"SideOfStreet":"left","CountryId":"20656214","CountyId":"20665318","CityId":"20665319","DistrictId":"20674708"}}},{"Relevance":1.0,"Distance":63.5,"MatchLevel":"street","MatchQuality":{"Country":1.0,"County":1.0,"City":1.0,"PostalCode":1.0},"Location":{"LocationId":"NT_ZgZs2GmBxgmmc-JiovOHqC_l_1211064321_R","LocationType":"point","DisplayPosition":{"Latitude":42.7966555,"Longitude":23.4510106},"MapView":{"TopLeft":{"Latitude":42.7968,"Longitude":23.4499},"BottomRight":{"Latitude":42.79651,"Longitude":23.45306}},"Address":{"Label":"1513 София, България","Country":"BGR","County":"София-град","City":"София","PostalCode":"1513","AdditionalData":[{"value":"България","key":"CountryName"},{"value":"София-град","key":"CountyName"}]},"MapReference":{"ReferenceId":"1211064321","Spot":0.34,"SideOfStreet":"right","CountryId":"20656214","CountyId":"20665318","CityId":"20665319"}}},{"Relevance":1.0,"Distance":77.4,"MatchLevel":"street","MatchQuality":{"Country":1.0,"County":1.0,"City":1.0,"PostalCode":1.0},"Location":{"LocationId":"NT_ZgZs2GmBxgmmc-JiovOHqC_l_1210910110_R","LocationType":"point","DisplayPosition":{"Latitude":42.79635,"Longitude":23.45214},"MapView":{"TopLeft":{"Latitude":42.79667,"Longitude":23.45214},"BottomRight":{"Latitude":42.79635,"Longitude":23.45306}},"Address":{"Label":"1513 София, България","Country":"BGR","County":"София-град","City":"София","PostalCode":"1513","AdditionalData":[{"value":"България","key":"CountryName"},{"value":"София-град","key":"CountyName"}]},"MapReference":{"ReferenceId":"1210910110","Spot":0.0,"SideOfStreet":"right","CountryId":"20656214","CountyId":"20665318","CityId":"20665319"}}},{"Relevance":1.0,"Distance":84.2,"MatchLevel":"houseNumber","MatchQuality":{"Country":1.0,"County":1.0,"City":1.0,"District":1.0,"Street":[1.0],"HouseNumber":1.0,"PostalCode":1.0},"MatchType":"interpolated","Location":{"LocationId":"NT_FZ1d7Gma17nVU0nMSOUpFC_l_1242898172_L_yUD","LocationType":"point","DisplayPosition":{"Latitude":42.7952906,"Longitude":23.451715},"MapView":{"TopLeft":{"Latitude":42.7964148,"Longitude":23.450183},"BottomRight":{"Latitude":42.7941665,"Longitude":23.453247}},"Address":{"Label":"Улица Евлоги Тодоров 25, 1513 София, България","Country":"BGR","County":"София-град","City":"София","District":"Локорско","Street":"Улица Евлоги Тодоров","HouseNumber":"25","PostalCode":"1513","AdditionalData":[{"value":"България","key":"CountryName"},{"value":"София-град","key":"CountyName"}]},"MapReference":{"ReferenceId":"1242898172","Spot":0.5,"SideOfStreet":"left","CountryId":"20656214","CountyId":"20665318","CityId":"20665319","DistrictId":"20674708"}}},{"Relevance":1.0,"Distance":95.0,"MatchLevel":"houseNumber","MatchQuality":{"Country":1.0,"County":1.0,"City":1.0,"District":1.0,"Street":[1.0],"HouseNumber":1.0,"PostalCode":1.0},"MatchType":"interpolated","Location":{"LocationId":"NT_uE84EhTOeSkuqLOteI23lA_l_763870117_R_2A","LocationType":"point","DisplayPosition":{"Latitude":42.7961855,"Longitude":23.4499211},"MapView":{"TopLeft":{"Latitude":42.7973096,"Longitude":23.4483891},"BottomRight":{"Latitude":42.7950613,"Longitude":23.4514531}},"Address":{"Label":"Улица Костадин Трайков 6, 1513 София, България","Country":"BGR","County":"София-град","City":"София","District":"Локорско","Street":"Улица Костадин Трайков","HouseNumber":"6","PostalCode":"1513","AdditionalData":[{"value":"България","key":"CountryName"},{"value":"София-град","key":"CountyName"}]},"MapReference":{"ReferenceId":"763870117","Spot":0.63,"SideOfStreet":"right","CountryId":"20656214","CountyId":"20665318","CityId":"20665319","DistrictId":"20674708"}}},{"Relevance":1.0,"Distance":107.9,"MatchLevel":"street","MatchQuality":{"Country":1.0,"County":1.0,"City":1.0,"District":1.0,"Street":[1.0],"PostalCode":1.0},"Location":{"LocationId":"NT_FZ1d7Gma17nVU0nMSOUpFC_l_1242898171_L","LocationType":"point","DisplayPosition":{"Latitude":42.79518,"Longitude":23.45088},"MapView":{"TopLeft":{"Latitude":42.79518,"Longitude":23.45018},"BottomRight":{"Latitude":42.79492,"Longitude":23.45088}},"Address":{"Label":"Улица Евлоги Тодоров, 1513 София, България","Country":"BGR","County":"София-град","City":"София","District":"Локорско","Street":"Улица Евлоги Тодоров","PostalCode":"1513","AdditionalData":[{"value":"България","key":"CountryName"},{"value":"София-град","key":"CountyName"}]},"MapReference":{"ReferenceId":"1242898171","Spot":1.0,"SideOfStreet":"left","CountryId":"20656214","CountyId":"20665318","CityId":"20665319","DistrictId":"20674708"}}},{"Relevance":1.0,"Distance":125.3,"MatchLevel":"street","MatchQuality":{"Country":1.0,"County":1.0,"City":1.0,"District":1.0,"PostalCode":1.0},"Location":{"LocationId":"NT_Up10CSbEmsfXGa86EAcrBC_l_1211064320_L","LocationType":"point","DisplayPosition":{"Latitude":42.79665,"Longitude":23.4499},"MapView":{"TopLeft":{"Latitude":42.79666,"Longitude":23.44981},"BottomRight":{"Latitude":42.79665,"Longitude":23.4499}},"Address":{"Label":"1513 София, България","Country":"BGR","County":"София-град","City":"София","District":"Локорско","PostalCode":"1513","AdditionalData":[{"value":"България","key":"CountryName"},{"value":"София-град","key":"CountyName"}]},"MapReference":{"ReferenceId":"1211064320","Spot":0.0,"SideOfStreet":"left","CountryId":"20656214","CountyId":"20665318","CityId":"20665319","DistrictId":"20674708"}}},{"Relevance":1.0,"Distance":130.7,"MatchLevel":"street","MatchQuality":{"Country":1.0,"County":1.0,"City":1.0,"District":1.0,"Street":[1.0],"PostalCode":1.0},"Location":{"LocationId":"NT_xdb1-WM.Ga40Nl7D16r61A_l_587947969_R","LocationType":"point","DisplayPosition":{"Latitude":42.79554,"Longitude":23.44985},"MapView":{"TopLeft":{"Latitude":42.79565,"Longitude":23.44969},"BottomRight":{"Latitude":42.79554,"Longitude":23.44985}},"Address":{"Label":"Булевард Димитър Тошков, 1513 София, България","Country":"BGR","County":"София-град","City":"София","District":"Локорско","Street":"Булевард Димитър Тошков","PostalCode":"1513","AdditionalData":[{"value":"България","key":"CountryName"},{"value":"София-град","key":"CountyName"}]},"MapReference":{"ReferenceId":"587947969","Spot":0.0,"SideOfStreet":"right","CountryId":"20656214","CountyId":"20665318","CityId":"20665319","DistrictId":"20674708"}}},{"Relevance":1.0,"Distance":131.3,"MatchLevel":"street","MatchQuality":{"Country":1.0,"County":1.0,"City":1.0,"PostalCode":1.0},"Location":{"LocationId":"NT_ZgZs2GmBxgmmc-JiovOHqC_l_1210910111_L","LocationType":"point","DisplayPosition":{"Latitude":42.79707,"Longitude":23.45219},"MapView":{"TopLeft":{"Latitude":42.79765,"Longitude":23.45163},"BottomRight":{"Latitude":42.79667,"Longitude":23.45308}},"Address":{"Label":"1513 София, България","Country":"BGR","County":"София-град","City":"София","PostalCode":"1513","AdditionalData":[{"value":"България","key":"CountryName"},{"value":"София-град","key":"CountyName"}]},"MapReference":{"ReferenceId":"1210910111","Spot":0.56,"SideOfStreet":"left","CountryId":"20656214","CountyId":"20665318","CityId":"20665319"}}}]}]}}