{"Response":{"MetaInfo":{"Timestamp":"2020-03-28T09:46:58.936+0000","NextPageInformation":"2"},"View":[{"_type":"SearchResultsViewType","ViewId":0,"Result":[{"Relevance":1.0,"Distance":0.0,"Direction":0.0,"MatchLevel":"district","MatchQuality":{"Country":1.0,"State":1.0,"County":1.0,"City":1.0,"District":1.0,"PostalCode":1.0},"Location":{"LocationId":"NT_QmAgR-bZEKKM77IJBfrOfD","LocationType":"point","DisplayPosition":{"Latitude":42.7900882,"Longitude":-1.6180632},"MapView":{"TopLeft":{"Latitude":42.80589,"Longitude":-1.63073},"BottomRight":{"Latitude":42.78188,"Longitude":-1.60668}},"Address":{"Label":"Mutilva, Aranguren, Comunidad Foral de Navarra, España","Country":"ESP","State":"Comunidad Foral de Navarra","County":"Navarra","City":"Aranguren","District":"Mutilva","PostalCode":"31192","AdditionalData":[{"value":"España","key":"CountryName"},{"value":"Comunidad Foral de Navarra","key":"StateName"},{"value":"Navarra","key":"CountyName"}]},"MapReference":{"ReferenceId":"539483198","SideOfStreet":"neither","CountryId":"20215059","StateId":"20226802","CountyId":"20226803","CityId":"20282919","DistrictId":"20282930"}}},{"Relevance":1.0,"Distance":3.8,"MatchLevel":"street","MatchQuality":{"Country":1.0,"State":1.0,"County":1.0,"City":1.0,"District":1.0,"PostalCode":1.0},"Location":{"LocationId":"NT_ykF9tduCALDYGceVPpxFbA_l_570293851_L","LocationType":"point","DisplayPosition":{"Latitude":42.7900589,"Longitude":-1.6180401},"MapView":{"TopLeft":{"Latitude":42.79013,"Longitude":-1.61814},"BottomRight":{"Latitude":42.78998,"Longitude":-1.61795}},"Address":{"Label":"31192 Aranguren (Navarra), España","Country":"ESP","State":"Comunidad Foral de Navarra","County":"Navarra","City":"Aranguren","District":"Mutilva","PostalCode":"31192","AdditionalData":[{"value":"España","key":"CountryName"},{"value":"Comunidad Foral de Navarra","key":"StateName"},{"value":"Navarra","key":"CountyName"}]},"MapReference":{"ReferenceId":"570293851","Spot":0.53,"SideOfStreet":"left","CountryId":"20215059","StateId":"20226802","CountyId":"20226803","CityId":"20282919","DistrictId":"20282930"}}},{"Relevance":1.0,"Distance":10.3,"MatchLevel":"street","MatchQuality":{"Country":1.0,"State":1.0,"County":1.0,"City":1.0,"District":1.0,"PostalCode":1.0},"Location":{"LocationId":"NT_ykF9tduCALDYGceVPpxFbA_l_570293850_L","LocationType":"point","DisplayPosition":{"Latitude":42.79013,"Longitude":-1.61795},"MapView":{"TopLeft":{"Latitude":42.79013,"Longitude":-1.61795},"BottomRight":{"Latitude":42.78977,"Longitude":-1.6176}},"Address":{"Label":"31192 Aranguren (Navarra), España","Country":"ESP","State":"Comunidad Foral de Navarra","County":"Navarra","City":"Aranguren","District":"Mutilva","PostalCode":"31192","AdditionalData":[{"value":"España","key":"CountryName"},{"value":"Comunidad Foral de Navarra","key":"StateName"},{"value":"Navarra","key":"CountyName"}]},"MapReference":{"ReferenceId":"570293850","Spot":1.0,"SideOfStreet":"left","CountryId":"20215059","StateId":"20226802","CountyId":"20226803","CityId":"20282919","DistrictId":"20282930"}}},{"Relevance":1.0,"Distance":10.3,"MatchLevel":"street","MatchQuality":{"Country":1.0,"State":1.0,"County":1.0,"City":1.0,"District":1.0,"PostalCode":1.0},"Location":{"LocationId":"NT_ykF9tduCALDYGceVPpxFbA_l_570293852_L","LocationType":"point","DisplayPosition":{"Latitude":42.79013,"Longitude":-1.61795},"MapView":{"TopLeft":{"Latitude":42.7903,"Longitude":-1.61795},"BottomRight":{"Latitude":42.79013,"Longitude":-1.61775}},"Address":{"Label":"31192 Aranguren (Navarra), España","Country":"ESP","State":"Comunidad Foral de Navarra","County":"Navarra","City":"Aranguren","District":"Mutilva","PostalCode":"31192","AdditionalData":[{"value":"España","key":"CountryName"},{"value":"Comunidad Foral de Navarra","key":"StateName"},{"value":"Navarra","key":"CountyName"}]},"MapReference":{"ReferenceId":"570293852","Spot":0.0,"SideOfStreet":"left","CountryId":"20215059","StateId":"20226802","CountyId":"20226803","CityId":"20282919","DistrictId":"20282930"}}},{"Relevance":1.0,"Distance":13.6,"MatchLevel":"houseNumber","MatchQuality":{"Country":1.0,"State":1.0,"County":1.0,"City":1.0,"District":1.0,"Street":[1.0],"HouseNumber":1.0,"PostalCode":1.0},"MatchType":"interpolated","Location":{"LocationId":"NT_zeypN.H8AOmTk5qIs3IAhB_0A","LocationType":"point","DisplayPosition":{"Latitude":42.79009,"Longitude":-1.61823},"MapView":{"TopLeft":{"Latitude":42.7912142,"Longitude":-1.6197619},"BottomRight":{"Latitude":42.7889658,"Longitude":-1.6166981}},"Address":{"Label":"Avenida Pamplona, 4, 31192 Aranguren (Navarra), España","Country":"ESP","State":"Comunidad Foral de Navarra","County":"Navarra","City":"Aranguren","District":"Mutilva","Street":"Avenida Pamplona","HouseNumber":"4","PostalCode":"31192","AdditionalData":[{"value":"España","key":"CountryName"},{"value":"Comunidad Foral de Navarra","key":"StateName"},{"value":"Navarra","key":"CountyName"}]},"MapReference":{"ReferenceId":"570293899","Spot":0.51,"SideOfStreet":"right","CountryId":"20215059","StateId":"20226802","CountyId":"20226803","CityId":"20282919","DistrictId":"20282930","AddressId":"350271441","RoadLinkId":"69247530"}}},{"Relevance":1.0,"Distance":23.7,"MatchLevel":"houseNumber","MatchQuality":{"Country":1.0,"State":1.0,"County":1.0,"City":1.0,"District":1.0,"Street":[1.0],"HouseNumber":1.0,"PostalCode":1.0},"MatchType":"interpolated","Location":{"LocationId":"NT_zeypN.H8AOmTk5qIs3IAhB_5A","LocationType":"point","DisplayPosition":{"Latitude":42.7902,"Longitude":-1.61831},"MapView":{"TopLeft":{"Latitude":42.7913242,"Longitude":-1.6198419},"BottomRight":{"Latitude":42.7890758,"Longitude":-1.6167781}},"Address":{"Label":"Avenida Pamplona, 9, 31192 Aranguren (Navarra), España","Country":"ESP","State":"Comunidad Foral de Navarra","County":"Navarra","City":"Aranguren","District":"Mutilva","Street":"Avenida Pamplona","HouseNumber":"9","PostalCode":"31192","AdditionalData":[{"value":"España","key":"CountryName"},{"value":"Comunidad Foral de Navarra","key":"StateName"},{"value":"Navarra","key":"CountyName"}]},"MapReference":{"ReferenceId":"570293900","Spot":0.0,"SideOfStreet":"left","CountryId":"20215059","StateId":"20226802","CountyId":"20226803","CityId":"20282919","DistrictId":"20282930","AddressId":"350209112","RoadLinkId":"68582225"}}},{"Relevance":1.0,"Distance":23.9,"MatchLevel":"street","MatchQuality":{"Country":1.0,"State":1.0,"County":1.0,"City":1.0,"District":1.0,"PostalCode":1.0},"Location":{"LocationId":"NT_ykF9tduCALDYGceVPpxFbA_l_570293901_R","LocationType":"point","DisplayPosition":{"Latitude":42.790279,"Longitude":-1.6181995},"MapView":{"TopLeft":{"Latitude":42.79042,"Longitude":-1.61831},"BottomRight":{"Latitude":42.7902,"Longitude":-1.61775}},"Address":{"Label":"31192 Aranguren (Navarra), España","Country":"ESP","State":"Comunidad Foral de Navarra","County":"Navarra","City":"Aranguren","District":"Mutilva","PostalCode":"31192","AdditionalData":[{"value":"España","key":"CountryName"},{"value":"Comunidad Foral de Navarra","key":"StateName"},{"value":"Navarra","key":"CountyName"}]},"MapReference":{"ReferenceId":"570293901","Spot":0.21,"SideOfStreet":"right","CountryId":"20215059","StateId":"20226802","CountyId":"20226803","CityId":"20282919","DistrictId":"20282930"}}},{"Relevance":1.0,"Distance":31.2,"MatchLevel":"houseNumber","MatchQuality":{"Country":1.0,"State":1.0,"County":1.0,"City":1.0,"District":1.0,"Street":[1.0],"HouseNumber":1.0,"PostalCode":1.0},"MatchType":"interpolated","Location":{"LocationId":"NT_zeypN.H8AOmTk5qIs3IAhB_yA","LocationType":"point","DisplayPosition":{"Latitude":42.78981,"Longitude":-1.61801},"MapView":{"TopLeft":{"Latitude":42.7909342,"Longitude":-1.6195419},"BottomRight":{"Latitude":42.7886858,"Longitude":-1.6164781}},"Address":{"Label":"Avenida Pamplona, 2, 31192 Aranguren (Navarra), España","Country":"ESP","State":"Comunidad Foral de Navarra","County":"Navarra","City":"Aranguren","District":"Mutilva","Street":"Avenida Pamplona","HouseNumber":"2","PostalCode":"31192","AdditionalData":[{"value":"España","key":"CountryName"},{"value":"Comunidad Foral de Navarra","key":"StateName"},{"value":"Navarra","key":"CountyName"}]},"MapReference":{"ReferenceId":"539482857","Spot":0.09,"SideOfStreet":"right","CountryId":"20215059","StateId":"20226802","CountyId":"20226803","CityId":"20282919","DistrictId":"20282930","AddressId":"350289247","RoadLinkId":"67789765"}}},{"Relevance":1.0,"Distance":32.1,"MatchLevel":"street","MatchQuality":{"Country":1.0,"State":1.0,"County":1.0,"City":1.0,"District":1.0,"PostalCode":1.0},"Location":{"LocationId":"NT_ykF9tduCALDYGceVPpxFbA_l_570293842_R","LocationType":"point","DisplayPosition":{"Latitude":42.78981,"Longitude":-1.61796},"MapView":{"TopLeft":{"Latitude":42.78981,"Longitude":-1.618},"BottomRight":{"Latitude":42.78972,"Longitude":-1.61783}},"Address":{"Label":"31192 Aranguren (Navarra), España","Country":"ESP","State":"Comunidad Foral de Navarra","County":"Navarra","City":"Aranguren","District":"Mutilva","PostalCode":"31192","AdditionalData":[{"value":"España","key":"CountryName"},{"value":"Comunidad Foral de Navarra","key":"StateName"},{"value":"Navarra","key":"CountyName"}]},"MapReference":{"ReferenceId":"570293842","Spot":0.81,"SideOfStreet":"right","CountryId":"20215059","StateId":"20226802","CountyId":"20226803","CityId":"20282919","DistrictId":"20282930"}}},{"Relevance":1.0,"Distance":33.6,"MatchLevel":"street","MatchQuality":{"Country":1.0,"State":1.0,"County":1.0,"City":1.0,"District":1.0,"PostalCode":1.0},"Location":{"LocationId":"NT_ykF9tduCALDYGceVPpxFbA_l_570293843_L","LocationType":"point","DisplayPosition":{"Latitude":42.78979,"Longitude":-1.618},"MapView":{"TopLeft":{"Latitude":42.78979,"Longitude":-1.61802},"BottomRight":{"Latitude":42.78976,"Longitude":-1.618}},"Address":{"Label":"31192 Aranguren (Navarra), España","Country":"ESP","State":"Comunidad Foral de Navarra","County":"Navarra","City":"Aranguren","District":"Mutilva","PostalCode":"31192","AdditionalData":[{"value":"España","key":"CountryName"},{"value":"Comunidad Foral de Navarra","key":"StateName"},{"value":"Navarra","key":"CountyName"}]},"MapReference":{"ReferenceId":"570293843","Spot":1.0,"SideOfStreet":"left","CountryId":"20215059","StateId":"20226802","CountyId":"20226803","CityId":"20282919","DistrictId":"20282930"}}}]}]}}