{"Response":{"MetaInfo":{"Timestamp":"2020-03-28T09:47:02.023+0000","NextPageInformation":"2"},"View":[{"_type":"SearchResultsViewType","ViewId":0,"Result":[{"Relevance":1.0,"Distance":0.0,"Direction":0.0,"MatchLevel":"district","MatchQuality":{"Country":1.0,"State":1.0,"County":1.0,"City":1.0,"District":1.0,"PostalCode":1.0},"Location":{"LocationId":"NT_qsLk5qneqJK0MR25oC62aC","LocationType":"point","DisplayPosition":{"Latitude":42.7111912,"Longitude":-2.9176653},"MapView":{"TopLeft":{"Latitude":42.71415,"Longitude":-2.92387},"BottomRight":{"Latitude":42.69397,"Longitude":-2.88325}},"Address":{"Label":"Rivabellosa, Erriberabeitia, País Vasco, Espainia","Country":"ESP","State":"País Vasco","County":"Álava","City":"Erriberabeitia","District":"Rivabellosa","PostalCode":"01213","AdditionalData":[{"value":"Espainia","key":"CountryName"},{"value":"País Vasco","key":"StateName"},{"value":"Álava","key":"CountyName"}]},"MapReference":{"ReferenceId":"1034070164","SideOfStreet":"neither","CountryId":"20215059","StateId":"20226804","CountyId":"20226805","CityId":"20285340","DistrictId":"20285349"}}},{"Relevance":1.0,"Distance":20.1,"MatchLevel":"houseNumber","MatchQuality":{"Country":1.0,"State":1.0,"County":1.0,"City":1.0,"District":1.0,"Street":[1.0],"HouseNumber":1.0,"PostalCode":1.0},"MatchType":"interpolated","Location":{"LocationId":"NT_A0L6QKAWhsKnWeV3sL94aC_4A","LocationType":"point","DisplayPosition":{"Latitude":42.71129,"Longitude":-2.9173},"MapView":{"TopLeft":{"Latitude":42.7124142,"Longitude":-2.9188299},"BottomRight":{"Latitude":42.7101658,"Longitude":-2.9157701}},"Address":{"Label":"Calle Parrales, 8, 01213 Erriberabeitia (Álava), Espainia","Country":"ESP","State":"País Vasco","County":"Álava","City":"Erriberabeitia","District":"Rivabellosa","Street":"Calle Parrales","HouseNumber":"8","PostalCode":"01213","AdditionalData":[{"value":"Espainia","key":"CountryName"},{"value":"País Vasco","key":"StateName"},{"value":"Álava","key":"CountyName"}]},"MapReference":{"ReferenceId":"551549433","Spot":0.51,"SideOfStreet":"left","CountryId":"20215059","StateId":"20226804","CountyId":"20226805","CityId":"20285340","DistrictId":"20285349","AddressId":"351799161","RoadLinkId":"67874497"}}},{"Relevance":1.0,"Distance":54.5,"MatchLevel":"houseNumber","MatchQuality":{"Country":1.0,"State":1.0,"County":1.0,"City":1.0,"District":1.0,"Street":[1.0],"HouseNumber":1.0,"PostalCode":1.0},"MatchType":"interpolated","Location":{"LocationId":"NT_oQwE1LP9mUNwUh7yYdb8EB_xkjR","LocationType":"point","DisplayPosition":{"Latitude":42.71091,"Longitude":-2.91868},"MapView":{"TopLeft":{"Latitude":42.7120342,"Longitude":-2.9202099},"BottomRight":{"Latitude":42.7097858,"Longitude":-2.9171501}},"Address":{"Label":"Calle Francisco M. de Echanove, 19F, 01213 Erriberabeitia (Álava), Espainia","Country":"ESP","State":"País Vasco","County":"Álava","City":"Erriberabeitia","District":"Rivabellosa","Street":"Calle Francisco M. de Echanove","HouseNumber":"19F","PostalCode":"01213","AdditionalData":[{"value":"Espainia","key":"CountryName"},{"value":"País Vasco","key":"StateName"},{"value":"Álava","key":"CountyName"}]},"MapReference":{"ReferenceId":"1075473922","Spot":0.8,"SideOfStreet":"right","CountryId":"20215059","StateId":"20226804","CountyId":"20226805","CityId":"20285340","DistrictId":"20285349","AddressId":"736241702","RoadLinkId":"395657057"}}},{"Relevance":1.0,"Distance":56.5,"MatchLevel":"houseNumber","MatchQuality":{"Country":1.0,"State":1.0,"County":1.0,"City":1.0,"District":1.0,"Street":[1.0],"HouseNumber":1.0,"PostalCode":1.0},"MatchType":"interpolated","Location":{"LocationId":"NT_A0L6QKAWhsKnWeV3sL94aC_xID","LocationType":"point","DisplayPosition":{"Latitude":42.71067,"Longitude":-2.91736},"MapView":{"TopLeft":{"Latitude":42.7117942,"Longitude":-2.9188899},"BottomRight":{"Latitude":42.7095458,"Longitude":-2.9158301}},"Address":{"Label":"Calle Parrales, 12, 01213 Erriberabeitia (Álava), Espainia","Country":"ESP","State":"País Vasco","County":"Álava","City":"Erriberabeitia","District":"Rivabellosa","Street":"Calle Parrales","HouseNumber":"12","PostalCode":"01213","AdditionalData":[{"value":"Espainia","key":"CountryName"},{"value":"País Vasco","key":"StateName"},{"value":"Álava","key":"CountyName"}]},"MapReference":{"ReferenceId":"551549428","Spot":0.69,"SideOfStreet":"left","CountryId":"20215059","StateId":"20226804","CountyId":"20226805","CityId":"20285340","DistrictId":"20285349","AddressId":"351873464","RoadLinkId":"68203785"}}},{"Relevance":1.0,"Distance":56.6,"MatchLevel":"houseNumber","MatchQuality":{"Country":1.0,"State":1.0,"County":1.0,"City":1.0,"District":1.0,"Street":[1.0],"HouseNumber":1.0,"PostalCode":1.0},"MatchType":"interpolated","Location":{"LocationId":"NT_84sbCRc847LTh7GUDrUJLC_yA","LocationType":"point","DisplayPosition":{"Latitude":42.7117,"Longitude":-2.91763},"MapView":{"TopLeft":{"Latitude":42.7128242,"Longitude":-2.9191599},"BottomRight":{"Latitude":42.7105758,"Longitude":-2.9161001}},"Address":{"Label":"Fernando Fernández enparantza, 2, 01213 Erriberabeitia (Araba), Espainia","Country":"ESP","State":"Euskadi","County":"Araba","City":"Erriberabeitia","District":"Ribabellosa","Street":"Fernando Fernández enparantza","HouseNumber":"2","PostalCode":"01213","AdditionalData":[{"value":"Espainia","key":"CountryName"},{"value":"Euskadi","key":"StateName"},{"value":"Araba","key":"CountyName"}]},"MapReference":{"ReferenceId":"1191517243","Spot":0.44,"SideOfStreet":"right","CountryId":"20215059","StateId":"20226804","CountyId":"20226805","CityId":"20285340","DistrictId":"20285349","AddressId":"783475689","RoadLinkId":"561597695"}}},{"Relevance":1.0,"Distance":64.5,"MatchLevel":"houseNumber","MatchQuality":{"Country":1.0,"State":1.0,"County":1.0,"City":1.0,"District":1.0,"Street":[1.0],"HouseNumber":1.0,"PostalCode":1.0},"MatchType":"interpolated","Location":{"LocationId":"NT_oQwE1LP9mUNwUh7yYdb8EB_xcD","LocationType":"point","DisplayPosition":{"Latitude":42.71109,"Longitude":-2.9186},"MapView":{"TopLeft":{"Latitude":42.7122142,"Longitude":-2.9201299},"BottomRight":{"Latitude":42.7099658,"Longitude":-2.9170701}},"Address":{"Label":"Calle Francisco M. de Echanove, 17, 01213 Erriberabeitia (Álava), Espainia","Country":"ESP","State":"País Vasco","County":"Álava","City":"Erriberabeitia","District":"Rivabellosa","Street":"Calle Francisco M. de Echanove","HouseNumber":"17","PostalCode":"01213","AdditionalData":[{"value":"Espainia","key":"CountryName"},{"value":"País Vasco","key":"StateName"},{"value":"Álava","key":"CountyName"}]},"MapReference":{"ReferenceId":"1033650764","Spot":0.3,"SideOfStreet":"right","CountryId":"20215059","StateId":"20226804","CountyId":"20226805","CityId":"20285340","DistrictId":"20285349","AddressId":"351855908","RoadLinkId":"355615094"}}},{"Relevance":1.0,"Distance":69.6,"MatchLevel":"houseNumber","MatchQuality":{"Country":1.0,"State":1.0,"County":1.0,"City":1.0,"District":1.0,"Street":[1.0],"HouseNumber":1.0,"PostalCode":1.0},"MatchType":"interpolated","Location":{"LocationId":"NT_A0L6QKAWhsKnWeV3sL94aC_xEE","LocationType":"point","DisplayPosition":{"Latitude":42.71177,"Longitude":-2.91734},"MapView":{"TopLeft":{"Latitude":42.7128942,"Longitude":-2.9188699},"BottomRight":{"Latitude":42.7106458,"Longitude":-2.9158101}},"Address":{"Label":"Calle Parrales, 1A, 01213 Erriberabeitia (Álava), Espainia","Country":"ESP","State":"País Vasco","County":"Álava","City":"Erriberabeitia","District":"Rivabellosa","Street":"Calle Parrales","HouseNumber":"1A","PostalCode":"01213","AdditionalData":[{"value":"Espainia","key":"CountryName"},{"value":"País Vasco","key":"StateName"},{"value":"Álava","key":"CountyName"}]},"MapReference":{"ReferenceId":"551549434","Spot":0.17,"SideOfStreet":"right","CountryId":"20215059","StateId":"20226804","CountyId":"20226805","CityId":"20285340","DistrictId":"20285349","AddressId":"727696563","RoadLinkId":"69184334"}}},{"Relevance":1.0,"Distance":75.1,"MatchLevel":"houseNumber","MatchQuality":{"Country":1.0,"State":1.0,"County":1.0,"City":1.0,"District":1.0,"Street":[1.0],"HouseNumber":1.0,"PostalCode":1.0},"MatchType":"interpolated","Location":{"LocationId":"NT_oQwE1LP9mUNwUh7yYdb8EB_zA","LocationType":"point","DisplayPosition":{"Latitude":42.71177,"Longitude":-2.91831},"MapView":{"TopLeft":{"Latitude":42.7128942,"Longitude":-2.9198399},"BottomRight":{"Latitude":42.7106458,"Longitude":-2.9167801}},"Address":{"Label":"Calle Francisco M. de Echanove, 3, 01213 Erriberabeitia (Álava), Espainia","Country":"ESP","State":"País Vasco","County":"Álava","City":"Erriberabeitia","District":"Rivabellosa","Street":"Calle Francisco M. de Echanove","HouseNumber":"3","PostalCode":"01213","AdditionalData":[{"value":"Espainia","key":"CountryName"},{"value":"País Vasco","key":"StateName"},{"value":"Álava","key":"CountyName"}]},"MapReference":{"ReferenceId":"1034070163","Spot":1.0,"SideOfStreet":"right","CountryId":"20215059","StateId":"20226804","CountyId":"20226805","CityId":"20285340","DistrictId":"20285349","AddressId":"351855902","RoadLinkId":"356061888"}}},{"Relevance":1.0,"Distance":76.3,"MatchLevel":"houseNumber","MatchQuality":{"Country":1.0,"State":1.0,"County":1.0,"City":1.0,"District":1.0,"Street":[1.0],"HouseNumber":1.0,"PostalCode":1.0},"MatchType":"interpolated","Location":{"LocationId":"NT_oQwE1LP9mUNwUh7yYdb8EB_xA","LocationType":"point","DisplayPosition":{"Latitude":42.71184,"Longitude":-2.9183},"MapView":{"TopLeft":{"Latitude":42.7129642,"Longitude":-2.9198299},"BottomRight":{"Latitude":42.7107158,"Longitude":-2.9167701}},"Address":{"Label":"Calle Francisco M. de Echanove, 1, 01213 Erriberabeitia (Álava), Espainia","Country":"ESP","State":"País Vasco","County":"Álava","City":"Erriberabeitia","District":"Rivabellosa","Street":"Calle Francisco M. de Echanove","HouseNumber":"1","PostalCode":"01213","AdditionalData":[{"value":"Espainia","key":"CountryName"},{"value":"País Vasco","key":"StateName"},{"value":"Álava","key":"CountyName"}]},"MapReference":{"ReferenceId":"1034070164","Spot":0.27,"SideOfStreet":"right","CountryId":"20215059","StateId":"20226804","CountyId":"20226805","CityId":"20285340","DistrictId":"20285349","AddressId":"351855901","RoadLinkId":"356061889"}}},{"Relevance":1.0,"Distance":78.6,"MatchLevel":"houseNumber","MatchQuality":{"Country":1.0,"State":1.0,"County":1.0,"City":1.0,"District":1.0,"Street":[1.0],"HouseNumber":1.0,"PostalCode":1.0},"MatchType":"interpolated","Location":{"LocationId":"NT_OLwfJKBUQpS1kMozPxHOhA_xcD","LocationType":"point","DisplayPosition":{"Latitude":42.7117,"Longitude":-2.91689},"MapView":{"TopLeft":{"Latitude":42.7128242,"Longitude":-2.9184199},"BottomRight":{"Latitude":42.7105758,"Longitude":-2.9153601}},"Address":{"Label":"Calle La Paul, 17, 01213 Erriberabeitia (Álava), Espainia","Country":"ESP","State":"País Vasco","County":"Álava","City":"Erriberabeitia","District":"Rivabellosa","Street":"Calle La Paul","HouseNumber":"17","PostalCode":"01213","AdditionalData":[{"value":"Espainia","key":"CountryName"},{"value":"País Vasco","key":"StateName"},{"value":"Álava","key":"CountyName"}]},"MapReference":{"ReferenceId":"551549432","Spot":0.26,"SideOfStreet":"right","CountryId":"20215059","StateId":"20226804","CountyId":"20226805","CityId":"20285340","DistrictId":"20285349","AddressId":"351784837","RoadLinkId":"68710793"}}}]}]}}