{"Response":{"MetaInfo":{"Timestamp":"2020-03-28T09:44:18.305+0000","NextPageInformation":"2"},"View":[{"_type":"SearchResultsViewType","ViewId":0,"Result":[{"Relevance":1.0,"Distance":0.0,"Direction":0.0,"MatchLevel":"city","MatchQuality":{"Country":1.0,"State":1.0,"County":1.0,"City":1.0,"PostalCode":1.0},"Location":{"LocationId":"NT_2QJXX8s5k8c7D2rva3FoOA","LocationType":"point","DisplayPosition":{"Latitude":42.7770187,"Longitude":-7.4105857},"MapView":{"TopLeft":{"Latitude":42.84426,"Longitude":-7.5436},"BottomRight":{"Latitude":42.69836,"Longitude":-7.32715}},"Address":{"Label":"Sarria, Galicia, España","Country":"ESP","State":"Galicia","County":"Lugo","City":"Sarria","PostalCode":"27600","AdditionalData":[{"value":"España","key":"CountryName"},{"value":"Galicia","key":"StateName"},{"value":"Lugo","key":"CountyName"}]},"MapReference":{"ReferenceId":"1232502703","SideOfStreet":"neither","CountryId":"20215059","StateId":"20226791","CountyId":"20226793","CityId":"20324095"}}},{"Relevance":1.0,"Distance":48.7,"MatchLevel":"landmark","MatchQuality":{"Country":1.0,"State":1.0,"County":1.0,"Name":1.0},"Location":{"LocationId":"NT_yaET9mchapkTrh.Rep4P8B","LocationType":"river","Name":"Río Sarria","DisplayPosition":{"Latitude":42.76878,"Longitude":-7.37432},"MapView":{"TopLeft":{"Latitude":42.87239,"Longitude":-7.45353},"BottomRight":{"Latitude":42.72384,"Longitude":-7.29638}},"Address":{"Label":"(Lugo), España","Country":"ESP","State":"Galicia","County":"Lugo","AdditionalData":[{"value":"España","key":"CountryName"},{"value":"Galicia","key":"StateName"},{"value":"Lugo","key":"CountyName"}]},"MapReference":{"CountryId":"20215059","StateId":"20226791","CountyId":"20226793","PlaceId":"1457333452"}}},{"Relevance":1.0,"Distance":54.0,"MatchLevel":"street","MatchQuality":{"Country":1.0,"State":1.0,"County":1.0,"City":1.0,"PostalCode":1.0},"Location":{"LocationId":"NT_K9JEU3Er.2f9w3OAmcyWaA_l_955064204_R","LocationType":"point","DisplayPosition":{"Latitude":42.77664,"Longitude":-7.411},"MapView":{"TopLeft":{"Latitude":42.7768,"Longitude":-7.41148},"BottomRight":{"Latitude":42.77648,"Longitude":-7.411}},"Address":{"Label":"27600 Sarria (Lugo), España","Country":"ESP","State":"Galicia","County":"Lugo","City":"Sarria","PostalCode":"27600","AdditionalData":[{"value":"España","key":"CountryName"},{"value":"Galicia","key":"StateName"},{"value":"Lugo","key":"CountyName"}]},"MapReference":{"ReferenceId":"955064204","Spot":0.26,"SideOfStreet":"right","CountryId":"20215059","StateId":"20226791","CountyId":"20226793","CityId":"20324095"}}},{"Relevance":1.0,"Distance":57.3,"MatchLevel":"street","MatchQuality":{"Country":1.0,"State":1.0,"County":1.0,"City":1.0,"PostalCode":1.0},"Location":{"LocationId":"NT_JO5jR3xL19a4Av.fS-4IXC_l_1257091303_L","LocationType":"point","DisplayPosition":{"Latitude":42.77709,"Longitude":-7.40989},"MapView":{"TopLeft":{"Latitude":42.77772,"Longitude":-7.4104},"BottomRight":{"Latitude":42.7756,"Longitude":-7.40936}},"Address":{"Label":"27619 Sarria (Lugo), España","Country":"ESP","State":"Galicia","County":"Lugo","City":"Sarria","PostalCode":"27619","AdditionalData":[{"value":"España","key":"CountryName"},{"value":"Galicia","key":"StateName"},{"value":"Lugo","key":"CountyName"}]},"MapReference":{"ReferenceId":"1257091303","Spot":0.7,"SideOfStreet":"left","CountryId":"20215059","StateId":"20226791","CountyId":"20226793","CityId":"20324095"}}},{"Relevance":1.0,"Distance":58.0,"MatchLevel":"houseNumber","MatchQuality":{"Country":1.0,"State":1.0,"County":1.0,"City":1.0,"Street":[1.0],"HouseNumber":1.0,"PostalCode":1.0},"MatchType":"interpolated","Location":{"LocationId":"NT_P78tl47xJc019xku.hUL0D_xQD","LocationType":"point","DisplayPosition":{"Latitude":42.77778,"Longitude":-7.41044},"MapView":{"TopLeft":{"Latitude":42.7789042,"Longitude":-7.4119716},"BottomRight":{"Latitude":42.7766558,"Longitude":-7.4089084}},"Address":{"Label":"Rúa do Toleiro, 14, 27619 Sarria (Lugo), España","Country":"ESP","State":"Galicia","County":"Lugo","City":"Sarria","Street":"Rúa do Toleiro","HouseNumber":"14","PostalCode":"27619","AdditionalData":[{"value":"España","key":"CountryName"},{"value":"Galicia","key":"StateName"},{"value":"Lugo","key":"CountyName"}]},"MapReference":{"ReferenceId":"955064203","Spot":0.1,"SideOfStreet":"left","CountryId":"20215059","StateId":"20226791","CountyId":"20226793","CityId":"20324095","AddressId":"351056645","RoadLinkId":"298270480"}}},{"Relevance":1.0,"Distance":59.1,"MatchLevel":"houseNumber","MatchQuality":{"Country":1.0,"State":1.0,"County":1.0,"City":1.0,"Street":[1.0],"HouseNumber":1.0,"PostalCode":1.0},"MatchType":"interpolated","Location":{"LocationId":"NT_.68cWpGvsjKZ9CJJnKNN4D_l_82433346_R_yMD","LocationType":"point","DisplayPosition":{"Latitude":42.7763732,"Longitude":-7.4108106},"MapView":{"TopLeft":{"Latitude":42.7774973,"Longitude":-7.4123421},"BottomRight":{"Latitude":42.775249,"Longitude":-7.409279}},"Address":{"Label":"Rúa do Peregrino, 23, 27600 Sarria (Lugo), España","Country":"ESP","State":"Galicia","County":"Lugo","City":"Sarria","Street":"Rúa do Peregrino","HouseNumber":"23","PostalCode":"27600","AdditionalData":[{"value":"España","key":"CountryName"},{"value":"Galicia","key":"StateName"},{"value":"Lugo","key":"CountyName"}]},"MapReference":{"ReferenceId":"82433346","Spot":0.78,"SideOfStreet":"right","CountryId":"20215059","StateId":"20226791","CountyId":"20226793","CityId":"20324095"}}},{"Relevance":1.0,"Distance":63.7,"MatchLevel":"houseNumber","MatchQuality":{"Country":1.0,"State":1.0,"County":1.0,"City":1.0,"Street":[1.0],"HouseNumber":1.0,"PostalCode":1.0},"MatchType":"interpolated","Location":{"LocationId":"NT_lHqE6r3ucJNJDqUo7DX7uA_xQD","LocationType":"point","DisplayPosition":{"Latitude":42.77725,"Longitude":-7.4113},"MapView":{"TopLeft":{"Latitude":42.7783742,"Longitude":-7.4128315},"BottomRight":{"Latitude":42.7761258,"Longitude":-7.4097685}},"Address":{"Label":"Paseo Malecón, 14, 27600 Sarria (Lugo), España","Country":"ESP","State":"Galicia","County":"Lugo","City":"Sarria","Street":"Paseo Malecón","HouseNumber":"14","PostalCode":"27600","AdditionalData":[{"value":"España","key":"CountryName"},{"value":"Galicia","key":"StateName"},{"value":"Lugo","key":"CountyName"}]},"MapReference":{"ReferenceId":"762062204","Spot":0.41,"SideOfStreet":"left","CountryId":"20215059","StateId":"20226791","CountyId":"20226793","CityId":"20324095","AddressId":"351140247","RoadLinkId":"156281074"}}},{"Relevance":1.0,"Distance":88.9,"MatchLevel":"houseNumber","MatchQuality":{"Country":1.0,"State":1.0,"County":1.0,"City":1.0,"Street":[1.0],"HouseNumber":1.0,"PostalCode":1.0},"MatchType":"interpolated","Location":{"LocationId":"NT_P78tl47xJc019xku.hUL0D_xcD","LocationType":"point","DisplayPosition":{"Latitude":42.77779,"Longitude":-7.4103},"MapView":{"TopLeft":{"Latitude":42.7789142,"Longitude":-7.4118316},"BottomRight":{"Latitude":42.7766658,"Longitude":-7.4087684}},"Address":{"Label":"Rúa do Toleiro, 17, 27619 Sarria (Lugo), España","Country":"ESP","State":"Galicia","County":"Lugo","City":"Sarria","Street":"Rúa do Toleiro","HouseNumber":"17","PostalCode":"27619","AdditionalData":[{"value":"España","key":"CountryName"},{"value":"Galicia","key":"StateName"},{"value":"Lugo","key":"CountyName"}]},"MapReference":{"ReferenceId":"570264313","Spot":0.09,"SideOfStreet":"left","CountryId":"20215059","StateId":"20226791","CountyId":"20226793","CityId":"20324095","AddressId":"351080989","RoadLinkId":"68117117"}}},{"Relevance":1.0,"Distance":105.1,"MatchLevel":"houseNumber","MatchQuality":{"Country":1.0,"State":1.0,"County":1.0,"City":1.0,"Street":[1.0],"HouseNumber":1.0,"PostalCode":1.0},"MatchType":"interpolated","Location":{"LocationId":"NT_eHQ2ygrRm7SOvZwQBTKG7C_l_82433345_R_xAD","LocationType":"point","DisplayPosition":{"Latitude":42.7760366,"Longitude":-7.4110873},"MapView":{"TopLeft":{"Latitude":42.7771608,"Longitude":-7.4126188},"BottomRight":{"Latitude":42.7749125,"Longitude":-7.4095558}},"Address":{"Label":"Ponte Ribeira, 10, 27600 Sarria (Lugo), España","Country":"ESP","State":"Galicia","County":"Lugo","City":"Sarria","Street":"Ponte Ribeira","HouseNumber":"10","PostalCode":"27600","AdditionalData":[{"value":"España","key":"CountryName"},{"value":"Galicia","key":"StateName"},{"value":"Lugo","key":"CountyName"}]},"MapReference":{"ReferenceId":"82433345","Spot":0.64,"SideOfStreet":"right","CountryId":"20215059","StateId":"20226791","CountyId":"20226793","CityId":"20324095"}}},{"Relevance":1.0,"Distance":107.9,"MatchLevel":"houseNumber","MatchQuality":{"Country":1.0,"State":1.0,"County":1.0,"City":1.0,"Street":[1.0],"HouseNumber":1.0,"PostalCode":1.0},"MatchType":"interpolated","Location":{"LocationId":"NT_EhOrCWLXSxGIbEVuSYikzA_xAD","LocationType":"point","DisplayPosition":{"Latitude":42.77791,"Longitude":-7.41121},"MapView":{"TopLeft":{"Latitude":42.7790342,"Longitude":-7.4127416},"BottomRight":{"Latitude":42.7767858,"Longitude":-7.4096784}},"Address":{"Label":"Rúa do Toleiro, 10, 27600 Sarria (Lugo), España","Country":"ESP","State":"Galicia","County":"Lugo","City":"Sarria","Street":"Rúa do Toleiro","HouseNumber":"10","PostalCode":"27600","AdditionalData":[{"value":"España","key":"CountryName"},{"value":"Galicia","key":"StateName"},{"value":"Lugo","key":"CountyName"}]},"MapReference":{"ReferenceId":"82433300","Spot":0.15,"SideOfStreet":"left","CountryId":"20215059","StateId":"20226791","CountyId":"20226793","CityId":"20324095","AddressId":"351094688","RoadLinkId":"67889277"}}}]}]}}