{"Response":{"MetaInfo":{"Timestamp":"2020-03-28T09:40:41.618+0000","NextPageInformation":"2"},"View":[{"_type":"SearchResultsViewType","ViewId":0,"Result":[{"Relevance":1.0,"Distance":0.0,"Direction":0.0,"MatchLevel":"city","MatchQuality":{"Country":1.0,"State":1.0,"County":1.0,"City":1.0,"PostalCode":1.0},"Location":{"LocationId":"NT_pfbHNJtTjxQP2rjQlBUWYA","LocationType":"point","DisplayPosition":{"Latitude":42.8507457,"Longitude":-2.3907098},"MapView":{"TopLeft":{"Latitude":42.89615,"Longitude":-2.42794},"BottomRight":{"Latitude":42.80412,"Longitude":-2.33159}},"Address":{"Label":"Salvatierra, País Vasco, España","Country":"ESP","State":"País Vasco","County":"Álava","City":"Salvatierra","PostalCode":"01200","AdditionalData":[{"value":"España","key":"CountryName"},{"value":"País Vasco","key":"StateName"},{"value":"Álava","key":"CountyName"}]},"MapReference":{"ReferenceId":"551549033","SideOfStreet":"neither","CountryId":"20215059","StateId":"20226804","CountyId":"20226805","CityId":"20285358"}}},{"Relevance":1.0,"Distance":19.0,"MatchLevel":"houseNumber","MatchQuality":{"Country":1.0,"State":1.0,"County":1.0,"City":1.0,"Street":[1.0],"HouseNumber":1.0,"PostalCode":1.0},"MatchType":"interpolated","Location":{"LocationId":"NT_vUXKrKXzPKmmifl1GMwQxD_xA","LocationType":"point","DisplayPosition":{"Latitude":42.85098,"Longitude":-2.39082},"MapView":{"TopLeft":{"Latitude":42.8521042,"Longitude":-2.3923534},"BottomRight":{"Latitude":42.8498558,"Longitude":-2.3892866}},"Address":{"Label":"Calle Aniturri, 1, 01200 Salvatierra (Álava), España","Country":"ESP","State":"País Vasco","County":"Álava","City":"Salvatierra","Street":"Calle Aniturri","HouseNumber":"1","PostalCode":"01200","AdditionalData":[{"value":"España","key":"CountryName"},{"value":"País Vasco","key":"StateName"},{"value":"Álava","key":"CountyName"}]},"MapReference":{"ReferenceId":"82178853","Spot":0.47,"SideOfStreet":"right","CountryId":"20215059","StateId":"20226804","CountyId":"20226805","CityId":"20285358","AddressId":"367791513","RoadLinkId":"68990837"}}},{"Relevance":1.0,"Distance":26.6,"MatchLevel":"street","MatchQuality":{"Country":1.0,"State":1.0,"County":1.0,"City":1.0,"Street":[1.0],"PostalCode":1.0},"Location":{"LocationId":"NT_.0ntz992-n.Y7k5FnaW24C_l_1033667697_L","LocationType":"point","DisplayPosition":{"Latitude":42.85089,"Longitude":-2.39045},"MapView":{"TopLeft":{"Latitude":42.85103,"Longitude":-2.39045},"BottomRight":{"Latitude":42.85089,"Longitude":-2.39044}},"Address":{"Label":"Carretera de Zuazo, 01200 Salvatierra (Álava), España","Country":"ESP","State":"País Vasco","County":"Álava","City":"Salvatierra","Street":"Carretera de Zuazo","PostalCode":"01200","AdditionalData":[{"value":"España","key":"CountryName"},{"value":"País Vasco","key":"StateName"},{"value":"Álava","key":"CountyName"}]},"MapReference":{"ReferenceId":"1033667697","Spot":0.0,"SideOfStreet":"left","CountryId":"20215059","StateId":"20226804","CountyId":"20226805","CityId":"20285358"}}},{"Relevance":1.0,"Distance":33.2,"MatchLevel":"street","MatchQuality":{"Country":1.0,"State":1.0,"County":1.0,"City":1.0,"Street":[1.0],"PostalCode":1.0},"Location":{"LocationId":"NT_vUXKrKXzPKmmifl1GMwQxD_l_82180731_R","LocationType":"point","DisplayPosition":{"Latitude":42.850662,"Longitude":-2.3911004},"MapView":{"TopLeft":{"Latitude":42.85094,"Longitude":-2.39116},"BottomRight":{"Latitude":42.85052,"Longitude":-2.39107}},"Address":{"Label":"Calle Aniturri, 01200 Salvatierra (Álava), España","Country":"ESP","State":"País Vasco","County":"Álava","City":"Salvatierra","Street":"Calle Aniturri","PostalCode":"01200","AdditionalData":[{"value":"España","key":"CountryName"},{"value":"País Vasco","key":"StateName"},{"value":"Álava","key":"CountyName"}]},"MapReference":{"ReferenceId":"82180731","Spot":0.34,"SideOfStreet":"right","CountryId":"20215059","StateId":"20226804","CountyId":"20226805","CityId":"20285358"}}},{"Relevance":1.0,"Distance":35.7,"MatchLevel":"street","MatchQuality":{"Country":1.0,"State":1.0,"County":1.0,"City":1.0,"PostalCode":1.0},"Location":{"LocationId":"NT_cZDoVcmLYiwctzV9dL4E8D_l_1191507293_L","LocationType":"point","DisplayPosition":{"Latitude":42.8506,"Longitude":-2.39032},"MapView":{"TopLeft":{"Latitude":42.85109,"Longitude":-2.39035},"BottomRight":{"Latitude":42.84938,"Longitude":-2.38886}},"Address":{"Label":"01200 Salvatierra (Álava), España","Country":"ESP","State":"País Vasco","County":"Álava","City":"Salvatierra","PostalCode":"01200","AdditionalData":[{"value":"España","key":"CountryName"},{"value":"País Vasco","key":"StateName"},{"value":"Álava","key":"CountyName"}]},"MapReference":{"ReferenceId":"1191507293","Spot":0.8,"SideOfStreet":"left","CountryId":"20215059","StateId":"20226804","CountyId":"20226805","CityId":"20285358"}}},{"Relevance":1.0,"Distance":38.5,"MatchLevel":"street","MatchQuality":{"Country":1.0,"State":1.0,"County":1.0,"City":1.0,"Street":[1.0],"PostalCode":1.0},"Location":{"LocationId":"NT_bLw4tLUXQp21VDwXlRtRYD_l_82177933_L","LocationType":"point","DisplayPosition":{"Latitude":42.85103,"Longitude":-2.39044},"MapView":{"TopLeft":{"Latitude":42.85109,"Longitude":-2.39044},"BottomRight":{"Latitude":42.85103,"Longitude":-2.39044}},"Address":{"Label":"Carretera de Zuazo, 01200 Salvatierra (Álava), España","Country":"ESP","State":"País Vasco","County":"Álava","City":"Salvatierra","Street":"Carretera de Zuazo","PostalCode":"01200","AdditionalData":[{"value":"España","key":"CountryName"},{"value":"País Vasco","key":"StateName"},{"value":"Álava","key":"CountyName"}]},"MapReference":{"ReferenceId":"82177933","Spot":0.0,"SideOfStreet":"left","CountryId":"20215059","StateId":"20226804","CountyId":"20226805","CityId":"20285358"}}},{"Relevance":1.0,"Distance":42.6,"MatchLevel":"street","MatchQuality":{"Country":1.0,"State":1.0,"County":1.0,"City":1.0,"Street":[1.0],"PostalCode":1.0},"Location":{"LocationId":"NT_vUXKrKXzPKmmifl1GMwQxD_l_551549036_R","LocationType":"point","DisplayPosition":{"Latitude":42.85094,"Longitude":-2.39116},"MapView":{"TopLeft":{"Latitude":42.85094,"Longitude":-2.39165},"BottomRight":{"Latitude":42.85092,"Longitude":-2.39116}},"Address":{"Label":"Calle Aniturri, 01200 Salvatierra (Álava), España","Country":"ESP","State":"País Vasco","County":"Álava","City":"Salvatierra","Street":"Calle Aniturri","PostalCode":"01200","AdditionalData":[{"value":"España","key":"CountryName"},{"value":"País Vasco","key":"StateName"},{"value":"Álava","key":"CountyName"}]},"MapReference":{"ReferenceId":"551549036","Spot":1.0,"SideOfStreet":"right","CountryId":"20215059","StateId":"20226804","CountyId":"20226805","CityId":"20285358"}}},{"Relevance":1.0,"Distance":44.2,"MatchLevel":"street","MatchQuality":{"Country":1.0,"State":1.0,"County":1.0,"City":1.0,"Street":[1.0],"PostalCode":1.0},"Location":{"LocationId":"NT_.0ntz992-n.Y7k5FnaW24C_l_82177934_L","LocationType":"point","DisplayPosition":{"Latitude":42.85109,"Longitude":-2.39044},"MapView":{"TopLeft":{"Latitude":42.85188,"Longitude":-2.39057},"BottomRight":{"Latitude":42.85109,"Longitude":-2.39044}},"Address":{"Label":"Carretera de Zuazo, 01200 Salvatierra (Álava), España","Country":"ESP","State":"País Vasco","County":"Álava","City":"Salvatierra","Street":"Carretera de Zuazo","PostalCode":"01200","AdditionalData":[{"value":"España","key":"CountryName"},{"value":"País Vasco","key":"StateName"},{"value":"Álava","key":"CountyName"}]},"MapReference":{"ReferenceId":"82177934","Spot":0.0,"SideOfStreet":"left","CountryId":"20215059","StateId":"20226804","CountyId":"20226805","CityId":"20285358"}}},{"Relevance":1.0,"Distance":44.2,"MatchLevel":"street","MatchQuality":{"Country":1.0,"State":1.0,"County":1.0,"City":1.0,"Street":[1.0],"PostalCode":1.0},"Location":{"LocationId":"NT_E30pKNb8uuT5AFyw8eWRGA_l_1191507295_R","LocationType":"point","DisplayPosition":{"Latitude":42.85109,"Longitude":-2.39044},"MapView":{"TopLeft":{"Latitude":42.85109,"Longitude":-2.39044},"BottomRight":{"Latitude":42.85109,"Longitude":-2.39026}},"Address":{"Label":"Calle Zapatari, 01200 Salvatierra (Álava), España","Country":"ESP","State":"País Vasco","County":"Álava","City":"Salvatierra","Street":"Calle Zapatari","PostalCode":"01200","AdditionalData":[{"value":"España","key":"CountryName"},{"value":"País Vasco","key":"StateName"},{"value":"Álava","key":"CountyName"}]},"MapReference":{"ReferenceId":"1191507295","Spot":0.0,"SideOfStreet":"right","CountryId":"20215059","StateId":"20226804","CountyId":"20226805","CityId":"20285358"}}},{"Relevance":1.0,"Distance":46.2,"MatchLevel":"street","MatchQuality":{"Country":1.0,"State":1.0,"County":1.0,"City":1.0,"Street":[1.0],"PostalCode":1.0},"Location":{"LocationId":"NT_ook8eoAPq407k0uEXjMyUA_l_82180880_R","LocationType":"point","DisplayPosition":{"Latitude":42.85055,"Longitude":-2.39021},"MapView":{"TopLeft":{"Latitude":42.85055,"Longitude":-2.39021},"BottomRight":{"Latitude":42.85054,"Longitude":-2.38998}},"Address":{"Label":"Plaza Ayuntamiento, 01200 Salvatierra (Álava), España","Country":"ESP","State":"País Vasco","County":"Álava","City":"Salvatierra","Street":"Plaza Ayuntamiento","PostalCode":"01200","AdditionalData":[{"value":"España","key":"CountryName"},{"value":"País Vasco","key":"StateName"},{"value":"Álava","key":"CountyName"}]},"MapReference":{"ReferenceId":"82180880","Spot":1.0,"SideOfStreet":"right","CountryId":"20215059","StateId":"20226804","CountyId":"20226805","CityId":"20285358"}}}]}]}}