{"Response":{"MetaInfo":{"Timestamp":"2020-03-28T09:44:08.684+0000","NextPageInformation":"2"},"View":[{"_type":"SearchResultsViewType","ViewId":0,"Result":[{"Relevance":1.0,"Distance":0.0,"Direction":0.0,"MatchLevel":"district","MatchQuality":{"Country":1.0,"State":1.0,"County":1.0,"City":1.0,"District":1.0,"PostalCode":1.0},"Location":{"LocationId":"NT_fLqO7VIcMnzS3.qvtzDVLD","LocationType":"point","DisplayPosition":{"Latitude":42.8446026,"Longitude":-8.5779399},"MapView":{"TopLeft":{"Latitude":42.85541,"Longitude":-8.58727},"BottomRight":{"Latitude":42.83966,"Longitude":-8.57372}},"Address":{"Label":"O Milladoiro, Ames, Galicia, España","Country":"ESP","State":"Galicia","County":"A Coruña","City":"Ames","District":"O Milladoiro","PostalCode":"15895","AdditionalData":[{"value":"España","key":"CountryName"},{"value":"Galicia","key":"StateName"},{"value":"A Coruña","key":"CountyName"}]},"MapReference":{"ReferenceId":"545823908","SideOfStreet":"neither","CountryId":"20215059","StateId":"20226791","CountyId":"20226792","CityId":"20322077","DistrictId":"20322479"}}},{"Relevance":1.0,"Distance":18.8,"MatchLevel":"street","MatchQuality":{"Country":1.0,"State":1.0,"County":1.0,"City":1.0,"District":1.0,"Street":[1.0],"PostalCode":1.0},"Location":{"LocationId":"NT_FUciPMVkEMAe9u.bDQKdMB_l_592107887_L","LocationType":"point","DisplayPosition":{"Latitude":42.84459,"Longitude":-8.57771},"MapView":{"TopLeft":{"Latitude":42.8451,"Longitude":-8.57771},"BottomRight":{"Latitude":42.8443,"Longitude":-8.57682}},"Address":{"Label":"Milladorio, 15895 Ames (A Coruña), España","Country":"ESP","State":"Galicia","County":"A Coruña","City":"Ames","District":"O Milladoiro","Street":"Milladorio","PostalCode":"15895","AdditionalData":[{"value":"España","key":"CountryName"},{"value":"Galicia","key":"StateName"},{"value":"A Coruña","key":"CountyName"}]},"MapReference":{"ReferenceId":"592107887","Spot":0.65,"SideOfStreet":"left","CountryId":"20215059","StateId":"20226791","CountyId":"20226792","CityId":"20322077","DistrictId":"20322479"}}},{"Relevance":1.0,"Distance":21.2,"MatchLevel":"houseNumber","MatchQuality":{"Country":1.0,"State":1.0,"County":1.0,"City":1.0,"District":1.0,"Street":[1.0],"HouseNumber":1.0,"PostalCode":1.0},"MatchType":"interpolated","Location":{"LocationId":"NT_KlZK-R1ye4fP7Gzoz0zpVC_xID","LocationType":"point","DisplayPosition":{"Latitude":42.8448,"Longitude":-8.57812},"MapView":{"TopLeft":{"Latitude":42.8459242,"Longitude":-8.5796532},"BottomRight":{"Latitude":42.8436758,"Longitude":-8.5765868}},"Address":{"Label":"Rúa Agro do Medio, 12, 15895 Ames (A Coruña), España","Country":"ESP","State":"Galicia","County":"A Coruña","City":"Ames","District":"O Milladoiro","Street":"Rúa Agro do Medio","HouseNumber":"12","PostalCode":"15895","AdditionalData":[{"value":"España","key":"CountryName"},{"value":"Galicia","key":"StateName"},{"value":"A Coruña","key":"CountyName"}]},"MapReference":{"ReferenceId":"1206748339","Spot":0.48,"SideOfStreet":"right","CountryId":"20215059","StateId":"20226791","CountyId":"20226792","CityId":"20322077","DistrictId":"20322479","AddressId":"351006151","RoadLinkId":"520760313"}}},{"Relevance":1.0,"Distance":57.0,"MatchLevel":"houseNumber","MatchQuality":{"Country":1.0,"State":1.0,"County":1.0,"City":1.0,"District":1.0,"Street":[1.0],"HouseNumber":1.0,"PostalCode":1.0},"MatchType":"interpolated","Location":{"LocationId":"NT_MuRHQEG3WTNTDrQDokNdlB_1gDR","LocationType":"point","DisplayPosition":{"Latitude":42.84423,"Longitude":-8.57843},"MapView":{"TopLeft":{"Latitude":42.8453542,"Longitude":-8.5799632},"BottomRight":{"Latitude":42.8431058,"Longitude":-8.5768968}},"Address":{"Label":"Rúa Agro da Madalena, 58D, 15895 Ames (A Coruña), España","Country":"ESP","State":"Galicia","County":"A Coruña","City":"Ames","District":"O Milladoiro","Street":"Rúa Agro da Madalena","HouseNumber":"58D","PostalCode":"15895","AdditionalData":[{"value":"España","key":"CountryName"},{"value":"Galicia","key":"StateName"},{"value":"A Coruña","key":"CountyName"}]},"MapReference":{"ReferenceId":"592107834","Spot":0.57,"SideOfStreet":"right","CountryId":"20215059","StateId":"20226791","CountyId":"20226792","CityId":"20322077","DistrictId":"20322479","AddressId":"351009098","RoadLinkId":"68113029"}}},{"Relevance":1.0,"Distance":58.5,"MatchLevel":"houseNumber","MatchQuality":{"Country":1.0,"State":1.0,"County":1.0,"City":1.0,"District":1.0,"Street":[1.0],"HouseNumber":1.0,"PostalCode":1.0},"MatchType":"interpolated","Location":{"LocationId":"NT_KlZK-R1ye4fP7Gzoz0zpVC_2A","LocationType":"point","DisplayPosition":{"Latitude":42.84405,"Longitude":-8.57791},"MapView":{"TopLeft":{"Latitude":42.8451742,"Longitude":-8.5794432},"BottomRight":{"Latitude":42.8429258,"Longitude":-8.5763768}},"Address":{"Label":"Rúa Agro do Medio, 6, 15895 Ames (A Coruña), España","Country":"ESP","State":"Galicia","County":"A Coruña","City":"Ames","District":"O Milladoiro","Street":"Rúa Agro do Medio","HouseNumber":"6","PostalCode":"15895","AdditionalData":[{"value":"España","key":"CountryName"},{"value":"Galicia","key":"StateName"},{"value":"A Coruña","key":"CountyName"}]},"MapReference":{"ReferenceId":"545824036","Spot":0.08,"SideOfStreet":"right","CountryId":"20215059","StateId":"20226791","CountyId":"20226792","CityId":"20322077","DistrictId":"20322479","AddressId":"778587805","RoadLinkId":"68480351"}}},{"Relevance":1.0,"Distance":61.3,"MatchLevel":"houseNumber","MatchQuality":{"Country":1.0,"State":1.0,"County":1.0,"City":1.0,"District":1.0,"Street":[1.0],"HouseNumber":1.0,"PostalCode":1.0},"MatchType":"interpolated","Location":{"LocationId":"NT_QsI4qV51hyCBiEAj6iCw9A_zA","LocationType":"point","DisplayPosition":{"Latitude":42.84521,"Longitude":-8.5777},"MapView":{"TopLeft":{"Latitude":42.8463342,"Longitude":-8.5792332},"BottomRight":{"Latitude":42.8440858,"Longitude":-8.5761668}},"Address":{"Label":"Rúa Cruxa, 3, 15895 Ames (A Coruña), España","Country":"ESP","State":"Galicia","County":"A Coruña","City":"Ames","District":"O Milladoiro","Street":"Rúa Cruxa","HouseNumber":"3","PostalCode":"15895","AdditionalData":[{"value":"España","key":"CountryName"},{"value":"Galicia","key":"StateName"},{"value":"A Coruña","key":"CountyName"}]},"MapReference":{"ReferenceId":"545824031","Spot":0.43,"SideOfStreet":"left","CountryId":"20215059","StateId":"20226791","CountyId":"20226792","CityId":"20322077","DistrictId":"20322479","AddressId":"350987894","RoadLinkId":"67870027"}}},{"Relevance":1.0,"Distance":65.0,"MatchLevel":"street","MatchQuality":{"Country":1.0,"State":1.0,"County":1.0,"City":1.0,"District":1.0,"Street":[1.0],"PostalCode":1.0},"Location":{"LocationId":"NT_FUciPMVkEMAe9u.bDQKdMB_l_545824021_L","LocationType":"point","DisplayPosition":{"Latitude":42.84402,"Longitude":-8.57788},"MapView":{"TopLeft":{"Latitude":42.84402,"Longitude":-8.57823},"BottomRight":{"Latitude":42.84371,"Longitude":-8.57788}},"Address":{"Label":"Milladorio, 15895 Ames (A Coruña), España","Country":"ESP","State":"Galicia","County":"A Coruña","City":"Ames","District":"O Milladoiro","Street":"Milladorio","PostalCode":"15895","AdditionalData":[{"value":"España","key":"CountryName"},{"value":"Galicia","key":"StateName"},{"value":"A Coruña","key":"CountyName"}]},"MapReference":{"ReferenceId":"545824021","Spot":1.0,"SideOfStreet":"left","CountryId":"20215059","StateId":"20226791","CountyId":"20226792","CityId":"20322077","DistrictId":"20322479"}}},{"Relevance":1.0,"Distance":66.2,"MatchLevel":"street","MatchQuality":{"Country":1.0,"State":1.0,"County":1.0,"City":1.0,"District":1.0,"Street":[1.0],"PostalCode":1.0},"Location":{"LocationId":"NT_KlZK-R1ye4fP7Gzoz0zpVC_l_1206748340_R","LocationType":"point","DisplayPosition":{"Latitude":42.84519,"Longitude":-8.57807},"MapView":{"TopLeft":{"Latitude":42.84537,"Longitude":-8.57807},"BottomRight":{"Latitude":42.84519,"Longitude":-8.57804}},"Address":{"Label":"Rúa Agro do Medio, 15895 Ames (A Coruña), España","Country":"ESP","State":"Galicia","County":"A Coruña","City":"Ames","District":"O Milladoiro","Street":"Rúa Agro do Medio","PostalCode":"15895","AdditionalData":[{"value":"España","key":"CountryName"},{"value":"Galicia","key":"StateName"},{"value":"A Coruña","key":"CountyName"}]},"MapReference":{"ReferenceId":"1206748340","Spot":0.0,"SideOfStreet":"right","CountryId":"20215059","StateId":"20226791","CountyId":"20226792","CityId":"20322077","DistrictId":"20322479"}}},{"Relevance":1.0,"Distance":69.3,"MatchLevel":"houseNumber","MatchQuality":{"Country":1.0,"State":1.0,"County":1.0,"City":1.0,"District":1.0,"Street":[1.0],"HouseNumber":1.0,"PostalCode":1.0},"MatchType":"interpolated","Location":{"LocationId":"NT_QsI4qV51hyCBiEAj6iCw9A_zQD","LocationType":"point","DisplayPosition":{"Latitude":42.84494,"Longitude":-8.57708},"MapView":{"TopLeft":{"Latitude":42.8460642,"Longitude":-8.5786132},"BottomRight":{"Latitude":42.8438158,"Longitude":-8.5755468}},"Address":{"Label":"Rúa Cruxa, 34, 15895 Ames (A Coruña), España","Country":"ESP","State":"Galicia","County":"A Coruña","City":"Ames","District":"O Milladoiro","Street":"Rúa Cruxa","HouseNumber":"34","PostalCode":"15895","AdditionalData":[{"value":"España","key":"CountryName"},{"value":"Galicia","key":"StateName"},{"value":"A Coruña","key":"CountyName"}]},"MapReference":{"ReferenceId":"545824022","Spot":0.61,"SideOfStreet":"left","CountryId":"20215059","StateId":"20226791","CountyId":"20226792","CityId":"20322077","DistrictId":"20322479","AddressId":"351016682","RoadLinkId":"68740081"}}},{"Relevance":1.0,"Distance":77.1,"MatchLevel":"houseNumber","MatchQuality":{"Country":1.0,"State":1.0,"County":1.0,"City":1.0,"District":1.0,"Street":[1.0],"HouseNumber":1.0,"PostalCode":1.0},"MatchType":"interpolated","Location":{"LocationId":"NT_sqtWs-rLpKZoognsww9c6B_zYD","LocationType":"point","DisplayPosition":{"Latitude":42.84413,"Longitude":-8.57695},"MapView":{"TopLeft":{"Latitude":42.8452542,"Longitude":-8.5784832},"BottomRight":{"Latitude":42.8430058,"Longitude":-8.5754168}},"Address":{"Label":"Avenida de Rosalía de Castro, 36, 15895 Ames (A Coruña), España","Country":"ESP","State":"Galicia","County":"A Coruña","City":"Ames","District":"O Milladoiro","Street":"Avenida de Rosalía de Castro","HouseNumber":"36","PostalCode":"15895","AdditionalData":[{"value":"España","key":"CountryName"},{"value":"Galicia","key":"StateName"},{"value":"A Coruña","key":"CountyName"}]},"MapReference":{"ReferenceId":"956567097","Spot":0.7,"SideOfStreet":"left","CountryId":"20215059","StateId":"20226791","CountyId":"20226792","CityId":"20322077","DistrictId":"20322479","AddressId":"351090142","RoadLinkId":"299510233"}}}]}]}}