{"Response":{"MetaInfo":{"Timestamp":"2020-03-28T10:06:29.193+0000","NextPageInformation":"2"},"View":[{"_type":"SearchResultsViewType","ViewId":0,"Result":[{"Relevance":1.0,"Distance":0.0,"Direction":0.0,"MatchLevel":"district","MatchQuality":{"Country":1.0,"State":1.0,"County":1.0,"City":1.0,"District":1.0,"PostalCode":1.0},"Location":{"LocationId":"NT_aqz5JO1f90N8UirnwZkWbD","LocationType":"point","DisplayPosition":{"Latitude":42.8283762,"Longitude":2.9184923},"MapView":{"TopLeft":{"Latitude":42.84095,"Longitude":2.89886},"BottomRight":{"Latitude":42.81397,"Longitude":2.93564}},"Address":{"Label":"Parets d'en Marcie, Salses-le-Château, Occitanie, France","Country":"FRA","State":"Occitanie","County":"Pyrénées-Orientales","City":"Salses-le-Château","District":"Parets d'en Marcie","PostalCode":"66600","AdditionalData":[{"value":"France","key":"CountryName"},{"value":"Occitanie","key":"StateName"},{"value":"Pyrénées-Orientales","key":"CountyName"}]},"MapReference":{"ReferenceId":"579571243","SideOfStreet":"neither","CountryId":"20000001","StateId":"20050212","CountyId":"20107629","CityId":"20108186"}}},{"Relevance":1.0,"Distance":21.0,"MatchLevel":"houseNumber","MatchQuality":{"Country":1.0,"State":1.0,"County":1.0,"City":1.0,"Street":[1.0],"HouseNumber":1.0,"PostalCode":1.0},"MatchType":"interpolated","Location":{"LocationId":"NT_foHLoeuECQGgawr6n01WJB_xA","LocationType":"point","DisplayPosition":{"Latitude":42.82845,"Longitude":2.91873},"MapView":{"TopLeft":{"Latitude":42.8295742,"Longitude":2.9171972},"BottomRight":{"Latitude":42.8273258,"Longitude":2.9202628}},"Address":{"Label":"1 Impasse des Lauriers, 66600 Salses-le-Château, France","Country":"FRA","State":"Occitanie","County":"Pyrénées-Orientales","City":"Salses-le-Château","Street":"Impasse des Lauriers","HouseNumber":"1","PostalCode":"66600","AdditionalData":[{"value":"France","key":"CountryName"},{"value":"Occitanie","key":"StateName"},{"value":"Pyrénées-Orientales","key":"CountyName"}]},"MapReference":{"ReferenceId":"579571123","Spot":0.59,"SideOfStreet":"left","CountryId":"20000001","StateId":"20050212","CountyId":"20107629","CityId":"20108186","AddressId":"571217921","RoadLinkId":"50758037"}}},{"Relevance":1.0,"Distance":25.2,"MatchLevel":"houseNumber","MatchQuality":{"Country":1.0,"State":1.0,"County":1.0,"City":1.0,"Street":[1.0],"HouseNumber":1.0,"PostalCode":1.0},"MatchType":"interpolated","Location":{"LocationId":"NT_WqIvCGRS3Tgm42SRLNjywB_xID","LocationType":"point","DisplayPosition":{"Latitude":42.82861,"Longitude":2.9184},"MapView":{"TopLeft":{"Latitude":42.8297342,"Longitude":2.9168672},"BottomRight":{"Latitude":42.8274858,"Longitude":2.9199328}},"Address":{"Label":"12 Avenue de Catalogne, 66600 Salses-le-Château, France","Country":"FRA","State":"Occitanie","County":"Pyrénées-Orientales","City":"Salses-le-Château","Street":"Avenue de Catalogne","HouseNumber":"12","PostalCode":"66600","AdditionalData":[{"value":"France","key":"CountryName"},{"value":"Occitanie","key":"StateName"},{"value":"Pyrénées-Orientales","key":"CountyName"}]},"MapReference":{"ReferenceId":"579571174","Spot":0.2,"SideOfStreet":"right","CountryId":"20000001","StateId":"20050212","CountyId":"20107629","CityId":"20108186","AddressId":"371101251","RoadLinkId":"50977322"}}},{"Relevance":1.0,"Distance":34.5,"MatchLevel":"houseNumber","MatchQuality":{"Country":1.0,"State":1.0,"County":1.0,"City":1.0,"Street":[1.0],"HouseNumber":1.0,"PostalCode":1.0},"MatchType":"interpolated","Location":{"LocationId":"NT_WqIvCGRS3Tgm42SRLNjywB_xIjQ","LocationType":"point","DisplayPosition":{"Latitude":42.82811,"Longitude":2.91825},"MapView":{"TopLeft":{"Latitude":42.8292342,"Longitude":2.9167172},"BottomRight":{"Latitude":42.8269858,"Longitude":2.9197828}},"Address":{"Label":"12B Avenue de Catalogne, 66600 Salses-le-Château, France","Country":"FRA","State":"Occitanie","County":"Pyrénées-Orientales","City":"Salses-le-Château","Street":"Avenue de Catalogne","HouseNumber":"12B","PostalCode":"66600","AdditionalData":[{"value":"France","key":"CountryName"},{"value":"Occitanie","key":"StateName"},{"value":"Pyrénées-Orientales","key":"CountyName"}]},"MapReference":{"ReferenceId":"579571124","Spot":0.63,"SideOfStreet":"right","CountryId":"20000001","StateId":"20050212","CountyId":"20107629","CityId":"20108186","AddressId":"571175719","RoadLinkId":"50558385"}}},{"Relevance":1.0,"Distance":90.8,"MatchLevel":"houseNumber","MatchQuality":{"Country":1.0,"State":1.0,"County":1.0,"City":1.0,"Street":[1.0],"HouseNumber":1.0,"PostalCode":1.0},"MatchType":"interpolated","Location":{"LocationId":"NT_QoO2Lq-LJIsU3jvlDJ6UzA_xED","LocationType":"point","DisplayPosition":{"Latitude":42.82755,"Longitude":2.91851},"MapView":{"TopLeft":{"Latitude":42.8286742,"Longitude":2.9169772},"BottomRight":{"Latitude":42.8264258,"Longitude":2.9200428}},"Address":{"Label":"11 Rue de Sainte-Colombe, 66600 Salses-le-Château, France","Country":"FRA","State":"Occitanie","County":"Pyrénées-Orientales","City":"Salses-le-Château","Street":"Rue de Sainte-Colombe","HouseNumber":"11","PostalCode":"66600","AdditionalData":[{"value":"France","key":"CountryName"},{"value":"Occitanie","key":"StateName"},{"value":"Pyrénées-Orientales","key":"CountyName"}]},"MapReference":{"ReferenceId":"579571127","Spot":0.72,"SideOfStreet":"right","CountryId":"20000001","StateId":"20050212","CountyId":"20107629","CityId":"20108186","AddressId":"605649562","RoadLinkId":"51349622"}}},{"Relevance":1.0,"Distance":97.8,"MatchLevel":"street","MatchQuality":{"Country":1.0,"State":1.0,"County":1.0,"City":1.0,"Street":[1.0],"PostalCode":1.0},"Location":{"LocationId":"NT_zueqq35rojVdlHBytrQQ5D_l_579571242_R","LocationType":"point","DisplayPosition":{"Latitude":42.82755,"Longitude":2.91808},"MapView":{"TopLeft":{"Latitude":42.82755,"Longitude":2.91805},"BottomRight":{"Latitude":42.82745,"Longitude":2.91808}},"Address":{"Label":"Avenue de Catalogne, 66600 Salses-le-Château, France","Country":"FRA","State":"Occitanie","County":"Pyrénées-Orientales","City":"Salses-le-Château","Street":"Avenue de Catalogne","PostalCode":"66600","AdditionalData":[{"value":"France","key":"CountryName"},{"value":"Occitanie","key":"StateName"},{"value":"Pyrénées-Orientales","key":"CountyName"}]},"MapReference":{"ReferenceId":"579571242","Spot":1.0,"SideOfStreet":"right","CountryId":"20000001","StateId":"20050212","CountyId":"20107629","CityId":"20108186"}}},{"Relevance":1.0,"Distance":104.2,"MatchLevel":"street","MatchQuality":{"Country":1.0,"State":1.0,"County":1.0,"City":1.0,"Street":[1.0],"PostalCode":1.0},"Location":{"LocationId":"NT_WqIvCGRS3Tgm42SRLNjywB_l_929547403_R","LocationType":"point","DisplayPosition":{"Latitude":42.82931,"Longitude":2.9186},"MapView":{"TopLeft":{"Latitude":42.82943,"Longitude":2.9186},"BottomRight":{"Latitude":42.82931,"Longitude":2.91864}},"Address":{"Label":"Avenue de Catalogne, 66600 Salses-le-Château, France","Country":"FRA","State":"Occitanie","County":"Pyrénées-Orientales","City":"Salses-le-Château","Street":"Avenue de Catalogne","PostalCode":"66600","AdditionalData":[{"value":"France","key":"CountryName"},{"value":"Occitanie","key":"StateName"},{"value":"Pyrénées-Orientales","key":"CountyName"}]},"MapReference":{"ReferenceId":"929547403","Spot":0.0,"SideOfStreet":"right","CountryId":"20000001","StateId":"20050212","CountyId":"20107629","CityId":"20108186"}}},{"Relevance":1.0,"Distance":129.6,"MatchLevel":"street","MatchQuality":{"Country":1.0,"State":1.0,"County":1.0,"City":1.0,"Street":[1.0],"PostalCode":1.0},"Location":{"LocationId":"NT_QoO2Lq-LJIsU3jvlDJ6UzA_l_579571131_L","LocationType":"point","DisplayPosition":{"Latitude":42.82754,"Longitude":2.9196},"MapView":{"TopLeft":{"Latitude":42.82767,"Longitude":2.9196},"BottomRight":{"Latitude":42.82754,"Longitude":2.92013}},"Address":{"Label":"Rue de Sainte-Colombe, 66600 Salses-le-Château, France","Country":"FRA","State":"Occitanie","County":"Pyrénées-Orientales","City":"Salses-le-Château","Street":"Rue de Sainte-Colombe","PostalCode":"66600","AdditionalData":[{"value":"France","key":"CountryName"},{"value":"Occitanie","key":"StateName"},{"value":"Pyrénées-Orientales","key":"CountyName"}]},"MapReference":{"ReferenceId":"579571131","Spot":0.0,"SideOfStreet":"left","CountryId":"20000001","StateId":"20050212","CountyId":"20107629","CityId":"20108186"}}},{"Relevance":1.0,"Distance":143.9,"MatchLevel":"houseNumber","MatchQuality":{"Country":1.0,"State":1.0,"County":1.0,"City":1.0,"Street":[1.0],"HouseNumber":1.0,"PostalCode":1.0},"MatchType":"interpolated","Location":{"LocationId":"NT_WqIvCGRS3Tgm42SRLNjywB_yUD","LocationType":"point","DisplayPosition":{"Latitude":42.82966,"Longitude":2.91871},"MapView":{"TopLeft":{"Latitude":42.8307842,"Longitude":2.9171772},"BottomRight":{"Latitude":42.8285358,"Longitude":2.9202428}},"Address":{"Label":"25 Avenue de Catalogne, 66600 Salses-le-Château, France","Country":"FRA","State":"Occitanie","County":"Pyrénées-Orientales","City":"Salses-le-Château","Street":"Avenue de Catalogne","HouseNumber":"25","PostalCode":"66600","AdditionalData":[{"value":"France","key":"CountryName"},{"value":"Occitanie","key":"StateName"},{"value":"Pyrénées-Orientales","key":"CountyName"}]},"MapReference":{"ReferenceId":"929547404","Spot":0.74,"SideOfStreet":"left","CountryId":"20000001","StateId":"20050212","CountyId":"20107629","CityId":"20108186","AddressId":"371151838","RoadLinkId":"283754454"}}},{"Relevance":1.0,"Distance":148.5,"MatchLevel":"houseNumber","MatchQuality":{"Country":1.0,"State":1.0,"County":1.0,"City":1.0,"Street":[1.0],"HouseNumber":1.0,"PostalCode":1.0},"MatchType":"interpolated","Location":{"LocationId":"NT_QTrClvBgRSA2tN9iDhUwMD_xIE","LocationType":"point","DisplayPosition":{"Latitude":42.82746,"Longitude":2.91713},"MapView":{"TopLeft":{"Latitude":42.8285842,"Longitude":2.9155972},"BottomRight":{"Latitude":42.8263358,"Longitude":2.9186628}},"Address":{"Label":"1B Impasse d'En Mardie, 66600 Salses-le-Château, France","Country":"FRA","State":"Occitanie","County":"Pyrénées-Orientales","City":"Salses-le-Château","Street":"Impasse d'En Mardie","HouseNumber":"1B","PostalCode":"66600","AdditionalData":[{"value":"France","key":"CountryName"},{"value":"Occitanie","key":"StateName"},{"value":"Pyrénées-Orientales","key":"CountyName"}]},"MapReference":{"ReferenceId":"579571243","Spot":0.42,"SideOfStreet":"left","CountryId":"20000001","StateId":"20050212","CountyId":"20107629","CityId":"20108186","AddressId":"605655910","RoadLinkId":"160812920"}}}]}]}}