{"Response":{"MetaInfo":{"Timestamp":"2020-03-28T09:38:55.772+0000","NextPageInformation":"2"},"View":[{"_type":"SearchResultsViewType","ViewId":0,"Result":[{"Relevance":1.0,"Distance":-528.1,"MatchLevel":"landmark","MatchQuality":{"Country":1.0,"State":1.0,"County":1.0,"City":1.0,"Street":[1.0],"PostalCode":1.0,"Name":1.0},"Location":{"LocationId":"NT_i11qNC9JhTeOpVwgbaHTkB_p_bjH5Zxe8BTn7rxS.1Zir9C","LocationType":"park","Name":"Espacio Nat. de los Montes Obarenes","DisplayPosition":{"Latitude":42.73654,"Longitude":-3.41138},"MapView":{"TopLeft":{"Latitude":42.82876,"Longitude":-3.45797},"BottomRight":{"Latitude":42.63215,"Longitude":-3.04711}},"Address":{"Label":"BU-V-5203, 09530 Oña (Burgos), España","Country":"ESP","State":"Castilla y León","County":"Burgos","City":"Oña","Street":"BU-V-5203","PostalCode":"09530","AdditionalData":[{"value":"España","key":"CountryName"},{"value":"Castilla y León","key":"StateName"},{"value":"Burgos","key":"CountyName"}]},"MapReference":{"CountryId":"20215059","StateId":"20221909","CountyId":"20221911","CityId":"20303227","PlaceId":"1017581653"}}},{"Relevance":1.0,"Distance":0.0,"Direction":0.0,"MatchLevel":"city","MatchQuality":{"Country":1.0,"State":1.0,"County":1.0,"City":1.0,"PostalCode":1.0},"Location":{"LocationId":"NT_baAw6gZCfWInUukr6yHbhB","LocationType":"point","DisplayPosition":{"Latitude":42.8034562,"Longitude":-3.3905085},"MapView":{"TopLeft":{"Latitude":42.85562,"Longitude":-3.44634},"BottomRight":{"Latitude":42.77749,"Longitude":-3.32644}},"Address":{"Label":"Trespaderne, Castilla y León, España","Country":"ESP","State":"Castilla y León","County":"Burgos","City":"Trespaderne","PostalCode":"09540","AdditionalData":[{"value":"España","key":"CountryName"},{"value":"Castilla y León","key":"StateName"},{"value":"Burgos","key":"CountyName"}]},"MapReference":{"ReferenceId":"82380788","SideOfStreet":"neither","CountryId":"20215059","StateId":"20221909","CountyId":"20221911","CityId":"20303768"}}},{"Relevance":1.0,"Distance":20.8,"MatchLevel":"houseNumber","MatchQuality":{"Country":1.0,"State":1.0,"County":1.0,"City":1.0,"Street":[1.0],"HouseNumber":1.0,"PostalCode":1.0},"MatchType":"interpolated","Location":{"LocationId":"NT_QvlqxPIig9lX3B-2AfgsZB_xMD","LocationType":"point","DisplayPosition":{"Latitude":42.80354,"Longitude":-3.39021},"MapView":{"TopLeft":{"Latitude":42.8046642,"Longitude":-3.3917422},"BottomRight":{"Latitude":42.8024158,"Longitude":-3.3886778}},"Address":{"Label":"Calle Santander, 13, 09540 Trespaderne (Burgos), España","Country":"ESP","State":"Castilla y León","County":"Burgos","City":"Trespaderne","Street":"Calle Santander","HouseNumber":"13","PostalCode":"09540","AdditionalData":[{"value":"España","key":"CountryName"},{"value":"Castilla y León","key":"StateName"},{"value":"Burgos","key":"CountyName"}]},"MapReference":{"ReferenceId":"883811872","Spot":0.2,"SideOfStreet":"left","CountryId":"20215059","StateId":"20221909","CountyId":"20221911","CityId":"20303768","AddressId":"353873783","RoadLinkId":"282530815"}}},{"Relevance":1.0,"Distance":22.7,"MatchLevel":"houseNumber","MatchQuality":{"Country":1.0,"State":1.0,"County":1.0,"City":1.0,"Street":[1.0],"HouseNumber":1.0,"PostalCode":1.0},"MatchType":"interpolated","Location":{"LocationId":"NT_QvlqxPIig9lX3B-2AfgsZB_xED","LocationType":"point","DisplayPosition":{"Latitude":42.80329,"Longitude":-3.39022},"MapView":{"TopLeft":{"Latitude":42.8044142,"Longitude":-3.3917522},"BottomRight":{"Latitude":42.8021658,"Longitude":-3.3886878}},"Address":{"Label":"Calle Santander, 11, 09540 Trespaderne (Burgos), España","Country":"ESP","State":"Castilla y León","County":"Burgos","City":"Trespaderne","Street":"Calle Santander","HouseNumber":"11","PostalCode":"09540","AdditionalData":[{"value":"España","key":"CountryName"},{"value":"Castilla y León","key":"StateName"},{"value":"Burgos","key":"CountyName"}]},"MapReference":{"ReferenceId":"883811871","Spot":0.99,"SideOfStreet":"left","CountryId":"20215059","StateId":"20221909","CountyId":"20221911","CityId":"20303768","AddressId":"353876056","RoadLinkId":"282530816"}}},{"Relevance":1.0,"Distance":45.9,"MatchLevel":"houseNumber","MatchQuality":{"Country":1.0,"State":1.0,"County":1.0,"City":1.0,"Street":[1.0],"HouseNumber":1.0,"PostalCode":1.0},"MatchType":"interpolated","Location":{"LocationId":"NT_mhow06eZULpohV1P9re01D_yID","LocationType":"point","DisplayPosition":{"Latitude":42.80379,"Longitude":-3.39095},"MapView":{"TopLeft":{"Latitude":42.8049142,"Longitude":-3.3924822},"BottomRight":{"Latitude":42.8026658,"Longitude":-3.3894178}},"Address":{"Label":"Calle Las Cuevas, 22, 09540 Trespaderne (Burgos), España","Country":"ESP","State":"Castilla y León","County":"Burgos","City":"Trespaderne","Street":"Calle Las Cuevas","HouseNumber":"22","PostalCode":"09540","AdditionalData":[{"value":"España","key":"CountryName"},{"value":"Castilla y León","key":"StateName"},{"value":"Burgos","key":"CountyName"}]},"MapReference":{"ReferenceId":"570253463","Spot":0.33,"SideOfStreet":"right","CountryId":"20215059","StateId":"20221909","CountyId":"20221911","CityId":"20303768","AddressId":"349404772","RoadLinkId":"68410750"}}},{"Relevance":1.0,"Distance":84.5,"MatchLevel":"houseNumber","MatchQuality":{"Country":1.0,"State":1.0,"County":1.0,"City":1.0,"Street":[1.0],"HouseNumber":1.0,"PostalCode":1.0},"MatchType":"interpolated","Location":{"LocationId":"NT_mhow06eZULpohV1P9re01D_xgD","LocationType":"point","DisplayPosition":{"Latitude":42.80316,"Longitude":-3.39151},"MapView":{"TopLeft":{"Latitude":42.8042842,"Longitude":-3.3930422},"BottomRight":{"Latitude":42.8020358,"Longitude":-3.3899778}},"Address":{"Label":"Calle Las Cuevas, 18, 09540 Trespaderne (Burgos), España","Country":"ESP","State":"Castilla y León","County":"Burgos","City":"Trespaderne","Street":"Calle Las Cuevas","HouseNumber":"18","PostalCode":"09540","AdditionalData":[{"value":"España","key":"CountryName"},{"value":"Castilla y León","key":"StateName"},{"value":"Burgos","key":"CountyName"}]},"MapReference":{"ReferenceId":"570253459","Spot":0.91,"SideOfStreet":"right","CountryId":"20215059","StateId":"20221909","CountyId":"20221911","CityId":"20303768","AddressId":"349283018","RoadLinkId":"68018531"}}},{"Relevance":1.0,"Distance":114.6,"MatchLevel":"houseNumber","MatchQuality":{"Country":1.0,"State":1.0,"County":1.0,"City":1.0,"Street":[1.0],"HouseNumber":1.0,"PostalCode":1.0},"MatchType":"interpolated","Location":{"LocationId":"NT_XJqsx6X5umAN7fgDqzPYrA_5A","LocationType":"point","DisplayPosition":{"Latitude":42.80254,"Longitude":-3.38972},"MapView":{"TopLeft":{"Latitude":42.8036642,"Longitude":-3.3912522},"BottomRight":{"Latitude":42.8014158,"Longitude":-3.3881878}},"Address":{"Label":"Calle Bilbao, 9, 09540 Trespaderne (Burgos), España","Country":"ESP","State":"Castilla y León","County":"Burgos","City":"Trespaderne","Street":"Calle Bilbao","HouseNumber":"9","PostalCode":"09540","AdditionalData":[{"value":"España","key":"CountryName"},{"value":"Castilla y León","key":"StateName"},{"value":"Burgos","key":"CountyName"}]},"MapReference":{"ReferenceId":"570253467","Spot":0.62,"SideOfStreet":"left","CountryId":"20215059","StateId":"20221909","CountyId":"20221911","CityId":"20303768","AddressId":"349292974","RoadLinkId":"68805701"}}},{"Relevance":1.0,"Distance":127.0,"MatchLevel":"houseNumber","MatchQuality":{"Country":1.0,"State":1.0,"County":1.0,"City":1.0,"Street":[1.0],"HouseNumber":1.0,"PostalCode":1.0},"MatchType":"interpolated","Location":{"LocationId":"NT_QvlqxPIig9lX3B-2AfgsZB_yMD","LocationType":"point","DisplayPosition":{"Latitude":42.80458,"Longitude":-3.39016},"MapView":{"TopLeft":{"Latitude":42.8057042,"Longitude":-3.3916922},"BottomRight":{"Latitude":42.8034558,"Longitude":-3.3886278}},"Address":{"Label":"Calle Santander, 23, 09540 Trespaderne (Burgos), España","Country":"ESP","State":"Castilla y León","County":"Burgos","City":"Trespaderne","Street":"Calle Santander","HouseNumber":"23","PostalCode":"09540","AdditionalData":[{"value":"España","key":"CountryName"},{"value":"Castilla y León","key":"StateName"},{"value":"Burgos","key":"CountyName"}]},"MapReference":{"ReferenceId":"883811870","Spot":0.1,"SideOfStreet":"left","CountryId":"20215059","StateId":"20221909","CountyId":"20221911","CityId":"20303768","AddressId":"353877064","RoadLinkId":"282530811"}}},{"Relevance":1.0,"Distance":127.4,"MatchLevel":"houseNumber","MatchQuality":{"Country":1.0,"State":1.0,"County":1.0,"City":1.0,"Street":[1.0],"HouseNumber":1.0,"PostalCode":1.0},"MatchType":"interpolated","Location":{"LocationId":"NT_R751vNFAvYwl6YzNu4QDsD_l_570253137_R_xA","LocationType":"point","DisplayPosition":{"Latitude":42.8022,"Longitude":-3.390335},"MapView":{"TopLeft":{"Latitude":42.8033242,"Longitude":-3.3918672},"BottomRight":{"Latitude":42.8010759,"Longitude":-3.3888028}},"Address":{"Label":"BU-530, 1, 09540 Trespaderne (Burgos), España","Country":"ESP","State":"Castilla y León","County":"Burgos","City":"Trespaderne","Street":"BU-530","HouseNumber":"1","PostalCode":"09540","AdditionalData":[{"value":"España","key":"CountryName"},{"value":"Castilla y León","key":"StateName"},{"value":"Burgos","key":"CountyName"}]},"MapReference":{"ReferenceId":"570253137","Spot":0.5,"SideOfStreet":"right","CountryId":"20215059","StateId":"20221909","CountyId":"20221911","CityId":"20303768"}}},{"Relevance":1.0,"Distance":127.5,"MatchLevel":"houseNumber","MatchQuality":{"Country":1.0,"State":1.0,"County":1.0,"City":1.0,"Street":[1.0],"HouseNumber":1.0,"PostalCode":1.0},"MatchType":"interpolated","Location":{"LocationId":"NT_vh1qW2yQJ9ShZD.gVIl7sC_yEE","LocationType":"point","DisplayPosition":{"Latitude":42.80233,"Longitude":-3.3908},"MapView":{"TopLeft":{"Latitude":42.8034542,"Longitude":-3.3923322},"BottomRight":{"Latitude":42.8012058,"Longitude":-3.3892678}},"Address":{"Label":"Plaza del Crucero, 2A, 09540 Trespaderne (Burgos), España","Country":"ESP","State":"Castilla y León","County":"Burgos","City":"Trespaderne","Street":"Plaza del Crucero","HouseNumber":"2A","PostalCode":"09540","AdditionalData":[{"value":"España","key":"CountryName"},{"value":"Castilla y León","key":"StateName"},{"value":"Burgos","key":"CountyName"}]},"MapReference":{"ReferenceId":"570253456","Spot":0.22,"SideOfStreet":"left","CountryId":"20215059","StateId":"20221909","CountyId":"20221911","CityId":"20303768","AddressId":"349246314","RoadLinkId":"67896319"}}}]}]}}