{"Response":{"MetaInfo":{"Timestamp":"2020-03-28T09:39:20.271+0000","NextPageInformation":"2"},"View":[{"_type":"SearchResultsViewType","ViewId":0,"Result":[{"Relevance":1.0,"Distance":0.0,"Direction":0.0,"MatchLevel":"district","MatchQuality":{"Country":1.0,"State":1.0,"County":1.0,"City":1.0,"District":1.0,"PostalCode":1.0},"Location":{"LocationId":"NT_5t3EGjvgBRO3cM.txz8otB","LocationType":"point","DisplayPosition":{"Latitude":42.9446995,"Longitude":-3.5674137},"MapView":{"TopLeft":{"Latitude":42.94586,"Longitude":-3.58173},"BottomRight":{"Latitude":42.93033,"Longitude":-3.56262}},"Address":{"Label":"Villarcayo, Villarcayo de Merindad de Castilla, Castilla y León, España","Country":"ESP","State":"Castilla y León","County":"Burgos","City":"Villarcayo de Merindad de Castilla","District":"Villarcayo","PostalCode":"09550","AdditionalData":[{"value":"España","key":"CountryName"},{"value":"Castilla y León","key":"StateName"},{"value":"Burgos","key":"CountyName"}]},"MapReference":{"ReferenceId":"539366238","SideOfStreet":"neither","CountryId":"20215059","StateId":"20221909","CountyId":"20221911","CityId":"20304416","DistrictId":"20304475"}}},{"Relevance":1.0,"Distance":42.4,"MatchLevel":"street","MatchQuality":{"Country":1.0,"State":1.0,"County":1.0,"City":1.0,"District":1.0,"Street":[1.0],"PostalCode":1.0},"Location":{"LocationId":"NT_akGZxzcKbRYiiKiRc4D.YC_l_539391412_L","LocationType":"point","DisplayPosition":{"Latitude":42.9450262,"Longitude":-3.5671447},"MapView":{"TopLeft":{"Latitude":42.94536,"Longitude":-3.56755},"BottomRight":{"Latitude":42.94476,"Longitude":-3.56686}},"Address":{"Label":"Residencia La Merindad, 09550 Villarcayo de Merindad de Castilla (Burgos), España","Country":"ESP","State":"Castilla y León","County":"Burgos","City":"Villarcayo de Merindad de Castilla","District":"Villarcayo","Street":"Residencia La Merindad","PostalCode":"09550","AdditionalData":[{"value":"España","key":"CountryName"},{"value":"Castilla y León","key":"StateName"},{"value":"Burgos","key":"CountyName"}]},"MapReference":{"ReferenceId":"539391412","Spot":0.43,"SideOfStreet":"left","CountryId":"20215059","StateId":"20221909","CountyId":"20221911","CityId":"20304416","DistrictId":"20304475"}}},{"Relevance":1.0,"Distance":45.6,"MatchLevel":"street","MatchQuality":{"Country":1.0,"State":1.0,"County":1.0,"City":1.0,"District":1.0,"Street":[1.0],"PostalCode":1.0},"Location":{"LocationId":"NT_akGZxzcKbRYiiKiRc4D.YC_l_1146453597_L","LocationType":"point","DisplayPosition":{"Latitude":42.94476,"Longitude":-3.56686},"MapView":{"TopLeft":{"Latitude":42.94476,"Longitude":-3.56695},"BottomRight":{"Latitude":42.94405,"Longitude":-3.56681}},"Address":{"Label":"Residencia La Merindad, 09550 Villarcayo de Merindad de Castilla (Burgos), España","Country":"ESP","State":"Castilla y León","County":"Burgos","City":"Villarcayo de Merindad de Castilla","District":"Villarcayo","Street":"Residencia La Merindad","PostalCode":"09550","AdditionalData":[{"value":"España","key":"CountryName"},{"value":"Castilla y León","key":"StateName"},{"value":"Burgos","key":"CountyName"}]},"MapReference":{"ReferenceId":"1146453597","Spot":1.0,"SideOfStreet":"left","CountryId":"20215059","StateId":"20221909","CountyId":"20221911","CityId":"20304416","DistrictId":"20304475"}}},{"Relevance":1.0,"Distance":45.6,"MatchLevel":"street","MatchQuality":{"Country":1.0,"State":1.0,"County":1.0,"City":1.0,"District":1.0,"Street":[1.0],"PostalCode":1.0},"Location":{"LocationId":"NT_akGZxzcKbRYiiKiRc4D.YC_l_1146440325_R","LocationType":"point","DisplayPosition":{"Latitude":42.94476,"Longitude":-3.56686},"MapView":{"TopLeft":{"Latitude":42.94477,"Longitude":-3.56686},"BottomRight":{"Latitude":42.94474,"Longitude":-3.56668}},"Address":{"Label":"Residencia La Merindad, 09550 Villarcayo de Merindad de Castilla (Burgos), España","Country":"ESP","State":"Castilla y León","County":"Burgos","City":"Villarcayo de Merindad de Castilla","District":"Villarcayo","Street":"Residencia La Merindad","PostalCode":"09550","AdditionalData":[{"value":"España","key":"CountryName"},{"value":"Castilla y León","key":"StateName"},{"value":"Burgos","key":"CountyName"}]},"MapReference":{"ReferenceId":"1146440325","Spot":1.0,"SideOfStreet":"right","CountryId":"20215059","StateId":"20221909","CountyId":"20221911","CityId":"20304416","DistrictId":"20304475"}}},{"Relevance":1.0,"Distance":59.9,"MatchLevel":"street","MatchQuality":{"Country":1.0,"State":1.0,"County":1.0,"City":1.0,"District":1.0,"Street":[1.0],"PostalCode":1.0},"Location":{"LocationId":"NT_akGZxzcKbRYiiKiRc4D.YC_l_1146440324_L","LocationType":"point","DisplayPosition":{"Latitude":42.94474,"Longitude":-3.56668},"MapView":{"TopLeft":{"Latitude":42.94474,"Longitude":-3.56668},"BottomRight":{"Latitude":42.9447,"Longitude":-3.56652}},"Address":{"Label":"Residencia La Merindad, 09550 Villarcayo de Merindad de Castilla (Burgos), España","Country":"ESP","State":"Castilla y León","County":"Burgos","City":"Villarcayo de Merindad de Castilla","District":"Villarcayo","Street":"Residencia La Merindad","PostalCode":"09550","AdditionalData":[{"value":"España","key":"CountryName"},{"value":"Castilla y León","key":"StateName"},{"value":"Burgos","key":"CountyName"}]},"MapReference":{"ReferenceId":"1146440324","Spot":1.0,"SideOfStreet":"left","CountryId":"20215059","StateId":"20221909","CountyId":"20221911","CityId":"20304416","DistrictId":"20304475"}}},{"Relevance":1.0,"Distance":72.7,"MatchLevel":"street","MatchQuality":{"Country":1.0,"State":1.0,"County":1.0,"City":1.0,"District":1.0,"Street":[1.0],"PostalCode":1.0},"Location":{"LocationId":"NT_vR6CkkGB69OvvvxiFnAuzA_l_539366334_L","LocationType":"point","DisplayPosition":{"Latitude":42.9447,"Longitude":-3.56652},"MapView":{"TopLeft":{"Latitude":42.9447,"Longitude":-3.56652},"BottomRight":{"Latitude":42.94413,"Longitude":-3.56516}},"Address":{"Label":"Camino Piscina y Camping Municipal, 09550 Villarcayo de Merindad de Castilla (Burgos), España","Country":"ESP","State":"Castilla y León","County":"Burgos","City":"Villarcayo de Merindad de Castilla","District":"Villarcayo","Street":"Camino Piscina y Camping Municipal","PostalCode":"09550","AdditionalData":[{"value":"España","key":"CountryName"},{"value":"Castilla y León","key":"StateName"},{"value":"Burgos","key":"CountyName"}]},"MapReference":{"ReferenceId":"539366334","Spot":1.0,"SideOfStreet":"left","CountryId":"20215059","StateId":"20221909","CountyId":"20221911","CityId":"20304416","DistrictId":"20304475"}}},{"Relevance":1.0,"Distance":79.8,"MatchLevel":"street","MatchQuality":{"Country":1.0,"State":1.0,"County":1.0,"City":1.0,"District":1.0,"Street":[1.0],"PostalCode":1.0},"Location":{"LocationId":"NT_vR6CkkGB69OvvvxiFnAuzA_l_539391413_L","LocationType":"point","DisplayPosition":{"Latitude":42.9452739,"Longitude":-3.5668259},"MapView":{"TopLeft":{"Latitude":42.94536,"Longitude":-3.56691},"BottomRight":{"Latitude":42.9447,"Longitude":-3.56648}},"Address":{"Label":"Camino Piscina y Camping Municipal, 09550 Villarcayo de Merindad de Castilla (Burgos), España","Country":"ESP","State":"Castilla y León","County":"Burgos","City":"Villarcayo de Merindad de Castilla","District":"Villarcayo","Street":"Camino Piscina y Camping Municipal","PostalCode":"09550","AdditionalData":[{"value":"España","key":"CountryName"},{"value":"Castilla y León","key":"StateName"},{"value":"Burgos","key":"CountyName"}]},"MapReference":{"ReferenceId":"539391413","Spot":0.86,"SideOfStreet":"left","CountryId":"20215059","StateId":"20221909","CountyId":"20221911","CityId":"20304416","DistrictId":"20304475"}}},{"Relevance":1.0,"Distance":81.5,"MatchLevel":"street","MatchQuality":{"Country":1.0,"State":1.0,"County":1.0,"City":1.0,"District":1.0,"Street":[1.0],"PostalCode":1.0},"Location":{"LocationId":"NT_akGZxzcKbRYiiKiRc4D.YC_l_1146453596_L","LocationType":"point","DisplayPosition":{"Latitude":42.94405,"Longitude":-3.56695},"MapView":{"TopLeft":{"Latitude":42.94405,"Longitude":-3.56703},"BottomRight":{"Latitude":42.94391,"Longitude":-3.56695}},"Address":{"Label":"Residencia La Merindad, 09550 Villarcayo de Merindad de Castilla (Burgos), España","Country":"ESP","State":"Castilla y León","County":"Burgos","City":"Villarcayo de Merindad de Castilla","District":"Villarcayo","Street":"Residencia La Merindad","PostalCode":"09550","AdditionalData":[{"value":"España","key":"CountryName"},{"value":"Castilla y León","key":"StateName"},{"value":"Burgos","key":"CountyName"}]},"MapReference":{"ReferenceId":"1146453596","Spot":1.0,"SideOfStreet":"left","CountryId":"20215059","StateId":"20221909","CountyId":"20221911","CityId":"20304416","DistrictId":"20304475"}}},{"Relevance":1.0,"Distance":84.1,"MatchLevel":"street","MatchQuality":{"Country":1.0,"State":1.0,"County":1.0,"City":1.0,"Street":[1.0],"PostalCode":1.0},"Location":{"LocationId":"NT_WRJxfrB2Yv1NtQPioGjkgA_l_1146450298_L","LocationType":"point","DisplayPosition":{"Latitude":42.94536,"Longitude":-3.56691},"MapView":{"TopLeft":{"Latitude":42.94593,"Longitude":-3.56745},"BottomRight":{"Latitude":42.94536,"Longitude":-3.56691}},"Address":{"Label":"Camino Piscina y Camping Municipal, 09550 Villarcayo de Merindad de Castilla (Burgos), España","Country":"ESP","State":"Castilla y León","County":"Burgos","City":"Villarcayo de Merindad de Castilla","Street":"Camino Piscina y Camping Municipal","PostalCode":"09550","AdditionalData":[{"value":"España","key":"CountryName"},{"value":"Castilla y León","key":"StateName"},{"value":"Burgos","key":"CountyName"}]},"MapReference":{"ReferenceId":"1146450298","Spot":0.0,"SideOfStreet":"left","CountryId":"20215059","StateId":"20221909","CountyId":"20221911","CityId":"20304416"}}},{"Relevance":1.0,"Distance":85.0,"MatchLevel":"street","MatchQuality":{"Country":1.0,"State":1.0,"County":1.0,"City":1.0,"District":1.0,"PostalCode":1.0},"Location":{"LocationId":"NT_aU0SMIjjyJolSza7wxUh0C_l_1146453601_L","LocationType":"point","DisplayPosition":{"Latitude":42.9439453,"Longitude":-3.5672461},"MapView":{"TopLeft":{"Latitude":42.94396,"Longitude":-3.56736},"BottomRight":{"Latitude":42.94372,"Longitude":-3.56703}},"Address":{"Label":"09550 Villarcayo de Merindad de Castilla (Burgos), España","Country":"ESP","State":"Castilla y León","County":"Burgos","City":"Villarcayo de Merindad de Castilla","District":"Villarcayo","PostalCode":"09550","AdditionalData":[{"value":"España","key":"CountryName"},{"value":"Castilla y León","key":"StateName"},{"value":"Burgos","key":"CountyName"}]},"MapReference":{"ReferenceId":"1146453601","Spot":0.59,"SideOfStreet":"left","CountryId":"20215059","StateId":"20221909","CountyId":"20221911","CityId":"20304416","DistrictId":"20304475"}}}]}]}}