{"Response":{"MetaInfo":{"Timestamp":"2020-03-28T09:47:03.001+0000","NextPageInformation":"2"},"View":[{"_type":"SearchResultsViewType","ViewId":0,"Result":[{"Relevance":1.0,"Distance":0.0,"Direction":0.0,"MatchLevel":"district","MatchQuality":{"Country":1.0,"State":1.0,"County":1.0,"City":1.0,"District":1.0,"PostalCode":1.0},"Location":{"LocationId":"NT_1.4cwYOuGh7umDmJuNoJEA","LocationType":"point","DisplayPosition":{"Latitude":42.9526593,"Longitude":-2.898512},"MapView":{"TopLeft":{"Latitude":42.95557,"Longitude":-2.90776},"BottomRight":{"Latitude":42.94564,"Longitude":-2.89235}},"Address":{"Label":"Izarra, Urkabustaiz, País Vasco, España","Country":"ESP","State":"País Vasco","County":"Álava","City":"Urkabustaiz","District":"Izarra","PostalCode":"01440","AdditionalData":[{"value":"España","key":"CountryName"},{"value":"País Vasco","key":"StateName"},{"value":"Álava","key":"CountyName"}]},"MapReference":{"ReferenceId":"80948418","SideOfStreet":"neither","CountryId":"20215059","StateId":"20226804","CountyId":"20226805","CityId":"20285405","DistrictId":"20285416"}}},{"Relevance":1.0,"Distance":1.3,"MatchLevel":"street","MatchQuality":{"Country":1.0,"State":1.0,"County":1.0,"City":1.0,"District":1.0,"PostalCode":1.0},"Location":{"LocationId":"NT_NnmCDhrQUTBIKcxXK1AKPC_l_1036165516_L","LocationType":"point","DisplayPosition":{"Latitude":42.9526532,"Longitude":-2.8984986},"MapView":{"TopLeft":{"Latitude":42.95276,"Longitude":-2.8985},"BottomRight":{"Latitude":42.95265,"Longitude":-2.89845}},"Address":{"Label":"01440 Urkabustaiz (Álava), Espainia","Country":"ESP","State":"País Vasco","County":"Álava","City":"Urkabustaiz","District":"Izarra","PostalCode":"01440","AdditionalData":[{"value":"Espainia","key":"CountryName"},{"value":"País Vasco","key":"StateName"},{"value":"Álava","key":"CountyName"}]},"MapReference":{"ReferenceId":"1036165516","Spot":0.03,"SideOfStreet":"neither","CountryId":"20215059","StateId":"20226804","CountyId":"20226805","CityId":"20285405","DistrictId":"20285416"}}},{"Relevance":1.0,"Distance":1.4,"MatchLevel":"street","MatchQuality":{"Country":1.0,"State":1.0,"County":1.0,"City":1.0,"District":1.0,"PostalCode":1.0},"Location":{"LocationId":"NT_NnmCDhrQUTBIKcxXK1AKPC_l_1036165513_L","LocationType":"point","DisplayPosition":{"Latitude":42.95265,"Longitude":-2.8985},"MapView":{"TopLeft":{"Latitude":42.95265,"Longitude":-2.89853},"BottomRight":{"Latitude":42.95259,"Longitude":-2.8985}},"Address":{"Label":"01440 Urkabustaiz (Álava), Espainia","Country":"ESP","State":"País Vasco","County":"Álava","City":"Urkabustaiz","District":"Izarra","PostalCode":"01440","AdditionalData":[{"value":"Espainia","key":"CountryName"},{"value":"País Vasco","key":"StateName"},{"value":"Álava","key":"CountyName"}]},"MapReference":{"ReferenceId":"1036165513","Spot":1.0,"SideOfStreet":"neither","CountryId":"20215059","StateId":"20226804","CountyId":"20226805","CityId":"20285405","DistrictId":"20285416"}}},{"Relevance":1.0,"Distance":7.9,"MatchLevel":"street","MatchQuality":{"Country":1.0,"State":1.0,"County":1.0,"City":1.0,"District":1.0,"Street":[1.0],"PostalCode":1.0},"Location":{"LocationId":"NT_q2GgRlJpE5alxbKWSVKtXD_l_1036165507_R","LocationType":"point","DisplayPosition":{"Latitude":42.9525894,"Longitude":-2.8985275},"MapView":{"TopLeft":{"Latitude":42.95259,"Longitude":-2.89853},"BottomRight":{"Latitude":42.95247,"Longitude":-2.89799}},"Address":{"Label":"Calle Logorri, 01440 Urkabustaiz (Álava), Espainia","Country":"ESP","State":"País Vasco","County":"Álava","City":"Urkabustaiz","District":"Izarra","Street":"Calle Logorri","PostalCode":"01440","AdditionalData":[{"value":"Espainia","key":"CountryName"},{"value":"País Vasco","key":"StateName"},{"value":"Álava","key":"CountyName"}]},"MapReference":{"ReferenceId":"1036165507","Spot":1.0,"SideOfStreet":"right","CountryId":"20215059","StateId":"20226804","CountyId":"20226805","CityId":"20285405","DistrictId":"20285416"}}},{"Relevance":1.0,"Distance":9.2,"MatchLevel":"houseNumber","MatchQuality":{"Country":1.0,"State":1.0,"County":1.0,"City":1.0,"District":1.0,"Street":[1.0],"HouseNumber":1.0,"PostalCode":1.0},"MatchType":"interpolated","Location":{"LocationId":"NT_q2GgRlJpE5alxbKWSVKtXD_xA","LocationType":"point","DisplayPosition":{"Latitude":42.95261,"Longitude":-2.89863},"MapView":{"TopLeft":{"Latitude":42.9537342,"Longitude":-2.9001659},"BottomRight":{"Latitude":42.9514858,"Longitude":-2.8970941}},"Address":{"Label":"Calle Logorri, 1, 01440 Urkabustaiz (Álava), Espainia","Country":"ESP","State":"País Vasco","County":"Álava","City":"Urkabustaiz","District":"Izarra","Street":"Calle Logorri","HouseNumber":"1","PostalCode":"01440","AdditionalData":[{"value":"Espainia","key":"CountryName"},{"value":"País Vasco","key":"StateName"},{"value":"Álava","key":"CountyName"}]},"MapReference":{"ReferenceId":"1036165510","Spot":0.3,"SideOfStreet":"right","CountryId":"20215059","StateId":"20226804","CountyId":"20226805","CityId":"20285405","DistrictId":"20285416","AddressId":"351852329","RoadLinkId":"358111205"}}},{"Relevance":1.0,"Distance":12.3,"MatchLevel":"street","MatchQuality":{"Country":1.0,"State":1.0,"County":1.0,"City":1.0,"District":1.0,"PostalCode":1.0},"Location":{"LocationId":"NT_NnmCDhrQUTBIKcxXK1AKPC_l_1036165518_L","LocationType":"point","DisplayPosition":{"Latitude":42.95276,"Longitude":-2.89845},"MapView":{"TopLeft":{"Latitude":42.95276,"Longitude":-2.89845},"BottomRight":{"Latitude":42.9526,"Longitude":-2.89808}},"Address":{"Label":"01440 Urkabustaiz (Álava), Espainia","Country":"ESP","State":"País Vasco","County":"Álava","City":"Urkabustaiz","District":"Izarra","PostalCode":"01440","AdditionalData":[{"value":"Espainia","key":"CountryName"},{"value":"País Vasco","key":"StateName"},{"value":"Álava","key":"CountyName"}]},"MapReference":{"ReferenceId":"1036165518","Spot":1.0,"SideOfStreet":"left","CountryId":"20215059","StateId":"20226804","CountyId":"20226805","CityId":"20285405","DistrictId":"20285416"}}},{"Relevance":1.0,"Distance":12.3,"MatchLevel":"street","MatchQuality":{"Country":1.0,"State":1.0,"County":1.0,"City":1.0,"District":1.0,"PostalCode":1.0},"Location":{"LocationId":"NT_NnmCDhrQUTBIKcxXK1AKPC_l_1036165517_L","LocationType":"point","DisplayPosition":{"Latitude":42.9527685,"Longitude":-2.8984863},"MapView":{"TopLeft":{"Latitude":42.9528,"Longitude":-2.89862},"BottomRight":{"Latitude":42.95276,"Longitude":-2.89845}},"Address":{"Label":"01440 Urkabustaiz (Álava), Espainia","Country":"ESP","State":"País Vasco","County":"Álava","City":"Urkabustaiz","District":"Izarra","PostalCode":"01440","AdditionalData":[{"value":"Espainia","key":"CountryName"},{"value":"País Vasco","key":"StateName"},{"value":"Álava","key":"CountyName"}]},"MapReference":{"ReferenceId":"1036165517","Spot":0.21,"SideOfStreet":"left","CountryId":"20215059","StateId":"20226804","CountyId":"20226805","CityId":"20285405","DistrictId":"20285416"}}},{"Relevance":1.0,"Distance":21.1,"MatchLevel":"houseNumber","MatchQuality":{"Country":1.0,"State":1.0,"County":1.0,"City":1.0,"District":1.0,"Street":[1.0],"HouseNumber":1.0,"PostalCode":1.0},"MatchType":"interpolated","Location":{"LocationId":"NT_q2GgRlJpE5alxbKWSVKtXD_zA","LocationType":"point","DisplayPosition":{"Latitude":42.95259,"Longitude":-2.89827},"MapView":{"TopLeft":{"Latitude":42.9537142,"Longitude":-2.8998059},"BottomRight":{"Latitude":42.9514658,"Longitude":-2.8967341}},"Address":{"Label":"Calle Logorri, 3, 01440 Urkabustaiz (Álava), Espainia","Country":"ESP","State":"País Vasco","County":"Álava","City":"Urkabustaiz","District":"Izarra","Street":"Calle Logorri","HouseNumber":"3","PostalCode":"01440","AdditionalData":[{"value":"Espainia","key":"CountryName"},{"value":"País Vasco","key":"StateName"},{"value":"Álava","key":"CountyName"}]},"MapReference":{"ReferenceId":"1036165515","Spot":0.42,"SideOfStreet":"right","CountryId":"20215059","StateId":"20226804","CountyId":"20226805","CityId":"20285405","DistrictId":"20285416","AddressId":"351852331","RoadLinkId":"464270957"}}},{"Relevance":1.0,"Distance":24.9,"MatchLevel":"houseNumber","MatchQuality":{"Country":1.0,"State":1.0,"County":1.0,"City":1.0,"District":1.0,"Street":[1.0],"HouseNumber":1.0,"PostalCode":1.0},"MatchType":"interpolated","Location":{"LocationId":"NT_W1KhjZaBAQnGsBfDwbQwEA_3A","LocationType":"point","DisplayPosition":{"Latitude":42.95238,"Longitude":-2.89852},"MapView":{"TopLeft":{"Latitude":42.9535042,"Longitude":-2.9000559},"BottomRight":{"Latitude":42.9512558,"Longitude":-2.8969841}},"Address":{"Label":"Barrio Ugarte, 7, 01440 Urkabustaiz (Álava), Espainia","Country":"ESP","State":"País Vasco","County":"Álava","City":"Urkabustaiz","District":"Izarra","Street":"Barrio Ugarte","HouseNumber":"7","PostalCode":"01440","AdditionalData":[{"value":"Espainia","key":"CountryName"},{"value":"País Vasco","key":"StateName"},{"value":"Álava","key":"CountyName"}]},"MapReference":{"ReferenceId":"1036165526","Spot":0.47,"SideOfStreet":"right","CountryId":"20215059","StateId":"20226804","CountyId":"20226805","CityId":"20285405","DistrictId":"20285416","AddressId":"351774640","RoadLinkId":"358111224"}}},{"Relevance":1.0,"Distance":26.2,"MatchLevel":"street","MatchQuality":{"Country":1.0,"State":1.0,"County":1.0,"City":1.0,"District":1.0,"Street":[1.0],"PostalCode":1.0},"Location":{"LocationId":"NT_W1KhjZaBAQnGsBfDwbQwEA_l_1036165522_R","LocationType":"point","DisplayPosition":{"Latitude":42.95254,"Longitude":-2.89879},"MapView":{"TopLeft":{"Latitude":42.95262,"Longitude":-2.89894},"BottomRight":{"Latitude":42.95254,"Longitude":-2.89879}},"Address":{"Label":"Barrio Ugarte, 01440 Urkabustaiz (Álava), Espainia","Country":"ESP","State":"País Vasco","County":"Álava","City":"Urkabustaiz","District":"Izarra","Street":"Barrio Ugarte","PostalCode":"01440","AdditionalData":[{"value":"Espainia","key":"CountryName"},{"value":"País Vasco","key":"StateName"},{"value":"Álava","key":"CountyName"}]},"MapReference":{"ReferenceId":"1036165522","Spot":0.0,"SideOfStreet":"right","CountryId":"20215059","StateId":"20226804","CountyId":"20226805","CityId":"20285405","DistrictId":"20285416"}}}]}]}}