{"Response":{"MetaInfo":{"Timestamp":"2020-03-28T10:26:51.886+0000","NextPageInformation":"2"},"View":[{"_type":"SearchResultsViewType","ViewId":0,"Result":[{"Relevance":1.0,"Distance":0.0,"Direction":0.0,"MatchLevel":"city","MatchQuality":{"Country":1.0,"State":1.0,"County":1.0,"City":1.0,"PostalCode":1.0},"Location":{"LocationId":"NT_Iw.gqk91ObCW9khCnmGrvD","LocationType":"point","DisplayPosition":{"Latitude":42.9049527,"Longitude":-1.0903087},"MapView":{"TopLeft":{"Latitude":43.02368,"Longitude":-1.1696},"BottomRight":{"Latitude":42.89537,"Longitude":-0.97073}},"Address":{"Label":"Ochagavía, Comunidad Foral de Navarra, España","Country":"ESP","State":"Comunidad Foral de Navarra","County":"Navarra","City":"Ochagavía","PostalCode":"31680","AdditionalData":[{"value":"España","key":"CountryName"},{"value":"Comunidad Foral de Navarra","key":"StateName"},{"value":"Navarra","key":"CountyName"}]},"MapReference":{"ReferenceId":"574767914","SideOfStreet":"neither","CountryId":"20215059","StateId":"20226802","CountyId":"20226803","CityId":"20284260"}}},{"Relevance":1.0,"Distance":2.1,"MatchLevel":"houseNumber","MatchQuality":{"Country":1.0,"State":1.0,"County":1.0,"City":1.0,"Street":[1.0],"HouseNumber":1.0,"PostalCode":1.0},"MatchType":"interpolated","Location":{"LocationId":"NT_n64V7ax-Uzxe22L7tTKhxB_yMTQ","LocationType":"point","DisplayPosition":{"Latitude":42.90497,"Longitude":-1.09032},"MapView":{"TopLeft":{"Latitude":42.9060942,"Longitude":-1.0918547},"BottomRight":{"Latitude":42.9038458,"Longitude":-1.0887853}},"Address":{"Label":"Barrio Urrutia, 23A, 31680 Ochagavía (Navarra), España","Country":"ESP","State":"Comunidad Foral de Navarra","County":"Navarra","City":"Ochagavía","Street":"Barrio Urrutia","HouseNumber":"23A","PostalCode":"31680","AdditionalData":[{"value":"España","key":"CountryName"},{"value":"Comunidad Foral de Navarra","key":"StateName"},{"value":"Navarra","key":"CountyName"}]},"MapReference":{"ReferenceId":"570269885","Spot":0.7,"SideOfStreet":"right","CountryId":"20215059","StateId":"20226802","CountyId":"20226803","CityId":"20284260","AddressId":"350176391","RoadLinkId":"68775614"}}},{"Relevance":1.0,"Distance":5.6,"MatchLevel":"street","MatchQuality":{"Country":1.0,"State":1.0,"County":1.0,"City":1.0,"Street":[1.0],"PostalCode":1.0},"Location":{"LocationId":"NT_XxOd7zBpJfEA1CxRWicGfD_l_542848363_L","LocationType":"point","DisplayPosition":{"Latitude":42.9049527,"Longitude":-1.09024},"MapView":{"TopLeft":{"Latitude":42.90502,"Longitude":-1.09024},"BottomRight":{"Latitude":42.90452,"Longitude":-1.09001}},"Address":{"Label":"Barrio Urrutia, 31680 Ochagavía (Navarra), España","Country":"ESP","State":"Comunidad Foral de Navarra","County":"Navarra","City":"Ochagavía","Street":"Barrio Urrutia","PostalCode":"31680","AdditionalData":[{"value":"España","key":"CountryName"},{"value":"Comunidad Foral de Navarra","key":"StateName"},{"value":"Navarra","key":"CountyName"}]},"MapReference":{"ReferenceId":"542848363","Spot":0.88,"SideOfStreet":"left","CountryId":"20215059","StateId":"20226802","CountyId":"20226803","CityId":"20284260"}}},{"Relevance":1.0,"Distance":10.4,"MatchLevel":"houseNumber","MatchQuality":{"Country":1.0,"State":1.0,"County":1.0,"City":1.0,"Street":[1.0],"HouseNumber":1.0,"PostalCode":1.0},"MatchType":"interpolated","Location":{"LocationId":"NT_n64V7ax-Uzxe22L7tTKhxB_yMD","LocationType":"point","DisplayPosition":{"Latitude":42.90502,"Longitude":-1.09022},"MapView":{"TopLeft":{"Latitude":42.9061442,"Longitude":-1.0917547},"BottomRight":{"Latitude":42.9038958,"Longitude":-1.0886853}},"Address":{"Label":"Barrio Urrutia, 23, 31680 Ochagavía (Navarra), España","Country":"ESP","State":"Comunidad Foral de Navarra","County":"Navarra","City":"Ochagavía","Street":"Barrio Urrutia","HouseNumber":"23","PostalCode":"31680","AdditionalData":[{"value":"España","key":"CountryName"},{"value":"Comunidad Foral de Navarra","key":"StateName"},{"value":"Navarra","key":"CountyName"}]},"MapReference":{"ReferenceId":"542848384","Spot":0.0,"SideOfStreet":"right","CountryId":"20215059","StateId":"20226802","CountyId":"20226803","CityId":"20284260","AddressId":"350149901","RoadLinkId":"68711211"}}},{"Relevance":1.0,"Distance":10.8,"MatchLevel":"street","MatchQuality":{"Country":1.0,"State":1.0,"County":1.0,"City":1.0,"Street":[1.0],"PostalCode":1.0},"Location":{"LocationId":"NT_icjDTIuxOgdIo5joA5UYGC_l_1077493778_L","LocationType":"point","DisplayPosition":{"Latitude":42.9050307,"Longitude":-1.0902307},"MapView":{"TopLeft":{"Latitude":42.9052,"Longitude":-1.09043},"BottomRight":{"Latitude":42.90502,"Longitude":-1.09022}},"Address":{"Label":"Barrio Labaria, 31680 Ochagavía (Navarra), España","Country":"ESP","State":"Comunidad Foral de Navarra","County":"Navarra","City":"Ochagavía","Street":"Barrio Labaria","PostalCode":"31680","AdditionalData":[{"value":"España","key":"CountryName"},{"value":"Comunidad Foral de Navarra","key":"StateName"},{"value":"Navarra","key":"CountyName"}]},"MapReference":{"ReferenceId":"1077493778","Spot":0.05,"SideOfStreet":"left","CountryId":"20215059","StateId":"20226802","CountyId":"20226803","CityId":"20284260"}}},{"Relevance":1.0,"Distance":14.1,"MatchLevel":"landmark","MatchQuality":{"Country":1.0,"State":1.0,"County":1.0,"Name":1.0},"Location":{"LocationId":"NT_bWE6OzDLK8ku0kCW34rgvD","LocationType":"river","Name":"Anduña ibaia","DisplayPosition":{"Latitude":42.91909,"Longitude":-1.02531},"MapView":{"TopLeft":{"Latitude":42.97099,"Longitude":-1.09241},"BottomRight":{"Latitude":42.90435,"Longitude":-0.9885}},"Address":{"Label":"(Nafarroa), Espainia","Country":"ESP","State":"Nafarroa","County":"Nafarroa","AdditionalData":[{"value":"Espainia","key":"CountryName"},{"value":"Nafarroa","key":"StateName"},{"value":"Nafarroa","key":"CountyName"}]},"MapReference":{"CountryId":"20215059","StateId":"20226802","CountyId":"20226803","PlaceId":"1508628477"}}},{"Relevance":1.0,"Distance":14.1,"MatchLevel":"landmark","MatchQuality":{"Country":1.0,"State":1.0,"County":1.0,"Name":1.0},"Location":{"LocationId":"NT_H6TPhDM95Qi-4fkCtZ8-ED","LocationType":"river","Name":"Río Anduña","DisplayPosition":{"Latitude":42.91909,"Longitude":-1.02531},"MapView":{"TopLeft":{"Latitude":42.97099,"Longitude":-1.09241},"BottomRight":{"Latitude":42.90435,"Longitude":-0.9885}},"Address":{"Label":"(Navarra), España","Country":"ESP","State":"Comunidad Foral de Navarra","County":"Navarra","AdditionalData":[{"value":"España","key":"CountryName"},{"value":"Comunidad Foral de Navarra","key":"StateName"},{"value":"Navarra","key":"CountyName"}]},"MapReference":{"CountryId":"20215059","StateId":"20226802","CountyId":"20226803","PlaceId":"1508628476"}}},{"Relevance":1.0,"Distance":14.2,"MatchLevel":"houseNumber","MatchQuality":{"Country":1.0,"State":1.0,"County":1.0,"City":1.0,"Street":[1.0],"HouseNumber":1.0,"PostalCode":1.0},"MatchType":"interpolated","Location":{"LocationId":"NT_DBjT0kCsAwYZPznzGWEFBB_l_1022405176_R_yED","LocationType":"point","DisplayPosition":{"Latitude":42.9052,"Longitude":-1.0904299},"MapView":{"TopLeft":{"Latitude":42.9063242,"Longitude":-1.0919647},"BottomRight":{"Latitude":42.9040759,"Longitude":-1.0888952}},"Address":{"Label":"Barrio Labaria, 21, 31680 Ochagavía (Navarra), España","Country":"ESP","State":"Comunidad Foral de Navarra","County":"Navarra","City":"Ochagavía","Street":"Barrio Labaria","HouseNumber":"21","PostalCode":"31680","AdditionalData":[{"value":"España","key":"CountryName"},{"value":"Comunidad Foral de Navarra","key":"StateName"},{"value":"Navarra","key":"CountyName"}]},"MapReference":{"ReferenceId":"1022405176","Spot":0.0,"SideOfStreet":"right","CountryId":"20215059","StateId":"20226802","CountyId":"20226803","CityId":"20284260"}}},{"Relevance":1.0,"Distance":27.0,"MatchLevel":"houseNumber","MatchQuality":{"Country":1.0,"State":1.0,"County":1.0,"City":1.0,"Street":[1.0],"HouseNumber":1.0,"PostalCode":1.0},"MatchType":"interpolated","Location":{"LocationId":"NT_ILaVHXtrCT7I6o56p6EClB_l_542848541_R_ycD","LocationType":"point","DisplayPosition":{"Latitude":42.9050833,"Longitude":-1.0906967},"MapView":{"TopLeft":{"Latitude":42.9062075,"Longitude":-1.0922314},"BottomRight":{"Latitude":42.9039592,"Longitude":-1.0891619}},"Address":{"Label":"Barrio Iribarren, 27, 31680 Ochagavía (Navarra), España","Country":"ESP","State":"Comunidad Foral de Navarra","County":"Navarra","City":"Ochagavía","Street":"Barrio Iribarren","HouseNumber":"27","PostalCode":"31680","AdditionalData":[{"value":"España","key":"CountryName"},{"value":"Comunidad Foral de Navarra","key":"StateName"},{"value":"Navarra","key":"CountyName"}]},"MapReference":{"ReferenceId":"542848541","Spot":0.58,"SideOfStreet":"right","CountryId":"20215059","StateId":"20226802","CountyId":"20226803","CityId":"20284260"}}},{"Relevance":1.0,"Distance":27.5,"MatchLevel":"houseNumber","MatchQuality":{"Country":1.0,"State":1.0,"County":1.0,"City":1.0,"Street":[1.0],"HouseNumber":1.0,"PostalCode":1.0},"MatchType":"interpolated","Location":{"LocationId":"NT_XxOd7zBpJfEA1CxRWicGfD_xA","LocationType":"point","DisplayPosition":{"Latitude":42.90476,"Longitude":-1.09052},"MapView":{"TopLeft":{"Latitude":42.9058842,"Longitude":-1.0920547},"BottomRight":{"Latitude":42.9036358,"Longitude":-1.0889853}},"Address":{"Label":"Plaza Obispo Pablo Guzpide, 1, 31680 Ochagavía (Navarra), España","Country":"ESP","State":"Comunidad Foral de Navarra","County":"Navarra","City":"Ochagavía","Street":"Plaza Obispo Pablo Guzpide","HouseNumber":"1","PostalCode":"31680","AdditionalData":[{"value":"España","key":"CountryName"},{"value":"Comunidad Foral de Navarra","key":"StateName"},{"value":"Navarra","key":"CountyName"}]},"MapReference":{"ReferenceId":"570269888","Spot":0.81,"SideOfStreet":"left","CountryId":"20215059","StateId":"20226802","CountyId":"20226803","CityId":"20284260","AddressId":"350176389","RoadLinkId":"370471628"}}}]}]}}