{"Response":{"MetaInfo":{"Timestamp":"2020-03-28T09:43:47.639+0000","NextPageInformation":"2"},"View":[{"_type":"SearchResultsViewType","ViewId":0,"Result":[{"Relevance":1.0,"Distance":0.0,"Direction":0.0,"MatchLevel":"district","MatchQuality":{"Country":1.0,"State":1.0,"County":1.0,"City":1.0,"District":1.0,"PostalCode":1.0},"Location":{"LocationId":"NT_cr7VRlSVKLSSQ6vQTb3iYA","LocationType":"point","DisplayPosition":{"Latitude":42.9083739,"Longitude":-8.3624785},"MapView":{"TopLeft":{"Latitude":42.90934,"Longitude":-8.36922},"BottomRight":{"Latitude":42.89962,"Longitude":-8.35778}},"Address":{"Label":"Pedrouzo, O Pino, Galicia, España","Country":"ESP","State":"Galicia","County":"A Coruña","City":"O Pino","District":"Pedrouzo","PostalCode":"15821","AdditionalData":[{"value":"España","key":"CountryName"},{"value":"Galicia","key":"StateName"},{"value":"A Coruña","key":"CountyName"}]},"MapReference":{"ReferenceId":"1167229595","SideOfStreet":"neither","CountryId":"20215059","StateId":"20226791","CountyId":"20226792","CityId":"20322159","DistrictId":"20323326"}}},{"Relevance":1.0,"Distance":35.9,"MatchLevel":"street","MatchQuality":{"Country":1.0,"State":1.0,"County":1.0,"City":1.0,"District":1.0,"PostalCode":1.0},"Location":{"LocationId":"NT_fY6gSIBCVgzbrM3LoTKMaB_l_592980766_R","LocationType":"point","DisplayPosition":{"Latitude":42.9080541,"Longitude":-8.3625435},"MapView":{"TopLeft":{"Latitude":42.90809,"Longitude":-8.36272},"BottomRight":{"Latitude":42.90796,"Longitude":-8.36208}},"Address":{"Label":"15821 O Pino (A Coruña), España","Country":"ESP","State":"Galicia","County":"A Coruña","City":"O Pino","District":"Pedrouzo","PostalCode":"15821","AdditionalData":[{"value":"España","key":"CountryName"},{"value":"Galicia","key":"StateName"},{"value":"A Coruña","key":"CountyName"}]},"MapReference":{"ReferenceId":"592980766","Spot":0.72,"SideOfStreet":"right","CountryId":"20215059","StateId":"20226791","CountyId":"20226792","CityId":"20322159","DistrictId":"20323326"}}},{"Relevance":1.0,"Distance":37.2,"MatchLevel":"street","MatchQuality":{"Country":1.0,"State":1.0,"County":1.0,"City":1.0,"District":1.0,"PostalCode":1.0},"Location":{"LocationId":"NT_fY6gSIBCVgzbrM3LoTKMaB_l_592980767_R","LocationType":"point","DisplayPosition":{"Latitude":42.90809,"Longitude":-8.36272},"MapView":{"TopLeft":{"Latitude":42.90821,"Longitude":-8.36334},"BottomRight":{"Latitude":42.90809,"Longitude":-8.36272}},"Address":{"Label":"15821 O Pino (A Coruña), España","Country":"ESP","State":"Galicia","County":"A Coruña","City":"O Pino","District":"Pedrouzo","PostalCode":"15821","AdditionalData":[{"value":"España","key":"CountryName"},{"value":"Galicia","key":"StateName"},{"value":"A Coruña","key":"CountyName"}]},"MapReference":{"ReferenceId":"592980767","Spot":0.0,"SideOfStreet":"right","CountryId":"20215059","StateId":"20226791","CountyId":"20226792","CityId":"20322159","DistrictId":"20323326"}}},{"Relevance":1.0,"Distance":65.9,"MatchLevel":"street","MatchQuality":{"Country":1.0,"State":1.0,"County":1.0,"City":1.0,"District":1.0,"Street":[1.0],"PostalCode":1.0},"Location":{"LocationId":"NT_eeqfoE1pcDqtCKYRzgN8OA_l_592980765_R","LocationType":"point","DisplayPosition":{"Latitude":42.9085869,"Longitude":-8.3632337},"MapView":{"TopLeft":{"Latitude":42.9086,"Longitude":-8.36334},"BottomRight":{"Latitude":42.90821,"Longitude":-8.36323}},"Address":{"Label":"Camiño de Santiago Francés, 15821 O Pino (A Coruña), España","Country":"ESP","State":"Galicia","County":"A Coruña","City":"O Pino","District":"Pedrouzo","Street":"Camiño de Santiago Francés","PostalCode":"15821","AdditionalData":[{"value":"España","key":"CountryName"},{"value":"Galicia","key":"StateName"},{"value":"A Coruña","key":"CountyName"}]},"MapReference":{"ReferenceId":"592980765","Spot":0.97,"SideOfStreet":"right","CountryId":"20215059","StateId":"20226791","CountyId":"20226792","CityId":"20322159","DistrictId":"20323326"}}},{"Relevance":1.0,"Distance":66.2,"MatchLevel":"street","MatchQuality":{"Country":1.0,"State":1.0,"County":1.0,"City":1.0,"District":1.0,"Street":[1.0],"PostalCode":1.0},"Location":{"LocationId":"NT_JwK4sU6vn0pDue5TATFqMA_l_1046301412_R","LocationType":"point","DisplayPosition":{"Latitude":42.9086,"Longitude":-8.36323},"MapView":{"TopLeft":{"Latitude":42.90914,"Longitude":-8.36376},"BottomRight":{"Latitude":42.9086,"Longitude":-8.36323}},"Address":{"Label":"Camiño de Santiago Francés, 15821 O Pino (A Coruña), España","Country":"ESP","State":"Galicia","County":"A Coruña","City":"O Pino","District":"Pedrouzo","Street":"Camiño de Santiago Francés","PostalCode":"15821","AdditionalData":[{"value":"España","key":"CountryName"},{"value":"Galicia","key":"StateName"},{"value":"A Coruña","key":"CountyName"}]},"MapReference":{"ReferenceId":"1046301412","Spot":0.0,"SideOfStreet":"right","CountryId":"20215059","StateId":"20226791","CountyId":"20226792","CityId":"20322159","DistrictId":"20323326"}}},{"Relevance":1.0,"Distance":72.5,"MatchLevel":"street","MatchQuality":{"Country":1.0,"State":1.0,"County":1.0,"City":1.0,"District":1.0,"Street":[1.0],"PostalCode":1.0},"Location":{"LocationId":"NT_eeqfoE1pcDqtCKYRzgN8OA_l_592980764_R","LocationType":"point","DisplayPosition":{"Latitude":42.90821,"Longitude":-8.36334},"MapView":{"TopLeft":{"Latitude":42.90821,"Longitude":-8.36354},"BottomRight":{"Latitude":42.90774,"Longitude":-8.36334}},"Address":{"Label":"Camiño de Santiago Francés, 15821 O Pino (A Coruña), España","Country":"ESP","State":"Galicia","County":"A Coruña","City":"O Pino","District":"Pedrouzo","Street":"Camiño de Santiago Francés","PostalCode":"15821","AdditionalData":[{"value":"España","key":"CountryName"},{"value":"Galicia","key":"StateName"},{"value":"A Coruña","key":"CountyName"}]},"MapReference":{"ReferenceId":"592980764","Spot":1.0,"SideOfStreet":"right","CountryId":"20215059","StateId":"20226791","CountyId":"20226792","CityId":"20322159","DistrictId":"20323326"}}},{"Relevance":1.0,"Distance":111.5,"MatchLevel":"street","MatchQuality":{"Country":1.0,"State":1.0,"County":1.0,"City":1.0,"District":1.0,"Street":[1.0],"PostalCode":1.0},"Location":{"LocationId":"NT_eeqfoE1pcDqtCKYRzgN8OA_l_592980763_R","LocationType":"point","DisplayPosition":{"Latitude":42.90774,"Longitude":-8.36354},"MapView":{"TopLeft":{"Latitude":42.90774,"Longitude":-8.36403},"BottomRight":{"Latitude":42.90717,"Longitude":-8.36354}},"Address":{"Label":"Camiño de Santiago Francés, 15821 O Pino (A Coruña), España","Country":"ESP","State":"Galicia","County":"A Coruña","City":"O Pino","District":"Pedrouzo","Street":"Camiño de Santiago Francés","PostalCode":"15821","AdditionalData":[{"value":"España","key":"CountryName"},{"value":"Galicia","key":"StateName"},{"value":"A Coruña","key":"CountyName"}]},"MapReference":{"ReferenceId":"592980763","Spot":1.0,"SideOfStreet":"right","CountryId":"20215059","StateId":"20226791","CountyId":"20226792","CityId":"20322159","DistrictId":"20323326"}}},{"Relevance":1.0,"Distance":127.4,"MatchLevel":"street","MatchQuality":{"Country":1.0,"State":1.0,"County":1.0,"City":1.0,"District":1.0,"Street":[1.0],"PostalCode":1.0},"Location":{"LocationId":"NT_JwK4sU6vn0pDue5TATFqMA_l_1046301411_R","LocationType":"point","DisplayPosition":{"Latitude":42.90926,"Longitude":-8.36347},"MapView":{"TopLeft":{"Latitude":42.90926,"Longitude":-8.36368},"BottomRight":{"Latitude":42.90914,"Longitude":-8.36347}},"Address":{"Label":"Camiño de Santiago Francés, 15821 O Pino (A Coruña), España","Country":"ESP","State":"Galicia","County":"A Coruña","City":"O Pino","District":"Pedrouzo","Street":"Camiño de Santiago Francés","PostalCode":"15821","AdditionalData":[{"value":"España","key":"CountryName"},{"value":"Galicia","key":"StateName"},{"value":"A Coruña","key":"CountyName"}]},"MapReference":{"ReferenceId":"1046301411","Spot":1.0,"SideOfStreet":"right","CountryId":"20215059","StateId":"20226791","CountyId":"20226792","CityId":"20322159","DistrictId":"20323326"}}},{"Relevance":1.0,"Distance":132.5,"MatchLevel":"street","MatchQuality":{"Country":1.0,"State":1.0,"County":1.0,"City":1.0,"Street":[1.0],"PostalCode":1.0},"Location":{"LocationId":"NT_VU90JhQ7sTOrBU2M4CZonD_l_1046300769_R","LocationType":"point","DisplayPosition":{"Latitude":42.909439,"Longitude":-8.3632089},"MapView":{"TopLeft":{"Latitude":42.9095,"Longitude":-8.36347},"BottomRight":{"Latitude":42.90926,"Longitude":-8.36312}},"Address":{"Label":"Camiño de Santiago Francés, 15821 O Pino (A Coruña), España","Country":"ESP","State":"Galicia","County":"A Coruña","City":"O Pino","Street":"Camiño de Santiago Francés","PostalCode":"15821","AdditionalData":[{"value":"España","key":"CountryName"},{"value":"Galicia","key":"StateName"},{"value":"A Coruña","key":"CountyName"}]},"MapReference":{"ReferenceId":"1046300769","Spot":0.75,"SideOfStreet":"right","CountryId":"20215059","StateId":"20226791","CountyId":"20226792","CityId":"20322159"}}},{"Relevance":1.0,"Distance":135.7,"MatchLevel":"street","MatchQuality":{"Country":1.0,"State":1.0,"County":1.0,"City":1.0,"PostalCode":1.0},"Location":{"LocationId":"NT_RsL.-83zuxZOp7avw-LxJA_l_1046300765_R","LocationType":"point","DisplayPosition":{"Latitude":42.9095,"Longitude":-8.36312},"MapView":{"TopLeft":{"Latitude":42.9095,"Longitude":-8.36389},"BottomRight":{"Latitude":42.90934,"Longitude":-8.36312}},"Address":{"Label":"15821 O Pino (A Coruña), España","Country":"ESP","State":"Galicia","County":"A Coruña","City":"O Pino","PostalCode":"15821","AdditionalData":[{"value":"España","key":"CountryName"},{"value":"Galicia","key":"StateName"},{"value":"A Coruña","key":"CountyName"}]},"MapReference":{"ReferenceId":"1046300765","Spot":1.0,"SideOfStreet":"right","CountryId":"20215059","StateId":"20226791","CountyId":"20226792","CityId":"20322159"}}}]}]}}