{"Response":{"MetaInfo":{"Timestamp":"2020-03-28T10:29:36.380+0000","NextPageInformation":"2"},"View":[{"_type":"SearchResultsViewType","ViewId":0,"Result":[{"Relevance":1.0,"Distance":0.0,"Direction":0.0,"MatchLevel":"city","MatchQuality":{"Country":1.0,"State":1.0,"County":1.0,"City":1.0,"PostalCode":1.0},"Location":{"LocationId":"NT_ouQSIV39A3B9BVv6ycubKD","LocationType":"point","DisplayPosition":{"Latitude":42.9676789,"Longitude":1.8715969},"MapView":{"TopLeft":{"Latitude":42.986,"Longitude":1.82666},"BottomRight":{"Latitude":42.94924,"Longitude":1.91156}},"Address":{"Label":"Laroque-d'Olmes, Occitanie, France","Country":"FRA","State":"Occitanie","County":"Ariège","City":"Laroque-d'Olmes","PostalCode":"09600","AdditionalData":[{"value":"France","key":"CountryName"},{"value":"Occitanie","key":"StateName"},{"value":"Ariège","key":"CountyName"}]},"MapReference":{"ReferenceId":"71401814","SideOfStreet":"neither","CountryId":"20000001","StateId":"20050212","CountyId":"20083640","CityId":"20084093"}}},{"Relevance":1.0,"Distance":16.7,"MatchLevel":"street","MatchQuality":{"Country":1.0,"State":1.0,"County":1.0,"City":1.0,"PostalCode":1.0},"Location":{"LocationId":"NT_-ws5VHa54dXCWS1VOyVcTB_l_584043863_R","LocationType":"point","DisplayPosition":{"Latitude":42.9676135,"Longitude":1.8714117},"MapView":{"TopLeft":{"Latitude":42.9681,"Longitude":1.87124},"BottomRight":{"Latitude":42.96759,"Longitude":1.87142}},"Address":{"Label":"09600 Laroque-d'Olmes, France","Country":"FRA","State":"Occitanie","County":"Ariège","City":"Laroque-d'Olmes","PostalCode":"09600","AdditionalData":[{"value":"France","key":"CountryName"},{"value":"Occitanie","key":"StateName"},{"value":"Ariège","key":"CountyName"}]},"MapReference":{"ReferenceId":"584043863","Spot":0.05,"SideOfStreet":"right","CountryId":"20000001","StateId":"20050212","CountyId":"20083640","CityId":"20084093"}}},{"Relevance":1.0,"Distance":32.3,"MatchLevel":"houseNumber","MatchQuality":{"Country":1.0,"State":1.0,"County":1.0,"City":1.0,"Street":[1.0],"HouseNumber":1.0,"PostalCode":1.0},"MatchType":"interpolated","Location":{"LocationId":"NT_R-YhfEwsRGhKZin7.xApBA_l_767278486_L_3kTN","LocationType":"point","DisplayPosition":{"Latitude":42.9680103,"Longitude":1.8718799},"MapView":{"TopLeft":{"Latitude":42.9691345,"Longitude":1.8703436},"BottomRight":{"Latitude":42.9668862,"Longitude":1.8734162}},"Address":{"Label":"795 Avenue Pierre Sémard, 09600 Laroque-d'Olmes, France","Country":"FRA","State":"Occitanie","County":"Ariège","City":"Laroque-d'Olmes","Street":"Avenue Pierre Sémard","HouseNumber":"795","PostalCode":"09600","AdditionalData":[{"value":"France","key":"CountryName"},{"value":"Occitanie","key":"StateName"},{"value":"Ariège","key":"CountyName"}]},"MapReference":{"ReferenceId":"767278486","Spot":0.0,"SideOfStreet":"left","CountryId":"20000001","StateId":"20050212","CountyId":"20083640","CityId":"20084093"}}},{"Relevance":1.0,"Distance":40.9,"MatchLevel":"houseNumber","MatchQuality":{"Country":1.0,"State":1.0,"County":1.0,"City":1.0,"Street":[1.0],"HouseNumber":1.0,"PostalCode":1.0},"MatchType":"interpolated","Location":{"LocationId":"NT_azzsoj5tRFvLBz0QOS0wvA_yIE","LocationType":"point","DisplayPosition":{"Latitude":42.9674,"Longitude":1.87209},"MapView":{"TopLeft":{"Latitude":42.9685242,"Longitude":1.8705537},"BottomRight":{"Latitude":42.9662758,"Longitude":1.8736263}},"Address":{"Label":"2B Avenue Pierre Sémard, 09600 Laroque-d'Olmes, France","Country":"FRA","State":"Occitanie","County":"Ariège","City":"Laroque-d'Olmes","Street":"Avenue Pierre Sémard","HouseNumber":"2B","PostalCode":"09600","AdditionalData":[{"value":"France","key":"CountryName"},{"value":"Occitanie","key":"StateName"},{"value":"Ariège","key":"CountyName"}]},"MapReference":{"ReferenceId":"767278485","Spot":0.44,"SideOfStreet":"left","CountryId":"20000001","StateId":"20050212","CountyId":"20083640","CityId":"20084093","AddressId":"605693507","RoadLinkId":"160936448"}}},{"Relevance":1.0,"Distance":47.1,"MatchLevel":"houseNumber","MatchQuality":{"Country":1.0,"State":1.0,"County":1.0,"City":1.0,"Street":[1.0],"HouseNumber":1.0,"PostalCode":1.0},"MatchType":"interpolated","Location":{"LocationId":"NT_pJKJ4z-Je1qb53.NXGl-QA_xA","LocationType":"point","DisplayPosition":{"Latitude":42.96815,"Longitude":1.87165},"MapView":{"TopLeft":{"Latitude":42.9692742,"Longitude":1.8701137},"BottomRight":{"Latitude":42.9670258,"Longitude":1.8731863}},"Address":{"Label":"1 Rue Victor Hugo, 09600 Laroque-d'Olmes, France","Country":"FRA","State":"Occitanie","County":"Ariège","City":"Laroque-d'Olmes","Street":"Rue Victor Hugo","HouseNumber":"1","PostalCode":"09600","AdditionalData":[{"value":"France","key":"CountryName"},{"value":"Occitanie","key":"StateName"},{"value":"Ariège","key":"CountyName"}]},"MapReference":{"ReferenceId":"767278489","Spot":0.25,"SideOfStreet":"right","CountryId":"20000001","StateId":"20050212","CountyId":"20083640","CityId":"20084093","AddressId":"371464820","RoadLinkId":"160936456"}}},{"Relevance":1.0,"Distance":50.9,"MatchLevel":"street","MatchQuality":{"Country":1.0,"State":1.0,"County":1.0,"City":1.0,"Street":[1.0],"PostalCode":1.0},"Location":{"LocationId":"NT_pJKJ4z-Je1qb53.NXGl-QA_l_767278488_R","LocationType":"point","DisplayPosition":{"Latitude":42.9681348,"Longitude":1.8715448},"MapView":{"TopLeft":{"Latitude":42.96814,"Longitude":1.87124},"BottomRight":{"Latitude":42.9681,"Longitude":1.87159}},"Address":{"Label":"Rue Victor Hugo, 09600 Laroque-d'Olmes, France","Country":"FRA","State":"Occitanie","County":"Ariège","City":"Laroque-d'Olmes","Street":"Rue Victor Hugo","PostalCode":"09600","AdditionalData":[{"value":"France","key":"CountryName"},{"value":"Occitanie","key":"StateName"},{"value":"Ariège","key":"CountyName"}]},"MapReference":{"ReferenceId":"767278488","Spot":0.87,"SideOfStreet":"right","CountryId":"20000001","StateId":"20050212","CountyId":"20083640","CityId":"20084093"}}},{"Relevance":1.0,"Distance":51.3,"MatchLevel":"street","MatchQuality":{"Country":1.0,"State":1.0,"County":1.0,"City":1.0,"PostalCode":1.0},"Location":{"LocationId":"NT_-ws5VHa54dXCWS1VOyVcTB_l_767278490_L","LocationType":"point","DisplayPosition":{"Latitude":42.96814,"Longitude":1.87159},"MapView":{"TopLeft":{"Latitude":42.96839,"Longitude":1.87151},"BottomRight":{"Latitude":42.96814,"Longitude":1.87159}},"Address":{"Label":"09600 Laroque-d'Olmes, France","Country":"FRA","State":"Occitanie","County":"Ariège","City":"Laroque-d'Olmes","PostalCode":"09600","AdditionalData":[{"value":"France","key":"CountryName"},{"value":"Occitanie","key":"StateName"},{"value":"Ariège","key":"CountyName"}]},"MapReference":{"ReferenceId":"767278490","Spot":0.0,"SideOfStreet":"left","CountryId":"20000001","StateId":"20050212","CountyId":"20083640","CityId":"20084093"}}},{"Relevance":1.0,"Distance":55.1,"MatchLevel":"street","MatchQuality":{"Country":1.0,"State":1.0,"County":1.0,"City":1.0,"Street":[1.0],"PostalCode":1.0},"Location":{"LocationId":"NT_pJKJ4z-Je1qb53.NXGl-QA_l_584043914_R","LocationType":"point","DisplayPosition":{"Latitude":42.9681,"Longitude":1.87124},"MapView":{"TopLeft":{"Latitude":42.96839,"Longitude":1.87124},"BottomRight":{"Latitude":42.9681,"Longitude":1.87151}},"Address":{"Label":"Rue Victor Hugo, 09600 Laroque-d'Olmes, France","Country":"FRA","State":"Occitanie","County":"Ariège","City":"Laroque-d'Olmes","Street":"Rue Victor Hugo","PostalCode":"09600","AdditionalData":[{"value":"France","key":"CountryName"},{"value":"Occitanie","key":"StateName"},{"value":"Ariège","key":"CountyName"}]},"MapReference":{"ReferenceId":"584043914","Spot":0.0,"SideOfStreet":"right","CountryId":"20000001","StateId":"20050212","CountyId":"20083640","CityId":"20084093"}}},{"Relevance":1.0,"Distance":58.0,"MatchLevel":"houseNumber","MatchQuality":{"Country":1.0,"State":1.0,"County":1.0,"City":1.0,"Street":[1.0],"HouseNumber":1.0,"PostalCode":1.0},"MatchType":"interpolated","Location":{"LocationId":"NT_pJKJ4z-Je1qb53.NXGl-QA_zA","LocationType":"point","DisplayPosition":{"Latitude":42.96807,"Longitude":1.87106},"MapView":{"TopLeft":{"Latitude":42.9691942,"Longitude":1.8695237},"BottomRight":{"Latitude":42.9669458,"Longitude":1.8725963}},"Address":{"Label":"3 Rue Victor Hugo, 09600 Laroque-d'Olmes, France","Country":"FRA","State":"Occitanie","County":"Ariège","City":"Laroque-d'Olmes","Street":"Rue Victor Hugo","HouseNumber":"3","PostalCode":"09600","AdditionalData":[{"value":"France","key":"CountryName"},{"value":"Occitanie","key":"StateName"},{"value":"Ariège","key":"CountyName"}]},"MapReference":{"ReferenceId":"584043862","Spot":0.76,"SideOfStreet":"right","CountryId":"20000001","StateId":"20050212","CountyId":"20083640","CityId":"20084093","AddressId":"674328872","RoadLinkId":"50992622"}}},{"Relevance":1.0,"Distance":79.4,"MatchLevel":"street","MatchQuality":{"Country":1.0,"State":1.0,"County":1.0,"City":1.0,"Street":[1.0],"PostalCode":1.0},"Location":{"LocationId":"NT_pJKJ4z-Je1qb53.NXGl-QA_l_584043915_R","LocationType":"point","DisplayPosition":{"Latitude":42.96839,"Longitude":1.87151},"MapView":{"TopLeft":{"Latitude":42.96866,"Longitude":1.87151},"BottomRight":{"Latitude":42.96839,"Longitude":1.8718}},"Address":{"Label":"Rue Victor Hugo, 09600 Laroque-d'Olmes, France","Country":"FRA","State":"Occitanie","County":"Ariège","City":"Laroque-d'Olmes","Street":"Rue Victor Hugo","PostalCode":"09600","AdditionalData":[{"value":"France","key":"CountryName"},{"value":"Occitanie","key":"StateName"},{"value":"Ariège","key":"CountyName"}]},"MapReference":{"ReferenceId":"584043915","Spot":0.0,"SideOfStreet":"right","CountryId":"20000001","StateId":"20050212","CountyId":"20083640","CityId":"20084093"}}}]}]}}