{"Response":{"MetaInfo":{"Timestamp":"2020-03-28T09:43:23.310+0000","NextPageInformation":"2"},"View":[{"_type":"SearchResultsViewType","ViewId":0,"Result":[{"Relevance":1.0,"Distance":0.0,"Direction":0.0,"MatchLevel":"city","MatchQuality":{"Country":1.0,"State":1.0,"County":1.0,"City":1.0,"PostalCode":1.0},"Location":{"LocationId":"NT_eXAyQSxNPnPbHxtQorDrjC","LocationType":"point","DisplayPosition":{"Latitude":42.9750262,"Longitude":-5.0003479},"MapView":{"TopLeft":{"Latitude":43.03224,"Longitude":-5.10978},"BottomRight":{"Latitude":42.91832,"Longitude":-4.92305}},"Address":{"Label":"Riaño, Castilla y León, España","Country":"ESP","State":"Castilla y León","County":"León","City":"Riaño","PostalCode":"24900","AdditionalData":[{"value":"España","key":"CountryName"},{"value":"Castilla y León","key":"StateName"},{"value":"León","key":"CountyName"}]},"MapReference":{"ReferenceId":"538910833","SideOfStreet":"neither","CountryId":"20215059","StateId":"20221909","CountyId":"20221912","CityId":"20306250"}}},{"Relevance":1.0,"Distance":10.2,"MatchLevel":"houseNumber","MatchQuality":{"Country":1.0,"State":1.0,"County":1.0,"City":1.0,"Street":[1.0],"HouseNumber":1.0,"PostalCode":1.0},"MatchType":"interpolated","Location":{"LocationId":"NT_ceOcFMn6uZ6oPpMhQ-UDsB_l_571888803_R_zYD","LocationType":"point","DisplayPosition":{"Latitude":42.97488,"Longitude":-5.0005834},"MapView":{"TopLeft":{"Latitude":42.9760041,"Longitude":-5.0021198},"BottomRight":{"Latitude":42.9737558,"Longitude":-4.9990469}},"Address":{"Label":"Calle Solasierra, 36, 24900 Riaño (León), España","Country":"ESP","State":"Castilla y León","County":"León","City":"Riaño","Street":"Calle Solasierra","HouseNumber":"36","PostalCode":"24900","AdditionalData":[{"value":"España","key":"CountryName"},{"value":"Castilla y León","key":"StateName"},{"value":"León","key":"CountyName"}]},"MapReference":{"ReferenceId":"571888803","Spot":0.5,"SideOfStreet":"right","CountryId":"20215059","StateId":"20221909","CountyId":"20221912","CityId":"20306250"}}},{"Relevance":1.0,"Distance":22.4,"MatchLevel":"houseNumber","MatchQuality":{"Country":1.0,"State":1.0,"County":1.0,"City":1.0,"Street":[1.0],"HouseNumber":1.0,"PostalCode":1.0},"MatchType":"interpolated","Location":{"LocationId":"NT_ceOcFMn6uZ6oPpMhQ-UDsB_l_571888789_L_xA","LocationType":"point","DisplayPosition":{"Latitude":42.9748803,"Longitude":-5.0001576},"MapView":{"TopLeft":{"Latitude":42.9760044,"Longitude":-5.0016941},"BottomRight":{"Latitude":42.9737561,"Longitude":-4.9986211}},"Address":{"Label":"Calle Solasierra, 1, 24900 Riaño (León), España","Country":"ESP","State":"Castilla y León","County":"León","City":"Riaño","Street":"Calle Solasierra","HouseNumber":"1","PostalCode":"24900","AdditionalData":[{"value":"España","key":"CountryName"},{"value":"Castilla y León","key":"StateName"},{"value":"León","key":"CountyName"}]},"MapReference":{"ReferenceId":"571888789","Spot":0.47,"SideOfStreet":"left","CountryId":"20215059","StateId":"20221909","CountyId":"20221912","CityId":"20306250"}}},{"Relevance":1.0,"Distance":26.7,"MatchLevel":"houseNumber","MatchQuality":{"Country":1.0,"State":1.0,"County":1.0,"City":1.0,"Street":[1.0],"HouseNumber":1.0,"PostalCode":1.0},"MatchType":"interpolated","Location":{"LocationId":"NT_ceOcFMn6uZ6oPpMhQ-UDsB_zQD","LocationType":"point","DisplayPosition":{"Latitude":42.97522,"Longitude":-5.00059},"MapView":{"TopLeft":{"Latitude":42.9763442,"Longitude":-5.0021265},"BottomRight":{"Latitude":42.9740958,"Longitude":-4.9990535}},"Address":{"Label":"Calle Solasierra, 34, 24900 Riaño (León), España","Country":"ESP","State":"Castilla y León","County":"León","City":"Riaño","Street":"Calle Solasierra","HouseNumber":"34","PostalCode":"24900","AdditionalData":[{"value":"España","key":"CountryName"},{"value":"Castilla y León","key":"StateName"},{"value":"León","key":"CountyName"}]},"MapReference":{"ReferenceId":"571888812","Spot":0.16,"SideOfStreet":"left","CountryId":"20215059","StateId":"20221909","CountyId":"20221912","CityId":"20306250","AddressId":"300809412","RoadLinkId":"68484132"}}},{"Relevance":1.0,"Distance":37.8,"MatchLevel":"houseNumber","MatchQuality":{"Country":1.0,"State":1.0,"County":1.0,"City":1.0,"Street":[1.0],"HouseNumber":1.0,"PostalCode":1.0},"MatchType":"interpolated","Location":{"LocationId":"NT_ceOcFMn6uZ6oPpMhQ-UDsB_2ED","LocationType":"point","DisplayPosition":{"Latitude":42.9753,"Longitude":-5.00086},"MapView":{"TopLeft":{"Latitude":42.9764242,"Longitude":-5.0023965},"BottomRight":{"Latitude":42.9741758,"Longitude":-4.9993235}},"Address":{"Label":"Calle Solasierra, 61, 24900 Riaño (León), España","Country":"ESP","State":"Castilla y León","County":"León","City":"Riaño","Street":"Calle Solasierra","HouseNumber":"61","PostalCode":"24900","AdditionalData":[{"value":"España","key":"CountryName"},{"value":"Castilla y León","key":"StateName"},{"value":"León","key":"CountyName"}]},"MapReference":{"ReferenceId":"571888794","Spot":0.0,"SideOfStreet":"right","CountryId":"20215059","StateId":"20221909","CountyId":"20221912","CityId":"20306250","AddressId":"300907608","RoadLinkId":"68198455"}}},{"Relevance":1.0,"Distance":51.6,"MatchLevel":"street","MatchQuality":{"Country":1.0,"State":1.0,"County":1.0,"City":1.0,"Street":[1.0],"PostalCode":1.0},"Location":{"LocationId":"NT_TzHcDrjOcNrgf7w58ZPHND_l_571888792_L","LocationType":"point","DisplayPosition":{"Latitude":42.9753,"Longitude":-5.00086},"MapView":{"TopLeft":{"Latitude":42.97539,"Longitude":-5.00164},"BottomRight":{"Latitude":42.9753,"Longitude":-5.00086}},"Address":{"Label":"Plaza Cimadevilla, 24900 Riaño (León), España","Country":"ESP","State":"Castilla y León","County":"León","City":"Riaño","Street":"Plaza Cimadevilla","PostalCode":"24900","AdditionalData":[{"value":"España","key":"CountryName"},{"value":"Castilla y León","key":"StateName"},{"value":"León","key":"CountyName"}]},"MapReference":{"ReferenceId":"571888792","Spot":0.0,"SideOfStreet":"left","CountryId":"20215059","StateId":"20221909","CountyId":"20221912","CityId":"20306250"}}},{"Relevance":1.0,"Distance":62.4,"MatchLevel":"houseNumber","MatchQuality":{"Country":1.0,"State":1.0,"County":1.0,"City":1.0,"Street":[1.0],"HouseNumber":1.0,"PostalCode":1.0},"MatchType":"interpolated","Location":{"LocationId":"NT_ceOcFMn6uZ6oPpMhQ-UDsB_l_571888811_L_1kD","LocationType":"point","DisplayPosition":{"Latitude":42.974392,"Longitude":-5.0003488},"MapView":{"TopLeft":{"Latitude":42.9755162,"Longitude":-5.0018853},"BottomRight":{"Latitude":42.9732679,"Longitude":-4.9988124}},"Address":{"Label":"Calle Solasierra, 59, 24900 Riaño (León), España","Country":"ESP","State":"Castilla y León","County":"León","City":"Riaño","Street":"Calle Solasierra","HouseNumber":"59","PostalCode":"24900","AdditionalData":[{"value":"España","key":"CountryName"},{"value":"Castilla y León","key":"StateName"},{"value":"León","key":"CountyName"}]},"MapReference":{"ReferenceId":"571888811","Spot":0.49,"SideOfStreet":"left","CountryId":"20215059","StateId":"20221909","CountyId":"20221912","CityId":"20306250"}}},{"Relevance":1.0,"Distance":72.7,"MatchLevel":"street","MatchQuality":{"Country":1.0,"State":1.0,"County":1.0,"City":1.0,"Street":[1.0],"PostalCode":1.0},"Location":{"LocationId":"NT_o.2Ug-FISX9lMQlRN0QXtB_l_950372971_L","LocationType":"point","DisplayPosition":{"Latitude":42.9749281,"Longitude":-4.9994647},"MapView":{"TopLeft":{"Latitude":42.97544,"Longitude":-4.99952},"BottomRight":{"Latitude":42.97384,"Longitude":-4.99924}},"Address":{"Label":"N-621, 24900 Riaño (León), España","Country":"ESP","State":"Castilla y León","County":"León","City":"Riaño","Street":"N-621","PostalCode":"24900","AdditionalData":[{"value":"España","key":"CountryName"},{"value":"Castilla y León","key":"StateName"},{"value":"León","key":"CountyName"}]},"MapReference":{"ReferenceId":"950372971","Spot":0.69,"SideOfStreet":"left","CountryId":"20215059","StateId":"20221909","CountyId":"20221912","CityId":"20306250"}}},{"Relevance":1.0,"Distance":79.7,"MatchLevel":"houseNumber","MatchQuality":{"Country":1.0,"State":1.0,"County":1.0,"City":1.0,"Street":[1.0],"HouseNumber":1.0,"PostalCode":1.0},"MatchType":"interpolated","Location":{"LocationId":"NT_ceOcFMn6uZ6oPpMhQ-UDsB_l_571888802_L_1ED","LocationType":"point","DisplayPosition":{"Latitude":42.9742217,"Longitude":-5.0006333},"MapView":{"TopLeft":{"Latitude":42.9753458,"Longitude":-5.0021698},"BottomRight":{"Latitude":42.9730975,"Longitude":-4.9990969}},"Address":{"Label":"Calle Solasierra, 51, 24900 Riaño (León), España","Country":"ESP","State":"Castilla y León","County":"León","City":"Riaño","Street":"Calle Solasierra","HouseNumber":"51","PostalCode":"24900","AdditionalData":[{"value":"España","key":"CountryName"},{"value":"Castilla y León","key":"StateName"},{"value":"León","key":"CountyName"}]},"MapReference":{"ReferenceId":"571888802","Spot":0.72,"SideOfStreet":"left","CountryId":"20215059","StateId":"20221909","CountyId":"20221912","CityId":"20306250"}}},{"Relevance":1.0,"Distance":94.5,"MatchLevel":"street","MatchQuality":{"Country":1.0,"State":1.0,"County":1.0,"City":1.0,"Street":[1.0],"PostalCode":1.0},"Location":{"LocationId":"NT_o.2Ug-FISX9lMQlRN0QXtB_l_950707290_L","LocationType":"point","DisplayPosition":{"Latitude":42.97581,"Longitude":-4.9999},"MapView":{"TopLeft":{"Latitude":42.976,"Longitude":-5.00026},"BottomRight":{"Latitude":42.97544,"Longitude":-4.99952}},"Address":{"Label":"N-621, 24900 Riaño (León), España","Country":"ESP","State":"Castilla y León","County":"León","City":"Riaño","Street":"N-621","PostalCode":"24900","AdditionalData":[{"value":"España","key":"CountryName"},{"value":"Castilla y León","key":"StateName"},{"value":"León","key":"CountyName"}]},"MapReference":{"ReferenceId":"950707290","Spot":0.57,"SideOfStreet":"left","CountryId":"20215059","StateId":"20221909","CountyId":"20221912","CityId":"20306250"}}}]}]}}