{"Response":{"MetaInfo":{"Timestamp":"2020-03-28T09:39:15.034+0000","NextPageInformation":"2"},"View":[{"_type":"SearchResultsViewType","ViewId":0,"Result":[{"Relevance":1.0,"Distance":0.0,"Direction":0.0,"MatchLevel":"city","MatchQuality":{"Country":1.0,"State":1.0,"County":1.0,"City":1.0,"PostalCode":1.0},"Location":{"LocationId":"NT_q5sDR2oOuQOMl0jFfTDC7C","LocationType":"point","DisplayPosition":{"Latitude":43.0303277,"Longitude":-7.3288981},"MapView":{"TopLeft":{"Latitude":43.11435,"Longitude":-7.43786},"BottomRight":{"Latitude":42.93855,"Longitude":-7.24338}},"Address":{"Label":"Castroverde, Galicia, España","Country":"ESP","State":"Galicia","County":"Lugo","City":"Castroverde","PostalCode":"27120","AdditionalData":[{"value":"España","key":"CountryName"},{"value":"Galicia","key":"StateName"},{"value":"Lugo","key":"CountyName"}]},"MapReference":{"ReferenceId":"82188053","SideOfStreet":"neither","CountryId":"20215059","StateId":"20226791","CountyId":"20226793","CityId":"20323782"}}},{"Relevance":1.0,"Distance":37.3,"MatchLevel":"street","MatchQuality":{"Country":1.0,"State":1.0,"County":1.0,"City":1.0,"Street":[1.0],"PostalCode":1.0},"Location":{"LocationId":"NT_tYlzwIhkeVFe4zqBvJ-RgC_l_942934069_R","LocationType":"point","DisplayPosition":{"Latitude":43.0299961,"Longitude":-7.3289706},"MapView":{"TopLeft":{"Latitude":43.03009,"Longitude":-7.3294},"BottomRight":{"Latitude":43.02989,"Longitude":-7.32808}},"Address":{"Label":"LU-530, 27120 Castroverde (Lugo), España","Country":"ESP","State":"Galicia","County":"Lugo","City":"Castroverde","Street":"LU-530","PostalCode":"27120","AdditionalData":[{"value":"España","key":"CountryName"},{"value":"Galicia","key":"StateName"},{"value":"Lugo","key":"CountyName"}]},"MapReference":{"ReferenceId":"942934069","Spot":0.67,"SideOfStreet":"right","CountryId":"20215059","StateId":"20226791","CountyId":"20226793","CityId":"20323782"}}},{"Relevance":1.0,"Distance":70.7,"MatchLevel":"houseNumber","MatchQuality":{"Country":1.0,"State":1.0,"County":1.0,"City":1.0,"Street":[1.0],"HouseNumber":1.0,"PostalCode":1.0},"MatchType":"interpolated","Location":{"LocationId":"NT_tYlzwIhkeVFe4zqBvJ-RgC_ycD","LocationType":"point","DisplayPosition":{"Latitude":43.03016,"Longitude":-7.32978},"MapView":{"TopLeft":{"Latitude":43.0312842,"Longitude":-7.3313178},"BottomRight":{"Latitude":43.0290358,"Longitude":-7.3282422}},"Address":{"Label":"LU-530, 27, 27120 Castroverde (Lugo), España","Country":"ESP","State":"Galicia","County":"Lugo","City":"Castroverde","Street":"LU-530","HouseNumber":"27","PostalCode":"27120","AdditionalData":[{"value":"España","key":"CountryName"},{"value":"Galicia","key":"StateName"},{"value":"Lugo","key":"CountyName"}]},"MapReference":{"ReferenceId":"942934068","Spot":0.8,"SideOfStreet":"left","CountryId":"20215059","StateId":"20226791","CountyId":"20226793","CityId":"20323782","AddressId":"351138449","RoadLinkId":"292588083"}}},{"Relevance":1.0,"Distance":79.7,"MatchLevel":"houseNumber","MatchQuality":{"Country":1.0,"State":1.0,"County":1.0,"City":1.0,"Street":[1.0],"HouseNumber":1.0,"PostalCode":1.0},"MatchType":"interpolated","Location":{"LocationId":"NT_azD-R-j30gz8ZMm4Gyo5kD_1MD","LocationType":"point","DisplayPosition":{"Latitude":43.0299,"Longitude":-7.32804},"MapView":{"TopLeft":{"Latitude":43.0310242,"Longitude":-7.3295778},"BottomRight":{"Latitude":43.0287758,"Longitude":-7.3265022}},"Address":{"Label":"Rúa Rosalía de Castro, 53, 27120 Castroverde (Lugo), España","Country":"ESP","State":"Galicia","County":"Lugo","City":"Castroverde","Street":"Rúa Rosalía de Castro","HouseNumber":"53","PostalCode":"27120","AdditionalData":[{"value":"España","key":"CountryName"},{"value":"Galicia","key":"StateName"},{"value":"Lugo","key":"CountyName"}]},"MapReference":{"ReferenceId":"82188054","Spot":0.04,"SideOfStreet":"left","CountryId":"20215059","StateId":"20226791","CountyId":"20226793","CityId":"20323782","AddressId":"351042995","RoadLinkId":"68973103"}}},{"Relevance":1.0,"Distance":119.9,"MatchLevel":"street","MatchQuality":{"Country":1.0,"State":1.0,"County":1.0,"City":1.0,"Street":[1.0],"PostalCode":1.0},"Location":{"LocationId":"NT_lQ5j0or4ZwZ5ze-BKQzaQC_l_562542725_L","LocationType":"point","DisplayPosition":{"Latitude":43.02926,"Longitude":-7.3291},"MapView":{"TopLeft":{"Latitude":43.02927,"Longitude":-7.33166},"BottomRight":{"Latitude":43.02877,"Longitude":-7.3282}},"Address":{"Label":"Rúa da Fonte, 27120 Castroverde (Lugo), España","Country":"ESP","State":"Galicia","County":"Lugo","City":"Castroverde","Street":"Rúa da Fonte","PostalCode":"27120","AdditionalData":[{"value":"España","key":"CountryName"},{"value":"Galicia","key":"StateName"},{"value":"Lugo","key":"CountyName"}]},"MapReference":{"ReferenceId":"562542725","Spot":0.74,"SideOfStreet":"left","CountryId":"20215059","StateId":"20226791","CountyId":"20226793","CityId":"20323782"}}},{"Relevance":1.0,"Distance":143.1,"MatchLevel":"houseNumber","MatchQuality":{"Country":1.0,"State":1.0,"County":1.0,"City":1.0,"Street":[1.0],"HouseNumber":1.0,"PostalCode":1.0},"MatchType":"interpolated","Location":{"LocationId":"NT_lQ5j0or4ZwZ5ze-BKQzaQC_zA","LocationType":"point","DisplayPosition":{"Latitude":43.02931,"Longitude":-7.32782},"MapView":{"TopLeft":{"Latitude":43.0304342,"Longitude":-7.3293578},"BottomRight":{"Latitude":43.0281858,"Longitude":-7.3262822}},"Address":{"Label":"Rúa da Fonte, 3, 27120 Castroverde (Lugo), España","Country":"ESP","State":"Galicia","County":"Lugo","City":"Castroverde","Street":"Rúa da Fonte","HouseNumber":"3","PostalCode":"27120","AdditionalData":[{"value":"España","key":"CountryName"},{"value":"Galicia","key":"StateName"},{"value":"Lugo","key":"CountyName"}]},"MapReference":{"ReferenceId":"562539817","Spot":0.3,"SideOfStreet":"right","CountryId":"20215059","StateId":"20226791","CountyId":"20226793","CityId":"20323782","AddressId":"350999568","RoadLinkId":"68639974"}}},{"Relevance":1.0,"Distance":154.1,"MatchLevel":"houseNumber","MatchQuality":{"Country":1.0,"State":1.0,"County":1.0,"City":1.0,"Street":[1.0],"HouseNumber":1.0,"PostalCode":1.0},"MatchType":"interpolated","Location":{"LocationId":"NT_SqR.Lxu6d6wqBUgmnIqH8C_xA","LocationType":"point","DisplayPosition":{"Latitude":43.03022,"Longitude":-7.32697},"MapView":{"TopLeft":{"Latitude":43.0313442,"Longitude":-7.3285078},"BottomRight":{"Latitude":43.0290958,"Longitude":-7.3254322}},"Address":{"Label":"Travesa de Montecubeiro, 1, 27120 Castroverde (Lugo), España","Country":"ESP","State":"Galicia","County":"Lugo","City":"Castroverde","Street":"Travesa de Montecubeiro","HouseNumber":"1","PostalCode":"27120","AdditionalData":[{"value":"España","key":"CountryName"},{"value":"Galicia","key":"StateName"},{"value":"Lugo","key":"CountyName"}]},"MapReference":{"ReferenceId":"562536999","Spot":0.2,"SideOfStreet":"left","CountryId":"20215059","StateId":"20226791","CountyId":"20226793","CityId":"20323782","AddressId":"364747844","RoadLinkId":"67771307"}}},{"Relevance":1.0,"Distance":156.7,"MatchLevel":"street","MatchQuality":{"Country":1.0,"State":1.0,"County":1.0,"City":1.0,"Street":[1.0],"PostalCode":1.0},"Location":{"LocationId":"NT_IO29O2.4qaw5G-PW6LAiCB_l_574804379_L","LocationType":"point","DisplayPosition":{"Latitude":43.031544,"Longitude":-7.327925},"MapView":{"TopLeft":{"Latitude":43.03304,"Longitude":-7.33107},"BottomRight":{"Latitude":43.03125,"Longitude":-7.32741}},"Address":{"Label":"Vilariño, 27120 Castroverde (Lugo), España","Country":"ESP","State":"Galicia","County":"Lugo","City":"Castroverde","Street":"Vilariño","PostalCode":"27120","AdditionalData":[{"value":"España","key":"CountryName"},{"value":"Galicia","key":"StateName"},{"value":"Lugo","key":"CountyName"}]},"MapReference":{"ReferenceId":"574804379","Spot":0.13,"SideOfStreet":"left","CountryId":"20215059","StateId":"20226791","CountyId":"20226793","CityId":"20323782"}}},{"Relevance":1.0,"Distance":158.6,"MatchLevel":"street","MatchQuality":{"Country":1.0,"State":1.0,"County":1.0,"City":1.0,"Street":[1.0],"PostalCode":1.0},"Location":{"LocationId":"NT_IO29O2.4qaw5G-PW6LAiCB_l_574800060_L","LocationType":"point","DisplayPosition":{"Latitude":43.03125,"Longitude":-7.32741},"MapView":{"TopLeft":{"Latitude":43.03125,"Longitude":-7.32741},"BottomRight":{"Latitude":43.03104,"Longitude":-7.32686}},"Address":{"Label":"Vilariño, 27120 Castroverde (Lugo), España","Country":"ESP","State":"Galicia","County":"Lugo","City":"Castroverde","Street":"Vilariño","PostalCode":"27120","AdditionalData":[{"value":"España","key":"CountryName"},{"value":"Galicia","key":"StateName"},{"value":"Lugo","key":"CountyName"}]},"MapReference":{"ReferenceId":"574800060","Spot":1.0,"SideOfStreet":"left","CountryId":"20215059","StateId":"20226791","CountyId":"20226793","CityId":"20323782"}}},{"Relevance":1.0,"Distance":158.9,"MatchLevel":"street","MatchQuality":{"Country":1.0,"State":1.0,"County":1.0,"City":1.0,"Street":[1.0],"PostalCode":1.0},"Location":{"LocationId":"NT_AfWXYkdAYJ6vCu1uk1BuUB_l_82188059_L","LocationType":"point","DisplayPosition":{"Latitude":43.03005,"Longitude":-7.32698},"MapView":{"TopLeft":{"Latitude":43.03005,"Longitude":-7.32698},"BottomRight":{"Latitude":43.02943,"Longitude":-7.32682}},"Address":{"Label":"Rúa da Feira, 27120 Castroverde (Lugo), España","Country":"ESP","State":"Galicia","County":"Lugo","City":"Castroverde","Street":"Rúa da Feira","PostalCode":"27120","AdditionalData":[{"value":"España","key":"CountryName"},{"value":"Galicia","key":"StateName"},{"value":"Lugo","key":"CountyName"}]},"MapReference":{"ReferenceId":"82188059","Spot":1.0,"SideOfStreet":"left","CountryId":"20215059","StateId":"20226791","CountyId":"20226793","CityId":"20323782"}}}]}]}}