{"Response":{"MetaInfo":{"Timestamp":"2020-03-28T10:27:04.221+0000","NextPageInformation":"2"},"View":[{"_type":"SearchResultsViewType","ViewId":0,"Result":[{"Relevance":1.0,"Distance":0.0,"Direction":0.0,"MatchLevel":"district","MatchQuality":{"Country":1.0,"State":1.0,"County":1.0,"City":1.0,"District":1.0,"PostalCode":1.0},"Location":{"LocationId":"NT_PAuT8ixihdZ3mHP6KW9XnC","LocationType":"point","DisplayPosition":{"Latitude":43.0449182,"Longitude":-3.6976134},"MapView":{"TopLeft":{"Latitude":43.04582,"Longitude":-3.69937},"BottomRight":{"Latitude":43.04274,"Longitude":-3.69504}},"Address":{"Label":"Entrambosrios, Merindad de Sotoscueva, Castilla y León, España","Country":"ESP","State":"Castilla y León","County":"Burgos","City":"Merindad de Sotoscueva","District":"Entrambosrios","PostalCode":"09568","AdditionalData":[{"value":"España","key":"CountryName"},{"value":"Castilla y León","key":"StateName"},{"value":"Burgos","key":"CountyName"}]},"MapReference":{"ReferenceId":"560058856","SideOfStreet":"neither","CountryId":"20215059","StateId":"20221909","CountyId":"20221911","CityId":"20303034","DistrictId":"20303047"}}},{"Relevance":1.0,"Distance":8.4,"MatchLevel":"street","MatchQuality":{"Country":1.0,"State":1.0,"County":1.0,"City":1.0,"District":1.0,"Street":[1.0],"PostalCode":1.0},"Location":{"LocationId":"NT_BCicpfu-9TNUeJcSrks4aB_l_997228619_R","LocationType":"point","DisplayPosition":{"Latitude":43.04486,"Longitude":-3.69768},"MapView":{"TopLeft":{"Latitude":43.04486,"Longitude":-3.69768},"BottomRight":{"Latitude":43.0444,"Longitude":-3.69752}},"Address":{"Label":"Poblado Emtrambosríos, 09568 Merindad de Sotoscueva (Burgos), España","Country":"ESP","State":"Castilla y León","County":"Burgos","City":"Merindad de Sotoscueva","District":"Entrambosrios","Street":"Poblado Emtrambosríos","PostalCode":"09568","AdditionalData":[{"value":"España","key":"CountryName"},{"value":"Castilla y León","key":"StateName"},{"value":"Burgos","key":"CountyName"}]},"MapReference":{"ReferenceId":"997228619","Spot":1.0,"SideOfStreet":"right","CountryId":"20215059","StateId":"20221909","CountyId":"20221911","CityId":"20303034","DistrictId":"20303047"}}},{"Relevance":1.0,"Distance":8.4,"MatchLevel":"street","MatchQuality":{"Country":1.0,"State":1.0,"County":1.0,"City":1.0,"District":1.0,"Street":[1.0],"PostalCode":1.0},"Location":{"LocationId":"NT_7TeiOaWre.3UeD0bY3kaRD_l_1250749499_R","LocationType":"point","DisplayPosition":{"Latitude":43.04486,"Longitude":-3.69768},"MapView":{"TopLeft":{"Latitude":43.04492,"Longitude":-3.69783},"BottomRight":{"Latitude":43.04486,"Longitude":-3.69768}},"Address":{"Label":"BU-V-5612, 09568 Merindad de Sotoscueva (Burgos), España","Country":"ESP","State":"Castilla y León","County":"Burgos","City":"Merindad de Sotoscueva","District":"Entrambosrios","Street":"BU-V-5612","PostalCode":"09568","AdditionalData":[{"value":"España","key":"CountryName"},{"value":"Castilla y León","key":"StateName"},{"value":"Burgos","key":"CountyName"}]},"MapReference":{"ReferenceId":"1250749499","Spot":0.0,"SideOfStreet":"right","CountryId":"20215059","StateId":"20221909","CountyId":"20221911","CityId":"20303034","DistrictId":"20303047"}}},{"Relevance":1.0,"Distance":10.0,"MatchLevel":"houseNumber","MatchQuality":{"Country":1.0,"State":1.0,"County":1.0,"City":1.0,"District":1.0,"Street":[1.0],"HouseNumber":1.0,"PostalCode":1.0},"MatchType":"interpolated","Location":{"LocationId":"NT_7TeiOaWre.3UeD0bY3kaRD_4A","LocationType":"point","DisplayPosition":{"Latitude":43.04483,"Longitude":-3.69764},"MapView":{"TopLeft":{"Latitude":43.0459542,"Longitude":-3.6991782},"BottomRight":{"Latitude":43.0437058,"Longitude":-3.6961018}},"Address":{"Label":"BU-V-5612, 8, 09568 Merindad de Sotoscueva (Burgos), España","Country":"ESP","State":"Castilla y León","County":"Burgos","City":"Merindad de Sotoscueva","District":"Entrambosrios","Street":"BU-V-5612","HouseNumber":"8","PostalCode":"09568","AdditionalData":[{"value":"España","key":"CountryName"},{"value":"Castilla y León","key":"StateName"},{"value":"Burgos","key":"CountyName"}]},"MapReference":{"ReferenceId":"997228326","Spot":0.96,"SideOfStreet":"right","CountryId":"20215059","StateId":"20221909","CountyId":"20221911","CityId":"20303034","DistrictId":"20303047","AddressId":"797491342","RoadLinkId":"324888478"}}},{"Relevance":1.0,"Distance":21.2,"MatchLevel":"houseNumber","MatchQuality":{"Country":1.0,"State":1.0,"County":1.0,"City":1.0,"District":1.0,"Street":[1.0],"HouseNumber":1.0,"PostalCode":1.0},"MatchType":"interpolated","Location":{"LocationId":"NT_BCicpfu-9TNUeJcSrks4aB_5A","LocationType":"point","DisplayPosition":{"Latitude":43.04499,"Longitude":-3.6979},"MapView":{"TopLeft":{"Latitude":43.0461142,"Longitude":-3.6994382},"BottomRight":{"Latitude":43.0438658,"Longitude":-3.6963618}},"Address":{"Label":"Poblado Emtrambosríos, 9, 09568 Merindad de Sotoscueva (Burgos), España","Country":"ESP","State":"Castilla y León","County":"Burgos","City":"Merindad de Sotoscueva","District":"Entrambosrios","Street":"Poblado Emtrambosríos","HouseNumber":"9","PostalCode":"09568","AdditionalData":[{"value":"España","key":"CountryName"},{"value":"Castilla y León","key":"StateName"},{"value":"Burgos","key":"CountyName"}]},"MapReference":{"ReferenceId":"1250749500","Spot":0.34,"SideOfStreet":"right","CountryId":"20215059","StateId":"20221909","CountyId":"20221911","CityId":"20303034","DistrictId":"20303047","AddressId":"799462175","RoadLinkId":"573669990"}}},{"Relevance":1.0,"Distance":57.0,"MatchLevel":"houseNumber","MatchQuality":{"Country":1.0,"State":1.0,"County":1.0,"City":1.0,"District":1.0,"Street":[1.0],"HouseNumber":1.0,"PostalCode":1.0},"MatchType":"interpolated","Location":{"LocationId":"NT_7TeiOaWre.3UeD0bY3kaRD_zgD","LocationType":"point","DisplayPosition":{"Latitude":43.04451,"Longitude":-3.69818},"MapView":{"TopLeft":{"Latitude":43.0456342,"Longitude":-3.6997182},"BottomRight":{"Latitude":43.0433858,"Longitude":-3.6966418}},"Address":{"Label":"BU-V-5612, 38, 09568 Merindad de Sotoscueva (Burgos), España","Country":"ESP","State":"Castilla y León","County":"Burgos","City":"Merindad de Sotoscueva","District":"Entrambosrios","Street":"BU-V-5612","HouseNumber":"38","PostalCode":"09568","AdditionalData":[{"value":"España","key":"CountryName"},{"value":"Castilla y León","key":"StateName"},{"value":"Burgos","key":"CountyName"}]},"MapReference":{"ReferenceId":"1250749498","Spot":0.29,"SideOfStreet":"right","CountryId":"20215059","StateId":"20221909","CountyId":"20221911","CityId":"20303034","DistrictId":"20303047","AddressId":"797491355","RoadLinkId":"573669988"}}},{"Relevance":1.0,"Distance":58.1,"MatchLevel":"street","MatchQuality":{"Country":1.0,"State":1.0,"County":1.0,"City":1.0,"District":1.0,"Street":[1.0],"PostalCode":1.0},"Location":{"LocationId":"NT_BCicpfu-9TNUeJcSrks4aB_l_1249742297_L","LocationType":"point","DisplayPosition":{"Latitude":43.0444,"Longitude":-3.69752},"MapView":{"TopLeft":{"Latitude":43.0444,"Longitude":-3.69804},"BottomRight":{"Latitude":43.04411,"Longitude":-3.69752}},"Address":{"Label":"Poblado Emtrambosríos, 09568 Merindad de Sotoscueva (Burgos), España","Country":"ESP","State":"Castilla y León","County":"Burgos","City":"Merindad de Sotoscueva","District":"Entrambosrios","Street":"Poblado Emtrambosríos","PostalCode":"09568","AdditionalData":[{"value":"España","key":"CountryName"},{"value":"Castilla y León","key":"StateName"},{"value":"Burgos","key":"CountyName"}]},"MapReference":{"ReferenceId":"1249742297","Spot":1.0,"SideOfStreet":"left","CountryId":"20215059","StateId":"20221909","CountyId":"20221911","CityId":"20303034","DistrictId":"20303047"}}},{"Relevance":1.0,"Distance":64.3,"MatchLevel":"street","MatchQuality":{"Country":1.0,"State":1.0,"County":1.0,"City":1.0,"District":1.0,"Street":[1.0],"PostalCode":1.0},"Location":{"LocationId":"NT_BCicpfu-9TNUeJcSrks4aB_l_1248253458_L","LocationType":"point","DisplayPosition":{"Latitude":43.04521,"Longitude":-3.69693},"MapView":{"TopLeft":{"Latitude":43.0457,"Longitude":-3.69701},"BottomRight":{"Latitude":43.04487,"Longitude":-3.69625}},"Address":{"Label":"Poblado Emtrambosríos, 09568 Merindad de Sotoscueva (Burgos), España","Country":"ESP","State":"Castilla y León","County":"Burgos","City":"Merindad de Sotoscueva","District":"Entrambosrios","Street":"Poblado Emtrambosríos","PostalCode":"09568","AdditionalData":[{"value":"España","key":"CountryName"},{"value":"Castilla y León","key":"StateName"},{"value":"Burgos","key":"CountyName"}]},"MapReference":{"ReferenceId":"1248253458","Spot":0.54,"SideOfStreet":"left","CountryId":"20215059","StateId":"20221909","CountyId":"20221911","CityId":"20303034","DistrictId":"20303047"}}},{"Relevance":1.0,"Distance":82.0,"MatchLevel":"houseNumber","MatchQuality":{"Country":1.0,"State":1.0,"County":1.0,"City":1.0,"District":1.0,"Street":[1.0],"HouseNumber":1.0,"PostalCode":1.0},"MatchType":"interpolated","Location":{"LocationId":"NT_BCicpfu-9TNUeJcSrks4aB_0AD","LocationType":"point","DisplayPosition":{"Latitude":43.0442,"Longitude":-3.69735},"MapView":{"TopLeft":{"Latitude":43.0453242,"Longitude":-3.6988882},"BottomRight":{"Latitude":43.0430758,"Longitude":-3.6958118}},"Address":{"Label":"Poblado Emtrambosríos, 40, 09568 Merindad de Sotoscueva (Burgos), España","Country":"ESP","State":"Castilla y León","County":"Burgos","City":"Merindad de Sotoscueva","District":"Entrambosrios","Street":"Poblado Emtrambosríos","HouseNumber":"40","PostalCode":"09568","AdditionalData":[{"value":"España","key":"CountryName"},{"value":"Castilla y León","key":"StateName"},{"value":"Burgos","key":"CountyName"}]},"MapReference":{"ReferenceId":"997228618","Spot":0.63,"SideOfStreet":"right","CountryId":"20215059","StateId":"20221909","CountyId":"20221911","CityId":"20303034","DistrictId":"20303047","AddressId":"798768866","RoadLinkId":"572111784"}}},{"Relevance":1.0,"Distance":86.4,"MatchLevel":"houseNumber","MatchQuality":{"Country":1.0,"State":1.0,"County":1.0,"City":1.0,"District":1.0,"Street":[1.0],"HouseNumber":1.0,"PostalCode":1.0},"MatchType":"interpolated","Location":{"LocationId":"NT_BCicpfu-9TNUeJcSrks4aB_xcD","LocationType":"point","DisplayPosition":{"Latitude":43.04424,"Longitude":-3.69824},"MapView":{"TopLeft":{"Latitude":43.0453642,"Longitude":-3.6997782},"BottomRight":{"Latitude":43.0431158,"Longitude":-3.6967018}},"Address":{"Label":"Poblado Emtrambosríos, 17, 09568 Merindad de Sotoscueva (Burgos), España","Country":"ESP","State":"Castilla y León","County":"Burgos","City":"Merindad de Sotoscueva","District":"Entrambosrios","Street":"Poblado Emtrambosríos","HouseNumber":"17","PostalCode":"09568","AdditionalData":[{"value":"España","key":"CountryName"},{"value":"Castilla y León","key":"StateName"},{"value":"Burgos","key":"CountyName"}]},"MapReference":{"ReferenceId":"997228621","Spot":0.69,"SideOfStreet":"right","CountryId":"20215059","StateId":"20221909","CountyId":"20221911","CityId":"20303034","DistrictId":"20303047","AddressId":"798774138","RoadLinkId":"571908918"}}}]}]}}