{"Response":{"MetaInfo":{"Timestamp":"2020-03-28T09:47:53.258+0000","NextPageInformation":"2"},"View":[{"_type":"SearchResultsViewType","ViewId":0,"Result":[{"Relevance":1.0,"Distance":0.0,"Direction":0.0,"MatchLevel":"city","MatchQuality":{"Country":1.0,"State":1.0,"County":1.0,"City":1.0,"PostalCode":1.0},"Location":{"LocationId":"NT_tl8HQcJZvHSm5Uy9pbYyxA","LocationType":"point","DisplayPosition":{"Latitude":43.0327889,"Longitude":-2.4170942},"MapView":{"TopLeft":{"Latitude":43.08186,"Longitude":-2.47988},"BottomRight":{"Latitude":42.94686,"Longitude":-2.35157}},"Address":{"Label":"Oñate, País Vasco, España","Country":"ESP","State":"País Vasco","County":"Guipúzcoa","City":"Oñate","PostalCode":"20560","AdditionalData":[{"value":"España","key":"CountryName"},{"value":"País Vasco","key":"StateName"},{"value":"Guipúzcoa","key":"CountyName"}]},"MapReference":{"ReferenceId":"763785398","SideOfStreet":"neither","CountryId":"20215059","StateId":"20226804","CountyId":"20226806","CityId":"20286169"}}},{"Relevance":1.0,"Distance":1.1,"MatchLevel":"street","MatchQuality":{"Country":1.0,"State":1.0,"County":1.0,"City":1.0,"Street":[1.0],"PostalCode":1.0},"Location":{"LocationId":"NT_e82dUOm5r6VJkv8rYevX9D_l_539434543_L","LocationType":"point","DisplayPosition":{"Latitude":43.032797,"Longitude":-2.4171017},"MapView":{"TopLeft":{"Latitude":43.03291,"Longitude":-2.4173},"BottomRight":{"Latitude":43.03263,"Longitude":-2.41698}},"Address":{"Label":"Barrio Garagaltza, 20560 Oñate (Guipúzcoa), España","Country":"ESP","State":"País Vasco","County":"Guipúzcoa","City":"Oñate","Street":"Barrio Garagaltza","PostalCode":"20560","AdditionalData":[{"value":"España","key":"CountryName"},{"value":"País Vasco","key":"StateName"},{"value":"Guipúzcoa","key":"CountyName"}]},"MapReference":{"ReferenceId":"539434543","Spot":0.61,"SideOfStreet":"neither","CountryId":"20215059","StateId":"20226804","CountyId":"20226806","CityId":"20286169"}}},{"Relevance":1.0,"Distance":23.7,"MatchLevel":"street","MatchQuality":{"Country":1.0,"State":1.0,"County":1.0,"City":1.0,"Street":[1.0],"PostalCode":1.0},"Location":{"LocationId":"NT_e82dUOm5r6VJkv8rYevX9D_l_1222774834_R","LocationType":"point","DisplayPosition":{"Latitude":43.03272,"Longitude":-2.41737},"MapView":{"TopLeft":{"Latitude":43.03286,"Longitude":-2.41748},"BottomRight":{"Latitude":43.03272,"Longitude":-2.41737}},"Address":{"Label":"Barrio Garagaltza, 20560 Oñate (Guipúzcoa), España","Country":"ESP","State":"País Vasco","County":"Guipúzcoa","City":"Oñate","Street":"Barrio Garagaltza","PostalCode":"20560","AdditionalData":[{"value":"España","key":"CountryName"},{"value":"País Vasco","key":"StateName"},{"value":"Guipúzcoa","key":"CountyName"}]},"MapReference":{"ReferenceId":"1222774834","Spot":0.0,"SideOfStreet":"right","CountryId":"20215059","StateId":"20226804","CountyId":"20226806","CityId":"20286169"}}},{"Relevance":1.0,"Distance":24.3,"MatchLevel":"street","MatchQuality":{"Country":1.0,"State":1.0,"County":1.0,"City":1.0,"Street":[1.0],"PostalCode":1.0},"Location":{"LocationId":"NT_Rok8XB05YimOmkYBZtrRMA_l_539434829_R","LocationType":"point","DisplayPosition":{"Latitude":43.03263,"Longitude":-2.4173},"MapView":{"TopLeft":{"Latitude":43.03263,"Longitude":-2.41761},"BottomRight":{"Latitude":43.03235,"Longitude":-2.4173}},"Address":{"Label":"Barrio Garagaltza, 20569 Oñate (Guipúzcoa), España","Country":"ESP","State":"País Vasco","County":"Guipúzcoa","City":"Oñate","Street":"Barrio Garagaltza","PostalCode":"20569","AdditionalData":[{"value":"España","key":"CountryName"},{"value":"País Vasco","key":"StateName"},{"value":"Guipúzcoa","key":"CountyName"}]},"MapReference":{"ReferenceId":"539434829","Spot":1.0,"SideOfStreet":"right","CountryId":"20215059","StateId":"20226804","CountyId":"20226806","CityId":"20286169"}}},{"Relevance":1.0,"Distance":24.5,"MatchLevel":"street","MatchQuality":{"Country":1.0,"State":1.0,"County":1.0,"City":1.0,"Street":[1.0],"PostalCode":1.0},"Location":{"LocationId":"NT_SDh3mMx.S4KhnvBjU4rfeC_l_1222774835_R","LocationType":"point","DisplayPosition":{"Latitude":43.0326265,"Longitude":-2.4172972},"MapView":{"TopLeft":{"Latitude":43.03272,"Longitude":-2.41737},"BottomRight":{"Latitude":43.03248,"Longitude":-2.41718}},"Address":{"Label":"Barrio Garagaltza, 20560 Oñate (Guipúzcoa), España","Country":"ESP","State":"País Vasco","County":"Guipúzcoa","City":"Oñate","Street":"Barrio Garagaltza","PostalCode":"20560","AdditionalData":[{"value":"España","key":"CountryName"},{"value":"País Vasco","key":"StateName"},{"value":"Guipúzcoa","key":"CountyName"}]},"MapReference":{"ReferenceId":"1222774835","Spot":0.61,"SideOfStreet":"right","CountryId":"20215059","StateId":"20226804","CountyId":"20226806","CityId":"20286169"}}},{"Relevance":1.0,"Distance":25.2,"MatchLevel":"houseNumber","MatchQuality":{"Country":1.0,"State":1.0,"County":1.0,"City":1.0,"Street":[1.0],"HouseNumber":1.0,"PostalCode":1.0},"MatchType":"interpolated","Location":{"LocationId":"NT_ICtpwMp9Nz.KvX7W7UxiFD_ycD","LocationType":"point","DisplayPosition":{"Latitude":43.03296,"Longitude":-2.41689},"MapView":{"TopLeft":{"Latitude":43.0340842,"Longitude":-2.4184279},"BottomRight":{"Latitude":43.0318358,"Longitude":-2.4153521}},"Address":{"Label":"Calle San Juan, 27, 20560 Oñate (Guipúzcoa), España","Country":"ESP","State":"País Vasco","County":"Guipúzcoa","City":"Oñate","Street":"Calle San Juan","HouseNumber":"27","PostalCode":"20560","AdditionalData":[{"value":"España","key":"CountryName"},{"value":"País Vasco","key":"StateName"},{"value":"Guipúzcoa","key":"CountyName"}]},"MapReference":{"ReferenceId":"539434544","Spot":0.29,"SideOfStreet":"left","CountryId":"20215059","StateId":"20226804","CountyId":"20226806","CityId":"20286169","AddressId":"236311672","RoadLinkId":"68185301"}}},{"Relevance":1.0,"Distance":32.3,"MatchLevel":"street","MatchQuality":{"Country":1.0,"State":1.0,"County":1.0,"City":1.0,"Street":[1.0],"PostalCode":1.0},"Location":{"LocationId":"NT_e82dUOm5r6VJkv8rYevX9D_l_766653999_R","LocationType":"point","DisplayPosition":{"Latitude":43.03286,"Longitude":-2.41748},"MapView":{"TopLeft":{"Latitude":43.03306,"Longitude":-2.41764},"BottomRight":{"Latitude":43.03286,"Longitude":-2.41748}},"Address":{"Label":"Barrio Garagaltza, 20560 Oñate (Guipúzcoa), España","Country":"ESP","State":"País Vasco","County":"Guipúzcoa","City":"Oñate","Street":"Barrio Garagaltza","PostalCode":"20560","AdditionalData":[{"value":"España","key":"CountryName"},{"value":"País Vasco","key":"StateName"},{"value":"Guipúzcoa","key":"CountyName"}]},"MapReference":{"ReferenceId":"766653999","Spot":0.0,"SideOfStreet":"right","CountryId":"20215059","StateId":"20226804","CountyId":"20226806","CityId":"20286169"}}},{"Relevance":1.0,"Distance":35.0,"MatchLevel":"street","MatchQuality":{"Country":1.0,"State":1.0,"County":1.0,"City":1.0,"Street":[1.0],"PostalCode":1.0},"Location":{"LocationId":"NT_SDh3mMx.S4KhnvBjU4rfeC_l_1222774837_R","LocationType":"point","DisplayPosition":{"Latitude":43.03248,"Longitude":-2.41718},"MapView":{"TopLeft":{"Latitude":43.03248,"Longitude":-2.41718},"BottomRight":{"Latitude":43.03227,"Longitude":-2.41701}},"Address":{"Label":"Barrio Garagaltza, 20560 Oñate (Guipúzcoa), España","Country":"ESP","State":"País Vasco","County":"Guipúzcoa","City":"Oñate","Street":"Barrio Garagaltza","PostalCode":"20560","AdditionalData":[{"value":"España","key":"CountryName"},{"value":"País Vasco","key":"StateName"},{"value":"Guipúzcoa","key":"CountyName"}]},"MapReference":{"ReferenceId":"1222774837","Spot":1.0,"SideOfStreet":"right","CountryId":"20215059","StateId":"20226804","CountyId":"20226806","CityId":"20286169"}}},{"Relevance":1.0,"Distance":35.0,"MatchLevel":"street","MatchQuality":{"Country":1.0,"State":1.0,"County":1.0,"City":1.0,"PostalCode":1.0},"Location":{"LocationId":"NT_V9I3zPg4Xpr4MqdT5Tc7mC_l_1190320422_L","LocationType":"point","DisplayPosition":{"Latitude":43.03248,"Longitude":-2.41718},"MapView":{"TopLeft":{"Latitude":43.03248,"Longitude":-2.41761},"BottomRight":{"Latitude":43.03235,"Longitude":-2.41718}},"Address":{"Label":"20569 Oñate (Guipúzcoa), España","Country":"ESP","State":"País Vasco","County":"Guipúzcoa","City":"Oñate","PostalCode":"20569","AdditionalData":[{"value":"España","key":"CountryName"},{"value":"País Vasco","key":"StateName"},{"value":"Guipúzcoa","key":"CountyName"}]},"MapReference":{"ReferenceId":"1190320422","Spot":1.0,"SideOfStreet":"left","CountryId":"20215059","StateId":"20226804","CountyId":"20226806","CityId":"20286169"}}},{"Relevance":1.0,"Distance":35.9,"MatchLevel":"houseNumber","MatchQuality":{"Country":1.0,"State":1.0,"County":1.0,"City":1.0,"Street":[1.0],"HouseNumber":1.0,"PostalCode":1.0},"MatchType":"interpolated","Location":{"LocationId":"NT_ICtpwMp9Nz.KvX7W7UxiFD_zED","LocationType":"point","DisplayPosition":{"Latitude":43.03311,"Longitude":-2.41714},"MapView":{"TopLeft":{"Latitude":43.0342342,"Longitude":-2.4186779},"BottomRight":{"Latitude":43.0319858,"Longitude":-2.4156021}},"Address":{"Label":"Calle San Juan, 31, 20560 Oñate (Guipúzcoa), España","Country":"ESP","State":"País Vasco","County":"Guipúzcoa","City":"Oñate","Street":"Calle San Juan","HouseNumber":"31","PostalCode":"20560","AdditionalData":[{"value":"España","key":"CountryName"},{"value":"País Vasco","key":"StateName"},{"value":"Guipúzcoa","key":"CountyName"}]},"MapReference":{"ReferenceId":"539434837","Spot":0.25,"SideOfStreet":"right","CountryId":"20215059","StateId":"20226804","CountyId":"20226806","CityId":"20286169","AddressId":"236311845","RoadLinkId":"67972881"}}}]}]}}