{"Response":{"MetaInfo":{"Timestamp":"2020-03-28T11:11:12.501+0000","NextPageInformation":"2"},"View":[{"_type":"SearchResultsViewType","ViewId":0,"Result":[{"Relevance":1.0,"Distance":0.0,"Direction":0.0,"MatchLevel":"city","MatchQuality":{"Country":1.0,"State":1.0,"County":1.0,"City":1.0,"PostalCode":1.0},"Location":{"LocationId":"NT_InT8cCk8TtxBTitymKPaYA","LocationType":"point","DisplayPosition":{"Latitude":43.1360134,"Longitude":5.8770497},"MapView":{"TopLeft":{"Latitude":43.16048,"Longitude":5.81561},"BottomRight":{"Latitude":43.11614,"Longitude":5.88745}},"Address":{"Label":"Ollioules, Provence-Alpes-Côte d'Azur, France","Country":"FRA","State":"Provence-Alpes-Côte d'Azur","County":"Var","City":"Ollioules","PostalCode":"83190","AdditionalData":[{"value":"France","key":"CountryName"},{"value":"Provence-Alpes-Côte d'Azur","key":"StateName"},{"value":"Var","key":"CountyName"}]},"MapReference":{"ReferenceId":"1204336899","SideOfStreet":"neither","CountryId":"20000001","StateId":"20000193","CountyId":"20055539","CityId":"20055822"}}},{"Relevance":1.0,"Distance":18.9,"MatchLevel":"houseNumber","MatchQuality":{"Country":1.0,"State":1.0,"County":1.0,"City":1.0,"Street":[1.0],"HouseNumber":1.0,"PostalCode":1.0},"MatchType":"interpolated","Location":{"LocationId":"NT_NN4.m4jIptF0XP26b88iGD_zMTMBB","LocationType":"point","DisplayPosition":{"Latitude":43.13564,"Longitude":5.87686},"MapView":{"TopLeft":{"Latitude":43.1367642,"Longitude":5.8753195},"BottomRight":{"Latitude":43.1345158,"Longitude":5.8784005}},"Address":{"Label":"331A Chemin de la Mandragore, 83190 Ollioules, France","Country":"FRA","State":"Provence-Alpes-Côte d'Azur","County":"Var","City":"Ollioules","Street":"Chemin de la Mandragore","HouseNumber":"331A","PostalCode":"83190","AdditionalData":[{"value":"France","key":"CountryName"},{"value":"Provence-Alpes-Côte d'Azur","key":"StateName"},{"value":"Var","key":"CountyName"}]},"MapReference":{"ReferenceId":"546173103","Spot":0.89,"SideOfStreet":"right","CountryId":"20000001","StateId":"20000193","CountyId":"20055539","CityId":"20055822","AddressId":"319121624","RoadLinkId":"45410331"}}},{"Relevance":1.0,"Distance":73.7,"MatchLevel":"houseNumber","MatchQuality":{"Country":1.0,"State":1.0,"County":1.0,"City":1.0,"Street":[1.0],"HouseNumber":1.0,"PostalCode":1.0},"MatchType":"interpolated","Location":{"LocationId":"NT_oGmC3ZccjkodKDz66s0ZBB_l_58396148_R_zAjM","LocationType":"point","DisplayPosition":{"Latitude":43.13522,"Longitude":5.8769491},"MapView":{"TopLeft":{"Latitude":43.1363442,"Longitude":5.8754086},"BottomRight":{"Latitude":43.1340958,"Longitude":5.8784895}},"Address":{"Label":"302 Tour de la Pégoulière, 83190 Ollioules, France","Country":"FRA","State":"Provence-Alpes-Côte d'Azur","County":"Var","City":"Ollioules","Street":"Tour de la Pégoulière","HouseNumber":"302","PostalCode":"83190","AdditionalData":[{"value":"France","key":"CountryName"},{"value":"Provence-Alpes-Côte d'Azur","key":"StateName"},{"value":"Var","key":"CountyName"}]},"MapReference":{"ReferenceId":"58396148","Spot":0.61,"SideOfStreet":"right","CountryId":"20000001","StateId":"20000193","CountyId":"20055539","CityId":"20055822"}}},{"Relevance":1.0,"Distance":85.3,"MatchLevel":"street","MatchQuality":{"Country":1.0,"State":1.0,"County":1.0,"City":1.0,"Street":[1.0],"PostalCode":1.0},"Location":{"LocationId":"NT_rhmYGqIghzPbnPoZkzF.cD_l_58396045_L","LocationType":"point","DisplayPosition":{"Latitude":43.13672,"Longitude":5.87746},"MapView":{"TopLeft":{"Latitude":43.13774,"Longitude":5.87739},"BottomRight":{"Latitude":43.13669,"Longitude":5.87784}},"Address":{"Label":"L'Isnarde, 83190 Ollioules, France","Country":"FRA","State":"Provence-Alpes-Côte d'Azur","County":"Var","City":"Ollioules","Street":"L'Isnarde","PostalCode":"83190","AdditionalData":[{"value":"France","key":"CountryName"},{"value":"Provence-Alpes-Côte d'Azur","key":"StateName"},{"value":"Var","key":"CountyName"}]},"MapReference":{"ReferenceId":"58396045","Spot":0.17,"SideOfStreet":"left","CountryId":"20000001","StateId":"20000193","CountyId":"20055539","CityId":"20055822"}}},{"Relevance":1.0,"Distance":102.1,"MatchLevel":"houseNumber","MatchQuality":{"Country":1.0,"State":1.0,"County":1.0,"City":1.0,"Street":[1.0],"HouseNumber":1.0,"PostalCode":1.0},"MatchType":"interpolated","Location":{"LocationId":"NT_kFwvoNBRMVI644QND5ujIA_yIzM","LocationType":"point","DisplayPosition":{"Latitude":43.13528,"Longitude":5.87597},"MapView":{"TopLeft":{"Latitude":43.1364042,"Longitude":5.8744295},"BottomRight":{"Latitude":43.1341558,"Longitude":5.8775105}},"Address":{"Label":"223 Chemin de la Gipière, 83190 Ollioules, France","Country":"FRA","State":"Provence-Alpes-Côte d'Azur","County":"Var","City":"Ollioules","Street":"Chemin de la Gipière","HouseNumber":"223","PostalCode":"83190","AdditionalData":[{"value":"France","key":"CountryName"},{"value":"Provence-Alpes-Côte d'Azur","key":"StateName"},{"value":"Var","key":"CountyName"}]},"MapReference":{"ReferenceId":"58396118","Spot":0.0,"SideOfStreet":"right","CountryId":"20000001","StateId":"20000193","CountyId":"20055539","CityId":"20055822","AddressId":"319332035","RoadLinkId":"46073242"}}},{"Relevance":1.0,"Distance":103.8,"MatchLevel":"houseNumber","MatchQuality":{"Country":1.0,"State":1.0,"County":1.0,"City":1.0,"Street":[1.0],"HouseNumber":1.0,"PostalCode":1.0},"MatchType":"interpolated","Location":{"LocationId":"NT_NN4.m4jIptF0XP26b88iGD_ykTN","LocationType":"point","DisplayPosition":{"Latitude":43.13496,"Longitude":5.87749},"MapView":{"TopLeft":{"Latitude":43.1360842,"Longitude":5.8759495},"BottomRight":{"Latitude":43.1338358,"Longitude":5.8790305}},"Address":{"Label":"295 Chemin de la Mandragore, 83190 Ollioules, France","Country":"FRA","State":"Provence-Alpes-Côte d'Azur","County":"Var","City":"Ollioules","Street":"Chemin de la Mandragore","HouseNumber":"295","PostalCode":"83190","AdditionalData":[{"value":"France","key":"CountryName"},{"value":"Provence-Alpes-Côte d'Azur","key":"StateName"},{"value":"Var","key":"CountyName"}]},"MapReference":{"ReferenceId":"58396150","Spot":0.62,"SideOfStreet":"right","CountryId":"20000001","StateId":"20000193","CountyId":"20055539","CityId":"20055822","AddressId":"319383329","RoadLinkId":"45787988"}}},{"Relevance":1.0,"Distance":110.7,"MatchLevel":"houseNumber","MatchQuality":{"Country":1.0,"State":1.0,"County":1.0,"City":1.0,"Street":[1.0],"HouseNumber":1.0,"PostalCode":1.0},"MatchType":"interpolated","Location":{"LocationId":"NT_NN4.m4jIptF0XP26b88iGD_yITN","LocationType":"point","DisplayPosition":{"Latitude":43.13496,"Longitude":5.87698},"MapView":{"TopLeft":{"Latitude":43.1360842,"Longitude":5.8754395},"BottomRight":{"Latitude":43.1338358,"Longitude":5.8785205}},"Address":{"Label":"225 Chemin de la Mandragore, 83190 Ollioules, France","Country":"FRA","State":"Provence-Alpes-Côte d'Azur","County":"Var","City":"Ollioules","Street":"Chemin de la Mandragore","HouseNumber":"225","PostalCode":"83190","AdditionalData":[{"value":"France","key":"CountryName"},{"value":"Provence-Alpes-Côte d'Azur","key":"StateName"},{"value":"Var","key":"CountyName"}]},"MapReference":{"ReferenceId":"546173104","Spot":0.43,"SideOfStreet":"left","CountryId":"20000001","StateId":"20000193","CountyId":"20055539","CityId":"20055822","AddressId":"319235451","RoadLinkId":"46223624"}}},{"Relevance":1.0,"Distance":117.8,"MatchLevel":"houseNumber","MatchQuality":{"Country":1.0,"State":1.0,"County":1.0,"City":1.0,"Street":[1.0],"HouseNumber":1.0,"PostalCode":1.0},"MatchType":"interpolated","Location":{"LocationId":"NT_NN4.m4jIptF0XP26b88iGD_xkzN","LocationType":"point","DisplayPosition":{"Latitude":43.13497,"Longitude":5.8765},"MapView":{"TopLeft":{"Latitude":43.1360942,"Longitude":5.8749595},"BottomRight":{"Latitude":43.1338458,"Longitude":5.8780405}},"Address":{"Label":"197 Chemin de la Mandragore, 83190 Ollioules, France","Country":"FRA","State":"Provence-Alpes-Côte d'Azur","County":"Var","City":"Ollioules","Street":"Chemin de la Mandragore","HouseNumber":"197","PostalCode":"83190","AdditionalData":[{"value":"France","key":"CountryName"},{"value":"Provence-Alpes-Côte d'Azur","key":"StateName"},{"value":"Var","key":"CountyName"}]},"MapReference":{"ReferenceId":"546173106","Spot":1.0,"SideOfStreet":"right","CountryId":"20000001","StateId":"20000193","CountyId":"20055539","CityId":"20055822","AddressId":"319351924","RoadLinkId":"45957861"}}},{"Relevance":1.0,"Distance":118.2,"MatchLevel":"houseNumber","MatchQuality":{"Country":1.0,"State":1.0,"County":1.0,"City":1.0,"Street":[1.0],"HouseNumber":1.0,"PostalCode":1.0},"MatchType":"interpolated","Location":{"LocationId":"NT_gA.L-HGAEbfRYjFeMfVm-C_xczMwEE","LocationType":"point","DisplayPosition":{"Latitude":43.13707,"Longitude":5.87721},"MapView":{"TopLeft":{"Latitude":43.1381942,"Longitude":5.8756695},"BottomRight":{"Latitude":43.1359458,"Longitude":5.8787505}},"Address":{"Label":"1730A Route de Faveyrolles, 83190 Ollioules, France","Country":"FRA","State":"Provence-Alpes-Côte d'Azur","County":"Var","City":"Ollioules","Street":"Route de Faveyrolles","HouseNumber":"1730A","PostalCode":"83190","AdditionalData":[{"value":"France","key":"CountryName"},{"value":"Provence-Alpes-Côte d'Azur","key":"StateName"},{"value":"Var","key":"CountyName"}]},"MapReference":{"ReferenceId":"1046285362","Spot":0.44,"SideOfStreet":"left","CountryId":"20000001","StateId":"20000193","CountyId":"20055539","CityId":"20055822","AddressId":"605779592","RoadLinkId":"366347354"}}},{"Relevance":1.0,"Distance":130.1,"MatchLevel":"houseNumber","MatchQuality":{"Country":1.0,"State":1.0,"County":1.0,"City":1.0,"Street":[1.0],"HouseNumber":1.0,"PostalCode":1.0},"MatchType":"interpolated","Location":{"LocationId":"NT_c1tByZw5WhGV30SpSN31GD_l_58396159_L_1gTM","LocationType":"point","DisplayPosition":{"Latitude":43.134935,"Longitude":5.8778208},"MapView":{"TopLeft":{"Latitude":43.1360592,"Longitude":5.8762804},"BottomRight":{"Latitude":43.1338109,"Longitude":5.8793613}},"Address":{"Label":"581 Chemin de la Reine des Bois, 83190 Ollioules, France","Country":"FRA","State":"Provence-Alpes-Côte d'Azur","County":"Var","City":"Ollioules","Street":"Chemin de la Reine des Bois","HouseNumber":"581","PostalCode":"83190","AdditionalData":[{"value":"France","key":"CountryName"},{"value":"Provence-Alpes-Côte d'Azur","key":"StateName"},{"value":"Var","key":"CountyName"}]},"MapReference":{"ReferenceId":"58396159","Spot":0.92,"SideOfStreet":"left","CountryId":"20000001","StateId":"20000193","CountyId":"20055539","CityId":"20055822"}}}]}]}}