{"Response":{"MetaInfo":{"Timestamp":"2020-03-28T11:13:13.747+0000","NextPageInformation":"2"},"View":[{"_type":"SearchResultsViewType","ViewId":0,"Result":[{"Relevance":1.0,"Distance":0.0,"Direction":0.0,"MatchLevel":"city","MatchQuality":{"Country":1.0,"State":1.0,"County":1.0,"City":1.0,"PostalCode":1.0},"Location":{"LocationId":"NT_LLA8xxY1bdNfjkIo30hc5A","LocationType":"point","DisplayPosition":{"Latitude":43.1329582,"Longitude":5.9324498},"MapView":{"TopLeft":{"Latitude":43.17128,"Longitude":5.87973},"BottomRight":{"Latitude":43.10115,"Longitude":5.98738}},"Address":{"Label":"Toulon, Provence-Alpes-Côte d'Azur, France","Country":"FRA","State":"Provence-Alpes-Côte d'Azur","County":"Var","City":"Toulon","PostalCode":"83000","AdditionalData":[{"value":"France","key":"CountryName"},{"value":"Provence-Alpes-Côte d'Azur","key":"StateName"},{"value":"Var","key":"CountyName"}]},"MapReference":{"ReferenceId":"1216799463","SideOfStreet":"neither","CountryId":"20000001","StateId":"20000193","CountyId":"20055539","CityId":"20055968"}}},{"Relevance":1.0,"Distance":5.7,"MatchLevel":"landmark","MatchQuality":{"Country":1.0,"State":1.0,"County":1.0,"City":1.0,"PostalCode":1.0,"Name":1.0},"Location":{"LocationId":"NT_TmXgkdBgaXHcYn39ZZVBdC_p_GyGVGW2AIx67Ibfdxg5gfA","LocationType":"hospital","Name":"HIA Sainte-Anne","DisplayPosition":{"Latitude":43.13324,"Longitude":5.93203},"MapView":{"TopLeft":{"Latitude":43.13486,"Longitude":5.928},"BottomRight":{"Latitude":43.13246,"Longitude":5.9325}},"Address":{"Label":"83000 Toulon, France","Country":"FRA","State":"Provence-Alpes-Côte d'Azur","County":"Var","City":"Toulon","PostalCode":"83000","AdditionalData":[{"value":"France","key":"CountryName"},{"value":"Provence-Alpes-Côte d'Azur","key":"StateName"},{"value":"Var","key":"CountyName"}]},"MapReference":{"CountryId":"20000001","StateId":"20000193","CountyId":"20055539","CityId":"20055968","PlaceId":"51403415"}}},{"Relevance":1.0,"Distance":5.7,"MatchLevel":"houseNumber","MatchQuality":{"Country":1.0,"State":1.0,"County":1.0,"City":1.0,"Street":[1.0],"HouseNumber":1.0,"PostalCode":1.0},"MatchType":"interpolated","Location":{"LocationId":"NT_a8AdFPjfnWcBJtxAdfplbC_l_836179320_L_xgzM","LocationType":"point","DisplayPosition":{"Latitude":43.1329589,"Longitude":5.9323793},"MapView":{"TopLeft":{"Latitude":43.1340831,"Longitude":5.9308389},"BottomRight":{"Latitude":43.1318348,"Longitude":5.9339197}},"Address":{"Label":"183 Boulevard Sainte-Anne, 83000 Toulon, France","Country":"FRA","State":"Provence-Alpes-Côte d'Azur","County":"Var","City":"Toulon","Street":"Boulevard Sainte-Anne","HouseNumber":"183","PostalCode":"83000","AdditionalData":[{"value":"France","key":"CountryName"},{"value":"Provence-Alpes-Côte d'Azur","key":"StateName"},{"value":"Var","key":"CountyName"}]},"MapReference":{"ReferenceId":"836179320","Spot":0.78,"SideOfStreet":"left","CountryId":"20000001","StateId":"20000193","CountyId":"20055539","CityId":"20055968"}}},{"Relevance":1.0,"Distance":8.7,"MatchLevel":"houseNumber","MatchQuality":{"Country":1.0,"State":1.0,"County":1.0,"City":1.0,"Street":[1.0],"HouseNumber":1.0,"PostalCode":1.0},"MatchType":"interpolated","Location":{"LocationId":"NT_a8AdFPjfnWcBJtxAdfplbC_l_836137004_L_xgzN","LocationType":"point","DisplayPosition":{"Latitude":43.1330102,"Longitude":5.93237},"MapView":{"TopLeft":{"Latitude":43.1341344,"Longitude":5.9308295},"BottomRight":{"Latitude":43.1318861,"Longitude":5.9339104}},"Address":{"Label":"187 Boulevard Sainte-Anne, 83000 Toulon, France","Country":"FRA","State":"Provence-Alpes-Côte d'Azur","County":"Var","City":"Toulon","Street":"Boulevard Sainte-Anne","HouseNumber":"187","PostalCode":"83000","AdditionalData":[{"value":"France","key":"CountryName"},{"value":"Provence-Alpes-Côte d'Azur","key":"StateName"},{"value":"Var","key":"CountyName"}]},"MapReference":{"ReferenceId":"836137004","Spot":0.0,"SideOfStreet":"left","CountryId":"20000001","StateId":"20000193","CountyId":"20055539","CityId":"20055968"}}},{"Relevance":1.0,"Distance":20.5,"MatchLevel":"street","MatchQuality":{"Country":1.0,"State":1.0,"County":1.0,"City":1.0,"PostalCode":1.0},"Location":{"LocationId":"NT_ERytSPBWk9jJWyaPYNOe-B_l_69166649_R","LocationType":"point","DisplayPosition":{"Latitude":43.13314,"Longitude":5.93241},"MapView":{"TopLeft":{"Latitude":43.13326,"Longitude":5.93235},"BottomRight":{"Latitude":43.13313,"Longitude":5.9325}},"Address":{"Label":"83000 Toulon, France","Country":"FRA","State":"Provence-Alpes-Côte d'Azur","County":"Var","City":"Toulon","PostalCode":"83000","AdditionalData":[{"value":"France","key":"CountryName"},{"value":"Provence-Alpes-Côte d'Azur","key":"StateName"},{"value":"Var","key":"CountyName"}]},"MapReference":{"ReferenceId":"69166649","Spot":0.27,"SideOfStreet":"right","CountryId":"20000001","StateId":"20000193","CountyId":"20055539","CityId":"20055968"}}},{"Relevance":1.0,"Distance":20.7,"MatchLevel":"street","MatchQuality":{"Country":1.0,"State":1.0,"County":1.0,"City":1.0,"PostalCode":1.0},"Location":{"LocationId":"NT_ERytSPBWk9jJWyaPYNOe-B_l_940453891_L","LocationType":"point","DisplayPosition":{"Latitude":43.13313,"Longitude":5.93235},"MapView":{"TopLeft":{"Latitude":43.13325,"Longitude":5.9322},"BottomRight":{"Latitude":43.13313,"Longitude":5.93235}},"Address":{"Label":"83000 Toulon, France","Country":"FRA","State":"Provence-Alpes-Côte d'Azur","County":"Var","City":"Toulon","PostalCode":"83000","AdditionalData":[{"value":"France","key":"CountryName"},{"value":"Provence-Alpes-Côte d'Azur","key":"StateName"},{"value":"Var","key":"CountyName"}]},"MapReference":{"ReferenceId":"940453891","Spot":0.0,"SideOfStreet":"left","CountryId":"20000001","StateId":"20000193","CountyId":"20055539","CityId":"20055968"}}},{"Relevance":1.0,"Distance":33.8,"MatchLevel":"street","MatchQuality":{"Country":1.0,"State":1.0,"County":1.0,"City":1.0,"Street":[1.0],"PostalCode":1.0},"Location":{"LocationId":"NT_a8AdFPjfnWcBJtxAdfplbC_l_549657874_R","LocationType":"point","DisplayPosition":{"Latitude":43.13326,"Longitude":5.9325},"MapView":{"TopLeft":{"Latitude":43.13327,"Longitude":5.9325},"BottomRight":{"Latitude":43.13326,"Longitude":5.93298}},"Address":{"Label":"Boulevard Sainte-Anne, 83000 Toulon, France","Country":"FRA","State":"Provence-Alpes-Côte d'Azur","County":"Var","City":"Toulon","Street":"Boulevard Sainte-Anne","PostalCode":"83000","AdditionalData":[{"value":"France","key":"CountryName"},{"value":"Provence-Alpes-Côte d'Azur","key":"StateName"},{"value":"Var","key":"CountyName"}]},"MapReference":{"ReferenceId":"549657874","Spot":0.0,"SideOfStreet":"right","CountryId":"20000001","StateId":"20000193","CountyId":"20055539","CityId":"20055968"}}},{"Relevance":1.0,"Distance":33.8,"MatchLevel":"street","MatchQuality":{"Country":1.0,"State":1.0,"County":1.0,"City":1.0,"PostalCode":1.0},"Location":{"LocationId":"NT_ERytSPBWk9jJWyaPYNOe-B_l_69166650_L","LocationType":"point","DisplayPosition":{"Latitude":43.13326,"Longitude":5.9325},"MapView":{"TopLeft":{"Latitude":43.13336,"Longitude":5.93234},"BottomRight":{"Latitude":43.13326,"Longitude":5.9325}},"Address":{"Label":"83000 Toulon, France","Country":"FRA","State":"Provence-Alpes-Côte d'Azur","County":"Var","City":"Toulon","PostalCode":"83000","AdditionalData":[{"value":"France","key":"CountryName"},{"value":"Provence-Alpes-Côte d'Azur","key":"StateName"},{"value":"Var","key":"CountyName"}]},"MapReference":{"ReferenceId":"69166650","Spot":0.0,"SideOfStreet":"left","CountryId":"20000001","StateId":"20000193","CountyId":"20055539","CityId":"20055968"}}},{"Relevance":1.0,"Distance":36.0,"MatchLevel":"houseNumber","MatchQuality":{"Country":1.0,"State":1.0,"County":1.0,"City":1.0,"Street":[1.0],"HouseNumber":1.0,"PostalCode":1.0},"MatchType":"interpolated","Location":{"LocationId":"NT_a8AdFPjfnWcBJtxAdfplbC_l_836179319_L_xYzN","LocationType":"point","DisplayPosition":{"Latitude":43.132635,"Longitude":5.93243},"MapView":{"TopLeft":{"Latitude":43.1337592,"Longitude":5.9308896},"BottomRight":{"Latitude":43.1315109,"Longitude":5.9339704}},"Address":{"Label":"167 Boulevard Sainte-Anne, 83000 Toulon, France","Country":"FRA","State":"Provence-Alpes-Côte d'Azur","County":"Var","City":"Toulon","Street":"Boulevard Sainte-Anne","HouseNumber":"167","PostalCode":"83000","AdditionalData":[{"value":"France","key":"CountryName"},{"value":"Provence-Alpes-Côte d'Azur","key":"StateName"},{"value":"Var","key":"CountyName"}]},"MapReference":{"ReferenceId":"836179319","Spot":0.55,"SideOfStreet":"left","CountryId":"20000001","StateId":"20000193","CountyId":"20055539","CityId":"20055968"}}},{"Relevance":1.0,"Distance":38.3,"MatchLevel":"street","MatchQuality":{"Country":1.0,"State":1.0,"County":1.0,"City":1.0,"PostalCode":1.0},"Location":{"LocationId":"NT_ERytSPBWk9jJWyaPYNOe-B_l_940453892_R","LocationType":"point","DisplayPosition":{"Latitude":43.13325,"Longitude":5.9322},"MapView":{"TopLeft":{"Latitude":43.13336,"Longitude":5.9322},"BottomRight":{"Latitude":43.13325,"Longitude":5.93234}},"Address":{"Label":"83000 Toulon, France","Country":"FRA","State":"Provence-Alpes-Côte d'Azur","County":"Var","City":"Toulon","PostalCode":"83000","AdditionalData":[{"value":"France","key":"CountryName"},{"value":"Provence-Alpes-Côte d'Azur","key":"StateName"},{"value":"Var","key":"CountyName"}]},"MapReference":{"ReferenceId":"940453892","Spot":0.0,"SideOfStreet":"right","CountryId":"20000001","StateId":"20000193","CountyId":"20055539","CityId":"20055968"}}}]}]}}