{"Response":{"MetaInfo":{"Timestamp":"2020-03-28T11:04:09.516+0000","NextPageInformation":"2"},"View":[{"_type":"SearchResultsViewType","ViewId":0,"Result":[{"Relevance":1.0,"Distance":0.0,"Direction":0.0,"MatchLevel":"city","MatchQuality":{"Country":1.0,"State":1.0,"County":1.0,"City":1.0,"PostalCode":1.0},"Location":{"LocationId":"NT_DvmTPn9paBl2JVoXD5bx0A","LocationType":"point","DisplayPosition":{"Latitude":43.1822147,"Longitude":-2.4828398},"MapView":{"TopLeft":{"Latitude":43.22482,"Longitude":-2.49975},"BottomRight":{"Latitude":43.16412,"Longitude":-2.43289}},"Address":{"Label":"Eibar, País Vasco, España","Country":"ESP","State":"País Vasco","County":"Guipúzcoa","City":"Eibar","PostalCode":"20600","AdditionalData":[{"value":"España","key":"CountryName"},{"value":"País Vasco","key":"StateName"},{"value":"Guipúzcoa","key":"CountyName"}]},"MapReference":{"ReferenceId":"80937918","SideOfStreet":"neither","CountryId":"20215059","StateId":"20226804","CountyId":"20226806","CityId":"20285946"}}},{"Relevance":1.0,"Distance":17.7,"MatchLevel":"landmark","MatchQuality":{"Country":1.0,"State":1.0,"Name":1.0},"Location":{"LocationId":"NT_4L0ploXM8tuk19UE936HMA","LocationType":"river","Name":"Río Ego","DisplayPosition":{"Latitude":43.18461,"Longitude":-2.47798},"MapView":{"TopLeft":{"Latitude":43.194,"Longitude":-2.52091},"BottomRight":{"Latitude":43.17493,"Longitude":-2.43696}},"Address":{"Label":"España","Country":"ESP","State":"País Vasco","AdditionalData":[{"value":"España","key":"CountryName"},{"value":"País Vasco","key":"StateName"}]},"MapReference":{"CountryId":"20215059","StateId":"20226804","PlaceId":"769666587"}}},{"Relevance":1.0,"Distance":17.7,"MatchLevel":"landmark","MatchQuality":{"Country":1.0,"State":1.0,"Name":1.0},"Location":{"LocationId":"NT_oM2kZ1mFMDezaMmTuDgPmA","LocationType":"river","Name":"Ego ibaia","DisplayPosition":{"Latitude":43.18461,"Longitude":-2.47798},"MapView":{"TopLeft":{"Latitude":43.194,"Longitude":-2.52091},"BottomRight":{"Latitude":43.17493,"Longitude":-2.43696}},"Address":{"Label":"Espainia","Country":"ESP","State":"Euskadi","AdditionalData":[{"value":"Espainia","key":"CountryName"},{"value":"Euskadi","key":"StateName"}]},"MapReference":{"CountryId":"20215059","StateId":"20226804","PlaceId":"1446772723"}}},{"Relevance":1.0,"Distance":44.1,"MatchLevel":"houseNumber","MatchQuality":{"Country":1.0,"State":1.0,"County":1.0,"City":1.0,"Street":[1.0],"HouseNumber":1.0,"PostalCode":1.0},"MatchType":"interpolated","Location":{"LocationId":"NT_p06RBJjCoO1X0kVSR0H7UD_xAD","LocationType":"point","DisplayPosition":{"Latitude":43.18175,"Longitude":-2.48282},"MapView":{"TopLeft":{"Latitude":43.1828742,"Longitude":-2.4843617},"BottomRight":{"Latitude":43.1806258,"Longitude":-2.4812783}},"Address":{"Label":"Avenida Otaola, 10, 20600 Eibar (Guipúzcoa), España","Country":"ESP","State":"País Vasco","County":"Guipúzcoa","City":"Eibar","Street":"Avenida Otaola","HouseNumber":"10","PostalCode":"20600","AdditionalData":[{"value":"España","key":"CountryName"},{"value":"País Vasco","key":"StateName"},{"value":"Guipúzcoa","key":"CountyName"}]},"MapReference":{"ReferenceId":"811797938","Spot":0.53,"SideOfStreet":"left","CountryId":"20215059","StateId":"20226804","CountyId":"20226806","CityId":"20285946","AddressId":"351958091","RoadLinkId":"199230917"}}},{"Relevance":1.0,"Distance":48.3,"MatchLevel":"houseNumber","MatchQuality":{"Country":1.0,"State":1.0,"County":1.0,"City":1.0,"Street":[1.0],"HouseNumber":1.0,"PostalCode":1.0},"MatchType":"interpolated","Location":{"LocationId":"NT_joyIqBund7OGiCHu14L19B_xQD","LocationType":"point","DisplayPosition":{"Latitude":43.18259,"Longitude":-2.48314},"MapView":{"TopLeft":{"Latitude":43.1837142,"Longitude":-2.4846817},"BottomRight":{"Latitude":43.1814658,"Longitude":-2.4815983}},"Address":{"Label":"Tiburzio Anitua kalea, 14, 20600 Eibar (Guipúzcoa), España","Country":"ESP","State":"País Vasco","County":"Guipúzcoa","City":"Eibar","Street":"Tiburzio Anitua kalea","HouseNumber":"14","PostalCode":"20600","AdditionalData":[{"value":"España","key":"CountryName"},{"value":"País Vasco","key":"StateName"},{"value":"Guipúzcoa","key":"CountyName"}]},"MapReference":{"ReferenceId":"82159060","Spot":0.33,"SideOfStreet":"left","CountryId":"20215059","StateId":"20226804","CountyId":"20226806","CityId":"20285946","AddressId":"351895895","RoadLinkId":"68580133"}}},{"Relevance":1.0,"Distance":75.4,"MatchLevel":"houseNumber","MatchQuality":{"Country":1.0,"State":1.0,"County":1.0,"City":1.0,"Street":[1.0],"HouseNumber":1.0,"PostalCode":1.0},"MatchType":"interpolated","Location":{"LocationId":"NT_Y8DDOSbKD.WAf.hR9cfbZC_1A","LocationType":"point","DisplayPosition":{"Latitude":43.18282,"Longitude":-2.48242},"MapView":{"TopLeft":{"Latitude":43.1839442,"Longitude":-2.4839617},"BottomRight":{"Latitude":43.1816958,"Longitude":-2.4808783}},"Address":{"Label":"Torrekua kalea, 5, 20600 Eibar (Guipúzcoa), España","Country":"ESP","State":"País Vasco","County":"Guipúzcoa","City":"Eibar","Street":"Torrekua kalea","HouseNumber":"5","PostalCode":"20600","AdditionalData":[{"value":"España","key":"CountryName"},{"value":"País Vasco","key":"StateName"},{"value":"Guipúzcoa","key":"CountyName"}]},"MapReference":{"ReferenceId":"1222595768","Spot":0.84,"SideOfStreet":"right","CountryId":"20215059","StateId":"20226804","CountyId":"20226806","CityId":"20285946","AddressId":"351926687","RoadLinkId":"540333377"}}},{"Relevance":1.0,"Distance":105.5,"MatchLevel":"street","MatchQuality":{"Country":1.0,"State":1.0,"County":1.0,"City":1.0,"Street":[1.0],"PostalCode":1.0},"Location":{"LocationId":"NT_joyIqBund7OGiCHu14L19B_l_82159059_R","LocationType":"point","DisplayPosition":{"Latitude":43.18209,"Longitude":-2.48413},"MapView":{"TopLeft":{"Latitude":43.18209,"Longitude":-2.48451},"BottomRight":{"Latitude":43.18199,"Longitude":-2.48413}},"Address":{"Label":"Tiburzio Anitua kalea, 20600 Eibar (Guipúzcoa), España","Country":"ESP","State":"País Vasco","County":"Guipúzcoa","City":"Eibar","Street":"Tiburzio Anitua kalea","PostalCode":"20600","AdditionalData":[{"value":"España","key":"CountryName"},{"value":"País Vasco","key":"StateName"},{"value":"Guipúzcoa","key":"CountyName"}]},"MapReference":{"ReferenceId":"82159059","Spot":1.0,"SideOfStreet":"right","CountryId":"20215059","StateId":"20226804","CountyId":"20226806","CityId":"20285946"}}},{"Relevance":1.0,"Distance":121.7,"MatchLevel":"houseNumber","MatchQuality":{"Country":1.0,"State":1.0,"County":1.0,"City":1.0,"Street":[1.0],"HouseNumber":1.0,"PostalCode":1.0},"MatchType":"interpolated","Location":{"LocationId":"NT_joyIqBund7OGiCHu14L19B_yAD","LocationType":"point","DisplayPosition":{"Latitude":43.18226,"Longitude":-2.48446},"MapView":{"TopLeft":{"Latitude":43.1833842,"Longitude":-2.4860017},"BottomRight":{"Latitude":43.1811358,"Longitude":-2.4829183}},"Address":{"Label":"Tiburzio Anitua kalea, 20, 20600 Eibar (Guipúzcoa), España","Country":"ESP","State":"País Vasco","County":"Guipúzcoa","City":"Eibar","Street":"Tiburzio Anitua kalea","HouseNumber":"20","PostalCode":"20600","AdditionalData":[{"value":"España","key":"CountryName"},{"value":"País Vasco","key":"StateName"},{"value":"Guipúzcoa","key":"CountyName"}]},"MapReference":{"ReferenceId":"82159062","Spot":0.33,"SideOfStreet":"right","CountryId":"20215059","StateId":"20226804","CountyId":"20226806","CityId":"20285946","AddressId":"351952445","RoadLinkId":"67779700"}}},{"Relevance":1.0,"Distance":124.4,"MatchLevel":"street","MatchQuality":{"Country":1.0,"State":1.0,"County":1.0,"City":1.0,"Street":[1.0],"PostalCode":1.0},"Location":{"LocationId":"NT_zP6HSUS42KOusXfZ7XNCEB_l_1198589830_L","LocationType":"point","DisplayPosition":{"Latitude":43.18276,"Longitude":-2.4815},"MapView":{"TopLeft":{"Latitude":43.18276,"Longitude":-2.4815},"BottomRight":{"Latitude":43.18267,"Longitude":-2.48141}},"Address":{"Label":"Calle Barrenengua, 20600 Eibar (Guipúzcoa), España","Country":"ESP","State":"País Vasco","County":"Guipúzcoa","City":"Eibar","Street":"Calle Barrenengua","PostalCode":"20600","AdditionalData":[{"value":"España","key":"CountryName"},{"value":"País Vasco","key":"StateName"},{"value":"Guipúzcoa","key":"CountyName"}]},"MapReference":{"ReferenceId":"1198589830","Spot":1.0,"SideOfStreet":"left","CountryId":"20215059","StateId":"20226804","CountyId":"20226806","CityId":"20285946"}}},{"Relevance":1.0,"Distance":124.5,"MatchLevel":"street","MatchQuality":{"Country":1.0,"State":1.0,"County":1.0,"City":1.0,"Street":[1.0],"PostalCode":1.0},"Location":{"LocationId":"NT_Y8DDOSbKD.WAf.hR9cfbZC_l_1198588909_R","LocationType":"point","DisplayPosition":{"Latitude":43.18317,"Longitude":-2.48204},"MapView":{"TopLeft":{"Latitude":43.18322,"Longitude":-2.48204},"BottomRight":{"Latitude":43.18317,"Longitude":-2.48197}},"Address":{"Label":"Torrekua kalea, 20600 Eibar (Guipúzcoa), España","Country":"ESP","State":"País Vasco","County":"Guipúzcoa","City":"Eibar","Street":"Torrekua kalea","PostalCode":"20600","AdditionalData":[{"value":"España","key":"CountryName"},{"value":"País Vasco","key":"StateName"},{"value":"Guipúzcoa","key":"CountyName"}]},"MapReference":{"ReferenceId":"1198588909","Spot":0.0,"SideOfStreet":"right","CountryId":"20215059","StateId":"20226804","CountyId":"20226806","CityId":"20285946"}}}]}]}}