{"Response":{"MetaInfo":{"Timestamp":"2020-03-28T11:53:19.098+0000","NextPageInformation":"2"},"View":[{"_type":"SearchResultsViewType","ViewId":0,"Result":[{"Relevance":1.0,"Distance":0.0,"Direction":0.0,"MatchLevel":"city","MatchQuality":{"Country":1.0,"State":1.0,"County":1.0,"City":1.0,"PostalCode":1.0},"Location":{"LocationId":"NT_8zWgjze.WecUduGC.0TB3A","LocationType":"point","DisplayPosition":{"Latitude":43.1056355,"Longitude":-0.0615539},"MapView":{"TopLeft":{"Latitude":43.15183,"Longitude":-0.14677},"BottomRight":{"Latitude":43.06685,"Longitude":-0.0142}},"Address":{"Label":"Lourdes, Occitanie, France","Country":"FRA","State":"Occitanie","County":"Hautes-Pyrénées","City":"Lourdes","PostalCode":"65100","AdditionalData":[{"value":"France","key":"CountryName"},{"value":"Occitanie","key":"StateName"},{"value":"Hautes-Pyrénées","key":"CountyName"}]},"MapReference":{"ReferenceId":"82314210","SideOfStreet":"neither","CountryId":"20000001","StateId":"20050212","CountyId":"20106207","CityId":"20107047"}}},{"Relevance":1.0,"Distance":8.3,"MatchLevel":"houseNumber","MatchQuality":{"Country":1.0,"State":1.0,"County":1.0,"City":1.0,"Street":[1.0],"HouseNumber":1.0,"PostalCode":1.0},"MatchType":"interpolated","Location":{"LocationId":"NT_SlNtqWRom46qWWhHoGehsA_1cD","LocationType":"point","DisplayPosition":{"Latitude":43.10566,"Longitude":-0.06169},"MapView":{"TopLeft":{"Latitude":43.1067842,"Longitude":-0.0632297},"BottomRight":{"Latitude":43.1045358,"Longitude":-0.0601503}},"Address":{"Label":"57 Chemin de Lannedarré, 65100 Lourdes, France","Country":"FRA","State":"Occitanie","County":"Hautes-Pyrénées","City":"Lourdes","Street":"Chemin de Lannedarré","HouseNumber":"57","PostalCode":"65100","AdditionalData":[{"value":"France","key":"CountryName"},{"value":"Occitanie","key":"StateName"},{"value":"Hautes-Pyrénées","key":"CountyName"}]},"MapReference":{"ReferenceId":"82314363","Spot":0.87,"SideOfStreet":"right","CountryId":"20000001","StateId":"20050212","CountyId":"20106207","CityId":"20107047","AddressId":"571630087","RoadLinkId":"51041499"}}},{"Relevance":1.0,"Distance":14.5,"MatchLevel":"street","MatchQuality":{"Country":1.0,"State":1.0,"County":1.0,"City":1.0,"Street":[1.0],"PostalCode":1.0},"Location":{"LocationId":"NT_SlNtqWRom46qWWhHoGehsA_l_82314360_R","LocationType":"point","DisplayPosition":{"Latitude":43.10572,"Longitude":-0.06169},"MapView":{"TopLeft":{"Latitude":43.10572,"Longitude":-0.06207},"BottomRight":{"Latitude":43.10557,"Longitude":-0.06169}},"Address":{"Label":"Chemin de Lannedarré, 65100 Lourdes, France","Country":"FRA","State":"Occitanie","County":"Hautes-Pyrénées","City":"Lourdes","Street":"Chemin de Lannedarré","PostalCode":"65100","AdditionalData":[{"value":"France","key":"CountryName"},{"value":"Occitanie","key":"StateName"},{"value":"Hautes-Pyrénées","key":"CountyName"}]},"MapReference":{"ReferenceId":"82314360","Spot":1.0,"SideOfStreet":"right","CountryId":"20000001","StateId":"20050212","CountyId":"20106207","CityId":"20107047"}}},{"Relevance":1.0,"Distance":36.1,"MatchLevel":"street","MatchQuality":{"Country":1.0,"State":1.0,"County":1.0,"City":1.0,"Street":[1.0],"PostalCode":1.0},"Location":{"LocationId":"NT_m23cqDQR9-ZxsKnGWon3bB_l_82313307_R","LocationType":"point","DisplayPosition":{"Latitude":43.10536,"Longitude":-0.06179},"MapView":{"TopLeft":{"Latitude":43.10557,"Longitude":-0.06207},"BottomRight":{"Latitude":43.10536,"Longitude":-0.06179}},"Address":{"Label":"Avenue Antoine Béguère, 65100 Lourdes, France","Country":"FRA","State":"Occitanie","County":"Hautes-Pyrénées","City":"Lourdes","Street":"Avenue Antoine Béguère","PostalCode":"65100","AdditionalData":[{"value":"France","key":"CountryName"},{"value":"Occitanie","key":"StateName"},{"value":"Hautes-Pyrénées","key":"CountyName"}]},"MapReference":{"ReferenceId":"82313307","Spot":0.0,"SideOfStreet":"right","CountryId":"20000001","StateId":"20050212","CountyId":"20106207","CityId":"20107047"}}},{"Relevance":1.0,"Distance":39.0,"MatchLevel":"houseNumber","MatchQuality":{"Country":1.0,"State":1.0,"County":1.0,"City":1.0,"Street":[1.0],"HouseNumber":1.0,"PostalCode":1.0},"MatchType":"interpolated","Location":{"LocationId":"NT_m23cqDQR9-ZxsKnGWon3bB_l_82314362_L_xA","LocationType":"point","DisplayPosition":{"Latitude":43.1053109,"Longitude":-0.061736},"MapView":{"TopLeft":{"Latitude":43.1064351,"Longitude":-0.0632757},"BottomRight":{"Latitude":43.1041868,"Longitude":-0.0601963}},"Address":{"Label":"1 Avenue Antoine Béguère, 65100 Lourdes, France","Country":"FRA","State":"Occitanie","County":"Hautes-Pyrénées","City":"Lourdes","Street":"Avenue Antoine Béguère","HouseNumber":"1","PostalCode":"65100","AdditionalData":[{"value":"France","key":"CountryName"},{"value":"Occitanie","key":"StateName"},{"value":"Hautes-Pyrénées","key":"CountyName"}]},"MapReference":{"ReferenceId":"82314362","Spot":0.51,"SideOfStreet":"left","CountryId":"20000001","StateId":"20050212","CountyId":"20106207","CityId":"20107047"}}},{"Relevance":1.0,"Distance":42.5,"MatchLevel":"street","MatchQuality":{"Country":1.0,"State":1.0,"County":1.0,"City":1.0,"Street":[1.0],"PostalCode":1.0},"Location":{"LocationId":"NT_m23cqDQR9-ZxsKnGWon3bB_l_1105234450_R","LocationType":"point","DisplayPosition":{"Latitude":43.10557,"Longitude":-0.06207},"MapView":{"TopLeft":{"Latitude":43.10563,"Longitude":-0.06215},"BottomRight":{"Latitude":43.10557,"Longitude":-0.06207}},"Address":{"Label":"Avenue Jean Prat, 65100 Lourdes, France","Country":"FRA","State":"Occitanie","County":"Hautes-Pyrénées","City":"Lourdes","Street":"Avenue Jean Prat","PostalCode":"65100","AdditionalData":[{"value":"France","key":"CountryName"},{"value":"Occitanie","key":"StateName"},{"value":"Hautes-Pyrénées","key":"CountyName"}]},"MapReference":{"ReferenceId":"1105234450","Spot":0.0,"SideOfStreet":"right","CountryId":"20000001","StateId":"20050212","CountyId":"20106207","CityId":"20107047"}}},{"Relevance":1.0,"Distance":43.0,"MatchLevel":"street","MatchQuality":{"Country":1.0,"State":1.0,"County":1.0,"City":1.0,"PostalCode":1.0},"Location":{"LocationId":"NT_-Q2uC6zhMYDCgwWyuK1wyD_l_82314366_R","LocationType":"point","DisplayPosition":{"Latitude":43.10526,"Longitude":-0.06168},"MapView":{"TopLeft":{"Latitude":43.10526,"Longitude":-0.06173},"BottomRight":{"Latitude":43.10497,"Longitude":-0.06168}},"Address":{"Label":"65100 Lourdes, France","Country":"FRA","State":"Occitanie","County":"Hautes-Pyrénées","City":"Lourdes","PostalCode":"65100","AdditionalData":[{"value":"France","key":"CountryName"},{"value":"Occitanie","key":"StateName"},{"value":"Hautes-Pyrénées","key":"CountyName"}]},"MapReference":{"ReferenceId":"82314366","Spot":1.0,"SideOfStreet":"right","CountryId":"20000001","StateId":"20050212","CountyId":"20106207","CityId":"20107047"}}},{"Relevance":1.0,"Distance":47.4,"MatchLevel":"houseNumber","MatchQuality":{"Country":1.0,"State":1.0,"County":1.0,"City":1.0,"Street":[1.0],"HouseNumber":1.0,"PostalCode":1.0},"MatchType":"interpolated","Location":{"LocationId":"NT_QBb3n8y.RIj24-pyR6.HsC_0gD","LocationType":"point","DisplayPosition":{"Latitude":43.10519,"Longitude":-0.06162},"MapView":{"TopLeft":{"Latitude":43.1063142,"Longitude":-0.0631597},"BottomRight":{"Latitude":43.1040658,"Longitude":-0.0600803}},"Address":{"Label":"48 Avenue Antoine Béguère, 65100 Lourdes, France","Country":"FRA","State":"Occitanie","County":"Hautes-Pyrénées","City":"Lourdes","Street":"Avenue Antoine Béguère","HouseNumber":"48","PostalCode":"65100","AdditionalData":[{"value":"France","key":"CountryName"},{"value":"Occitanie","key":"StateName"},{"value":"Hautes-Pyrénées","key":"CountyName"}]},"MapReference":{"ReferenceId":"82314361","Spot":0.67,"SideOfStreet":"right","CountryId":"20000001","StateId":"20050212","CountyId":"20106207","CityId":"20107047","AddressId":"571685434","RoadLinkId":"50775320"}}},{"Relevance":1.0,"Distance":49.3,"MatchLevel":"houseNumber","MatchQuality":{"Country":1.0,"State":1.0,"County":1.0,"City":1.0,"Street":[1.0],"HouseNumber":1.0,"PostalCode":1.0},"MatchType":"interpolated","Location":{"LocationId":"NT_SlNtqWRom46qWWhHoGehsA_1ED","LocationType":"point","DisplayPosition":{"Latitude":43.10606,"Longitude":-0.06175},"MapView":{"TopLeft":{"Latitude":43.1071842,"Longitude":-0.0632897},"BottomRight":{"Latitude":43.1049358,"Longitude":-0.0602103}},"Address":{"Label":"51 Chemin de Lannedarré, 65100 Lourdes, France","Country":"FRA","State":"Occitanie","County":"Hautes-Pyrénées","City":"Lourdes","Street":"Chemin de Lannedarré","HouseNumber":"51","PostalCode":"65100","AdditionalData":[{"value":"France","key":"CountryName"},{"value":"Occitanie","key":"StateName"},{"value":"Hautes-Pyrénées","key":"CountyName"}]},"MapReference":{"ReferenceId":"82314359","Spot":0.42,"SideOfStreet":"right","CountryId":"20000001","StateId":"20050212","CountyId":"20106207","CityId":"20107047","AddressId":"571710332","RoadLinkId":"51321050"}}},{"Relevance":1.0,"Distance":50.8,"MatchLevel":"houseNumber","MatchQuality":{"Country":1.0,"State":1.0,"County":1.0,"City":1.0,"Street":[1.0],"HouseNumber":1.0,"PostalCode":1.0},"MatchType":"interpolated","Location":{"LocationId":"NT_QBb3n8y.RIj24-pyR6.HsC_zED","LocationType":"point","DisplayPosition":{"Latitude":43.10526,"Longitude":-0.06191},"MapView":{"TopLeft":{"Latitude":43.1063842,"Longitude":-0.0634497},"BottomRight":{"Latitude":43.1041358,"Longitude":-0.0603703}},"Address":{"Label":"31 Avenue Antoine Béguère, 65100 Lourdes, France","Country":"FRA","State":"Occitanie","County":"Hautes-Pyrénées","City":"Lourdes","Street":"Avenue Antoine Béguère","HouseNumber":"31","PostalCode":"65100","AdditionalData":[{"value":"France","key":"CountryName"},{"value":"Occitanie","key":"StateName"},{"value":"Hautes-Pyrénées","key":"CountyName"}]},"MapReference":{"ReferenceId":"82314364","Spot":0.49,"SideOfStreet":"left","CountryId":"20000001","StateId":"20050212","CountyId":"20106207","CityId":"20107047","AddressId":"321017534","RoadLinkId":"51179405"}}}]}]}}