{"Response":{"MetaInfo":{"Timestamp":"2020-03-28T09:43:58.383+0000","NextPageInformation":"2"},"View":[{"_type":"SearchResultsViewType","ViewId":0,"Result":[{"Relevance":1.0,"Distance":0.0,"Direction":0.0,"MatchLevel":"city","MatchQuality":{"Country":1.0,"State":1.0,"County":1.0,"City":1.0,"PostalCode":1.0},"Location":{"LocationId":"NT_6ZZJt032q2u0qeW9SwvYNB","LocationType":"point","DisplayPosition":{"Latitude":43.1792688,"Longitude":-9.0903904},"MapView":{"TopLeft":{"Latitude":43.1983,"Longitude":-9.21457},"BottomRight":{"Latitude":43.12203,"Longitude":-9.08156}},"Address":{"Label":"Camariñas, Galicia, España","Country":"ESP","State":"Galicia","County":"A Coruña","City":"Camariñas","PostalCode":"15123","AdditionalData":[{"value":"España","key":"CountryName"},{"value":"Galicia","key":"StateName"},{"value":"A Coruña","key":"CountyName"}]},"MapReference":{"ReferenceId":"551492338","SideOfStreet":"neither","CountryId":"20215059","StateId":"20226791","CountyId":"20226792","CityId":"20322648"}}},{"Relevance":1.0,"Distance":2.6,"MatchLevel":"houseNumber","MatchQuality":{"Country":1.0,"State":1.0,"County":1.0,"City":1.0,"Street":[1.0],"HouseNumber":1.0,"PostalCode":1.0},"MatchType":"interpolated","Location":{"LocationId":"NT_4ar5pMjrUMh9.hxlcwGw3D_l_1234050465_L_0QD","LocationType":"point","DisplayPosition":{"Latitude":43.1791119,"Longitude":-9.0903982},"MapView":{"TopLeft":{"Latitude":43.1802361,"Longitude":-9.0919398},"BottomRight":{"Latitude":43.1779878,"Longitude":-9.0888566}},"Address":{"Label":"Rúa Campo da Area, 44, 15121 Camariñas (A Coruña), España","Country":"ESP","State":"Galicia","County":"A Coruña","City":"Camariñas","Street":"Rúa Campo da Area","HouseNumber":"44","PostalCode":"15121","AdditionalData":[{"value":"España","key":"CountryName"},{"value":"Galicia","key":"StateName"},{"value":"A Coruña","key":"CountyName"}]},"MapReference":{"ReferenceId":"1234050465","Spot":0.5,"SideOfStreet":"left","CountryId":"20215059","StateId":"20226791","CountyId":"20226792","CityId":"20322648"}}},{"Relevance":1.0,"Distance":3.5,"MatchLevel":"street","MatchQuality":{"Country":1.0,"State":1.0,"County":1.0,"City":1.0,"PostalCode":1.0},"Location":{"LocationId":"NT_KtxKiD.609AjQRs0ASrDZC_l_1234188305_L","LocationType":"point","DisplayPosition":{"Latitude":43.1792975,"Longitude":-9.0904068},"MapView":{"TopLeft":{"Latitude":43.17941,"Longitude":-9.09084},"BottomRight":{"Latitude":43.17909,"Longitude":-9.09019}},"Address":{"Label":"15121 Camariñas (A Coruña), España","Country":"ESP","State":"Galicia","County":"A Coruña","City":"Camariñas","PostalCode":"15121","AdditionalData":[{"value":"España","key":"CountryName"},{"value":"Galicia","key":"StateName"},{"value":"A Coruña","key":"CountyName"}]},"MapReference":{"ReferenceId":"1234188305","Spot":0.66,"SideOfStreet":"neither","CountryId":"20215059","StateId":"20226791","CountyId":"20226792","CityId":"20322648"}}},{"Relevance":1.0,"Distance":22.6,"MatchLevel":"street","MatchQuality":{"Country":1.0,"State":1.0,"County":1.0,"City":1.0,"PostalCode":1.0},"Location":{"LocationId":"NT_KtxKiD.609AjQRs0ASrDZC_l_1234188294_L","LocationType":"point","DisplayPosition":{"Latitude":43.17941,"Longitude":-9.09019},"MapView":{"TopLeft":{"Latitude":43.17941,"Longitude":-9.09019},"BottomRight":{"Latitude":43.17908,"Longitude":-9.09002}},"Address":{"Label":"15121 Camariñas (A Coruña), España","Country":"ESP","State":"Galicia","County":"A Coruña","City":"Camariñas","PostalCode":"15121","AdditionalData":[{"value":"España","key":"CountryName"},{"value":"Galicia","key":"StateName"},{"value":"A Coruña","key":"CountyName"}]},"MapReference":{"ReferenceId":"1234188294","Spot":1.0,"SideOfStreet":"left","CountryId":"20215059","StateId":"20226791","CountyId":"20226792","CityId":"20322648"}}},{"Relevance":1.0,"Distance":22.6,"MatchLevel":"street","MatchQuality":{"Country":1.0,"State":1.0,"County":1.0,"City":1.0,"PostalCode":1.0},"Location":{"LocationId":"NT_KtxKiD.609AjQRs0ASrDZC_l_1234188302_R","LocationType":"point","DisplayPosition":{"Latitude":43.17941,"Longitude":-9.09019},"MapView":{"TopLeft":{"Latitude":43.18006,"Longitude":-9.09019},"BottomRight":{"Latitude":43.17941,"Longitude":-9.08938}},"Address":{"Label":"15121 Camariñas (A Coruña), España","Country":"ESP","State":"Galicia","County":"A Coruña","City":"Camariñas","PostalCode":"15121","AdditionalData":[{"value":"España","key":"CountryName"},{"value":"Galicia","key":"StateName"},{"value":"A Coruña","key":"CountyName"}]},"MapReference":{"ReferenceId":"1234188302","Spot":0.0,"SideOfStreet":"right","CountryId":"20215059","StateId":"20226791","CountyId":"20226792","CityId":"20322648"}}},{"Relevance":1.0,"Distance":38.5,"MatchLevel":"street","MatchQuality":{"Country":1.0,"State":1.0,"County":1.0,"City":1.0,"District":1.0,"Street":[1.0],"PostalCode":1.0},"Location":{"LocationId":"NT_5RAwQpLX96x7TicihfwciA_l_1234087396_R","LocationType":"point","DisplayPosition":{"Latitude":43.17902,"Longitude":-9.09072},"MapView":{"TopLeft":{"Latitude":43.17909,"Longitude":-9.09084},"BottomRight":{"Latitude":43.17902,"Longitude":-9.09072}},"Address":{"Label":"Rúa Camelle, 15121 Camariñas (A Coruña), España","Country":"ESP","State":"Galicia","County":"A Coruña","City":"Camariñas","District":"Camelle","Street":"Rúa Camelle","PostalCode":"15121","AdditionalData":[{"value":"España","key":"CountryName"},{"value":"Galicia","key":"StateName"},{"value":"A Coruña","key":"CountyName"}]},"MapReference":{"ReferenceId":"1234087396","Spot":0.0,"SideOfStreet":"right","CountryId":"20215059","StateId":"20226791","CountyId":"20226792","CityId":"20322648","DistrictId":"24421739"}}},{"Relevance":1.0,"Distance":40.0,"MatchLevel":"houseNumber","MatchQuality":{"Country":1.0,"State":1.0,"County":1.0,"City":1.0,"District":1.0,"Street":[1.0],"HouseNumber":1.0,"PostalCode":1.0},"MatchType":"interpolated","Location":{"LocationId":"NT_cC.ZqFPGmnw6ldMAmPc4rD_l_551493353_L_3kD","LocationType":"point","DisplayPosition":{"Latitude":43.1789933,"Longitude":-9.0907667},"MapView":{"TopLeft":{"Latitude":43.1801175,"Longitude":-9.0923082},"BottomRight":{"Latitude":43.1778692,"Longitude":-9.0892251}},"Address":{"Label":"Rúa Campo da Area, 79, 15121 Camariñas (A Coruña), España","Country":"ESP","State":"Galicia","County":"A Coruña","City":"Camariñas","District":"Camelle","Street":"Rúa Campo da Area","HouseNumber":"79","PostalCode":"15121","AdditionalData":[{"value":"España","key":"CountryName"},{"value":"Galicia","key":"StateName"},{"value":"A Coruña","key":"CountyName"}]},"MapReference":{"ReferenceId":"551493353","Spot":0.83,"SideOfStreet":"left","CountryId":"20215059","StateId":"20226791","CountyId":"20226792","CityId":"20322648","DistrictId":"24421739"}}},{"Relevance":1.0,"Distance":41.5,"MatchLevel":"street","MatchQuality":{"Country":1.0,"State":1.0,"County":1.0,"City":1.0,"District":1.0,"Street":[1.0],"PostalCode":1.0},"Location":{"LocationId":"NT_5RAwQpLX96x7TicihfwciA_l_1234087397_L","LocationType":"point","DisplayPosition":{"Latitude":43.17909,"Longitude":-9.09084},"MapView":{"TopLeft":{"Latitude":43.17909,"Longitude":-9.09113},"BottomRight":{"Latitude":43.17905,"Longitude":-9.09084}},"Address":{"Label":"Rúa Camelle, 15121 Camariñas (A Coruña), España","Country":"ESP","State":"Galicia","County":"A Coruña","City":"Camariñas","District":"Camelle","Street":"Rúa Camelle","PostalCode":"15121","AdditionalData":[{"value":"España","key":"CountryName"},{"value":"Galicia","key":"StateName"},{"value":"A Coruña","key":"CountyName"}]},"MapReference":{"ReferenceId":"1234087397","Spot":1.0,"SideOfStreet":"left","CountryId":"20215059","StateId":"20226791","CountyId":"20226792","CityId":"20322648","DistrictId":"24421739"}}},{"Relevance":1.0,"Distance":62.3,"MatchLevel":"houseNumber","MatchQuality":{"Country":1.0,"State":1.0,"County":1.0,"City":1.0,"Street":[1.0],"HouseNumber":1.0,"PostalCode":1.0},"MatchType":"interpolated","Location":{"LocationId":"NT_4ar5pMjrUMh9.hxlcwGw3D_l_1234050464_R_0ID","LocationType":"point","DisplayPosition":{"Latitude":43.1789684,"Longitude":-9.0897212},"MapView":{"TopLeft":{"Latitude":43.1800925,"Longitude":-9.0912628},"BottomRight":{"Latitude":43.1778442,"Longitude":-9.0881797}},"Address":{"Label":"Rúa Campo da Area, 42, 15121 Camariñas (A Coruña), España","Country":"ESP","State":"Galicia","County":"A Coruña","City":"Camariñas","Street":"Rúa Campo da Area","HouseNumber":"42","PostalCode":"15121","AdditionalData":[{"value":"España","key":"CountryName"},{"value":"Galicia","key":"StateName"},{"value":"A Coruña","key":"CountyName"}]},"MapReference":{"ReferenceId":"1234050464","Spot":0.49,"SideOfStreet":"right","CountryId":"20215059","StateId":"20226791","CountyId":"20226792","CityId":"20322648"}}},{"Relevance":1.0,"Distance":64.7,"MatchLevel":"street","MatchQuality":{"Country":1.0,"State":1.0,"County":1.0,"City":1.0,"District":1.0,"Street":[1.0],"PostalCode":1.0},"Location":{"LocationId":"NT_5RAwQpLX96x7TicihfwciA_l_1234087399_R","LocationType":"point","DisplayPosition":{"Latitude":43.17905,"Longitude":-9.09113},"MapView":{"TopLeft":{"Latitude":43.17905,"Longitude":-9.09113},"BottomRight":{"Latitude":43.17882,"Longitude":-9.09106}},"Address":{"Label":"Rúa Camelle, 15121 Camariñas (A Coruña), España","Country":"ESP","State":"Galicia","County":"A Coruña","City":"Camariñas","District":"Camelle","Street":"Rúa Camelle","PostalCode":"15121","AdditionalData":[{"value":"España","key":"CountryName"},{"value":"Galicia","key":"StateName"},{"value":"A Coruña","key":"CountyName"}]},"MapReference":{"ReferenceId":"1234087399","Spot":1.0,"SideOfStreet":"right","CountryId":"20215059","StateId":"20226791","CountyId":"20226792","CityId":"20322648","DistrictId":"24421739"}}}]}]}}