{"Response":{"MetaInfo":{"Timestamp":"2020-03-28T09:55:51.121+0000","NextPageInformation":"2"},"View":[{"_type":"SearchResultsViewType","ViewId":0,"Result":[{"Relevance":1.0,"Distance":0.0,"Direction":0.0,"MatchLevel":"city","MatchQuality":{"Country":1.0,"State":1.0,"County":1.0,"City":1.0,"PostalCode":1.0},"Location":{"LocationId":"NT_EAJbI-JozvRjz--ZK5ZpjA","LocationType":"point","DisplayPosition":{"Latitude":43.1297262,"Longitude":12.2398841},"MapView":{"TopLeft":{"Latitude":43.22662,"Longitude":12.08116},"BottomRight":{"Latitude":43.05157,"Longitude":12.3011}},"Address":{"Label":"Magione, Umbria, Italia","Country":"ITA","State":"Umbria","County":"PG","City":"Magione","PostalCode":"06063","AdditionalData":[{"value":"Italia","key":"CountryName"},{"value":"Umbria","key":"StateName"},{"value":"Perugia","key":"CountyName"}]},"MapReference":{"ReferenceId":"578824078","SideOfStreet":"neither","CountryId":"20110484","StateId":"20126351","CountyId":"20126352","CityId":"20210294"}}},{"Relevance":1.0,"Distance":150.2,"MatchLevel":"street","MatchQuality":{"Country":1.0,"State":1.0,"County":1.0,"City":1.0,"Street":[1.0],"PostalCode":1.0},"Location":{"LocationId":"NT_Yh.CZHkoGb3q3Xs6KDt8BC_l_1189781732_L","LocationType":"point","DisplayPosition":{"Latitude":43.12846,"Longitude":12.23924},"MapView":{"TopLeft":{"Latitude":43.12846,"Longitude":12.2382},"BottomRight":{"Latitude":43.12793,"Longitude":12.23924}},"Address":{"Label":"Località Casellino, 06063 Magione PG, Italia","Country":"ITA","State":"Umbria","County":"PG","City":"Magione","Street":"Località Casellino","PostalCode":"06063","AdditionalData":[{"value":"Italia","key":"CountryName"},{"value":"Umbria","key":"StateName"},{"value":"Perugia","key":"CountyName"}]},"MapReference":{"ReferenceId":"1189781732","Spot":1.0,"SideOfStreet":"left","CountryId":"20110484","StateId":"20126351","CountyId":"20126352","CityId":"20210294"}}},{"Relevance":1.0,"Distance":242.0,"MatchLevel":"street","MatchQuality":{"Country":1.0,"State":1.0,"County":1.0,"City":1.0,"Street":[1.0],"PostalCode":1.0},"Location":{"LocationId":"NT_Yh.CZHkoGb3q3Xs6KDt8BC_l_1189781731_L","LocationType":"point","DisplayPosition":{"Latitude":43.12793,"Longitude":12.2382},"MapView":{"TopLeft":{"Latitude":43.12793,"Longitude":12.23806},"BottomRight":{"Latitude":43.12784,"Longitude":12.2382}},"Address":{"Label":"Località Casellino, 06063 Magione PG, Italia","Country":"ITA","State":"Umbria","County":"PG","City":"Magione","Street":"Località Casellino","PostalCode":"06063","AdditionalData":[{"value":"Italia","key":"CountryName"},{"value":"Umbria","key":"StateName"},{"value":"Perugia","key":"CountyName"}]},"MapReference":{"ReferenceId":"1189781731","Spot":1.0,"SideOfStreet":"left","CountryId":"20110484","StateId":"20126351","CountyId":"20126352","CityId":"20210294"}}},{"Relevance":1.0,"Distance":242.0,"MatchLevel":"street","MatchQuality":{"Country":1.0,"State":1.0,"County":1.0,"City":1.0,"PostalCode":1.0},"Location":{"LocationId":"NT_KZbIlvXD6KRQs4A8uMmcVD_l_1189781733_L","LocationType":"point","DisplayPosition":{"Latitude":43.12793,"Longitude":12.2382},"MapView":{"TopLeft":{"Latitude":43.13146,"Longitude":12.2382},"BottomRight":{"Latitude":43.12571,"Longitude":12.24581}},"Address":{"Label":"06063 Magione PG, Italia","Country":"ITA","State":"Umbria","County":"PG","City":"Magione","PostalCode":"06063","AdditionalData":[{"value":"Italia","key":"CountryName"},{"value":"Umbria","key":"StateName"},{"value":"Perugia","key":"CountyName"}]},"MapReference":{"ReferenceId":"1189781733","Spot":0.0,"SideOfStreet":"left","CountryId":"20110484","StateId":"20126351","CountyId":"20126352","CityId":"20210294"}}},{"Relevance":1.0,"Distance":253.9,"MatchLevel":"street","MatchQuality":{"Country":1.0,"State":1.0,"County":1.0,"City":1.0,"Street":[1.0],"PostalCode":1.0},"Location":{"LocationId":"NT_8g-4JLIyCbiGl0GnGClSJD_l_555400215_R","LocationType":"point","DisplayPosition":{"Latitude":43.1279035,"Longitude":12.2379986},"MapView":{"TopLeft":{"Latitude":43.13353,"Longitude":12.23431},"BottomRight":{"Latitude":43.12784,"Longitude":12.23806}},"Address":{"Label":"Località Casellino, 06063 Magione PG, Italia","Country":"ITA","State":"Umbria","County":"PG","City":"Magione","Street":"Località Casellino","PostalCode":"06063","AdditionalData":[{"value":"Italia","key":"CountryName"},{"value":"Umbria","key":"StateName"},{"value":"Perugia","key":"CountyName"}]},"MapReference":{"ReferenceId":"555400215","Spot":0.01,"SideOfStreet":"right","CountryId":"20110484","StateId":"20126351","CountyId":"20126352","CityId":"20210294"}}},{"Relevance":1.0,"Distance":256.7,"MatchLevel":"street","MatchQuality":{"Country":1.0,"State":1.0,"County":1.0,"City":1.0,"Street":[1.0],"PostalCode":1.0},"Location":{"LocationId":"NT_Yh.CZHkoGb3q3Xs6KDt8BC_l_578823708_L","LocationType":"point","DisplayPosition":{"Latitude":43.12784,"Longitude":12.23806},"MapView":{"TopLeft":{"Latitude":43.12784,"Longitude":12.23451},"BottomRight":{"Latitude":43.12628,"Longitude":12.23806}},"Address":{"Label":"Località Casellino, 06063 Magione PG, Italia","Country":"ITA","State":"Umbria","County":"PG","City":"Magione","Street":"Località Casellino","PostalCode":"06063","AdditionalData":[{"value":"Italia","key":"CountryName"},{"value":"Umbria","key":"StateName"},{"value":"Perugia","key":"CountyName"}]},"MapReference":{"ReferenceId":"578823708","Spot":1.0,"SideOfStreet":"left","CountryId":"20110484","StateId":"20126351","CountyId":"20126352","CityId":"20210294"}}},{"Relevance":1.0,"Distance":512.1,"MatchLevel":"street","MatchQuality":{"Country":1.0,"State":1.0,"County":1.0,"City":1.0,"District":1.0,"PostalCode":1.0},"Location":{"LocationId":"NT_t7bwm0Q29rU2fIZ8QjmUND_l_985086582_L","LocationType":"point","DisplayPosition":{"Latitude":43.13384,"Longitude":12.24272},"MapView":{"TopLeft":{"Latitude":43.13434,"Longitude":12.24262},"BottomRight":{"Latitude":43.13384,"Longitude":12.24272}},"Address":{"Label":"06063 Magione PG, Italia","Country":"ITA","State":"Umbria","County":"PG","City":"Magione","District":"Bacanella","PostalCode":"06063","AdditionalData":[{"value":"Italia","key":"CountryName"},{"value":"Umbria","key":"StateName"},{"value":"Perugia","key":"CountyName"}]},"MapReference":{"ReferenceId":"985086582","Spot":0.0,"SideOfStreet":"left","CountryId":"20110484","StateId":"20126351","CountyId":"20126352","CityId":"20210294","DistrictId":"20709654"}}},{"Relevance":1.0,"Distance":512.1,"MatchLevel":"street","MatchQuality":{"Country":1.0,"State":1.0,"County":1.0,"City":1.0,"District":1.0,"PostalCode":1.0},"Location":{"LocationId":"NT_t7bwm0Q29rU2fIZ8QjmUND_l_807478417_L","LocationType":"point","DisplayPosition":{"Latitude":43.13384,"Longitude":12.24272},"MapView":{"TopLeft":{"Latitude":43.13384,"Longitude":12.24272},"BottomRight":{"Latitude":43.13358,"Longitude":12.24373}},"Address":{"Label":"06063 Magione PG, Italia","Country":"ITA","State":"Umbria","County":"PG","City":"Magione","District":"Bacanella","PostalCode":"06063","AdditionalData":[{"value":"Italia","key":"CountryName"},{"value":"Umbria","key":"StateName"},{"value":"Perugia","key":"CountyName"}]},"MapReference":{"ReferenceId":"807478417","Spot":1.0,"SideOfStreet":"left","CountryId":"20110484","StateId":"20126351","CountyId":"20126352","CityId":"20210294","DistrictId":"20709654"}}},{"Relevance":1.0,"Distance":513.7,"MatchLevel":"landmark","MatchQuality":{"Country":1.0,"State":1.0,"County":1.0,"City":1.0,"District":1.0,"PostalCode":1.0,"Name":1.0},"Location":{"LocationId":"NT_2U.Sobzsiu0KwQRI9b4F2A","LocationType":"industrialComplex","Name":"Zona Industriale Bacanella","DisplayPosition":{"Latitude":43.13505,"Longitude":12.24537},"MapView":{"TopLeft":{"Latitude":43.13867,"Longitude":12.23787},"BottomRight":{"Latitude":43.13143,"Longitude":12.25167}},"Address":{"Label":"06063 Magione PG, Italia","Country":"ITA","State":"Umbria","County":"PG","City":"Magione","District":"Bacanella","PostalCode":"06063","AdditionalData":[{"value":"Italia","key":"CountryName"},{"value":"Umbria","key":"StateName"},{"value":"Perugia","key":"CountyName"}]},"MapReference":{"CountryId":"20110484","StateId":"20126351","CountyId":"20126352","CityId":"20210294","DistrictId":"20709654","PlaceId":"1414878678"}}},{"Relevance":1.0,"Distance":513.7,"MatchLevel":"street","MatchQuality":{"Country":1.0,"State":1.0,"County":1.0,"City":1.0,"District":1.0,"PostalCode":1.0},"Location":{"LocationId":"NT_t7bwm0Q29rU2fIZ8QjmUND_l_555400316_L","LocationType":"point","DisplayPosition":{"Latitude":43.13426,"Longitude":12.2411},"MapView":{"TopLeft":{"Latitude":43.13426,"Longitude":12.2411},"BottomRight":{"Latitude":43.13384,"Longitude":12.24272}},"Address":{"Label":"06063 Magione PG, Italia","Country":"ITA","State":"Umbria","County":"PG","City":"Magione","District":"Bacanella","PostalCode":"06063","AdditionalData":[{"value":"Italia","key":"CountryName"},{"value":"Umbria","key":"StateName"},{"value":"Perugia","key":"CountyName"}]},"MapReference":{"ReferenceId":"555400316","Spot":1.0,"SideOfStreet":"left","CountryId":"20110484","StateId":"20126351","CountyId":"20126352","CityId":"20210294","DistrictId":"20709654"}}}]}]}}