{"Response":{"MetaInfo":{"Timestamp":"2020-03-28T09:43:51.473+0000","NextPageInformation":"2"},"View":[{"_type":"SearchResultsViewType","ViewId":0,"Result":[{"Relevance":1.0,"Distance":0.0,"Direction":0.0,"MatchLevel":"city","MatchQuality":{"Country":1.0,"State":1.0,"County":1.0,"City":1.0,"PostalCode":1.0},"Location":{"LocationId":"NT_hiSLuKXmJUI6U2FclxfLrB","LocationType":"point","DisplayPosition":{"Latitude":43.1592394,"Longitude":-8.5570364},"MapView":{"TopLeft":{"Latitude":43.22649,"Longitude":-8.59678},"BottomRight":{"Latitude":43.0996,"Longitude":-8.39476}},"Address":{"Label":"Cerceda, Galicia, España","Country":"ESP","State":"Galicia","County":"A Coruña","City":"Cerceda","PostalCode":"15185","AdditionalData":[{"value":"España","key":"CountryName"},{"value":"Galicia","key":"StateName"},{"value":"A Coruña","key":"CountyName"}]},"MapReference":{"ReferenceId":"82197969","SideOfStreet":"neither","CountryId":"20215059","StateId":"20226791","CountyId":"20226792","CityId":"20322748"}}},{"Relevance":1.0,"Distance":21.6,"MatchLevel":"street","MatchQuality":{"Country":1.0,"State":1.0,"County":1.0,"City":1.0,"Street":[1.0],"PostalCode":1.0},"Location":{"LocationId":"NT_Bgz5w4S53uxrjoS04IM.hC_l_851177132_L","LocationType":"point","DisplayPosition":{"Latitude":43.1594334,"Longitude":-8.5570243},"MapView":{"TopLeft":{"Latitude":43.15945,"Longitude":-8.55729},"BottomRight":{"Latitude":43.15924,"Longitude":-8.5561}},"Address":{"Label":"AC-400, 15186 Cerceda (A Coruña), España","Country":"ESP","State":"Galicia","County":"A Coruña","City":"Cerceda","Street":"AC-400","PostalCode":"15186","AdditionalData":[{"value":"España","key":"CountryName"},{"value":"Galicia","key":"StateName"},{"value":"A Coruña","key":"CountyName"}]},"MapReference":{"ReferenceId":"851177132","Spot":0.78,"SideOfStreet":"left","CountryId":"20215059","StateId":"20226791","CountyId":"20226792","CityId":"20322748"}}},{"Relevance":1.0,"Distance":31.2,"MatchLevel":"street","MatchQuality":{"Country":1.0,"State":1.0,"County":1.0,"City":1.0,"Street":[1.0],"PostalCode":1.0},"Location":{"LocationId":"NT_Bgz5w4S53uxrjoS04IM.hC_l_851177133_R","LocationType":"point","DisplayPosition":{"Latitude":43.15945,"Longitude":-8.55729},"MapView":{"TopLeft":{"Latitude":43.15945,"Longitude":-8.5576},"BottomRight":{"Latitude":43.15945,"Longitude":-8.55729}},"Address":{"Label":"AC-400, 15186 Cerceda (A Coruña), España","Country":"ESP","State":"Galicia","County":"A Coruña","City":"Cerceda","Street":"AC-400","PostalCode":"15186","AdditionalData":[{"value":"España","key":"CountryName"},{"value":"Galicia","key":"StateName"},{"value":"A Coruña","key":"CountyName"}]},"MapReference":{"ReferenceId":"851177133","Spot":1.0,"SideOfStreet":"right","CountryId":"20215059","StateId":"20226791","CountyId":"20226792","CityId":"20322748"}}},{"Relevance":1.0,"Distance":51.4,"MatchLevel":"street","MatchQuality":{"Country":1.0,"State":1.0,"County":1.0,"City":1.0,"Street":[1.0],"PostalCode":1.0},"Location":{"LocationId":"NT_Bgz5w4S53uxrjoS04IM.hC_l_851177131_R","LocationType":"point","DisplayPosition":{"Latitude":43.15945,"Longitude":-8.5576},"MapView":{"TopLeft":{"Latitude":43.15945,"Longitude":-8.55814},"BottomRight":{"Latitude":43.15941,"Longitude":-8.5576}},"Address":{"Label":"AC-400, 15186 Cerceda (A Coruña), España","Country":"ESP","State":"Galicia","County":"A Coruña","City":"Cerceda","Street":"AC-400","PostalCode":"15186","AdditionalData":[{"value":"España","key":"CountryName"},{"value":"Galicia","key":"StateName"},{"value":"A Coruña","key":"CountyName"}]},"MapReference":{"ReferenceId":"851177131","Spot":1.0,"SideOfStreet":"right","CountryId":"20215059","StateId":"20226791","CountyId":"20226792","CityId":"20322748"}}},{"Relevance":1.0,"Distance":51.4,"MatchLevel":"street","MatchQuality":{"Country":1.0,"State":1.0,"County":1.0,"City":1.0,"PostalCode":1.0},"Location":{"LocationId":"NT_BFXIJotxtlcH4U2-ALgSUC_l_593002703_R","LocationType":"point","DisplayPosition":{"Latitude":43.15945,"Longitude":-8.5576},"MapView":{"TopLeft":{"Latitude":43.15986,"Longitude":-8.55832},"BottomRight":{"Latitude":43.15945,"Longitude":-8.5576}},"Address":{"Label":"15186 Cerceda (A Coruña), España","Country":"ESP","State":"Galicia","County":"A Coruña","City":"Cerceda","PostalCode":"15186","AdditionalData":[{"value":"España","key":"CountryName"},{"value":"Galicia","key":"StateName"},{"value":"A Coruña","key":"CountyName"}]},"MapReference":{"ReferenceId":"593002703","Spot":0.0,"SideOfStreet":"right","CountryId":"20215059","StateId":"20226791","CountyId":"20226792","CityId":"20322748"}}},{"Relevance":1.0,"Distance":73.4,"MatchLevel":"street","MatchQuality":{"Country":1.0,"State":1.0,"County":1.0,"City":1.0,"PostalCode":1.0},"Location":{"LocationId":"NT_BFXIJotxtlcH4U2-ALgSUC_l_593002705_L","LocationType":"point","DisplayPosition":{"Latitude":43.1588579,"Longitude":-8.5562972},"MapView":{"TopLeft":{"Latitude":43.15924,"Longitude":-8.55642},"BottomRight":{"Latitude":43.15862,"Longitude":-8.5561}},"Address":{"Label":"15186 Cerceda (A Coruña), España","Country":"ESP","State":"Galicia","County":"A Coruña","City":"Cerceda","PostalCode":"15186","AdditionalData":[{"value":"España","key":"CountryName"},{"value":"Galicia","key":"StateName"},{"value":"A Coruña","key":"CountyName"}]},"MapReference":{"ReferenceId":"593002705","Spot":0.38,"SideOfStreet":"left","CountryId":"20215059","StateId":"20226791","CountyId":"20226792","CityId":"20322748"}}},{"Relevance":1.0,"Distance":76.0,"MatchLevel":"street","MatchQuality":{"Country":1.0,"State":1.0,"County":1.0,"City":1.0,"Street":[1.0],"PostalCode":1.0},"Location":{"LocationId":"NT_Bgz5w4S53uxrjoS04IM.hC_l_850601181_L","LocationType":"point","DisplayPosition":{"Latitude":43.15924,"Longitude":-8.5561},"MapView":{"TopLeft":{"Latitude":43.15924,"Longitude":-8.5561},"BottomRight":{"Latitude":43.15913,"Longitude":-8.5558}},"Address":{"Label":"AC-400, 15186 Cerceda (A Coruña), España","Country":"ESP","State":"Galicia","County":"A Coruña","City":"Cerceda","Street":"AC-400","PostalCode":"15186","AdditionalData":[{"value":"España","key":"CountryName"},{"value":"Galicia","key":"StateName"},{"value":"A Coruña","key":"CountyName"}]},"MapReference":{"ReferenceId":"850601181","Spot":1.0,"SideOfStreet":"left","CountryId":"20215059","StateId":"20226791","CountyId":"20226792","CityId":"20322748"}}},{"Relevance":1.0,"Distance":101.0,"MatchLevel":"street","MatchQuality":{"Country":1.0,"State":1.0,"County":1.0,"City":1.0,"Street":[1.0],"PostalCode":1.0},"Location":{"LocationId":"NT_Bgz5w4S53uxrjoS04IM.hC_l_850601180_L","LocationType":"point","DisplayPosition":{"Latitude":43.15913,"Longitude":-8.5558},"MapView":{"TopLeft":{"Latitude":43.15913,"Longitude":-8.5558},"BottomRight":{"Latitude":43.15897,"Longitude":-8.55529}},"Address":{"Label":"AC-400, 15186 Cerceda (A Coruña), España","Country":"ESP","State":"Galicia","County":"A Coruña","City":"Cerceda","Street":"AC-400","PostalCode":"15186","AdditionalData":[{"value":"España","key":"CountryName"},{"value":"Galicia","key":"StateName"},{"value":"A Coruña","key":"CountyName"}]},"MapReference":{"ReferenceId":"850601180","Spot":1.0,"SideOfStreet":"left","CountryId":"20215059","StateId":"20226791","CountyId":"20226792","CityId":"20322748"}}},{"Relevance":1.0,"Distance":124.7,"MatchLevel":"houseNumber","MatchQuality":{"Country":1.0,"State":1.0,"County":1.0,"City":1.0,"Street":[1.0],"HouseNumber":1.0,"PostalCode":1.0},"MatchType":"interpolated","Location":{"LocationId":"NT_Bgz5w4S53uxrjoS04IM.hC_l_851177130_R_xEjN","LocationType":"point","DisplayPosition":{"Latitude":43.1593602,"Longitude":-8.5585881},"MapView":{"TopLeft":{"Latitude":43.1604844,"Longitude":-8.5601292},"BottomRight":{"Latitude":43.1582361,"Longitude":-8.5570471}},"Address":{"Label":"AC-400, 116, 15186 Cerceda (A Coruña), España","Country":"ESP","State":"Galicia","County":"A Coruña","City":"Cerceda","Street":"AC-400","HouseNumber":"116","PostalCode":"15186","AdditionalData":[{"value":"España","key":"CountryName"},{"value":"Galicia","key":"StateName"},{"value":"A Coruña","key":"CountyName"}]},"MapReference":{"ReferenceId":"851177130","Spot":0.51,"SideOfStreet":"right","CountryId":"20215059","StateId":"20226791","CountyId":"20226792","CityId":"20322748"}}},{"Relevance":1.0,"Distance":124.9,"MatchLevel":"street","MatchQuality":{"Country":1.0,"State":1.0,"County":1.0,"City":1.0,"PostalCode":1.0},"Location":{"LocationId":"NT_BFXIJotxtlcH4U2-ALgSUC_l_757126720_L","LocationType":"point","DisplayPosition":{"Latitude":43.15986,"Longitude":-8.55832},"MapView":{"TopLeft":{"Latitude":43.1611,"Longitude":-8.56075},"BottomRight":{"Latitude":43.15986,"Longitude":-8.55832}},"Address":{"Label":"15186 Cerceda (A Coruña), España","Country":"ESP","State":"Galicia","County":"A Coruña","City":"Cerceda","PostalCode":"15186","AdditionalData":[{"value":"España","key":"CountryName"},{"value":"Galicia","key":"StateName"},{"value":"A Coruña","key":"CountyName"}]},"MapReference":{"ReferenceId":"757126720","Spot":0.0,"SideOfStreet":"left","CountryId":"20215059","StateId":"20226791","CountyId":"20226792","CityId":"20322748"}}}]}]}}