{"Response":{"MetaInfo":{"Timestamp":"2020-03-28T10:26:55.839+0000","NextPageInformation":"2"},"View":[{"_type":"SearchResultsViewType","ViewId":0,"Result":[{"Relevance":1.0,"Distance":0.0,"Direction":0.0,"MatchLevel":"city","MatchQuality":{"Country":1.0,"State":1.0,"County":1.0,"City":1.0,"PostalCode":1.0},"Location":{"LocationId":"NT_UdLnrSJjU4C7aQufpwWq.A","LocationType":"point","DisplayPosition":{"Latitude":43.275451,"Longitude":-3.9402156},"MapView":{"TopLeft":{"Latitude":43.29493,"Longitude":-3.95346},"BottomRight":{"Latitude":43.17053,"Longitude":-3.87284}},"Address":{"Label":"Santiurde de Toranzo, Cantabria, España","Country":"ESP","State":"Cantabria","County":"Cantabria","City":"Santiurde de Toranzo","PostalCode":"39698","AdditionalData":[{"value":"España","key":"CountryName"},{"value":"Cantabria","key":"StateName"},{"value":"Cantabria","key":"CountyName"}]},"MapReference":{"ReferenceId":"551528182","SideOfStreet":"neither","CountryId":"20215059","StateId":"20221901","CountyId":"20221902","CityId":"20282200"}}},{"Relevance":1.0,"Distance":4.9,"MatchLevel":"houseNumber","MatchQuality":{"Country":1.0,"State":1.0,"County":1.0,"City":1.0,"Street":[1.0],"HouseNumber":1.0,"PostalCode":1.0},"MatchType":"interpolated","Location":{"LocationId":"NT_u2usFz0t8rJ0KX6txW0MRB_4UjQ","LocationType":"point","DisplayPosition":{"Latitude":43.2754,"Longitude":-3.94015},"MapView":{"TopLeft":{"Latitude":43.2765242,"Longitude":-3.941694},"BottomRight":{"Latitude":43.2742758,"Longitude":-3.938606}},"Address":{"Label":"Barrio Iruz, 85B, 39691 Santiurde de Toranzo (Cantabria), España","Country":"ESP","State":"Cantabria","County":"Cantabria","City":"Santiurde de Toranzo","Street":"Barrio Iruz","HouseNumber":"85B","PostalCode":"39691","AdditionalData":[{"value":"España","key":"CountryName"},{"value":"Cantabria","key":"StateName"},{"value":"Cantabria","key":"CountyName"}]},"MapReference":{"ReferenceId":"551526610","Spot":0.65,"SideOfStreet":"left","CountryId":"20215059","StateId":"20221901","CountyId":"20221902","CityId":"20282200","AddressId":"348092559","RoadLinkId":"68746117"}}},{"Relevance":1.0,"Distance":13.8,"MatchLevel":"street","MatchQuality":{"Country":1.0,"State":1.0,"County":1.0,"City":1.0,"District":1.0,"Street":[1.0],"PostalCode":1.0},"Location":{"LocationId":"NT_TtolLaZq8GxH3sNQpkKvWC_l_551528229_L","LocationType":"point","DisplayPosition":{"Latitude":43.2755679,"Longitude":-3.9401584},"MapView":{"TopLeft":{"Latitude":43.27573,"Longitude":-3.94049},"BottomRight":{"Latitude":43.27551,"Longitude":-3.94004}},"Address":{"Label":"CA-270, 39691 Santiurde de Toranzo (Cantabria), España","Country":"ESP","State":"Cantabria","County":"Cantabria","City":"Santiurde de Toranzo","District":"Barrio Soto Iruz","Street":"CA-270","PostalCode":"39691","AdditionalData":[{"value":"España","key":"CountryName"},{"value":"Cantabria","key":"StateName"},{"value":"Cantabria","key":"CountyName"}]},"MapReference":{"ReferenceId":"551528229","Spot":0.26,"SideOfStreet":"left","CountryId":"20215059","StateId":"20221901","CountyId":"20221902","CityId":"20282200","DistrictId":"23575948"}}},{"Relevance":1.0,"Distance":22.1,"MatchLevel":"street","MatchQuality":{"Country":1.0,"State":1.0,"County":1.0,"City":1.0,"Street":[1.0],"PostalCode":1.0},"Location":{"LocationId":"NT_u2usFz0t8rJ0KX6txW0MRB_l_551528231_R","LocationType":"point","DisplayPosition":{"Latitude":43.2753298,"Longitude":-3.9404325},"MapView":{"TopLeft":{"Latitude":43.27583,"Longitude":-3.94069},"BottomRight":{"Latitude":43.2752,"Longitude":-3.94036}},"Address":{"Label":"Barrio Iruz, 39691 Santiurde de Toranzo (Cantabria), España","Country":"ESP","State":"Cantabria","County":"Cantabria","City":"Santiurde de Toranzo","Street":"Barrio Iruz","PostalCode":"39691","AdditionalData":[{"value":"España","key":"CountryName"},{"value":"Cantabria","key":"StateName"},{"value":"Cantabria","key":"CountyName"}]},"MapReference":{"ReferenceId":"551528231","Spot":0.21,"SideOfStreet":"right","CountryId":"20215059","StateId":"20221901","CountyId":"20221902","CityId":"20282200"}}},{"Relevance":1.0,"Distance":38.2,"MatchLevel":"street","MatchQuality":{"Country":1.0,"State":1.0,"County":1.0,"City":1.0,"District":1.0,"Street":[1.0],"PostalCode":1.0},"Location":{"LocationId":"NT_TtolLaZq8GxH3sNQpkKvWC_l_551528230_L","LocationType":"point","DisplayPosition":{"Latitude":43.27573,"Longitude":-3.94049},"MapView":{"TopLeft":{"Latitude":43.27583,"Longitude":-3.94069},"BottomRight":{"Latitude":43.27573,"Longitude":-3.94049}},"Address":{"Label":"CA-270, 39691 Santiurde de Toranzo (Cantabria), España","Country":"ESP","State":"Cantabria","County":"Cantabria","City":"Santiurde de Toranzo","District":"Barrio Soto Iruz","Street":"CA-270","PostalCode":"39691","AdditionalData":[{"value":"España","key":"CountryName"},{"value":"Cantabria","key":"StateName"},{"value":"Cantabria","key":"CountyName"}]},"MapReference":{"ReferenceId":"551528230","Spot":0.0,"SideOfStreet":"left","CountryId":"20215059","StateId":"20221901","CountyId":"20221902","CityId":"20282200","DistrictId":"23575948"}}},{"Relevance":1.0,"Distance":50.9,"MatchLevel":"houseNumber","MatchQuality":{"Country":1.0,"State":1.0,"County":1.0,"City":1.0,"District":1.0,"Street":[1.0],"HouseNumber":1.0,"PostalCode":1.0},"MatchType":"interpolated","Location":{"LocationId":"NT_9As4P0Vt9iOU8dfvOafPFD_xETMDB","LocationType":"point","DisplayPosition":{"Latitude":43.27592,"Longitude":-3.94039},"MapView":{"TopLeft":{"Latitude":43.2770442,"Longitude":-3.941934},"BottomRight":{"Latitude":43.2747958,"Longitude":-3.938846}},"Address":{"Label":"Barrio Iruz, 111C, 39691 Santiurde de Toranzo (Cantabria), España","Country":"ESP","State":"Cantabria","County":"Cantabria","City":"Santiurde de Toranzo","District":"Barrio Soto Iruz","Street":"Barrio Iruz","HouseNumber":"111C","PostalCode":"39691","AdditionalData":[{"value":"España","key":"CountryName"},{"value":"Cantabria","key":"StateName"},{"value":"Cantabria","key":"CountyName"}]},"MapReference":{"ReferenceId":"551526638","Spot":0.17,"SideOfStreet":"right","CountryId":"20215059","StateId":"20221901","CountyId":"20221902","CityId":"20282200","DistrictId":"23575948","AddressId":"348148178","RoadLinkId":"67822717"}}},{"Relevance":1.0,"Distance":55.1,"MatchLevel":"houseNumber","MatchQuality":{"Country":1.0,"State":1.0,"County":1.0,"City":1.0,"District":1.0,"Street":[1.0],"HouseNumber":1.0,"PostalCode":1.0},"MatchType":"interpolated","Location":{"LocationId":"NT_cFogFUkL8tO.2oOX1jV28D_4UD","LocationType":"point","DisplayPosition":{"Latitude":43.27527,"Longitude":-3.93956},"MapView":{"TopLeft":{"Latitude":43.2763942,"Longitude":-3.941104},"BottomRight":{"Latitude":43.2741458,"Longitude":-3.938016}},"Address":{"Label":"CA-270, 85, 39691 Santiurde de Toranzo (Cantabria), España","Country":"ESP","State":"Cantabria","County":"Cantabria","City":"Santiurde de Toranzo","District":"Barrio Soto Iruz","Street":"CA-270","HouseNumber":"85","PostalCode":"39691","AdditionalData":[{"value":"España","key":"CountryName"},{"value":"Cantabria","key":"StateName"},{"value":"Cantabria","key":"CountyName"}]},"MapReference":{"ReferenceId":"551529652","Spot":0.79,"SideOfStreet":"left","CountryId":"20215059","StateId":"20221901","CountyId":"20221902","CityId":"20282200","DistrictId":"23575948","AddressId":"348149686","RoadLinkId":"68639863"}}},{"Relevance":1.0,"Distance":76.5,"MatchLevel":"houseNumber","MatchQuality":{"Country":1.0,"State":1.0,"County":1.0,"City":1.0,"Street":[1.0],"HouseNumber":1.0,"PostalCode":1.0},"MatchType":"interpolated","Location":{"LocationId":"NT_u2usFz0t8rJ0KX6txW0MRB_4UzQ","LocationType":"point","DisplayPosition":{"Latitude":43.27476,"Longitude":-3.94011},"MapView":{"TopLeft":{"Latitude":43.2758842,"Longitude":-3.941654},"BottomRight":{"Latitude":43.2736358,"Longitude":-3.938566}},"Address":{"Label":"Barrio Iruz, 85C, 39691 Santiurde de Toranzo (Cantabria), España","Country":"ESP","State":"Cantabria","County":"Cantabria","City":"Santiurde de Toranzo","Street":"Barrio Iruz","HouseNumber":"85C","PostalCode":"39691","AdditionalData":[{"value":"España","key":"CountryName"},{"value":"Cantabria","key":"StateName"},{"value":"Cantabria","key":"CountyName"}]},"MapReference":{"ReferenceId":"551526626","Spot":0.71,"SideOfStreet":"right","CountryId":"20215059","StateId":"20221901","CountyId":"20221902","CityId":"20282200","AddressId":"348081779","RoadLinkId":"68073588"}}},{"Relevance":1.0,"Distance":108.9,"MatchLevel":"houseNumber","MatchQuality":{"Country":1.0,"State":1.0,"County":1.0,"City":1.0,"District":1.0,"Street":[1.0],"HouseNumber":1.0,"PostalCode":1.0},"MatchType":"interpolated","Location":{"LocationId":"NT_cFogFUkL8tO.2oOX1jV28D_xETMBB","LocationType":"point","DisplayPosition":{"Latitude":43.27626,"Longitude":-3.9393},"MapView":{"TopLeft":{"Latitude":43.2773842,"Longitude":-3.940844},"BottomRight":{"Latitude":43.2751358,"Longitude":-3.937756}},"Address":{"Label":"CA-600, 111A, 39691 Santiurde de Toranzo (Cantabria), España","Country":"ESP","State":"Cantabria","County":"Cantabria","City":"Santiurde de Toranzo","District":"Barrio Soto Iruz","Street":"CA-600","HouseNumber":"111A","PostalCode":"39691","AdditionalData":[{"value":"España","key":"CountryName"},{"value":"Cantabria","key":"StateName"},{"value":"Cantabria","key":"CountyName"}]},"MapReference":{"ReferenceId":"551526640","Spot":0.8,"SideOfStreet":"left","CountryId":"20215059","StateId":"20221901","CountyId":"20221902","CityId":"20282200","DistrictId":"23575948","AddressId":"367693626","RoadLinkId":"290082174"}}},{"Relevance":1.0,"Distance":150.4,"MatchLevel":"houseNumber","MatchQuality":{"Country":1.0,"State":1.0,"County":1.0,"City":1.0,"Street":[1.0],"HouseNumber":1.0,"PostalCode":1.0},"MatchType":"interpolated","Location":{"LocationId":"NT_6PhhAo883ggsCUxeARZiMC_5AD","LocationType":"point","DisplayPosition":{"Latitude":43.27631,"Longitude":-3.94165},"MapView":{"TopLeft":{"Latitude":43.2774342,"Longitude":-3.943194},"BottomRight":{"Latitude":43.2751858,"Longitude":-3.940106}},"Address":{"Label":"CA-270, 90, 39691 Santiurde de Toranzo (Cantabria), España","Country":"ESP","State":"Cantabria","County":"Cantabria","City":"Santiurde de Toranzo","Street":"CA-270","HouseNumber":"90","PostalCode":"39691","AdditionalData":[{"value":"España","key":"CountryName"},{"value":"Cantabria","key":"StateName"},{"value":"Cantabria","key":"CountyName"}]},"MapReference":{"ReferenceId":"902160183","Spot":0.79,"SideOfStreet":"left","CountryId":"20215059","StateId":"20221901","CountyId":"20221902","CityId":"20282200","AddressId":"348151682","RoadLinkId":"263705610"}}}]}]}}