{"Response":{"MetaInfo":{"Timestamp":"2020-03-28T11:25:37.189+0000","NextPageInformation":"2"},"View":[{"_type":"SearchResultsViewType","ViewId":0,"Result":[{"Relevance":1.0,"Distance":-7.2,"MatchLevel":"landmark","MatchQuality":{"Country":1.0,"State":1.0,"County":1.0,"City":1.0,"Street":[1.0],"PostalCode":1.0,"Name":1.0},"Location":{"LocationId":"NT_6XkfH.f0efH02jBjmUyUUA_p_jUcasJBhaq0ApZqUVp4MwD","LocationType":"hospital","Name":"Ospedale Generale Provinciale","DisplayPosition":{"Latitude":43.29376,"Longitude":13.45816},"MapView":{"TopLeft":{"Latitude":43.29571,"Longitude":13.45694},"BottomRight":{"Latitude":43.29287,"Longitude":13.46323}},"Address":{"Label":"Via Santa Lucia, 62100 Macerata MC, Italia","Country":"ITA","State":"Marche","County":"MC","City":"Macerata","Street":"Via Santa Lucia","PostalCode":"62100","AdditionalData":[{"value":"Italia","key":"CountryName"},{"value":"Marche","key":"StateName"},{"value":"Macerata","key":"CountyName"}]},"MapReference":{"CountryId":"20110484","StateId":"20126185","CountyId":"20209198","CityId":"20209268","PlaceId":"79954002"}}},{"Relevance":1.0,"Distance":0.0,"Direction":0.0,"MatchLevel":"city","MatchQuality":{"Country":1.0,"State":1.0,"County":1.0,"City":1.0,"PostalCode":1.0},"Location":{"LocationId":"NT_ihhTdxpgmUEOD8E.QNKdfA","LocationType":"point","DisplayPosition":{"Latitude":43.2936425,"Longitude":13.4596346},"MapView":{"TopLeft":{"Latitude":43.36008,"Longitude":13.37784},"BottomRight":{"Latitude":43.25093,"Longitude":13.53559}},"Address":{"Label":"Macerata, Marche, Italia","Country":"ITA","State":"Marche","County":"MC","City":"Macerata","PostalCode":"62100","AdditionalData":[{"value":"Italia","key":"CountryName"},{"value":"Marche","key":"StateName"},{"value":"Macerata","key":"CountyName"}]},"MapReference":{"ReferenceId":"550634106","SideOfStreet":"neither","CountryId":"20110484","StateId":"20126185","CountyId":"20209198","CityId":"20209268"}}},{"Relevance":1.0,"Distance":0.1,"MatchLevel":"street","MatchQuality":{"Country":1.0,"State":1.0,"County":1.0,"City":1.0,"PostalCode":1.0},"Location":{"LocationId":"NT_FeRuxe-ZVqvMu3lxP4YGHC_l_550634273_L","LocationType":"point","DisplayPosition":{"Latitude":43.2936436,"Longitude":13.4596335},"MapView":{"TopLeft":{"Latitude":43.29375,"Longitude":13.45958},"BottomRight":{"Latitude":43.29359,"Longitude":13.45974}},"Address":{"Label":"62100 Macerata MC, Italia","Country":"ITA","State":"Marche","County":"MC","City":"Macerata","PostalCode":"62100","AdditionalData":[{"value":"Italia","key":"CountryName"},{"value":"Marche","key":"StateName"},{"value":"Macerata","key":"CountyName"}]},"MapReference":{"ReferenceId":"550634273","Spot":0.33,"SideOfStreet":"neither","CountryId":"20110484","StateId":"20126185","CountyId":"20209198","CityId":"20209268"}}},{"Relevance":1.0,"Distance":7.3,"MatchLevel":"street","MatchQuality":{"Country":1.0,"State":1.0,"County":1.0,"City":1.0,"Street":[1.0],"PostalCode":1.0},"Location":{"LocationId":"NT_1JhbQuDV-rn.1blUDM6dsB_l_550634286_R","LocationType":"point","DisplayPosition":{"Latitude":43.29359,"Longitude":13.45958},"MapView":{"TopLeft":{"Latitude":43.29359,"Longitude":13.45958},"BottomRight":{"Latitude":43.29336,"Longitude":13.45969}},"Address":{"Label":"Via Santa Caterina, 62100 Macerata MC, Italia","Country":"ITA","State":"Marche","County":"MC","City":"Macerata","Street":"Via Santa Caterina","PostalCode":"62100","AdditionalData":[{"value":"Italia","key":"CountryName"},{"value":"Marche","key":"StateName"},{"value":"Macerata","key":"CountyName"}]},"MapReference":{"ReferenceId":"550634286","Spot":1.0,"SideOfStreet":"right","CountryId":"20110484","StateId":"20126185","CountyId":"20209198","CityId":"20209268"}}},{"Relevance":1.0,"Distance":7.3,"MatchLevel":"street","MatchQuality":{"Country":1.0,"State":1.0,"County":1.0,"City":1.0,"Street":[1.0],"PostalCode":1.0},"Location":{"LocationId":"NT_d.VRB.LOhkps5a3rULz0HC_l_1178793622_R","LocationType":"point","DisplayPosition":{"Latitude":43.29359,"Longitude":13.45958},"MapView":{"TopLeft":{"Latitude":43.2936,"Longitude":13.45948},"BottomRight":{"Latitude":43.29359,"Longitude":13.45958}},"Address":{"Label":"Via Santa Caterina da Siena, 62100 Macerata MC, Italia","Country":"ITA","State":"Marche","County":"MC","City":"Macerata","Street":"Via Santa Caterina da Siena","PostalCode":"62100","AdditionalData":[{"value":"Italia","key":"CountryName"},{"value":"Marche","key":"StateName"},{"value":"Macerata","key":"CountyName"}]},"MapReference":{"ReferenceId":"1178793622","Spot":0.0,"SideOfStreet":"right","CountryId":"20110484","StateId":"20126185","CountyId":"20209198","CityId":"20209268"}}},{"Relevance":1.0,"Distance":14.7,"MatchLevel":"street","MatchQuality":{"Country":1.0,"State":1.0,"County":1.0,"City":1.0,"PostalCode":1.0},"Location":{"LocationId":"NT_FeRuxe-ZVqvMu3lxP4YGHC_l_1192529751_R","LocationType":"point","DisplayPosition":{"Latitude":43.29375,"Longitude":13.45974},"MapView":{"TopLeft":{"Latitude":43.2945,"Longitude":13.45974},"BottomRight":{"Latitude":43.29375,"Longitude":13.4607}},"Address":{"Label":"62100 Macerata MC, Italia","Country":"ITA","State":"Marche","County":"MC","City":"Macerata","PostalCode":"62100","AdditionalData":[{"value":"Italia","key":"CountryName"},{"value":"Marche","key":"StateName"},{"value":"Macerata","key":"CountyName"}]},"MapReference":{"ReferenceId":"1192529751","Spot":0.0,"SideOfStreet":"right","CountryId":"20110484","StateId":"20126185","CountyId":"20209198","CityId":"20209268"}}},{"Relevance":1.0,"Distance":15.7,"MatchLevel":"houseNumber","MatchQuality":{"Country":1.0,"State":1.0,"County":1.0,"City":1.0,"Street":[1.0],"HouseNumber":1.0,"PostalCode":1.0},"MatchType":"interpolated","Location":{"LocationId":"NT_d.VRB.LOhkps5a3rULz0HC_xcD","LocationType":"point","DisplayPosition":{"Latitude":43.2936,"Longitude":13.45945},"MapView":{"TopLeft":{"Latitude":43.2947242,"Longitude":13.4579055},"BottomRight":{"Latitude":43.2924758,"Longitude":13.4609945}},"Address":{"Label":"Via Santa Caterina da Siena, 17, 62100 Macerata MC, Italia","Country":"ITA","State":"Marche","County":"MC","City":"Macerata","Street":"Via Santa Caterina da Siena","HouseNumber":"17","PostalCode":"62100","AdditionalData":[{"value":"Italia","key":"CountryName"},{"value":"Marche","key":"StateName"},{"value":"Macerata","key":"CountyName"}]},"MapReference":{"ReferenceId":"1178793621","Spot":0.95,"SideOfStreet":"right","CountryId":"20110484","StateId":"20126185","CountyId":"20209198","CityId":"20209268","AddressId":"574347178","RoadLinkId":"486520562"}}},{"Relevance":1.0,"Distance":36.2,"MatchLevel":"street","MatchQuality":{"Country":1.0,"State":1.0,"County":1.0,"City":1.0,"PostalCode":1.0},"Location":{"LocationId":"NT_FeRuxe-ZVqvMu3lxP4YGHC_l_1192529749_R","LocationType":"point","DisplayPosition":{"Latitude":43.2939645,"Longitude":13.459571},"MapView":{"TopLeft":{"Latitude":43.29399,"Longitude":13.4589},"BottomRight":{"Latitude":43.29354,"Longitude":13.4597}},"Address":{"Label":"62100 Macerata MC, Italia","Country":"ITA","State":"Marche","County":"MC","City":"Macerata","PostalCode":"62100","AdditionalData":[{"value":"Italia","key":"CountryName"},{"value":"Marche","key":"StateName"},{"value":"Macerata","key":"CountyName"}]},"MapReference":{"ReferenceId":"1192529749","Spot":0.88,"SideOfStreet":"right","CountryId":"20110484","StateId":"20126185","CountyId":"20209198","CityId":"20209268"}}},{"Relevance":1.0,"Distance":36.8,"MatchLevel":"houseNumber","MatchQuality":{"Country":1.0,"State":1.0,"County":1.0,"City":1.0,"Street":[1.0],"HouseNumber":1.0,"PostalCode":1.0},"MatchType":"interpolated","Location":{"LocationId":"NT_ORVEwgxaWvvWybCFNeGlBA_1A","LocationType":"point","DisplayPosition":{"Latitude":43.29334,"Longitude":13.45945},"MapView":{"TopLeft":{"Latitude":43.2944642,"Longitude":13.4579055},"BottomRight":{"Latitude":43.2922158,"Longitude":13.4609945}},"Address":{"Label":"Via Santa Aurelia, 5, 62100 Macerata MC, Italia","Country":"ITA","State":"Marche","County":"MC","City":"Macerata","Street":"Via Santa Aurelia","HouseNumber":"5","PostalCode":"62100","AdditionalData":[{"value":"Italia","key":"CountryName"},{"value":"Marche","key":"StateName"},{"value":"Macerata","key":"CountyName"}]},"MapReference":{"ReferenceId":"550634290","Spot":0.77,"SideOfStreet":"right","CountryId":"20110484","StateId":"20126185","CountyId":"20209198","CityId":"20209268","AddressId":"574352797","RoadLinkId":"56593557"}}},{"Relevance":1.0,"Distance":39.0,"MatchLevel":"street","MatchQuality":{"Country":1.0,"State":1.0,"County":1.0,"City":1.0,"PostalCode":1.0},"Location":{"LocationId":"NT_FeRuxe-ZVqvMu3lxP4YGHC_l_1192529750_R","LocationType":"point","DisplayPosition":{"Latitude":43.29399,"Longitude":13.4597},"MapView":{"TopLeft":{"Latitude":43.29452,"Longitude":13.4597},"BottomRight":{"Latitude":43.29399,"Longitude":13.4607}},"Address":{"Label":"62100 Macerata MC, Italia","Country":"ITA","State":"Marche","County":"MC","City":"Macerata","PostalCode":"62100","AdditionalData":[{"value":"Italia","key":"CountryName"},{"value":"Marche","key":"StateName"},{"value":"Macerata","key":"CountyName"}]},"MapReference":{"ReferenceId":"1192529750","Spot":0.0,"SideOfStreet":"right","CountryId":"20110484","StateId":"20126185","CountyId":"20209198","CityId":"20209268"}}}]}]}}