{"Response":{"MetaInfo":{"Timestamp":"2020-03-28T11:49:17.819+0000","NextPageInformation":"2"},"View":[{"_type":"SearchResultsViewType","ViewId":0,"Result":[{"Relevance":1.0,"Distance":0.0,"Direction":0.0,"MatchLevel":"city","MatchQuality":{"Country":1.0,"State":1.0,"County":1.0,"City":1.0,"PostalCode":1.0},"Location":{"LocationId":"NT_IqBl7YhsIpEKK..d7F8ORC","LocationType":"point","DisplayPosition":{"Latitude":43.2958087,"Longitude":-0.3709612},"MapView":{"TopLeft":{"Latitude":43.35803,"Longitude":-0.39253},"BottomRight":{"Latitude":43.28566,"Longitude":-0.29469}},"Address":{"Label":"Pau, Nouvelle-Aquitaine, France","Country":"FRA","State":"Nouvelle-Aquitaine","County":"Pyrénées-Atlantiques","City":"Pau","PostalCode":"64000","AdditionalData":[{"value":"France","key":"CountryName"},{"value":"Nouvelle-Aquitaine","key":"StateName"},{"value":"Pyrénées-Atlantiques","key":"CountyName"}]},"MapReference":{"ReferenceId":"58046722","SideOfStreet":"neither","CountryId":"20000001","StateId":"20000383","CountyId":"20104588","CityId":"20105870"}}},{"Relevance":1.0,"Distance":15.7,"MatchLevel":"houseNumber","MatchQuality":{"Country":1.0,"State":1.0,"County":1.0,"City":1.0,"Street":[1.0],"HouseNumber":1.0,"PostalCode":1.0},"MatchType":"interpolated","Location":{"LocationId":"NT_uZT9AP3PpxmhdcOO4nM5kD_zA","LocationType":"point","DisplayPosition":{"Latitude":43.29599,"Longitude":-0.37089},"MapView":{"TopLeft":{"Latitude":43.2971142,"Longitude":-0.3724345},"BottomRight":{"Latitude":43.2948658,"Longitude":-0.3693455}},"Address":{"Label":"3 Rue des Cordeliers, 64000 Pau, France","Country":"FRA","State":"Nouvelle-Aquitaine","County":"Pyrénées-Atlantiques","City":"Pau","Street":"Rue des Cordeliers","HouseNumber":"3","PostalCode":"64000","AdditionalData":[{"value":"France","key":"CountryName"},{"value":"Nouvelle-Aquitaine","key":"StateName"},{"value":"Pyrénées-Atlantiques","key":"CountyName"}]},"MapReference":{"ReferenceId":"58046784","Spot":0.61,"SideOfStreet":"left","CountryId":"20000001","StateId":"20000383","CountyId":"20104588","CityId":"20105870","AddressId":"378910700","RoadLinkId":"50305838"}}},{"Relevance":1.0,"Distance":16.7,"MatchLevel":"houseNumber","MatchQuality":{"Country":1.0,"State":1.0,"County":1.0,"City":1.0,"Street":[1.0],"HouseNumber":1.0,"PostalCode":1.0},"MatchType":"interpolated","Location":{"LocationId":"NT_0YBMPa9LfotRQdtOwCmHAA_xQD","LocationType":"point","DisplayPosition":{"Latitude":43.29564,"Longitude":-0.37103},"MapView":{"TopLeft":{"Latitude":43.2967642,"Longitude":-0.3725745},"BottomRight":{"Latitude":43.2945158,"Longitude":-0.3694855}},"Address":{"Label":"14 Rue du Maréchal Joffre, 64000 Pau, France","Country":"FRA","State":"Nouvelle-Aquitaine","County":"Pyrénées-Atlantiques","City":"Pau","Street":"Rue du Maréchal Joffre","HouseNumber":"14","PostalCode":"64000","AdditionalData":[{"value":"France","key":"CountryName"},{"value":"Nouvelle-Aquitaine","key":"StateName"},{"value":"Pyrénées-Atlantiques","key":"CountyName"}]},"MapReference":{"ReferenceId":"758088882","Spot":0.71,"SideOfStreet":"left","CountryId":"20000001","StateId":"20000383","CountyId":"20104588","CityId":"20105870","AddressId":"318535662","RoadLinkId":"152969938"}}},{"Relevance":1.0,"Distance":34.7,"MatchLevel":"houseNumber","MatchQuality":{"Country":1.0,"State":1.0,"County":1.0,"City":1.0,"Street":[1.0],"HouseNumber":1.0,"PostalCode":1.0},"MatchType":"interpolated","Location":{"LocationId":"NT_0YBMPa9LfotRQdtOwCmHAA_xAD","LocationType":"point","DisplayPosition":{"Latitude":43.29573,"Longitude":-0.37053},"MapView":{"TopLeft":{"Latitude":43.2968542,"Longitude":-0.3720745},"BottomRight":{"Latitude":43.2946058,"Longitude":-0.3689855}},"Address":{"Label":"10 Rue du Maréchal Joffre, 64000 Pau, France","Country":"FRA","State":"Nouvelle-Aquitaine","County":"Pyrénées-Atlantiques","City":"Pau","Street":"Rue du Maréchal Joffre","HouseNumber":"10","PostalCode":"64000","AdditionalData":[{"value":"France","key":"CountryName"},{"value":"Nouvelle-Aquitaine","key":"StateName"},{"value":"Pyrénées-Atlantiques","key":"CountyName"}]},"MapReference":{"ReferenceId":"758088883","Spot":0.65,"SideOfStreet":"left","CountryId":"20000001","StateId":"20000383","CountyId":"20104588","CityId":"20105870","AddressId":"570000892","RoadLinkId":"152969939"}}},{"Relevance":1.0,"Distance":38.5,"MatchLevel":"houseNumber","MatchQuality":{"Country":1.0,"State":1.0,"County":1.0,"City":1.0,"Street":[1.0],"HouseNumber":1.0,"PostalCode":1.0},"MatchType":"interpolated","Location":{"LocationId":"NT_uZT9AP3PpxmhdcOO4nM5kD_3A","LocationType":"point","DisplayPosition":{"Latitude":43.29616,"Longitude":-0.37109},"MapView":{"TopLeft":{"Latitude":43.2972842,"Longitude":-0.3726345},"BottomRight":{"Latitude":43.2950358,"Longitude":-0.3695455}},"Address":{"Label":"7 Rue des Cordeliers, 64000 Pau, France","Country":"FRA","State":"Nouvelle-Aquitaine","County":"Pyrénées-Atlantiques","City":"Pau","Street":"Rue des Cordeliers","HouseNumber":"7","PostalCode":"64000","AdditionalData":[{"value":"France","key":"CountryName"},{"value":"Nouvelle-Aquitaine","key":"StateName"},{"value":"Pyrénées-Atlantiques","key":"CountyName"}]},"MapReference":{"ReferenceId":"58051996","Spot":0.0,"SideOfStreet":"left","CountryId":"20000001","StateId":"20000383","CountyId":"20104588","CityId":"20105870","AddressId":"375304220","RoadLinkId":"50580455"}}},{"Relevance":1.0,"Distance":39.5,"MatchLevel":"houseNumber","MatchQuality":{"Country":1.0,"State":1.0,"County":1.0,"City":1.0,"Street":[1.0],"HouseNumber":1.0,"PostalCode":1.0},"MatchType":"interpolated","Location":{"LocationId":"NT_W6IWkxeOZrvZbIXdHG3dJB_1A","LocationType":"point","DisplayPosition":{"Latitude":43.29563,"Longitude":-0.37047},"MapView":{"TopLeft":{"Latitude":43.2967542,"Longitude":-0.3720145},"BottomRight":{"Latitude":43.2945058,"Longitude":-0.3689255}},"Address":{"Label":"5 Rue Saint-Louis, 64000 Pau, France","Country":"FRA","State":"Nouvelle-Aquitaine","County":"Pyrénées-Atlantiques","City":"Pau","Street":"Rue Saint-Louis","HouseNumber":"5","PostalCode":"64000","AdditionalData":[{"value":"France","key":"CountryName"},{"value":"Nouvelle-Aquitaine","key":"StateName"},{"value":"Pyrénées-Atlantiques","key":"CountyName"}]},"MapReference":{"ReferenceId":"940943401","Spot":0.79,"SideOfStreet":"left","CountryId":"20000001","StateId":"20000383","CountyId":"20104588","CityId":"20105870","AddressId":"590204230","RoadLinkId":"290993852"}}},{"Relevance":1.0,"Distance":42.5,"MatchLevel":"houseNumber","MatchQuality":{"Country":1.0,"State":1.0,"County":1.0,"City":1.0,"Street":[1.0],"HouseNumber":1.0,"PostalCode":1.0},"MatchType":"interpolated","Location":{"LocationId":"NT_9V5gsV-xnHnGAFzHqRKTOD_5A","LocationType":"point","DisplayPosition":{"Latitude":43.29623,"Longitude":-0.37097},"MapView":{"TopLeft":{"Latitude":43.2973542,"Longitude":-0.3725146},"BottomRight":{"Latitude":43.2951058,"Longitude":-0.3694254}},"Address":{"Label":"9 Impasse La Foi, 64000 Pau, France","Country":"FRA","State":"Nouvelle-Aquitaine","County":"Pyrénées-Atlantiques","City":"Pau","Street":"Impasse La Foi","HouseNumber":"9","PostalCode":"64000","AdditionalData":[{"value":"France","key":"CountryName"},{"value":"Nouvelle-Aquitaine","key":"StateName"},{"value":"Pyrénées-Atlantiques","key":"CountyName"}]},"MapReference":{"ReferenceId":"58046752","Spot":0.22,"SideOfStreet":"right","CountryId":"20000001","StateId":"20000383","CountyId":"20104588","CityId":"20105870","AddressId":"569968869","RoadLinkId":"51146504"}}},{"Relevance":1.0,"Distance":44.6,"MatchLevel":"houseNumber","MatchQuality":{"Country":1.0,"State":1.0,"County":1.0,"City":1.0,"Street":[1.0],"HouseNumber":1.0,"PostalCode":1.0},"MatchType":"interpolated","Location":{"LocationId":"NT_0YBMPa9LfotRQdtOwCmHAA_4A","LocationType":"point","DisplayPosition":{"Latitude":43.29577,"Longitude":-0.37039},"MapView":{"TopLeft":{"Latitude":43.2968942,"Longitude":-0.3719345},"BottomRight":{"Latitude":43.2946458,"Longitude":-0.3688455}},"Address":{"Label":"8 Rue du Maréchal Joffre, 64000 Pau, France","Country":"FRA","State":"Nouvelle-Aquitaine","County":"Pyrénées-Atlantiques","City":"Pau","Street":"Rue du Maréchal Joffre","HouseNumber":"8","PostalCode":"64000","AdditionalData":[{"value":"France","key":"CountryName"},{"value":"Nouvelle-Aquitaine","key":"StateName"},{"value":"Pyrénées-Atlantiques","key":"CountyName"}]},"MapReference":{"ReferenceId":"58050842","Spot":0.09,"SideOfStreet":"left","CountryId":"20000001","StateId":"20000383","CountyId":"20104588","CityId":"20105870","AddressId":"318332857","RoadLinkId":"51078789"}}},{"Relevance":1.0,"Distance":86.9,"MatchLevel":"houseNumber","MatchQuality":{"Country":1.0,"State":1.0,"County":1.0,"City":1.0,"Street":[1.0],"HouseNumber":1.0,"PostalCode":1.0},"MatchType":"interpolated","Location":{"LocationId":"NT_W6IWkxeOZrvZbIXdHG3dJB_xA","LocationType":"point","DisplayPosition":{"Latitude":43.29508,"Longitude":-0.37048},"MapView":{"TopLeft":{"Latitude":43.2962042,"Longitude":-0.3720245},"BottomRight":{"Latitude":43.2939558,"Longitude":-0.3689355}},"Address":{"Label":"1 Rue Saint-Louis, 64000 Pau, France","Country":"FRA","State":"Nouvelle-Aquitaine","County":"Pyrénées-Atlantiques","City":"Pau","Street":"Rue Saint-Louis","HouseNumber":"1","PostalCode":"64000","AdditionalData":[{"value":"France","key":"CountryName"},{"value":"Nouvelle-Aquitaine","key":"StateName"},{"value":"Pyrénées-Atlantiques","key":"CountyName"}]},"MapReference":{"ReferenceId":"940943400","Spot":0.85,"SideOfStreet":"left","CountryId":"20000001","StateId":"20000383","CountyId":"20104588","CityId":"20105870","AddressId":"378975865","RoadLinkId":"290993851"}}},{"Relevance":1.0,"Distance":92.2,"MatchLevel":"houseNumber","MatchQuality":{"Country":1.0,"State":1.0,"County":1.0,"City":1.0,"Street":[1.0],"HouseNumber":1.0,"PostalCode":1.0},"MatchType":"interpolated","Location":{"LocationId":"NT_SxTmsvdesxq.jCU11o42FD_l_58046723_R_xA","LocationType":"point","DisplayPosition":{"Latitude":43.2966801,"Longitude":-0.3715145},"MapView":{"TopLeft":{"Latitude":43.2978043,"Longitude":-0.3730591},"BottomRight":{"Latitude":43.295556,"Longitude":-0.3699699}},"Address":{"Label":"1 Rue du Hédas, 64000 Pau, France","Country":"FRA","State":"Nouvelle-Aquitaine","County":"Pyrénées-Atlantiques","City":"Pau","Street":"Rue du Hédas","HouseNumber":"1","PostalCode":"64000","AdditionalData":[{"value":"France","key":"CountryName"},{"value":"Nouvelle-Aquitaine","key":"StateName"},{"value":"Pyrénées-Atlantiques","key":"CountyName"}]},"MapReference":{"ReferenceId":"58046723","Spot":0.51,"SideOfStreet":"right","CountryId":"20000001","StateId":"20000383","CountyId":"20104588","CityId":"20105870"}}}]}]}}