{"Response":{"MetaInfo":{"Timestamp":"2020-03-28T09:34:14.895+0000","NextPageInformation":"2"},"View":[{"_type":"SearchResultsViewType","ViewId":0,"Result":[{"Relevance":1.0,"Distance":-13.4,"MatchLevel":"landmark","MatchQuality":{"Country":1.0,"County":1.0,"City":1.0,"District":1.0,"Street":[1.0],"PostalCode":1.0,"Name":1.0},"Location":{"LocationId":"NT_pKK24KOW0UkblcpVRTF0NA_p_qNy7DAL9LLi08T4OgGnqWB","LocationType":"hospital","Name":"МБАЛ Св. Анна-Варна","DisplayPosition":{"Latitude":43.21403,"Longitude":27.91607},"MapView":{"TopLeft":{"Latitude":43.21567,"Longitude":27.91543},"BottomRight":{"Latitude":43.21222,"Longitude":27.9202}},"Address":{"Label":"Улица Илинден, 9002 Варна, България","Country":"BGR","County":"Варна","City":"Варна","District":"Варна","Street":"Улица Илинден","PostalCode":"9002","AdditionalData":[{"value":"България","key":"CountryName"},{"value":"Варна","key":"CountyName"}]},"MapReference":{"CountryId":"20656214","CountyId":"20665470","CityId":"20665518","DistrictId":"20665522","PlaceId":"1023906526"}}},{"Relevance":1.0,"Distance":0.0,"Direction":0.0,"MatchLevel":"district","MatchQuality":{"Country":1.0,"County":1.0,"City":1.0,"District":1.0,"PostalCode":1.0},"Location":{"LocationId":"NT_gRzPjOHoYYLmKWZ7kVw0PA","LocationType":"point","DisplayPosition":{"Latitude":43.2137478,"Longitude":27.9159425},"MapView":{"TopLeft":{"Latitude":43.25507,"Longitude":27.83744},"BottomRight":{"Latitude":43.16006,"Longitude":27.98935}},"Address":{"Label":"Варна, България","Country":"BGR","County":"Варна","City":"Варна","District":"Варна","PostalCode":"9002","AdditionalData":[{"value":"България","key":"CountryName"},{"value":"Варна","key":"CountyName"}]},"MapReference":{"ReferenceId":"828296713","SideOfStreet":"neither","CountryId":"20656214","CountyId":"20665470","CityId":"20665518","DistrictId":"20665522"}}},{"Relevance":1.0,"Distance":6.7,"MatchLevel":"street","MatchQuality":{"Country":1.0,"County":1.0,"City":1.0,"District":1.0,"PostalCode":1.0},"Location":{"LocationId":"NT_G0raIHKYoKgQoKjBgEBOOB_l_809923920_R","LocationType":"point","DisplayPosition":{"Latitude":43.2136931,"Longitude":27.915908},"MapView":{"TopLeft":{"Latitude":43.21378,"Longitude":27.91555},"BottomRight":{"Latitude":43.21347,"Longitude":27.9161}},"Address":{"Label":"9002 Варна, България","Country":"BGR","County":"Варна","City":"Варна","District":"Варна","PostalCode":"9002","AdditionalData":[{"value":"България","key":"CountryName"},{"value":"Варна","key":"CountyName"}]},"MapReference":{"ReferenceId":"809923920","Spot":0.85,"SideOfStreet":"right","CountryId":"20656214","CountyId":"20665470","CityId":"20665518","DistrictId":"20665522"}}},{"Relevance":1.0,"Distance":13.5,"MatchLevel":"street","MatchQuality":{"Country":1.0,"County":1.0,"City":1.0,"District":1.0,"Street":[1.0],"PostalCode":1.0},"Location":{"LocationId":"NT_5RupECuT-6xhFcGacZ.LBC_l_1209304286_R","LocationType":"point","DisplayPosition":{"Latitude":43.2138516,"Longitude":27.9158567},"MapView":{"TopLeft":{"Latitude":43.21416,"Longitude":27.91577},"BottomRight":{"Latitude":43.21378,"Longitude":27.91623}},"Address":{"Label":"Улица Илинден, 9002 Варна, България","Country":"BGR","County":"Варна","City":"Варна","District":"Варна","Street":"Улица Илинден","PostalCode":"9002","AdditionalData":[{"value":"България","key":"CountryName"},{"value":"Варна","key":"CountyName"}]},"MapReference":{"ReferenceId":"1209304286","Spot":0.19,"SideOfStreet":"right","CountryId":"20656214","CountyId":"20665470","CityId":"20665518","DistrictId":"20665522"}}},{"Relevance":1.0,"Distance":14.4,"MatchLevel":"street","MatchQuality":{"Country":1.0,"County":1.0,"City":1.0,"District":1.0,"PostalCode":1.0},"Location":{"LocationId":"NT_G0raIHKYoKgQoKjBgEBOOB_l_809863262_R","LocationType":"point","DisplayPosition":{"Latitude":43.21378,"Longitude":27.91577},"MapView":{"TopLeft":{"Latitude":43.21384,"Longitude":27.91567},"BottomRight":{"Latitude":43.21378,"Longitude":27.91577}},"Address":{"Label":"9002 Варна, България","Country":"BGR","County":"Варна","City":"Варна","District":"Варна","PostalCode":"9002","AdditionalData":[{"value":"България","key":"CountryName"},{"value":"Варна","key":"CountyName"}]},"MapReference":{"ReferenceId":"809863262","Spot":0.0,"SideOfStreet":"right","CountryId":"20656214","CountyId":"20665470","CityId":"20665518","DistrictId":"20665522"}}},{"Relevance":1.0,"Distance":24.3,"MatchLevel":"street","MatchQuality":{"Country":1.0,"County":1.0,"City":1.0,"District":1.0,"PostalCode":1.0},"Location":{"LocationId":"NT_G0raIHKYoKgQoKjBgEBOOB_l_1077845750_R","LocationType":"point","DisplayPosition":{"Latitude":43.21384,"Longitude":27.91567},"MapView":{"TopLeft":{"Latitude":43.21384,"Longitude":27.91555},"BottomRight":{"Latitude":43.21374,"Longitude":27.91567}},"Address":{"Label":"9002 Варна, България","Country":"BGR","County":"Варна","City":"Варна","District":"Варна","PostalCode":"9002","AdditionalData":[{"value":"България","key":"CountryName"},{"value":"Варна","key":"CountyName"}]},"MapReference":{"ReferenceId":"1077845750","Spot":1.0,"SideOfStreet":"right","CountryId":"20656214","CountyId":"20665470","CityId":"20665518","DistrictId":"20665522"}}},{"Relevance":1.0,"Distance":24.3,"MatchLevel":"street","MatchQuality":{"Country":1.0,"County":1.0,"City":1.0,"District":1.0,"PostalCode":1.0},"Location":{"LocationId":"NT_G0raIHKYoKgQoKjBgEBOOB_l_809933098_R","LocationType":"point","DisplayPosition":{"Latitude":43.21384,"Longitude":27.91567},"MapView":{"TopLeft":{"Latitude":43.21405,"Longitude":27.91536},"BottomRight":{"Latitude":43.21384,"Longitude":27.91567}},"Address":{"Label":"9002 Варна, България","Country":"BGR","County":"Варна","City":"Варна","District":"Варна","PostalCode":"9002","AdditionalData":[{"value":"България","key":"CountryName"},{"value":"Варна","key":"CountyName"}]},"MapReference":{"ReferenceId":"809933098","Spot":0.0,"SideOfStreet":"right","CountryId":"20656214","CountyId":"20665470","CityId":"20665518","DistrictId":"20665522"}}},{"Relevance":1.0,"Distance":31.8,"MatchLevel":"street","MatchQuality":{"Country":1.0,"County":1.0,"City":1.0,"District":1.0,"PostalCode":1.0},"Location":{"LocationId":"NT_G0raIHKYoKgQoKjBgEBOOB_l_1077845749_R","LocationType":"point","DisplayPosition":{"Latitude":43.21374,"Longitude":27.91555},"MapView":{"TopLeft":{"Latitude":43.21374,"Longitude":27.91543},"BottomRight":{"Latitude":43.21366,"Longitude":27.91555}},"Address":{"Label":"9002 Варна, България","Country":"BGR","County":"Варна","City":"Варна","District":"Варна","PostalCode":"9002","AdditionalData":[{"value":"България","key":"CountryName"},{"value":"Варна","key":"CountyName"}]},"MapReference":{"ReferenceId":"1077845749","Spot":1.0,"SideOfStreet":"right","CountryId":"20656214","CountyId":"20665470","CityId":"20665518","DistrictId":"20665522"}}},{"Relevance":1.0,"Distance":38.0,"MatchLevel":"street","MatchQuality":{"Country":1.0,"County":1.0,"City":1.0,"District":1.0,"Street":[1.0],"PostalCode":1.0},"Location":{"LocationId":"NT_P8Ea0r5uhB9UMNwM3y0IiA_l_946621623_R","LocationType":"point","DisplayPosition":{"Latitude":43.2134463,"Longitude":27.9157214},"MapView":{"TopLeft":{"Latitude":43.21366,"Longitude":27.91543},"BottomRight":{"Latitude":43.21344,"Longitude":27.91573}},"Address":{"Label":"Булевард Цар Освободител, 9002 Варна, България","Country":"BGR","County":"Варна","City":"Варна","District":"Варна","Street":"Булевард Цар Освободител","PostalCode":"9002","AdditionalData":[{"value":"България","key":"CountryName"},{"value":"Варна","key":"CountyName"}]},"MapReference":{"ReferenceId":"946621623","Spot":0.03,"SideOfStreet":"right","CountryId":"20656214","CountyId":"20665470","CityId":"20665518","DistrictId":"20665522"}}},{"Relevance":1.0,"Distance":50.4,"MatchLevel":"street","MatchQuality":{"Country":1.0,"County":1.0,"City":1.0,"District":1.0,"Street":[1.0],"PostalCode":1.0},"Location":{"LocationId":"NT_su40k3BxYT8qDBgqPp5AyD_l_946610043_R","LocationType":"point","DisplayPosition":{"Latitude":43.21338,"Longitude":27.91558},"MapView":{"TopLeft":{"Latitude":43.21356,"Longitude":27.91532},"BottomRight":{"Latitude":43.21338,"Longitude":27.91558}},"Address":{"Label":"Булевард Цар Освободител, 9014 Варна, България","Country":"BGR","County":"Варна","City":"Варна","District":"Варна","Street":"Булевард Цар Освободител","PostalCode":"9014","AdditionalData":[{"value":"България","key":"CountryName"},{"value":"Варна","key":"CountyName"}]},"MapReference":{"ReferenceId":"946610043","Spot":0.0,"SideOfStreet":"right","CountryId":"20656214","CountyId":"20665470","CityId":"20665518","DistrictId":"20665522"}}}]}]}}