{"Response":{"MetaInfo":{"Timestamp":"2020-03-28T11:12:40.154+0000","NextPageInformation":"2"},"View":[{"_type":"SearchResultsViewType","ViewId":0,"Result":[{"Relevance":1.0,"Distance":0.0,"Direction":0.0,"MatchLevel":"district","MatchQuality":{"Country":1.0,"State":1.0,"County":1.0,"City":1.0,"District":1.0,"PostalCode":1.0},"Location":{"LocationId":"NT_dMt3kkIeBkCiW0b5gy5lbA","LocationType":"point","DisplayPosition":{"Latitude":43.2617279,"Longitude":5.4131985},"MapView":{"TopLeft":{"Latitude":43.27567,"Longitude":5.38008},"BottomRight":{"Latitude":43.19774,"Longitude":5.52035}},"Address":{"Label":"9e Arrondissement, Marseille, Provence-Alpes-Côte d'Azur, France","Country":"FRA","State":"Provence-Alpes-Côte d'Azur","County":"Bouches-du-Rhône","City":"Marseille","District":"9e Arrondissement","PostalCode":"13009","AdditionalData":[{"value":"France","key":"CountryName"},{"value":"Provence-Alpes-Côte d'Azur","key":"StateName"},{"value":"Bouches-du-Rhône","key":"CountyName"}]},"MapReference":{"ReferenceId":"58201325","SideOfStreet":"neither","CountryId":"20000001","StateId":"20000193","CountyId":"20048302","CityId":"20048481","DistrictId":"20048491"}}},{"Relevance":1.0,"Distance":47.1,"MatchLevel":"houseNumber","MatchQuality":{"Country":1.0,"State":1.0,"County":1.0,"City":1.0,"District":1.0,"Street":[1.0],"HouseNumber":1.0,"PostalCode":1.0},"MatchType":"interpolated","Location":{"LocationId":"NT_zcltd6c2iQsX4BdFMYFNqA_zADM","LocationType":"point","DisplayPosition":{"Latitude":43.26194,"Longitude":5.41413},"MapView":{"TopLeft":{"Latitude":43.2630642,"Longitude":5.4125863},"BottomRight":{"Latitude":43.2608158,"Longitude":5.4156737}},"Address":{"Label":"300 Boulevard de Sainte-Marguerite, 13009 Marseille, France","Country":"FRA","State":"Provence-Alpes-Côte d'Azur","County":"Bouches-du-Rhône","City":"Marseille","District":"9e Arrondissement","Street":"Boulevard de Sainte-Marguerite","HouseNumber":"300","PostalCode":"13009","AdditionalData":[{"value":"France","key":"CountryName"},{"value":"Provence-Alpes-Côte d'Azur","key":"StateName"},{"value":"Bouches-du-Rhône","key":"CountyName"}]},"MapReference":{"ReferenceId":"58200260","Spot":0.66,"SideOfStreet":"left","CountryId":"20000001","StateId":"20000193","CountyId":"20048302","CityId":"20048481","DistrictId":"20048491","AddressId":"573455109","RoadLinkId":"45326046"}}},{"Relevance":1.0,"Distance":67.1,"MatchLevel":"street","MatchQuality":{"Country":1.0,"State":1.0,"County":1.0,"City":1.0,"District":1.0,"Street":[1.0],"PostalCode":1.0},"Location":{"LocationId":"NT_zcltd6c2iQsX4BdFMYFNqA_l_1216408971_L","LocationType":"point","DisplayPosition":{"Latitude":43.26226,"Longitude":5.41359},"MapView":{"TopLeft":{"Latitude":43.26226,"Longitude":5.41359},"BottomRight":{"Latitude":43.26204,"Longitude":5.41399}},"Address":{"Label":"Boulevard de Sainte-Marguerite, 13009 Marseille, France","Country":"FRA","State":"Provence-Alpes-Côte d'Azur","County":"Bouches-du-Rhône","City":"Marseille","District":"9e Arrondissement","Street":"Boulevard de Sainte-Marguerite","PostalCode":"13009","AdditionalData":[{"value":"France","key":"CountryName"},{"value":"Provence-Alpes-Côte d'Azur","key":"StateName"},{"value":"Bouches-du-Rhône","key":"CountyName"}]},"MapReference":{"ReferenceId":"1216408971","Spot":1.0,"SideOfStreet":"left","CountryId":"20000001","StateId":"20000193","CountyId":"20048302","CityId":"20048481","DistrictId":"20048491"}}},{"Relevance":1.0,"Distance":68.9,"MatchLevel":"street","MatchQuality":{"Country":1.0,"State":1.0,"County":1.0,"City":1.0,"District":1.0,"Street":[1.0],"PostalCode":1.0},"Location":{"LocationId":"NT_zcltd6c2iQsX4BdFMYFNqA_l_1264382895_L","LocationType":"point","DisplayPosition":{"Latitude":43.2623164,"Longitude":5.413466},"MapView":{"TopLeft":{"Latitude":43.26236,"Longitude":5.41337},"BottomRight":{"Latitude":43.26226,"Longitude":5.41359}},"Address":{"Label":"Boulevard de Sainte-Marguerite, 13009 Marseille, France","Country":"FRA","State":"Provence-Alpes-Côte d'Azur","County":"Bouches-du-Rhône","City":"Marseille","District":"9e Arrondissement","Street":"Boulevard de Sainte-Marguerite","PostalCode":"13009","AdditionalData":[{"value":"France","key":"CountryName"},{"value":"Provence-Alpes-Côte d'Azur","key":"StateName"},{"value":"Bouches-du-Rhône","key":"CountyName"}]},"MapReference":{"ReferenceId":"1264382895","Spot":0.56,"SideOfStreet":"left","CountryId":"20000001","StateId":"20000193","CountyId":"20048302","CityId":"20048481","DistrictId":"20048491"}}},{"Relevance":1.0,"Distance":80.0,"MatchLevel":"houseNumber","MatchQuality":{"Country":1.0,"State":1.0,"County":1.0,"City":1.0,"District":1.0,"Street":[1.0],"HouseNumber":1.0,"PostalCode":1.0},"MatchType":"interpolated","Location":{"LocationId":"NT_zcltd6c2iQsX4BdFMYFNqA_l_1264382896_R_zITN","LocationType":"point","DisplayPosition":{"Latitude":43.2624467,"Longitude":5.4131654},"MapView":{"TopLeft":{"Latitude":43.2635709,"Longitude":5.4116217},"BottomRight":{"Latitude":43.2613226,"Longitude":5.4147091}},"Address":{"Label":"325 Boulevard de Sainte-Marguerite, 13009 Marseille, France","Country":"FRA","State":"Provence-Alpes-Côte d'Azur","County":"Bouches-du-Rhône","City":"Marseille","District":"9e Arrondissement","Street":"Boulevard de Sainte-Marguerite","HouseNumber":"325","PostalCode":"13009","AdditionalData":[{"value":"France","key":"CountryName"},{"value":"Provence-Alpes-Côte d'Azur","key":"StateName"},{"value":"Bouches-du-Rhône","key":"CountyName"}]},"MapReference":{"ReferenceId":"1264382896","Spot":0.52,"SideOfStreet":"right","CountryId":"20000001","StateId":"20000193","CountyId":"20048302","CityId":"20048481","DistrictId":"20048491"}}},{"Relevance":1.0,"Distance":84.8,"MatchLevel":"houseNumber","MatchQuality":{"Country":1.0,"State":1.0,"County":1.0,"City":1.0,"District":1.0,"Street":[1.0],"HouseNumber":1.0,"PostalCode":1.0},"MatchType":"interpolated","Location":{"LocationId":"NT_zcltd6c2iQsX4BdFMYFNqA_l_58212001_R_ycDM","LocationType":"point","DisplayPosition":{"Latitude":43.2624539,"Longitude":5.4124835},"MapView":{"TopLeft":{"Latitude":43.263578,"Longitude":5.4109398},"BottomRight":{"Latitude":43.2613297,"Longitude":5.4140272}},"Address":{"Label":"270 Boulevard de Sainte-Marguerite, 13009 Marseille, France","Country":"FRA","State":"Provence-Alpes-Côte d'Azur","County":"Bouches-du-Rhône","City":"Marseille","District":"9e Arrondissement","Street":"Boulevard de Sainte-Marguerite","HouseNumber":"270","PostalCode":"13009","AdditionalData":[{"value":"France","key":"CountryName"},{"value":"Provence-Alpes-Côte d'Azur","key":"StateName"},{"value":"Bouches-du-Rhône","key":"CountyName"}]},"MapReference":{"ReferenceId":"58212001","Spot":0.52,"SideOfStreet":"right","CountryId":"20000001","StateId":"20000193","CountyId":"20048302","CityId":"20048481","DistrictId":"20048491"}}},{"Relevance":1.0,"Distance":90.9,"MatchLevel":"street","MatchQuality":{"Country":1.0,"State":1.0,"County":1.0,"City":1.0,"District":1.0,"Street":[1.0],"PostalCode":1.0},"Location":{"LocationId":"NT_zcltd6c2iQsX4BdFMYFNqA_l_1216408970_L","LocationType":"point","DisplayPosition":{"Latitude":43.26253,"Longitude":5.41298},"MapView":{"TopLeft":{"Latitude":43.26263,"Longitude":5.41269},"BottomRight":{"Latitude":43.26253,"Longitude":5.41298}},"Address":{"Label":"Boulevard de Sainte-Marguerite, 13009 Marseille, France","Country":"FRA","State":"Provence-Alpes-Côte d'Azur","County":"Bouches-du-Rhône","City":"Marseille","District":"9e Arrondissement","Street":"Boulevard de Sainte-Marguerite","PostalCode":"13009","AdditionalData":[{"value":"France","key":"CountryName"},{"value":"Provence-Alpes-Côte d'Azur","key":"StateName"},{"value":"Bouches-du-Rhône","key":"CountyName"}]},"MapReference":{"ReferenceId":"1216408970","Spot":0.0,"SideOfStreet":"left","CountryId":"20000001","StateId":"20000193","CountyId":"20048302","CityId":"20048481","DistrictId":"20048491"}}},{"Relevance":1.0,"Distance":101.7,"MatchLevel":"street","MatchQuality":{"Country":1.0,"State":1.0,"County":1.0,"City":1.0,"District":1.0,"PostalCode":1.0},"Location":{"LocationId":"NT_.n0Vm5RaMrFPyV4bJwLuvA_l_58200222_R","LocationType":"point","DisplayPosition":{"Latitude":43.26231,"Longitude":5.41223},"MapView":{"TopLeft":{"Latitude":43.26231,"Longitude":5.41031},"BottomRight":{"Latitude":43.26138,"Longitude":5.41223}},"Address":{"Label":"13009 Marseille, France","Country":"FRA","State":"Provence-Alpes-Côte d'Azur","County":"Bouches-du-Rhône","City":"Marseille","District":"9e Arrondissement","PostalCode":"13009","AdditionalData":[{"value":"France","key":"CountryName"},{"value":"Provence-Alpes-Côte d'Azur","key":"StateName"},{"value":"Bouches-du-Rhône","key":"CountyName"}]},"MapReference":{"ReferenceId":"58200222","Spot":1.0,"SideOfStreet":"right","CountryId":"20000001","StateId":"20000193","CountyId":"20048302","CityId":"20048481","DistrictId":"20048491"}}},{"Relevance":1.0,"Distance":109.8,"MatchLevel":"street","MatchQuality":{"Country":1.0,"State":1.0,"County":1.0,"City":1.0,"District":1.0,"PostalCode":1.0},"Location":{"LocationId":"NT_.n0Vm5RaMrFPyV4bJwLuvA_l_1123274775_R","LocationType":"point","DisplayPosition":{"Latitude":43.2627,"Longitude":5.41296},"MapView":{"TopLeft":{"Latitude":43.26364,"Longitude":5.41296},"BottomRight":{"Latitude":43.2627,"Longitude":5.41329}},"Address":{"Label":"13009 Marseille, France","Country":"FRA","State":"Provence-Alpes-Côte d'Azur","County":"Bouches-du-Rhône","City":"Marseille","District":"9e Arrondissement","PostalCode":"13009","AdditionalData":[{"value":"France","key":"CountryName"},{"value":"Provence-Alpes-Côte d'Azur","key":"StateName"},{"value":"Bouches-du-Rhône","key":"CountyName"}]},"MapReference":{"ReferenceId":"1123274775","Spot":0.0,"SideOfStreet":"right","CountryId":"20000001","StateId":"20000193","CountyId":"20048302","CityId":"20048481","DistrictId":"20048491"}}},{"Relevance":1.0,"Distance":119.3,"MatchLevel":"houseNumber","MatchQuality":{"Country":1.0,"State":1.0,"County":1.0,"City":1.0,"District":1.0,"Street":[1.0],"HouseNumber":1.0,"PostalCode":1.0},"MatchType":"interpolated","Location":{"LocationId":"NT_zcltd6c2iQsX4BdFMYFNqA_l_941117378_R_ygTM","LocationType":"point","DisplayPosition":{"Latitude":43.26268,"Longitude":5.4125199},"MapView":{"TopLeft":{"Latitude":43.2638042,"Longitude":5.4109762},"BottomRight":{"Latitude":43.2615559,"Longitude":5.4140636}},"Address":{"Label":"281 Boulevard de Sainte-Marguerite, 13009 Marseille, France","Country":"FRA","State":"Provence-Alpes-Côte d'Azur","County":"Bouches-du-Rhône","City":"Marseille","District":"9e Arrondissement","Street":"Boulevard de Sainte-Marguerite","HouseNumber":"281","PostalCode":"13009","AdditionalData":[{"value":"France","key":"CountryName"},{"value":"Provence-Alpes-Côte d'Azur","key":"StateName"},{"value":"Bouches-du-Rhône","key":"CountyName"}]},"MapReference":{"ReferenceId":"941117378","Spot":0.22,"SideOfStreet":"right","CountryId":"20000001","StateId":"20000193","CountyId":"20048302","CityId":"20048481","DistrictId":"20048491"}}}]}]}}