{"Response":{"MetaInfo":{"Timestamp":"2020-03-28T09:44:33.727+0000","NextPageInformation":"2"},"View":[{"_type":"SearchResultsViewType","ViewId":0,"Result":[{"Relevance":1.0,"Distance":0.0,"Direction":0.0,"MatchLevel":"city","MatchQuality":{"Country":1.0,"State":1.0,"County":1.0,"City":1.0,"PostalCode":1.0},"Location":{"LocationId":"NT_8H0TwiXvY1I6CFLTVh0hsD","LocationType":"point","DisplayPosition":{"Latitude":43.2579343,"Longitude":-3.4630308},"MapView":{"TopLeft":{"Latitude":43.29184,"Longitude":-3.49984},"BottomRight":{"Latitude":43.23389,"Longitude":-3.38797}},"Address":{"Label":"Ramales de la Victoria, Cantabria, España","Country":"ESP","State":"Cantabria","County":"Cantabria","City":"Ramales de la Victoria","PostalCode":"39800","AdditionalData":[{"value":"España","key":"CountryName"},{"value":"Cantabria","key":"StateName"},{"value":"Cantabria","key":"CountyName"}]},"MapReference":{"ReferenceId":"900971866","SideOfStreet":"neither","CountryId":"20215059","StateId":"20221901","CountyId":"20221902","CityId":"20281845"}}},{"Relevance":1.0,"Distance":11.5,"MatchLevel":"houseNumber","MatchQuality":{"Country":1.0,"State":1.0,"County":1.0,"City":1.0,"Street":[1.0],"HouseNumber":1.0,"PostalCode":1.0},"MatchType":"interpolated","Location":{"LocationId":"NT_XhoE4mJ.9S7Op7gjc3QBnB_xAD","LocationType":"point","DisplayPosition":{"Latitude":43.25795,"Longitude":-3.46289},"MapView":{"TopLeft":{"Latitude":43.2590742,"Longitude":-3.4644336},"BottomRight":{"Latitude":43.2568258,"Longitude":-3.4613464}},"Address":{"Label":"Calle Pedro Mate Arconada, 10, 39800 Ramales de la Victoria (Cantabria), España","Country":"ESP","State":"Cantabria","County":"Cantabria","City":"Ramales de la Victoria","Street":"Calle Pedro Mate Arconada","HouseNumber":"10","PostalCode":"39800","AdditionalData":[{"value":"España","key":"CountryName"},{"value":"Cantabria","key":"StateName"},{"value":"Cantabria","key":"CountyName"}]},"MapReference":{"ReferenceId":"545818436","Spot":0.11,"SideOfStreet":"right","CountryId":"20215059","StateId":"20221901","CountyId":"20221902","CityId":"20281845","AddressId":"348080018","RoadLinkId":"68288558"}}},{"Relevance":1.0,"Distance":24.4,"MatchLevel":"houseNumber","MatchQuality":{"Country":1.0,"State":1.0,"County":1.0,"City":1.0,"Street":[1.0],"HouseNumber":1.0,"PostalCode":1.0},"MatchType":"interpolated","Location":{"LocationId":"NT_bJEhsgPS6YTl8ijm8dqZOC_xIE","LocationType":"point","DisplayPosition":{"Latitude":43.25775,"Longitude":-3.46283},"MapView":{"TopLeft":{"Latitude":43.2588742,"Longitude":-3.4643736},"BottomRight":{"Latitude":43.2566258,"Longitude":-3.4612864}},"Address":{"Label":"Calle Salvador Pérez, 1B, 39800 Ramales de la Victoria (Cantabria), España","Country":"ESP","State":"Cantabria","County":"Cantabria","City":"Ramales de la Victoria","Street":"Calle Salvador Pérez","HouseNumber":"1B","PostalCode":"39800","AdditionalData":[{"value":"España","key":"CountryName"},{"value":"Cantabria","key":"StateName"},{"value":"Cantabria","key":"CountyName"}]},"MapReference":{"ReferenceId":"545818435","Spot":0.92,"SideOfStreet":"left","CountryId":"20215059","StateId":"20221901","CountyId":"20221902","CityId":"20281845","AddressId":"782171458","RoadLinkId":"68689894"}}},{"Relevance":1.0,"Distance":40.2,"MatchLevel":"houseNumber","MatchQuality":{"Country":1.0,"State":1.0,"County":1.0,"City":1.0,"Street":[1.0],"HouseNumber":1.0,"PostalCode":1.0},"MatchType":"interpolated","Location":{"LocationId":"NT_9CyRc78TFjtPK0lu4m69OC_xIE","LocationType":"point","DisplayPosition":{"Latitude":43.25783,"Longitude":-3.46357},"MapView":{"TopLeft":{"Latitude":43.2589542,"Longitude":-3.4651136},"BottomRight":{"Latitude":43.2567058,"Longitude":-3.4620264}},"Address":{"Label":"Calle Praxedes Porres, 1B, 39800 Ramales de la Victoria (Cantabria), España","Country":"ESP","State":"Cantabria","County":"Cantabria","City":"Ramales de la Victoria","Street":"Calle Praxedes Porres","HouseNumber":"1B","PostalCode":"39800","AdditionalData":[{"value":"España","key":"CountryName"},{"value":"Cantabria","key":"StateName"},{"value":"Cantabria","key":"CountyName"}]},"MapReference":{"ReferenceId":"545818180","Spot":0.31,"SideOfStreet":"right","CountryId":"20215059","StateId":"20221901","CountyId":"20221902","CityId":"20281845","AddressId":"348106457","RoadLinkId":"68207608"}}},{"Relevance":1.0,"Distance":69.9,"MatchLevel":"houseNumber","MatchQuality":{"Country":1.0,"State":1.0,"County":1.0,"City":1.0,"Street":[1.0],"HouseNumber":1.0,"PostalCode":1.0},"MatchType":"interpolated","Location":{"LocationId":"NT_bJEhsgPS6YTl8ijm8dqZOC_2A","LocationType":"point","DisplayPosition":{"Latitude":43.25813,"Longitude":-3.46388},"MapView":{"TopLeft":{"Latitude":43.2592542,"Longitude":-3.4654236},"BottomRight":{"Latitude":43.2570058,"Longitude":-3.4623364}},"Address":{"Label":"Calle Salvador Pérez, 6, 39800 Ramales de la Victoria (Cantabria), España","Country":"ESP","State":"Cantabria","County":"Cantabria","City":"Ramales de la Victoria","Street":"Calle Salvador Pérez","HouseNumber":"6","PostalCode":"39800","AdditionalData":[{"value":"España","key":"CountryName"},{"value":"Cantabria","key":"StateName"},{"value":"Cantabria","key":"CountyName"}]},"MapReference":{"ReferenceId":"545818176","Spot":0.11,"SideOfStreet":"right","CountryId":"20215059","StateId":"20221901","CountyId":"20221902","CityId":"20281845","AddressId":"348108256","RoadLinkId":"67806824"}}},{"Relevance":1.0,"Distance":73.9,"MatchLevel":"houseNumber","MatchQuality":{"Country":1.0,"State":1.0,"County":1.0,"City":1.0,"Street":[1.0],"HouseNumber":1.0,"PostalCode":1.0},"MatchType":"interpolated","Location":{"LocationId":"NT_9CyRc78TFjtPK0lu4m69OC_xEE","LocationType":"point","DisplayPosition":{"Latitude":43.25732,"Longitude":-3.46343},"MapView":{"TopLeft":{"Latitude":43.2584442,"Longitude":-3.4649736},"BottomRight":{"Latitude":43.2561958,"Longitude":-3.4618864}},"Address":{"Label":"Calle Praxedes Porres, 1A, 39800 Ramales de la Victoria (Cantabria), España","Country":"ESP","State":"Cantabria","County":"Cantabria","City":"Ramales de la Victoria","Street":"Calle Praxedes Porres","HouseNumber":"1A","PostalCode":"39800","AdditionalData":[{"value":"España","key":"CountryName"},{"value":"Cantabria","key":"StateName"},{"value":"Cantabria","key":"CountyName"}]},"MapReference":{"ReferenceId":"1212766844","Spot":0.33,"SideOfStreet":"right","CountryId":"20215059","StateId":"20221901","CountyId":"20221902","CityId":"20281845","AddressId":"348096228","RoadLinkId":"528337841"}}},{"Relevance":1.0,"Distance":74.8,"MatchLevel":"houseNumber","MatchQuality":{"Country":1.0,"State":1.0,"County":1.0,"City":1.0,"Street":[1.0],"HouseNumber":1.0,"PostalCode":1.0},"MatchType":"interpolated","Location":{"LocationId":"NT_bJEhsgPS6YTl8ijm8dqZOC_l_545818155_R_1A","LocationType":"point","DisplayPosition":{"Latitude":43.25826,"Longitude":-3.46395},"MapView":{"TopLeft":{"Latitude":43.2593842,"Longitude":-3.4654936},"BottomRight":{"Latitude":43.2571359,"Longitude":-3.4624064}},"Address":{"Label":"Calle Salvador Pérez, 5, 39800 Ramales de la Victoria (Cantabria), España","Country":"ESP","State":"Cantabria","County":"Cantabria","City":"Ramales de la Victoria","Street":"Calle Salvador Pérez","HouseNumber":"5","PostalCode":"39800","AdditionalData":[{"value":"España","key":"CountryName"},{"value":"Cantabria","key":"StateName"},{"value":"Cantabria","key":"CountyName"}]},"MapReference":{"ReferenceId":"545818155","Spot":0.25,"SideOfStreet":"right","CountryId":"20215059","StateId":"20221901","CountyId":"20221902","CityId":"20281845"}}},{"Relevance":1.0,"Distance":86.8,"MatchLevel":"houseNumber","MatchQuality":{"Country":1.0,"State":1.0,"County":1.0,"City":1.0,"Street":[1.0],"HouseNumber":1.0,"PostalCode":1.0},"MatchType":"interpolated","Location":{"LocationId":"NT_AEtm3XSYJDFk.xGISLsldB_yA","LocationType":"point","DisplayPosition":{"Latitude":43.2576,"Longitude":-3.464},"MapView":{"TopLeft":{"Latitude":43.2587242,"Longitude":-3.4655436},"BottomRight":{"Latitude":43.2564758,"Longitude":-3.4624564}},"Address":{"Label":"Calle Julián Fuentecilla, 2, 39800 Ramales de la Victoria (Cantabria), España","Country":"ESP","State":"Cantabria","County":"Cantabria","City":"Ramales de la Victoria","Street":"Calle Julián Fuentecilla","HouseNumber":"2","PostalCode":"39800","AdditionalData":[{"value":"España","key":"CountryName"},{"value":"Cantabria","key":"StateName"},{"value":"Cantabria","key":"CountyName"}]},"MapReference":{"ReferenceId":"545818194","Spot":0.41,"SideOfStreet":"right","CountryId":"20215059","StateId":"20221901","CountyId":"20221902","CityId":"20281845","AddressId":"348107823","RoadLinkId":"68608100"}}},{"Relevance":1.0,"Distance":89.0,"MatchLevel":"houseNumber","MatchQuality":{"Country":1.0,"State":1.0,"County":1.0,"City":1.0,"Street":[1.0],"HouseNumber":1.0,"PostalCode":1.0},"MatchType":"interpolated","Location":{"LocationId":"NT_bJEhsgPS6YTl8ijm8dqZOC_0A","LocationType":"point","DisplayPosition":{"Latitude":43.2581,"Longitude":-3.46413},"MapView":{"TopLeft":{"Latitude":43.2592242,"Longitude":-3.4656736},"BottomRight":{"Latitude":43.2569758,"Longitude":-3.4625864}},"Address":{"Label":"Calle Salvador Pérez, 4, 39800 Ramales de la Victoria (Cantabria), España","Country":"ESP","State":"Cantabria","County":"Cantabria","City":"Ramales de la Victoria","Street":"Calle Salvador Pérez","HouseNumber":"4","PostalCode":"39800","AdditionalData":[{"value":"España","key":"CountryName"},{"value":"Cantabria","key":"StateName"},{"value":"Cantabria","key":"CountyName"}]},"MapReference":{"ReferenceId":"545818148","Spot":0.77,"SideOfStreet":"right","CountryId":"20215059","StateId":"20221901","CountyId":"20221902","CityId":"20281845","AddressId":"348105870","RoadLinkId":"69228643"}}},{"Relevance":1.0,"Distance":94.6,"MatchLevel":"houseNumber","MatchQuality":{"Country":1.0,"State":1.0,"County":1.0,"City":1.0,"Street":[1.0],"HouseNumber":1.0,"PostalCode":1.0},"MatchType":"interpolated","Location":{"LocationId":"NT_YkxOYWQz2WSjSmNluTaMkC_1A","LocationType":"point","DisplayPosition":{"Latitude":43.25707,"Longitude":-3.46371},"MapView":{"TopLeft":{"Latitude":43.2581942,"Longitude":-3.4652536},"BottomRight":{"Latitude":43.2559458,"Longitude":-3.4621664}},"Address":{"Label":"Calle General Espartero, 5, 39800 Ramales de la Victoria (Cantabria), España","Country":"ESP","State":"Cantabria","County":"Cantabria","City":"Ramales de la Victoria","Street":"Calle General Espartero","HouseNumber":"5","PostalCode":"39800","AdditionalData":[{"value":"España","key":"CountryName"},{"value":"Cantabria","key":"StateName"},{"value":"Cantabria","key":"CountyName"}]},"MapReference":{"ReferenceId":"1212766845","Spot":0.14,"SideOfStreet":"right","CountryId":"20215059","StateId":"20221901","CountyId":"20221902","CityId":"20281845","AddressId":"348117476","RoadLinkId":"528337842"}}}]}]}}