{"Response":{"MetaInfo":{"Timestamp":"2020-03-28T11:13:15.478+0000","NextPageInformation":"2"},"View":[{"_type":"SearchResultsViewType","ViewId":0,"Result":[{"Relevance":1.0,"Distance":0.0,"Direction":0.0,"MatchLevel":"district","MatchQuality":{"Country":1.0,"State":1.0,"County":1.0,"City":1.0,"District":1.0,"PostalCode":1.0},"Location":{"LocationId":"NT_dMt3kkIeBkCiW0b5gy5lbA","LocationType":"point","DisplayPosition":{"Latitude":43.2641371,"Longitude":5.4101895},"MapView":{"TopLeft":{"Latitude":43.27567,"Longitude":5.38008},"BottomRight":{"Latitude":43.19774,"Longitude":5.52035}},"Address":{"Label":"9e Arrondissement, Marseille, Provence-Alpes-Côte d'Azur, France","Country":"FRA","State":"Provence-Alpes-Côte d'Azur","County":"Bouches-du-Rhône","City":"Marseille","District":"9e Arrondissement","PostalCode":"13009","AdditionalData":[{"value":"France","key":"CountryName"},{"value":"Provence-Alpes-Côte d'Azur","key":"StateName"},{"value":"Bouches-du-Rhône","key":"CountyName"}]},"MapReference":{"ReferenceId":"58201325","SideOfStreet":"neither","CountryId":"20000001","StateId":"20000193","CountyId":"20048302","CityId":"20048481","DistrictId":"20048491"}}},{"Relevance":1.0,"Distance":4.4,"MatchLevel":"houseNumber","MatchQuality":{"Country":1.0,"State":1.0,"County":1.0,"City":1.0,"District":1.0,"Street":[1.0],"HouseNumber":1.0,"PostalCode":1.0},"MatchType":"interpolated","Location":{"LocationId":"NT_zcltd6c2iQsX4BdFMYFNqA_yAjN","LocationType":"point","DisplayPosition":{"Latitude":43.2641,"Longitude":5.41017},"MapView":{"TopLeft":{"Latitude":43.2652242,"Longitude":5.4086263},"BottomRight":{"Latitude":43.2629758,"Longitude":5.4117137}},"Address":{"Label":"206 Boulevard de Sainte-Marguerite, 13009 Marseille, France","Country":"FRA","State":"Provence-Alpes-Côte d'Azur","County":"Bouches-du-Rhône","City":"Marseille","District":"9e Arrondissement","Street":"Boulevard de Sainte-Marguerite","HouseNumber":"206","PostalCode":"13009","AdditionalData":[{"value":"France","key":"CountryName"},{"value":"Provence-Alpes-Côte d'Azur","key":"StateName"},{"value":"Bouches-du-Rhône","key":"CountyName"}]},"MapReference":{"ReferenceId":"1231611158","Spot":0.79,"SideOfStreet":"left","CountryId":"20000001","StateId":"20000193","CountyId":"20048302","CityId":"20048481","DistrictId":"20048491","AddressId":"371855110","RoadLinkId":"551228761"}}},{"Relevance":1.0,"Distance":16.0,"MatchLevel":"street","MatchQuality":{"Country":1.0,"State":1.0,"County":1.0,"City":1.0,"District":1.0,"PostalCode":1.0},"Location":{"LocationId":"NT_.n0Vm5RaMrFPyV4bJwLuvA_l_1231613764_R","LocationType":"point","DisplayPosition":{"Latitude":43.2642753,"Longitude":5.4101351},"MapView":{"TopLeft":{"Latitude":43.26466,"Longitude":5.41002},"BottomRight":{"Latitude":43.26423,"Longitude":5.41063}},"Address":{"Label":"13009 Marseille, France","Country":"FRA","State":"Provence-Alpes-Côte d'Azur","County":"Bouches-du-Rhône","City":"Marseille","District":"9e Arrondissement","PostalCode":"13009","AdditionalData":[{"value":"France","key":"CountryName"},{"value":"Provence-Alpes-Côte d'Azur","key":"StateName"},{"value":"Bouches-du-Rhône","key":"CountyName"}]},"MapReference":{"ReferenceId":"1231613764","Spot":0.14,"SideOfStreet":"right","CountryId":"20000001","StateId":"20000193","CountyId":"20048302","CityId":"20048481","DistrictId":"20048491"}}},{"Relevance":1.0,"Distance":25.8,"MatchLevel":"houseNumber","MatchQuality":{"Country":1.0,"State":1.0,"County":1.0,"City":1.0,"District":1.0,"Street":[1.0],"HouseNumber":1.0,"PostalCode":1.0},"MatchType":"interpolated","Location":{"LocationId":"NT_zcltd6c2iQsX4BdFMYFNqA_yAzN","LocationType":"point","DisplayPosition":{"Latitude":43.26429,"Longitude":5.40995},"MapView":{"TopLeft":{"Latitude":43.2654142,"Longitude":5.4084063},"BottomRight":{"Latitude":43.2631658,"Longitude":5.4114937}},"Address":{"Label":"207 Boulevard de Sainte-Marguerite, 13009 Marseille, France","Country":"FRA","State":"Provence-Alpes-Côte d'Azur","County":"Bouches-du-Rhône","City":"Marseille","District":"9e Arrondissement","Street":"Boulevard de Sainte-Marguerite","HouseNumber":"207","PostalCode":"13009","AdditionalData":[{"value":"France","key":"CountryName"},{"value":"Provence-Alpes-Côte d'Azur","key":"StateName"},{"value":"Bouches-du-Rhône","key":"CountyName"}]},"MapReference":{"ReferenceId":"1231611159","Spot":0.24,"SideOfStreet":"right","CountryId":"20000001","StateId":"20000193","CountyId":"20048302","CityId":"20048481","DistrictId":"20048491","AddressId":"573272686","RoadLinkId":"551228762"}}},{"Relevance":1.0,"Distance":63.5,"MatchLevel":"houseNumber","MatchQuality":{"Country":1.0,"State":1.0,"County":1.0,"City":1.0,"District":1.0,"Street":[1.0],"HouseNumber":1.0,"PostalCode":1.0},"MatchType":"interpolated","Location":{"LocationId":"NT_zcltd6c2iQsX4BdFMYFNqA_yAzM","LocationType":"point","DisplayPosition":{"Latitude":43.26456,"Longitude":5.40966},"MapView":{"TopLeft":{"Latitude":43.2656842,"Longitude":5.4081163},"BottomRight":{"Latitude":43.2634358,"Longitude":5.4112037}},"Address":{"Label":"203 Boulevard de Sainte-Marguerite, 13009 Marseille, France","Country":"FRA","State":"Provence-Alpes-Côte d'Azur","County":"Bouches-du-Rhône","City":"Marseille","District":"9e Arrondissement","Street":"Boulevard de Sainte-Marguerite","HouseNumber":"203","PostalCode":"13009","AdditionalData":[{"value":"France","key":"CountryName"},{"value":"Provence-Alpes-Côte d'Azur","key":"StateName"},{"value":"Bouches-du-Rhône","key":"CountyName"}]},"MapReference":{"ReferenceId":"1199486161","Spot":0.48,"SideOfStreet":"right","CountryId":"20000001","StateId":"20000193","CountyId":"20048302","CityId":"20048481","DistrictId":"20048491","AddressId":"573272688","RoadLinkId":"511435373"}}},{"Relevance":1.0,"Distance":64.0,"MatchLevel":"houseNumber","MatchQuality":{"Country":1.0,"State":1.0,"County":1.0,"City":1.0,"District":1.0,"Street":[1.0],"HouseNumber":1.0,"PostalCode":1.0},"MatchType":"interpolated","Location":{"LocationId":"NT_he1.PuK6kyLwcPwpTBFi1A_0A","LocationType":"point","DisplayPosition":{"Latitude":43.26347,"Longitude":5.41043},"MapView":{"TopLeft":{"Latitude":43.2645942,"Longitude":5.4088863},"BottomRight":{"Latitude":43.2623458,"Longitude":5.4119737}},"Address":{"Label":"4 Boulevard Leï Roure, 13009 Marseille, France","Country":"FRA","State":"Provence-Alpes-Côte d'Azur","County":"Bouches-du-Rhône","City":"Marseille","District":"9e Arrondissement","Street":"Boulevard Leï Roure","HouseNumber":"4","PostalCode":"13009","AdditionalData":[{"value":"France","key":"CountryName"},{"value":"Provence-Alpes-Côte d'Azur","key":"StateName"},{"value":"Bouches-du-Rhône","key":"CountyName"}]},"MapReference":{"ReferenceId":"58200192","Spot":0.75,"SideOfStreet":"left","CountryId":"20000001","StateId":"20000193","CountyId":"20048302","CityId":"20048481","DistrictId":"20048491","AddressId":"345381276","RoadLinkId":"46032544"}}},{"Relevance":1.0,"Distance":78.5,"MatchLevel":"street","MatchQuality":{"Country":1.0,"State":1.0,"County":1.0,"City":1.0,"District":1.0,"PostalCode":1.0},"Location":{"LocationId":"NT_.n0Vm5RaMrFPyV4bJwLuvA_l_58200169_L","LocationType":"point","DisplayPosition":{"Latitude":43.2639911,"Longitude":5.4111386},"MapView":{"TopLeft":{"Latitude":43.264,"Longitude":5.4111},"BottomRight":{"Latitude":43.26339,"Longitude":5.4112}},"Address":{"Label":"13009 Marseille, France","Country":"FRA","State":"Provence-Alpes-Côte d'Azur","County":"Bouches-du-Rhône","City":"Marseille","District":"9e Arrondissement","PostalCode":"13009","AdditionalData":[{"value":"France","key":"CountryName"},{"value":"Provence-Alpes-Côte d'Azur","key":"StateName"},{"value":"Bouches-du-Rhône","key":"CountyName"}]},"MapReference":{"ReferenceId":"58200169","Spot":0.99,"SideOfStreet":"left","CountryId":"20000001","StateId":"20000193","CountyId":"20048302","CityId":"20048481","DistrictId":"20048491"}}},{"Relevance":1.0,"Distance":79.2,"MatchLevel":"houseNumber","MatchQuality":{"Country":1.0,"State":1.0,"County":1.0,"City":1.0,"District":1.0,"Street":[1.0],"HouseNumber":1.0,"PostalCode":1.0},"MatchType":"interpolated","Location":{"LocationId":"NT_zcltd6c2iQsX4BdFMYFNqA_yMjM","LocationType":"point","DisplayPosition":{"Latitude":43.26357,"Longitude":5.41076},"MapView":{"TopLeft":{"Latitude":43.2646942,"Longitude":5.4092163},"BottomRight":{"Latitude":43.2624458,"Longitude":5.4123037}},"Address":{"Label":"232 Boulevard de Sainte-Marguerite, 13009 Marseille, France","Country":"FRA","State":"Provence-Alpes-Côte d'Azur","County":"Bouches-du-Rhône","City":"Marseille","District":"9e Arrondissement","Street":"Boulevard de Sainte-Marguerite","HouseNumber":"232","PostalCode":"13009","AdditionalData":[{"value":"France","key":"CountryName"},{"value":"Provence-Alpes-Côte d'Azur","key":"StateName"},{"value":"Bouches-du-Rhône","key":"CountyName"}]},"MapReference":{"ReferenceId":"1216150890","Spot":0.71,"SideOfStreet":"left","CountryId":"20000001","StateId":"20000193","CountyId":"20048302","CityId":"20048481","DistrictId":"20048491","AddressId":"573480801","RoadLinkId":"532427739"}}},{"Relevance":1.0,"Distance":81.9,"MatchLevel":"houseNumber","MatchQuality":{"Country":1.0,"State":1.0,"County":1.0,"City":1.0,"District":1.0,"Street":[1.0],"HouseNumber":1.0,"PostalCode":1.0},"MatchType":"interpolated","Location":{"LocationId":"NT_zcltd6c2iQsX4BdFMYFNqA_l_1199486162_L_xkDM","LocationType":"point","DisplayPosition":{"Latitude":43.2647109,"Longitude":5.409499},"MapView":{"TopLeft":{"Latitude":43.265835,"Longitude":5.4079552},"BottomRight":{"Latitude":43.2635867,"Longitude":5.4110428}},"Address":{"Label":"190 Boulevard de Sainte-Marguerite, 13009 Marseille, France","Country":"FRA","State":"Provence-Alpes-Côte d'Azur","County":"Bouches-du-Rhône","City":"Marseille","District":"9e Arrondissement","Street":"Boulevard de Sainte-Marguerite","HouseNumber":"190","PostalCode":"13009","AdditionalData":[{"value":"France","key":"CountryName"},{"value":"Provence-Alpes-Côte d'Azur","key":"StateName"},{"value":"Bouches-du-Rhône","key":"CountyName"}]},"MapReference":{"ReferenceId":"1199486162","Spot":0.51,"SideOfStreet":"left","CountryId":"20000001","StateId":"20000193","CountyId":"20048302","CityId":"20048481","DistrictId":"20048491"}}},{"Relevance":1.0,"Distance":85.9,"MatchLevel":"houseNumber","MatchQuality":{"Country":1.0,"State":1.0,"County":1.0,"City":1.0,"District":1.0,"Street":[1.0],"HouseNumber":1.0,"PostalCode":1.0},"MatchType":"interpolated","Location":{"LocationId":"NT_xPb-uYfO9NUMRrB6Qbpb5D_2A","LocationType":"point","DisplayPosition":{"Latitude":43.26492,"Longitude":5.40974},"MapView":{"TopLeft":{"Latitude":43.2660442,"Longitude":5.4081962},"BottomRight":{"Latitude":43.2637958,"Longitude":5.4112838}},"Address":{"Label":"6 Boulevard Aguillon, 13009 Marseille, France","Country":"FRA","State":"Provence-Alpes-Côte d'Azur","County":"Bouches-du-Rhône","City":"Marseille","District":"9e Arrondissement","Street":"Boulevard Aguillon","HouseNumber":"6","PostalCode":"13009","AdditionalData":[{"value":"France","key":"CountryName"},{"value":"Provence-Alpes-Côte d'Azur","key":"StateName"},{"value":"Bouches-du-Rhône","key":"CountyName"}]},"MapReference":{"ReferenceId":"58200077","Spot":0.42,"SideOfStreet":"right","CountryId":"20000001","StateId":"20000193","CountyId":"20048302","CityId":"20048481","DistrictId":"20048491","AddressId":"363433059","RoadLinkId":"45693344"}}}]}]}}