{"Response":{"MetaInfo":{"Timestamp":"2020-03-28T11:13:38.834+0000","NextPageInformation":"2"},"View":[{"_type":"SearchResultsViewType","ViewId":0,"Result":[{"Relevance":1.0,"Distance":0.0,"Direction":0.0,"MatchLevel":"district","MatchQuality":{"Country":1.0,"State":1.0,"County":1.0,"City":1.0,"District":1.0,"PostalCode":1.0},"Location":{"LocationId":"NT_l7l4gCQ5n7vCDKFXGv44NC","LocationType":"point","DisplayPosition":{"Latitude":43.2900718,"Longitude":5.4065421},"MapView":{"TopLeft":{"Latitude":43.30031,"Longitude":5.38583},"BottomRight":{"Latitude":43.28474,"Longitude":5.41772}},"Address":{"Label":"5e Arrondissement, Marseille, Provence-Alpes-Côte d'Azur, France","Country":"FRA","State":"Provence-Alpes-Côte d'Azur","County":"Bouches-du-Rhône","City":"Marseille","District":"5e Arrondissement","PostalCode":"13005","AdditionalData":[{"value":"France","key":"CountryName"},{"value":"Provence-Alpes-Côte d'Azur","key":"StateName"},{"value":"Bouches-du-Rhône","key":"CountyName"}]},"MapReference":{"ReferenceId":"58194453","SideOfStreet":"neither","CountryId":"20000001","StateId":"20000193","CountyId":"20048302","CityId":"20048481","DistrictId":"20048487"}}},{"Relevance":1.0,"Distance":5.8,"MatchLevel":"landmark","MatchQuality":{"Country":1.0,"State":1.0,"County":1.0,"City":1.0,"District":1.0,"PostalCode":1.0,"Name":1.0},"Location":{"LocationId":"NT_MmzxL1QGqwa7I0i7LkI8uD_p_qrehDCWkL1ugyb2NucFkGC","LocationType":"hospital","Name":"Hôpital de la Timone","DisplayPosition":{"Latitude":43.29164,"Longitude":5.40325},"MapView":{"TopLeft":{"Latitude":43.29234,"Longitude":5.39999},"BottomRight":{"Latitude":43.28709,"Longitude":5.40664}},"Address":{"Label":"13005 Marseille, France","Country":"FRA","State":"Provence-Alpes-Côte d'Azur","County":"Bouches-du-Rhône","City":"Marseille","District":"5e Arrondissement","PostalCode":"13005","AdditionalData":[{"value":"France","key":"CountryName"},{"value":"Provence-Alpes-Côte d'Azur","key":"StateName"},{"value":"Bouches-du-Rhône","key":"CountyName"}]},"MapReference":{"CountryId":"20000001","StateId":"20000193","CountyId":"20048302","CityId":"20048481","DistrictId":"20048487","PlaceId":"51387005"}}},{"Relevance":1.0,"Distance":9.0,"MatchLevel":"street","MatchQuality":{"Country":1.0,"State":1.0,"County":1.0,"City":1.0,"District":1.0,"Street":[1.0],"PostalCode":1.0},"Location":{"LocationId":"NT_U7OxvuSlctiZoc.ZfzaAtB_l_782925297_L","LocationType":"point","DisplayPosition":{"Latitude":43.29015,"Longitude":5.40657},"MapView":{"TopLeft":{"Latitude":43.29019,"Longitude":5.40647},"BottomRight":{"Latitude":43.29015,"Longitude":5.40657}},"Address":{"Label":"Chemin de l'Armée d'Afrique, 13010 Marseille, France","Country":"FRA","State":"Provence-Alpes-Côte d'Azur","County":"Bouches-du-Rhône","City":"Marseille","District":"10e Arrondissement","Street":"Chemin de l'Armée d'Afrique","PostalCode":"13010","AdditionalData":[{"value":"France","key":"CountryName"},{"value":"Provence-Alpes-Côte d'Azur","key":"StateName"},{"value":"Bouches-du-Rhône","key":"CountyName"}]},"MapReference":{"ReferenceId":"782925297","Spot":0.0,"SideOfStreet":"left","CountryId":"20000001","StateId":"20000193","CountyId":"20048302","CityId":"20048481","DistrictId":"20048492"}}},{"Relevance":1.0,"Distance":9.2,"MatchLevel":"houseNumber","MatchQuality":{"Country":1.0,"State":1.0,"County":1.0,"City":1.0,"District":1.0,"Street":[1.0],"HouseNumber":1.0,"PostalCode":1.0},"MatchType":"interpolated","Location":{"LocationId":"NT_U7OxvuSlctiZoc.ZfzaAtB_l_58204884_L_2QD","LocationType":"point","DisplayPosition":{"Latitude":43.29011,"Longitude":5.4066433},"MapView":{"TopLeft":{"Latitude":43.2912342,"Longitude":5.4050989},"BottomRight":{"Latitude":43.2889859,"Longitude":5.4081877}},"Address":{"Label":"64 Chemin de l'Armée d'Afrique, 13010 Marseille, France","Country":"FRA","State":"Provence-Alpes-Côte d'Azur","County":"Bouches-du-Rhône","City":"Marseille","District":"10e Arrondissement","Street":"Chemin de l'Armée d'Afrique","HouseNumber":"64","PostalCode":"13010","AdditionalData":[{"value":"France","key":"CountryName"},{"value":"Provence-Alpes-Côte d'Azur","key":"StateName"},{"value":"Bouches-du-Rhône","key":"CountyName"}]},"MapReference":{"ReferenceId":"58204884","Spot":0.67,"SideOfStreet":"left","CountryId":"20000001","StateId":"20000193","CountyId":"20048302","CityId":"20048481","DistrictId":"20048492"}}},{"Relevance":1.0,"Distance":16.4,"MatchLevel":"houseNumber","MatchQuality":{"Country":1.0,"State":1.0,"County":1.0,"City":1.0,"District":1.0,"Street":[1.0],"HouseNumber":1.0,"PostalCode":1.0},"MatchType":"interpolated","Location":{"LocationId":"NT_U7OxvuSlctiZoc.ZfzaAtB_2ID","LocationType":"point","DisplayPosition":{"Latitude":43.29021,"Longitude":5.40641},"MapView":{"TopLeft":{"Latitude":43.2913342,"Longitude":5.4048656},"BottomRight":{"Latitude":43.2890858,"Longitude":5.4079544}},"Address":{"Label":"62 Chemin de l'Armée d'Afrique, 13010 Marseille, France","Country":"FRA","State":"Provence-Alpes-Côte d'Azur","County":"Bouches-du-Rhône","City":"Marseille","District":"10e Arrondissement","Street":"Chemin de l'Armée d'Afrique","HouseNumber":"62","PostalCode":"13010","AdditionalData":[{"value":"France","key":"CountryName"},{"value":"Provence-Alpes-Côte d'Azur","key":"StateName"},{"value":"Bouches-du-Rhône","key":"CountyName"}]},"MapReference":{"ReferenceId":"782925298","Spot":0.59,"SideOfStreet":"left","CountryId":"20000001","StateId":"20000193","CountyId":"20048302","CityId":"20048481","DistrictId":"20048492","AddressId":"319102457","RoadLinkId":"175734396"}}},{"Relevance":1.0,"Distance":19.5,"MatchLevel":"street","MatchQuality":{"Country":1.0,"State":1.0,"County":1.0,"City":1.0,"District":1.0,"Street":[1.0],"PostalCode":1.0},"Location":{"LocationId":"NT_K6uHWHTLuPVl8QVMzHOV3B_l_58195754_L","LocationType":"point","DisplayPosition":{"Latitude":43.2901087,"Longitude":5.4067776},"MapView":{"TopLeft":{"Latitude":43.29144,"Longitude":5.40663},"BottomRight":{"Latitude":43.29003,"Longitude":5.40718}},"Address":{"Label":"Rue Entre Deux Murs, 13005 Marseille, France","Country":"FRA","State":"Provence-Alpes-Côte d'Azur","County":"Bouches-du-Rhône","City":"Marseille","District":"5e Arrondissement","Street":"Rue Entre Deux Murs","PostalCode":"13005","AdditionalData":[{"value":"France","key":"CountryName"},{"value":"Provence-Alpes-Côte d'Azur","key":"StateName"},{"value":"Bouches-du-Rhône","key":"CountyName"}]},"MapReference":{"ReferenceId":"58195754","Spot":0.05,"SideOfStreet":"left","CountryId":"20000001","StateId":"20000193","CountyId":"20048302","CityId":"20048481","DistrictId":"20048487"}}},{"Relevance":1.0,"Distance":19.9,"MatchLevel":"street","MatchQuality":{"Country":1.0,"State":1.0,"County":1.0,"City":1.0,"District":1.0,"Street":[1.0],"PostalCode":1.0},"Location":{"LocationId":"NT_HoYu34H27BNPIwbuAFFDDB_l_1170568890_R","LocationType":"point","DisplayPosition":{"Latitude":43.28996,"Longitude":5.40635},"MapView":{"TopLeft":{"Latitude":43.29011,"Longitude":5.4061},"BottomRight":{"Latitude":43.28902,"Longitude":5.4065}},"Address":{"Label":"Chemin de l'Armée d'Afrique, 13005 Marseille, France","Country":"FRA","State":"Provence-Alpes-Côte d'Azur","County":"Bouches-du-Rhône","City":"Marseille","District":"5e Arrondissement","Street":"Chemin de l'Armée d'Afrique","PostalCode":"13005","AdditionalData":[{"value":"France","key":"CountryName"},{"value":"Provence-Alpes-Côte d'Azur","key":"StateName"},{"value":"Bouches-du-Rhône","key":"CountyName"}]},"MapReference":{"ReferenceId":"1170568890","Spot":0.81,"SideOfStreet":"right","CountryId":"20000001","StateId":"20000193","CountyId":"20048302","CityId":"20048481","DistrictId":"20048487"}}},{"Relevance":1.0,"Distance":20.6,"MatchLevel":"landmark","MatchQuality":{"Country":1.0,"State":1.0,"County":1.0,"City":1.0,"PostalCode":1.0,"Name":1.0},"Location":{"LocationId":"NT_SPDN.PRorMCYTPzFtVak8B","LocationType":"cemetery","Name":"Cimetière Saint-Pierre","DisplayPosition":{"Latitude":43.28854,"Longitude":5.4169},"MapView":{"TopLeft":{"Latitude":43.29166,"Longitude":5.40679},"BottomRight":{"Latitude":43.28541,"Longitude":5.42455}},"Address":{"Label":"13001 Marseille, France","Country":"FRA","State":"Provence-Alpes-Côte d'Azur","County":"Bouches-du-Rhône","City":"Marseille","PostalCode":"13001","AdditionalData":[{"value":"France","key":"CountryName"},{"value":"Provence-Alpes-Côte d'Azur","key":"StateName"},{"value":"Bouches-du-Rhône","key":"CountyName"}]},"MapReference":{"CountryId":"20000001","StateId":"20000193","CountyId":"20048302","CityId":"20048481","PlaceId":"53430320"}}},{"Relevance":1.0,"Distance":27.0,"MatchLevel":"houseNumber","MatchQuality":{"Country":1.0,"State":1.0,"County":1.0,"City":1.0,"District":1.0,"Street":[1.0],"HouseNumber":1.0,"PostalCode":1.0},"MatchType":"interpolated","Location":{"LocationId":"NT_U7OxvuSlctiZoc.ZfzaAtB_2UD","LocationType":"point","DisplayPosition":{"Latitude":43.28999,"Longitude":5.40687},"MapView":{"TopLeft":{"Latitude":43.2911142,"Longitude":5.4053256},"BottomRight":{"Latitude":43.2888658,"Longitude":5.4084144}},"Address":{"Label":"65 Chemin de l'Armée d'Afrique, 13010 Marseille, France","Country":"FRA","State":"Provence-Alpes-Côte d'Azur","County":"Bouches-du-Rhône","City":"Marseille","District":"10e Arrondissement","Street":"Chemin de l'Armée d'Afrique","HouseNumber":"65","PostalCode":"13010","AdditionalData":[{"value":"France","key":"CountryName"},{"value":"Provence-Alpes-Côte d'Azur","key":"StateName"},{"value":"Bouches-du-Rhône","key":"CountyName"}]},"MapReference":{"ReferenceId":"924355433","Spot":0.57,"SideOfStreet":"left","CountryId":"20000001","StateId":"20000193","CountyId":"20048302","CityId":"20048481","DistrictId":"20048492","AddressId":"573269915","RoadLinkId":"279726454"}}},{"Relevance":1.0,"Distance":32.0,"MatchLevel":"houseNumber","MatchQuality":{"Country":1.0,"State":1.0,"County":1.0,"City":1.0,"District":1.0,"Street":[1.0],"HouseNumber":1.0,"PostalCode":1.0},"MatchType":"interpolated","Location":{"LocationId":"NT_qBku7aZZDWsF1wFIQxdHpD_0MD","LocationType":"point","DisplayPosition":{"Latitude":43.29027,"Longitude":5.40628},"MapView":{"TopLeft":{"Latitude":43.2913942,"Longitude":5.4047356},"BottomRight":{"Latitude":43.2891458,"Longitude":5.4078244}},"Address":{"Label":"43 Chemin de l'Armée d'Afrique, 13005 Marseille, France","Country":"FRA","State":"Provence-Alpes-Côte d'Azur","County":"Bouches-du-Rhône","City":"Marseille","District":"5e Arrondissement","Street":"Chemin de l'Armée d'Afrique","HouseNumber":"43","PostalCode":"13005","AdditionalData":[{"value":"France","key":"CountryName"},{"value":"Provence-Alpes-Côte d'Azur","key":"StateName"},{"value":"Bouches-du-Rhône","key":"CountyName"}]},"MapReference":{"ReferenceId":"1199917519","Spot":0.63,"SideOfStreet":"right","CountryId":"20000001","StateId":"20000193","CountyId":"20048302","CityId":"20048481","DistrictId":"20048487","AddressId":"345376560","RoadLinkId":"512070099"}}}]}]}}