{"Response":{"MetaInfo":{"Timestamp":"2020-03-28T09:43:26.088+0000","NextPageInformation":"2"},"View":[{"_type":"SearchResultsViewType","ViewId":0,"Result":[{"Relevance":1.0,"Distance":0.0,"Direction":0.0,"MatchLevel":"district","MatchQuality":{"Country":1.0,"State":1.0,"County":1.0,"City":1.0,"District":1.0,"PostalCode":1.0},"Location":{"LocationId":"NT_kT1f3nMZtDLg4jgon7fo6D","LocationType":"point","DisplayPosition":{"Latitude":43.29655,"Longitude":-2.9294621},"MapView":{"TopLeft":{"Latitude":43.30038,"Longitude":-2.93421},"BottomRight":{"Latitude":43.29506,"Longitude":-2.91503}},"Address":{"Label":"Basozabal, Sondika, Euskadi, Espainia","Country":"ESP","State":"Euskadi","County":"Bizkaia","City":"Sondika","District":"Basozabal","PostalCode":"48150","AdditionalData":[{"value":"Espainia","key":"CountryName"},{"value":"Euskadi","key":"StateName"},{"value":"Bizkaia","key":"CountyName"}]},"MapReference":{"ReferenceId":"1209126529","SideOfStreet":"neither","CountryId":"20215059","StateId":"20226804","CountyId":"20226807","CityId":"20287568","DistrictId":"20287569"}}},{"Relevance":1.0,"Distance":8.4,"MatchLevel":"street","MatchQuality":{"Country":1.0,"State":1.0,"County":1.0,"City":1.0,"District":1.0,"PostalCode":1.0},"Location":{"LocationId":"NT_t4CxoxpBJPkZRC4D5MCZUB_l_1046095736_R","LocationType":"point","DisplayPosition":{"Latitude":43.2966243,"Longitude":-2.9294822},"MapView":{"TopLeft":{"Latitude":43.29674,"Longitude":-2.92993},"BottomRight":{"Latitude":43.29642,"Longitude":-2.92913}},"Address":{"Label":"48150 Sondica (Vizcaya), España","Country":"ESP","State":"País Vasco","County":"Vizcaya","City":"Sondica","District":"Basozabal","PostalCode":"48150","AdditionalData":[{"value":"España","key":"CountryName"},{"value":"País Vasco","key":"StateName"},{"value":"Vizcaya","key":"CountyName"}]},"MapReference":{"ReferenceId":"1046095736","Spot":0.57,"SideOfStreet":"right","CountryId":"20215059","StateId":"20226804","CountyId":"20226807","CityId":"20287568","DistrictId":"20287569"}}},{"Relevance":1.0,"Distance":23.3,"MatchLevel":"houseNumber","MatchQuality":{"Country":1.0,"State":1.0,"County":1.0,"City":1.0,"District":1.0,"Street":[1.0],"HouseNumber":1.0,"PostalCode":1.0},"MatchType":"interpolated","Location":{"LocationId":"NT_71ZTLYzHWEmD0KZA1J7YsC_0ED","LocationType":"point","DisplayPosition":{"Latitude":43.29659,"Longitude":-2.929},"MapView":{"TopLeft":{"Latitude":43.2977142,"Longitude":-2.9305446},"BottomRight":{"Latitude":43.2954658,"Longitude":-2.9274554}},"Address":{"Label":"Avenida José Antonio Agirre Lehendakari, 41, 48150 Sondica (Vizcaya), España","Country":"ESP","State":"País Vasco","County":"Vizcaya","City":"Sondica","District":"Basozabal","Street":"Avenida José Antonio Agirre Lehendakari","HouseNumber":"41","PostalCode":"48150","AdditionalData":[{"value":"España","key":"CountryName"},{"value":"País Vasco","key":"StateName"},{"value":"Vizcaya","key":"CountyName"}]},"MapReference":{"ReferenceId":"1046095746","Spot":0.43,"SideOfStreet":"left","CountryId":"20215059","StateId":"20226804","CountyId":"20226807","CityId":"20287568","DistrictId":"20287569","AddressId":"745302141","RoadLinkId":"366133008"}}},{"Relevance":1.0,"Distance":34.2,"MatchLevel":"street","MatchQuality":{"Country":1.0,"State":1.0,"County":1.0,"City":1.0,"District":1.0,"PostalCode":1.0},"Location":{"LocationId":"NT_t4CxoxpBJPkZRC4D5MCZUB_l_1046095748_R","LocationType":"point","DisplayPosition":{"Latitude":43.29674,"Longitude":-2.92913},"MapView":{"TopLeft":{"Latitude":43.29737,"Longitude":-2.92913},"BottomRight":{"Latitude":43.29674,"Longitude":-2.92844}},"Address":{"Label":"48150 Sondica (Vizcaya), España","Country":"ESP","State":"País Vasco","County":"Vizcaya","City":"Sondica","District":"Basozabal","PostalCode":"48150","AdditionalData":[{"value":"España","key":"CountryName"},{"value":"País Vasco","key":"StateName"},{"value":"Vizcaya","key":"CountyName"}]},"MapReference":{"ReferenceId":"1046095748","Spot":0.0,"SideOfStreet":"right","CountryId":"20215059","StateId":"20226804","CountyId":"20226807","CityId":"20287568","DistrictId":"20287569"}}},{"Relevance":1.0,"Distance":34.9,"MatchLevel":"street","MatchQuality":{"Country":1.0,"State":1.0,"County":1.0,"City":1.0,"District":1.0,"PostalCode":1.0},"Location":{"LocationId":"NT_t4CxoxpBJPkZRC4D5MCZUB_l_1191446265_L","LocationType":"point","DisplayPosition":{"Latitude":43.2962578,"Longitude":-2.9293052},"MapView":{"TopLeft":{"Latitude":43.29647,"Longitude":-2.92963},"BottomRight":{"Latitude":43.29613,"Longitude":-2.92891}},"Address":{"Label":"48150 Sondica (Vizcaya), España","Country":"ESP","State":"País Vasco","County":"Vizcaya","City":"Sondica","District":"Basozabal","PostalCode":"48150","AdditionalData":[{"value":"España","key":"CountryName"},{"value":"País Vasco","key":"StateName"},{"value":"Vizcaya","key":"CountyName"}]},"MapReference":{"ReferenceId":"1191446265","Spot":0.44,"SideOfStreet":"left","CountryId":"20215059","StateId":"20226804","CountyId":"20226807","CityId":"20287568","DistrictId":"20287569"}}},{"Relevance":1.0,"Distance":35.5,"MatchLevel":"street","MatchQuality":{"Country":1.0,"State":1.0,"County":1.0,"City":1.0,"District":1.0,"Street":[1.0],"PostalCode":1.0},"Location":{"LocationId":"NT_71ZTLYzHWEmD0KZA1J7YsC_l_1046095735_L","LocationType":"point","DisplayPosition":{"Latitude":43.2967861,"Longitude":-2.9291669},"MapView":{"TopLeft":{"Latitude":43.29679,"Longitude":-2.92917},"BottomRight":{"Latitude":43.29674,"Longitude":-2.92913}},"Address":{"Label":"Avenida José Antonio Agirre Lehendakari, 48150 Sondica (Vizcaya), España","Country":"ESP","State":"País Vasco","County":"Vizcaya","City":"Sondica","District":"Basozabal","Street":"Avenida José Antonio Agirre Lehendakari","PostalCode":"48150","AdditionalData":[{"value":"España","key":"CountryName"},{"value":"País Vasco","key":"StateName"},{"value":"Vizcaya","key":"CountyName"}]},"MapReference":{"ReferenceId":"1046095735","Spot":0.92,"SideOfStreet":"left","CountryId":"20215059","StateId":"20226804","CountyId":"20226807","CityId":"20287568","DistrictId":"20287569"}}},{"Relevance":1.0,"Distance":35.8,"MatchLevel":"houseNumber","MatchQuality":{"Country":1.0,"State":1.0,"County":1.0,"City":1.0,"District":1.0,"Street":[1.0],"HouseNumber":1.0,"PostalCode":1.0},"MatchType":"interpolated","Location":{"LocationId":"NT_71ZTLYzHWEmD0KZA1J7YsC_0UD","LocationType":"point","DisplayPosition":{"Latitude":43.29697,"Longitude":-2.92931},"MapView":{"TopLeft":{"Latitude":43.2980942,"Longitude":-2.9308546},"BottomRight":{"Latitude":43.2958458,"Longitude":-2.9277654}},"Address":{"Label":"Avenida José Antonio Agirre Lehendakari, 45, 48150 Sondica (Vizcaya), España","Country":"ESP","State":"País Vasco","County":"Vizcaya","City":"Sondica","District":"Basozabal","Street":"Avenida José Antonio Agirre Lehendakari","HouseNumber":"45","PostalCode":"48150","AdditionalData":[{"value":"España","key":"CountryName"},{"value":"País Vasco","key":"StateName"},{"value":"Vizcaya","key":"CountyName"}]},"MapReference":{"ReferenceId":"781344691","Spot":0.49,"SideOfStreet":"left","CountryId":"20215059","StateId":"20226804","CountyId":"20226807","CityId":"20287568","DistrictId":"20287569","AddressId":"351734653","RoadLinkId":"174292647"}}},{"Relevance":1.0,"Distance":37.1,"MatchLevel":"houseNumber","MatchQuality":{"Country":1.0,"State":1.0,"County":1.0,"City":1.0,"District":1.0,"Street":[1.0],"HouseNumber":1.0,"PostalCode":1.0},"MatchType":"interpolated","Location":{"LocationId":"NT_71ZTLYzHWEmD0KZA1J7YsC_0cD","LocationType":"point","DisplayPosition":{"Latitude":43.29706,"Longitude":-2.9298},"MapView":{"TopLeft":{"Latitude":43.2981842,"Longitude":-2.9313446},"BottomRight":{"Latitude":43.2959358,"Longitude":-2.9282554}},"Address":{"Label":"Avenida José Antonio Agirre Lehendakari, 47, 48150 Sondica (Vizcaya), España","Country":"ESP","State":"País Vasco","County":"Vizcaya","City":"Sondica","District":"Basozabal","Street":"Avenida José Antonio Agirre Lehendakari","HouseNumber":"47","PostalCode":"48150","AdditionalData":[{"value":"España","key":"CountryName"},{"value":"País Vasco","key":"StateName"},{"value":"Vizcaya","key":"CountyName"}]},"MapReference":{"ReferenceId":"1046095734","Spot":0.71,"SideOfStreet":"right","CountryId":"20215059","StateId":"20226804","CountyId":"20226807","CityId":"20287568","DistrictId":"20287569","AddressId":"351862621","RoadLinkId":"366132994"}}},{"Relevance":1.0,"Distance":40.5,"MatchLevel":"street","MatchQuality":{"Country":1.0,"State":1.0,"County":1.0,"City":1.0,"District":1.0,"PostalCode":1.0},"Location":{"LocationId":"NT_t4CxoxpBJPkZRC4D5MCZUB_l_1046095737_L","LocationType":"point","DisplayPosition":{"Latitude":43.29642,"Longitude":-2.92993},"MapView":{"TopLeft":{"Latitude":43.29642,"Longitude":-2.93002},"BottomRight":{"Latitude":43.29641,"Longitude":-2.92993}},"Address":{"Label":"48150 Sondica (Vizcaya), España","Country":"ESP","State":"País Vasco","County":"Vizcaya","City":"Sondica","District":"Basozabal","PostalCode":"48150","AdditionalData":[{"value":"España","key":"CountryName"},{"value":"País Vasco","key":"StateName"},{"value":"Vizcaya","key":"CountyName"}]},"MapReference":{"ReferenceId":"1046095737","Spot":1.0,"SideOfStreet":"left","CountryId":"20215059","StateId":"20226804","CountyId":"20226807","CityId":"20287568","DistrictId":"20287569"}}},{"Relevance":1.0,"Distance":45.6,"MatchLevel":"street","MatchQuality":{"Country":1.0,"State":1.0,"County":1.0,"City":1.0,"District":1.0,"PostalCode":1.0},"Location":{"LocationId":"NT_t4CxoxpBJPkZRC4D5MCZUB_l_1191446125_L","LocationType":"point","DisplayPosition":{"Latitude":43.29647,"Longitude":-2.92891},"MapView":{"TopLeft":{"Latitude":43.29685,"Longitude":-2.92891},"BottomRight":{"Latitude":43.29647,"Longitude":-2.92814}},"Address":{"Label":"48150 Sondica (Vizcaya), España","Country":"ESP","State":"País Vasco","County":"Vizcaya","City":"Sondica","District":"Basozabal","PostalCode":"48150","AdditionalData":[{"value":"España","key":"CountryName"},{"value":"País Vasco","key":"StateName"},{"value":"Vizcaya","key":"CountyName"}]},"MapReference":{"ReferenceId":"1191446125","Spot":0.0,"SideOfStreet":"left","CountryId":"20215059","StateId":"20226804","CountyId":"20226807","CityId":"20287568","DistrictId":"20287569"}}}]}]}}