{"Response":{"MetaInfo":{"Timestamp":"2020-03-28T09:44:04.783+0000","NextPageInformation":"2"},"View":[{"_type":"SearchResultsViewType","ViewId":0,"Result":[{"Relevance":1.0,"Distance":0.0,"Direction":0.0,"MatchLevel":"district","MatchQuality":{"Country":1.0,"State":1.0,"County":1.0,"City":1.0,"District":1.0,"PostalCode":1.0},"Location":{"LocationId":"NT_rsAVUDBSjs-.01cMCGXDYC","LocationType":"point","DisplayPosition":{"Latitude":43.2966693,"Longitude":-8.2685136},"MapView":{"TopLeft":{"Latitude":43.30993,"Longitude":-8.28704},"BottomRight":{"Latitude":43.28295,"Longitude":-8.24998}},"Address":{"Label":"Ruanova, Bergondo, Galicia, España","Country":"ESP","State":"Galicia","County":"A Coruña","City":"Bergondo","District":"Ruanova","PostalCode":"15640","AdditionalData":[{"value":"España","key":"CountryName"},{"value":"Galicia","key":"StateName"},{"value":"A Coruña","key":"CountyName"}]},"MapReference":{"ReferenceId":"1166565735","SideOfStreet":"neither","CountryId":"20215059","StateId":"20226791","CountyId":"20226792","CityId":"20322085"}}},{"Relevance":1.0,"Distance":29.3,"MatchLevel":"houseNumber","MatchQuality":{"Country":1.0,"State":1.0,"County":1.0,"City":1.0,"Street":[1.0],"HouseNumber":1.0,"PostalCode":1.0},"MatchType":"interpolated","Location":{"LocationId":"NT_F09wMvhEgahI.TWJ7Gkm5C_zED","LocationType":"point","DisplayPosition":{"Latitude":43.29641,"Longitude":-8.26845},"MapView":{"TopLeft":{"Latitude":43.2975342,"Longitude":-8.2699946},"BottomRight":{"Latitude":43.2952858,"Longitude":-8.2669054}},"Address":{"Label":"Urbanización Baldomir, 31, 15640 Bergondo (A Coruña), España","Country":"ESP","State":"Galicia","County":"A Coruña","City":"Bergondo","Street":"Urbanización Baldomir","HouseNumber":"31","PostalCode":"15640","AdditionalData":[{"value":"España","key":"CountryName"},{"value":"Galicia","key":"StateName"},{"value":"A Coruña","key":"CountyName"}]},"MapReference":{"ReferenceId":"1166565735","Spot":0.39,"SideOfStreet":"left","CountryId":"20215059","StateId":"20226791","CountyId":"20226792","CityId":"20322085","AddressId":"351028398","RoadLinkId":"473086269"}}},{"Relevance":1.0,"Distance":46.1,"MatchLevel":"street","MatchQuality":{"Country":1.0,"State":1.0,"County":1.0,"City":1.0,"Street":[1.0],"PostalCode":1.0},"Location":{"LocationId":"NT_djBsgkEczqcjJLiKxaCNLA_l_1166565733_L","LocationType":"point","DisplayPosition":{"Latitude":43.29631,"Longitude":-8.26823},"MapView":{"TopLeft":{"Latitude":43.29631,"Longitude":-8.26924},"BottomRight":{"Latitude":43.29601,"Longitude":-8.26823}},"Address":{"Label":"Estrada da Feria, 15640 Bergondo (A Coruña), España","Country":"ESP","State":"Galicia","County":"A Coruña","City":"Bergondo","Street":"Estrada da Feria","PostalCode":"15640","AdditionalData":[{"value":"España","key":"CountryName"},{"value":"Galicia","key":"StateName"},{"value":"A Coruña","key":"CountyName"}]},"MapReference":{"ReferenceId":"1166565733","Spot":1.0,"SideOfStreet":"left","CountryId":"20215059","StateId":"20226791","CountyId":"20226792","CityId":"20322085"}}},{"Relevance":1.0,"Distance":52.8,"MatchLevel":"houseNumber","MatchQuality":{"Country":1.0,"State":1.0,"County":1.0,"City":1.0,"Street":[1.0],"HouseNumber":1.0,"PostalCode":1.0},"MatchType":"interpolated","Location":{"LocationId":"NT_F09wMvhEgahI.TWJ7Gkm5C_xAD","LocationType":"point","DisplayPosition":{"Latitude":43.29627,"Longitude":-8.26816},"MapView":{"TopLeft":{"Latitude":43.2973942,"Longitude":-8.2697046},"BottomRight":{"Latitude":43.2951458,"Longitude":-8.2666154}},"Address":{"Label":"Urbanización Baldomir, 10, 15640 Bergondo (A Coruña), España","Country":"ESP","State":"Galicia","County":"A Coruña","City":"Bergondo","Street":"Urbanización Baldomir","HouseNumber":"10","PostalCode":"15640","AdditionalData":[{"value":"España","key":"CountryName"},{"value":"Galicia","key":"StateName"},{"value":"A Coruña","key":"CountyName"}]},"MapReference":{"ReferenceId":"1166565734","Spot":0.9,"SideOfStreet":"left","CountryId":"20215059","StateId":"20226791","CountyId":"20226792","CityId":"20322085","AddressId":"351028400","RoadLinkId":"473086268"}}},{"Relevance":1.0,"Distance":56.8,"MatchLevel":"houseNumber","MatchQuality":{"Country":1.0,"State":1.0,"County":1.0,"City":1.0,"Street":[1.0],"HouseNumber":1.0,"PostalCode":1.0},"MatchType":"interpolated","Location":{"LocationId":"NT_EgOb2R6iRAzVxdUxnmst-A_yEE","LocationType":"point","DisplayPosition":{"Latitude":43.29718,"Longitude":-8.26853},"MapView":{"TopLeft":{"Latitude":43.2983042,"Longitude":-8.2700746},"BottomRight":{"Latitude":43.2960558,"Longitude":-8.2669854}},"Address":{"Label":"Urbanización Baldomir, 2A, 15640 Bergondo (A Coruña), España","Country":"ESP","State":"Galicia","County":"A Coruña","City":"Bergondo","Street":"Urbanización Baldomir","HouseNumber":"2A","PostalCode":"15640","AdditionalData":[{"value":"España","key":"CountryName"},{"value":"Galicia","key":"StateName"},{"value":"A Coruña","key":"CountyName"}]},"MapReference":{"ReferenceId":"545847062","Spot":0.82,"SideOfStreet":"right","CountryId":"20215059","StateId":"20226791","CountyId":"20226792","CityId":"20322085","AddressId":"350962969","RoadLinkId":"68869326"}}},{"Relevance":1.0,"Distance":67.2,"MatchLevel":"houseNumber","MatchQuality":{"Country":1.0,"State":1.0,"County":1.0,"City":1.0,"Street":[1.0],"HouseNumber":1.0,"PostalCode":1.0},"MatchType":"interpolated","Location":{"LocationId":"NT_.O8eCwRqnxNmOokHo1mc6A_yA","LocationType":"point","DisplayPosition":{"Latitude":43.29685,"Longitude":-8.26732},"MapView":{"TopLeft":{"Latitude":43.2979742,"Longitude":-8.2688646},"BottomRight":{"Latitude":43.2957258,"Longitude":-8.2657754}},"Address":{"Label":"Estrada a Madrid, 2, 15165 Bergondo (A Coruña), España","Country":"ESP","State":"Galicia","County":"A Coruña","City":"Bergondo","Street":"Estrada a Madrid","HouseNumber":"2","PostalCode":"15165","AdditionalData":[{"value":"España","key":"CountryName"},{"value":"Galicia","key":"StateName"},{"value":"A Coruña","key":"CountyName"}]},"MapReference":{"ReferenceId":"1178797989","Spot":0.52,"SideOfStreet":"left","CountryId":"20215059","StateId":"20226791","CountyId":"20226792","CityId":"20322085","AddressId":"364740817","RoadLinkId":"486524830"}}},{"Relevance":1.0,"Distance":105.0,"MatchLevel":"houseNumber","MatchQuality":{"Country":1.0,"State":1.0,"County":1.0,"City":1.0,"Street":[1.0],"HouseNumber":1.0,"PostalCode":1.0},"MatchType":"interpolated","Location":{"LocationId":"NT_ATv118XE2cT48FJtPhAEkA_yID","LocationType":"point","DisplayPosition":{"Latitude":43.2975,"Longitude":-8.26913},"MapView":{"TopLeft":{"Latitude":43.2986242,"Longitude":-8.2706746},"BottomRight":{"Latitude":43.2963758,"Longitude":-8.2675854}},"Address":{"Label":"Carretera Cambre, 22, 15640 Bergondo (A Coruña), España","Country":"ESP","State":"Galicia","County":"A Coruña","City":"Bergondo","Street":"Carretera Cambre","HouseNumber":"22","PostalCode":"15640","AdditionalData":[{"value":"España","key":"CountryName"},{"value":"Galicia","key":"StateName"},{"value":"A Coruña","key":"CountyName"}]},"MapReference":{"ReferenceId":"545847061","Spot":0.49,"SideOfStreet":"left","CountryId":"20215059","StateId":"20226791","CountyId":"20226792","CityId":"20322085","AddressId":"350948191","RoadLinkId":"69266047"}}},{"Relevance":1.0,"Distance":110.5,"MatchLevel":"houseNumber","MatchQuality":{"Country":1.0,"State":1.0,"County":1.0,"City":1.0,"Street":[1.0],"HouseNumber":1.0,"PostalCode":1.0},"MatchType":"interpolated","Location":{"LocationId":"NT_ATv118XE2cT48FJtPhAEkA_yQD","LocationType":"point","DisplayPosition":{"Latitude":43.29766,"Longitude":-8.26862},"MapView":{"TopLeft":{"Latitude":43.2987842,"Longitude":-8.2701646},"BottomRight":{"Latitude":43.2965358,"Longitude":-8.2670754}},"Address":{"Label":"Carretera Cambre, 24, 15640 Bergondo (A Coruña), España","Country":"ESP","State":"Galicia","County":"A Coruña","City":"Bergondo","Street":"Carretera Cambre","HouseNumber":"24","PostalCode":"15640","AdditionalData":[{"value":"España","key":"CountryName"},{"value":"Galicia","key":"StateName"},{"value":"A Coruña","key":"CountyName"}]},"MapReference":{"ReferenceId":"545847045","Spot":0.24,"SideOfStreet":"left","CountryId":"20215059","StateId":"20226791","CountyId":"20226792","CityId":"20322085","AddressId":"351092858","RoadLinkId":"68955517"}}},{"Relevance":1.0,"Distance":112.2,"MatchLevel":"street","MatchQuality":{"Country":1.0,"State":1.0,"County":1.0,"City":1.0,"Street":[1.0],"PostalCode":1.0},"Location":{"LocationId":"NT_.O8eCwRqnxNmOokHo1mc6A_l_851180562_L","LocationType":"point","DisplayPosition":{"Latitude":43.29735,"Longitude":-8.26749},"MapView":{"TopLeft":{"Latitude":43.2977,"Longitude":-8.26761},"BottomRight":{"Latitude":43.29735,"Longitude":-8.26749}},"Address":{"Label":"Estrada a Madrid, 15165 Bergondo (A Coruña), España","Country":"ESP","State":"Galicia","County":"A Coruña","City":"Bergondo","Street":"Estrada a Madrid","PostalCode":"15165","AdditionalData":[{"value":"España","key":"CountryName"},{"value":"Galicia","key":"StateName"},{"value":"A Coruña","key":"CountyName"}]},"MapReference":{"ReferenceId":"851180562","Spot":0.0,"SideOfStreet":"left","CountryId":"20215059","StateId":"20226791","CountyId":"20226792","CityId":"20322085"}}},{"Relevance":1.0,"Distance":118.0,"MatchLevel":"street","MatchQuality":{"Country":1.0,"State":1.0,"County":1.0,"City":1.0,"Street":[1.0],"PostalCode":1.0},"Location":{"LocationId":"NT_k-2-aGcUUC0-88VxFdSUnA_l_82196680_R","LocationType":"point","DisplayPosition":{"Latitude":43.2959,"Longitude":-8.26751},"MapView":{"TopLeft":{"Latitude":43.2959,"Longitude":-8.26751},"BottomRight":{"Latitude":43.29587,"Longitude":-8.26696}},"Address":{"Label":"Barrio Guísamo, 15165 Bergondo (A Coruña), España","Country":"ESP","State":"Galicia","County":"A Coruña","City":"Bergondo","Street":"Barrio Guísamo","PostalCode":"15165","AdditionalData":[{"value":"España","key":"CountryName"},{"value":"Galicia","key":"StateName"},{"value":"A Coruña","key":"CountyName"}]},"MapReference":{"ReferenceId":"82196680","Spot":1.0,"SideOfStreet":"right","CountryId":"20215059","StateId":"20226791","CountyId":"20226792","CityId":"20322085"}}}]}]}}