{"Response":{"MetaInfo":{"Timestamp":"2020-03-28T09:56:22.318+0000","NextPageInformation":"2"},"View":[{"_type":"SearchResultsViewType","ViewId":0,"Result":[{"Relevance":1.0,"Distance":0.0,"Direction":0.0,"MatchLevel":"city","MatchQuality":{"Country":1.0,"State":1.0,"County":1.0,"City":1.0,"PostalCode":1.0},"Location":{"LocationId":"NT_tP0ve8MMwIu4oFH3RF2U3C","LocationType":"point","DisplayPosition":{"Latitude":43.2149787,"Longitude":13.2588754},"MapView":{"TopLeft":{"Latitude":43.26348,"Longitude":13.24302},"BottomRight":{"Latitude":43.1499,"Longitude":13.42727}},"Address":{"Label":"Tolentino, Marche, Italia","Country":"ITA","State":"Marche","County":"MC","City":"Tolentino","PostalCode":"62029","AdditionalData":[{"value":"Italia","key":"CountryName"},{"value":"Marche","key":"StateName"},{"value":"Macerata","key":"CountyName"}]},"MapReference":{"ReferenceId":"1242375074","SideOfStreet":"neither","CountryId":"20110484","StateId":"20126185","CountyId":"20209198","CityId":"20209359"}}},{"Relevance":1.0,"Distance":79.9,"MatchLevel":"street","MatchQuality":{"Country":1.0,"State":1.0,"County":1.0,"City":1.0,"Street":[1.0],"PostalCode":1.0},"Location":{"LocationId":"NT_1.U6X1Iysodh9A9dNubz0A_l_1266896028_L","LocationType":"point","DisplayPosition":{"Latitude":43.21569,"Longitude":13.25874},"MapView":{"TopLeft":{"Latitude":43.21697,"Longitude":13.2566},"BottomRight":{"Latitude":43.21569,"Longitude":13.25874}},"Address":{"Label":"Contrada Santa Lucia, 62029 Tolentino MC, Italia","Country":"ITA","State":"Marche","County":"MC","City":"Tolentino","Street":"Contrada Santa Lucia","PostalCode":"62029","AdditionalData":[{"value":"Italia","key":"CountryName"},{"value":"Marche","key":"StateName"},{"value":"Macerata","key":"CountyName"}]},"MapReference":{"ReferenceId":"1266896028","Spot":0.0,"SideOfStreet":"left","CountryId":"20110484","StateId":"20126185","CountyId":"20209198","CityId":"20209359"}}},{"Relevance":1.0,"Distance":85.3,"MatchLevel":"street","MatchQuality":{"Country":1.0,"State":1.0,"County":1.0,"City":1.0,"PostalCode":1.0},"Location":{"LocationId":"NT_THjp8erdgxzXboiKPrjJaB_l_555053464_L","LocationType":"point","DisplayPosition":{"Latitude":43.2155361,"Longitude":13.2595979},"MapView":{"TopLeft":{"Latitude":43.21633,"Longitude":13.25931},"BottomRight":{"Latitude":43.21354,"Longitude":13.26035}},"Address":{"Label":"62029 Tolentino MC, Italia","Country":"ITA","State":"Marche","County":"MC","City":"Tolentino","PostalCode":"62029","AdditionalData":[{"value":"Italia","key":"CountryName"},{"value":"Marche","key":"StateName"},{"value":"Macerata","key":"CountyName"}]},"MapReference":{"ReferenceId":"555053464","Spot":0.71,"SideOfStreet":"left","CountryId":"20110484","StateId":"20126185","CountyId":"20209198","CityId":"20209359"}}},{"Relevance":1.0,"Distance":125.9,"MatchLevel":"street","MatchQuality":{"Country":1.0,"State":1.0,"County":1.0,"City":1.0,"PostalCode":1.0},"Location":{"LocationId":"NT_THjp8erdgxzXboiKPrjJaB_l_1266896061_R","LocationType":"point","DisplayPosition":{"Latitude":43.2155406,"Longitude":13.2575269},"MapView":{"TopLeft":{"Latitude":43.21618,"Longitude":13.25724},"BottomRight":{"Latitude":43.2155,"Longitude":13.25761}},"Address":{"Label":"62029 Tolentino MC, Italia","Country":"ITA","State":"Marche","County":"MC","City":"Tolentino","PostalCode":"62029","AdditionalData":[{"value":"Italia","key":"CountryName"},{"value":"Marche","key":"StateName"},{"value":"Macerata","key":"CountyName"}]},"MapReference":{"ReferenceId":"1266896061","Spot":0.05,"SideOfStreet":"right","CountryId":"20110484","StateId":"20126185","CountyId":"20209198","CityId":"20209359"}}},{"Relevance":1.0,"Distance":154.4,"MatchLevel":"street","MatchQuality":{"Country":1.0,"State":1.0,"County":1.0,"City":1.0,"Street":[1.0],"PostalCode":1.0},"Location":{"LocationId":"NT_1.U6X1Iysodh9A9dNubz0A_l_873286970_L","LocationType":"point","DisplayPosition":{"Latitude":43.21628,"Longitude":13.25954},"MapView":{"TopLeft":{"Latitude":43.21633,"Longitude":13.25946},"BottomRight":{"Latitude":43.21621,"Longitude":13.25982}},"Address":{"Label":"Contrada Santa Lucia, 62029 Tolentino MC, Italia","Country":"ITA","State":"Marche","County":"MC","City":"Tolentino","Street":"Contrada Santa Lucia","PostalCode":"62029","AdditionalData":[{"value":"Italia","key":"CountryName"},{"value":"Marche","key":"StateName"},{"value":"Macerata","key":"CountyName"}]},"MapReference":{"ReferenceId":"873286970","Spot":0.75,"SideOfStreet":"left","CountryId":"20110484","StateId":"20126185","CountyId":"20209198","CityId":"20209359"}}},{"Relevance":1.0,"Distance":156.9,"MatchLevel":"street","MatchQuality":{"Country":1.0,"State":1.0,"County":1.0,"City":1.0,"Street":[1.0],"PostalCode":1.0},"Location":{"LocationId":"NT_1.U6X1Iysodh9A9dNubz0A_l_873286969_L","LocationType":"point","DisplayPosition":{"Latitude":43.21621,"Longitude":13.25982},"MapView":{"TopLeft":{"Latitude":43.21621,"Longitude":13.25982},"BottomRight":{"Latitude":43.21591,"Longitude":13.26113}},"Address":{"Label":"Contrada Santa Lucia, 62029 Tolentino MC, Italia","Country":"ITA","State":"Marche","County":"MC","City":"Tolentino","Street":"Contrada Santa Lucia","PostalCode":"62029","AdditionalData":[{"value":"Italia","key":"CountryName"},{"value":"Marche","key":"StateName"},{"value":"Macerata","key":"CountyName"}]},"MapReference":{"ReferenceId":"873286969","Spot":1.0,"SideOfStreet":"left","CountryId":"20110484","StateId":"20126185","CountyId":"20209198","CityId":"20209359"}}},{"Relevance":1.0,"Distance":157.5,"MatchLevel":"street","MatchQuality":{"Country":1.0,"State":1.0,"County":1.0,"City":1.0,"Street":[1.0],"PostalCode":1.0},"Location":{"LocationId":"NT_1.U6X1Iysodh9A9dNubz0A_l_873286971_L","LocationType":"point","DisplayPosition":{"Latitude":43.21633,"Longitude":13.25946},"MapView":{"TopLeft":{"Latitude":43.2164,"Longitude":13.2594},"BottomRight":{"Latitude":43.21633,"Longitude":13.25946}},"Address":{"Label":"Contrada Santa Lucia, 62029 Tolentino MC, Italia","Country":"ITA","State":"Marche","County":"MC","City":"Tolentino","Street":"Contrada Santa Lucia","PostalCode":"62029","AdditionalData":[{"value":"Italia","key":"CountryName"},{"value":"Marche","key":"StateName"},{"value":"Macerata","key":"CountyName"}]},"MapReference":{"ReferenceId":"873286971","Spot":0.0,"SideOfStreet":"left","CountryId":"20110484","StateId":"20126185","CountyId":"20209198","CityId":"20209359"}}},{"Relevance":1.0,"Distance":163.7,"MatchLevel":"street","MatchQuality":{"Country":1.0,"State":1.0,"County":1.0,"City":1.0,"Street":[1.0],"PostalCode":1.0},"Location":{"LocationId":"NT_sAs39QLSwCj8-eE9Npbp-C_l_873286972_L","LocationType":"point","DisplayPosition":{"Latitude":43.2164,"Longitude":13.2594},"MapView":{"TopLeft":{"Latitude":43.21735,"Longitude":13.25651},"BottomRight":{"Latitude":43.2164,"Longitude":13.2594}},"Address":{"Label":"Contrada Santa Lucia, 62029 Tolentino MC, Italia","Country":"ITA","State":"Marche","County":"MC","City":"Tolentino","Street":"Contrada Santa Lucia","PostalCode":"62029","AdditionalData":[{"value":"Italia","key":"CountryName"},{"value":"Marche","key":"StateName"},{"value":"Macerata","key":"CountyName"}]},"MapReference":{"ReferenceId":"873286972","Spot":0.0,"SideOfStreet":"left","CountryId":"20110484","StateId":"20126185","CountyId":"20209198","CityId":"20209359"}}},{"Relevance":1.0,"Distance":188.2,"MatchLevel":"street","MatchQuality":{"Country":1.0,"State":1.0,"County":1.0,"City":1.0,"PostalCode":1.0},"Location":{"LocationId":"NT_THjp8erdgxzXboiKPrjJaB_l_1266896036_R","LocationType":"point","DisplayPosition":{"Latitude":43.21618,"Longitude":13.25724},"MapView":{"TopLeft":{"Latitude":43.21618,"Longitude":13.25631},"BottomRight":{"Latitude":43.21575,"Longitude":13.25724}},"Address":{"Label":"62029 Tolentino MC, Italia","Country":"ITA","State":"Marche","County":"MC","City":"Tolentino","PostalCode":"62029","AdditionalData":[{"value":"Italia","key":"CountryName"},{"value":"Marche","key":"StateName"},{"value":"Macerata","key":"CountyName"}]},"MapReference":{"ReferenceId":"1266896036","Spot":1.0,"SideOfStreet":"right","CountryId":"20110484","StateId":"20126185","CountyId":"20209198","CityId":"20209359"}}},{"Relevance":1.0,"Distance":188.2,"MatchLevel":"street","MatchQuality":{"Country":1.0,"State":1.0,"County":1.0,"City":1.0,"PostalCode":1.0},"Location":{"LocationId":"NT_THjp8erdgxzXboiKPrjJaB_l_1266896030_R","LocationType":"point","DisplayPosition":{"Latitude":43.21618,"Longitude":13.25724},"MapView":{"TopLeft":{"Latitude":43.21696,"Longitude":13.2566},"BottomRight":{"Latitude":43.21618,"Longitude":13.25724}},"Address":{"Label":"62029 Tolentino MC, Italia","Country":"ITA","State":"Marche","County":"MC","City":"Tolentino","PostalCode":"62029","AdditionalData":[{"value":"Italia","key":"CountryName"},{"value":"Marche","key":"StateName"},{"value":"Macerata","key":"CountyName"}]},"MapReference":{"ReferenceId":"1266896030","Spot":0.0,"SideOfStreet":"right","CountryId":"20110484","StateId":"20126185","CountyId":"20209198","CityId":"20209359"}}}]}]}}