{"Response":{"MetaInfo":{"Timestamp":"2020-03-28T11:05:10.533+0000","NextPageInformation":"2"},"View":[{"_type":"SearchResultsViewType","ViewId":0,"Result":[{"Relevance":1.0,"Distance":0.0,"Direction":0.0,"MatchLevel":"city","MatchQuality":{"Country":1.0,"State":1.0,"County":1.0,"City":1.0,"PostalCode":1.0},"Location":{"LocationId":"NT_WppM73U2X-1yEzIOyWv.tC","LocationType":"point","DisplayPosition":{"Latitude":43.2624628,"Longitude":-2.8828167},"MapView":{"TopLeft":{"Latitude":43.29257,"Longitude":-2.98516},"BottomRight":{"Latitude":43.21334,"Longitude":-2.88057}},"Address":{"Label":"Bilbao, País Vasco, España","Country":"ESP","State":"País Vasco","County":"Vizcaya","City":"Bilbao","PostalCode":"48014","AdditionalData":[{"value":"España","key":"CountryName"},{"value":"País Vasco","key":"StateName"},{"value":"Vizcaya","key":"CountyName"}]},"MapReference":{"ReferenceId":"1238184744","SideOfStreet":"neither","CountryId":"20215059","StateId":"20226804","CountyId":"20226807","CityId":"20286631"}}},{"Relevance":1.0,"Distance":16.7,"MatchLevel":"houseNumber","MatchQuality":{"Country":1.0,"State":1.0,"County":1.0,"City":1.0,"Street":[1.0],"HouseNumber":1.0,"PostalCode":1.0},"MatchType":"interpolated","Location":{"LocationId":"NT_zT9ozKm1jqHQLapxL9NG1C_0ED","LocationType":"point","DisplayPosition":{"Latitude":43.26254,"Longitude":-2.88264},"MapView":{"TopLeft":{"Latitude":43.2636642,"Longitude":-2.8841837},"BottomRight":{"Latitude":43.2614158,"Longitude":-2.8810963}},"Address":{"Label":"Carretera Santa María, 41, 48004 Bilbao (Vizcaya), España","Country":"ESP","State":"País Vasco","County":"Vizcaya","City":"Bilbao","Street":"Carretera Santa María","HouseNumber":"41","PostalCode":"48004","AdditionalData":[{"value":"España","key":"CountryName"},{"value":"País Vasco","key":"StateName"},{"value":"Vizcaya","key":"CountyName"}]},"MapReference":{"ReferenceId":"537199374","Spot":0.34,"SideOfStreet":"right","CountryId":"20215059","StateId":"20226804","CountyId":"20226807","CityId":"20286631","AddressId":"727703489","RoadLinkId":"67844650"}}},{"Relevance":1.0,"Distance":21.9,"MatchLevel":"street","MatchQuality":{"Country":1.0,"State":1.0,"County":1.0,"City":1.0,"Street":[1.0],"PostalCode":1.0},"Location":{"LocationId":"NT_zT9ozKm1jqHQLapxL9NG1C_l_1199546938_R","LocationType":"point","DisplayPosition":{"Latitude":43.2623,"Longitude":-2.88297},"MapView":{"TopLeft":{"Latitude":43.26281,"Longitude":-2.88433},"BottomRight":{"Latitude":43.26209,"Longitude":-2.88297}},"Address":{"Label":"Carretera Santa María, 48004 Bilbao (Vizcaya), España","Country":"ESP","State":"País Vasco","County":"Vizcaya","City":"Bilbao","Street":"Carretera Santa María","PostalCode":"48004","AdditionalData":[{"value":"España","key":"CountryName"},{"value":"País Vasco","key":"StateName"},{"value":"Vizcaya","key":"CountyName"}]},"MapReference":{"ReferenceId":"1199546938","Spot":0.0,"SideOfStreet":"right","CountryId":"20215059","StateId":"20226804","CountyId":"20226807","CityId":"20286631"}}},{"Relevance":1.0,"Distance":21.9,"MatchLevel":"street","MatchQuality":{"Country":1.0,"State":1.0,"County":1.0,"City":1.0,"Street":[1.0],"PostalCode":1.0},"Location":{"LocationId":"NT_zT9ozKm1jqHQLapxL9NG1C_l_537199411_R","LocationType":"point","DisplayPosition":{"Latitude":43.2623,"Longitude":-2.88297},"MapView":{"TopLeft":{"Latitude":43.2623,"Longitude":-2.88297},"BottomRight":{"Latitude":43.26202,"Longitude":-2.88164}},"Address":{"Label":"Carretera Santa María, 48004 Bilbao (Vizcaya), España","Country":"ESP","State":"País Vasco","County":"Vizcaya","City":"Bilbao","Street":"Carretera Santa María","PostalCode":"48004","AdditionalData":[{"value":"España","key":"CountryName"},{"value":"País Vasco","key":"StateName"},{"value":"Vizcaya","key":"CountyName"}]},"MapReference":{"ReferenceId":"537199411","Spot":1.0,"SideOfStreet":"right","CountryId":"20215059","StateId":"20226804","CountyId":"20226807","CityId":"20286631"}}},{"Relevance":1.0,"Distance":53.6,"MatchLevel":"street","MatchQuality":{"Country":1.0,"State":1.0,"County":1.0,"City":1.0,"PostalCode":1.0},"Location":{"LocationId":"NT_L1AHY53LPBPDXcKWOeIK2A_l_1199546383_L","LocationType":"point","DisplayPosition":{"Latitude":43.2629402,"Longitude":-2.8827212},"MapView":{"TopLeft":{"Latitude":43.26298,"Longitude":-2.8834},"BottomRight":{"Latitude":43.26242,"Longitude":-2.88155}},"Address":{"Label":"48004 Bilbao (Vizcaya), España","Country":"ESP","State":"País Vasco","County":"Vizcaya","City":"Bilbao","PostalCode":"48004","AdditionalData":[{"value":"España","key":"CountryName"},{"value":"País Vasco","key":"StateName"},{"value":"Vizcaya","key":"CountyName"}]},"MapReference":{"ReferenceId":"1199546383","Spot":0.65,"SideOfStreet":"left","CountryId":"20215059","StateId":"20226804","CountyId":"20226807","CityId":"20286631"}}},{"Relevance":1.0,"Distance":71.9,"MatchLevel":"street","MatchQuality":{"Country":1.0,"State":1.0,"County":1.0,"City":1.0,"PostalCode":1.0},"Location":{"LocationId":"NT_L1AHY53LPBPDXcKWOeIK2A_l_1199556066_L","LocationType":"point","DisplayPosition":{"Latitude":43.26295,"Longitude":-2.8834},"MapView":{"TopLeft":{"Latitude":43.26335,"Longitude":-2.88654},"BottomRight":{"Latitude":43.26294,"Longitude":-2.8834}},"Address":{"Label":"48004 Bilbao (Vizcaya), España","Country":"ESP","State":"País Vasco","County":"Vizcaya","City":"Bilbao","PostalCode":"48004","AdditionalData":[{"value":"España","key":"CountryName"},{"value":"País Vasco","key":"StateName"},{"value":"Vizcaya","key":"CountyName"}]},"MapReference":{"ReferenceId":"1199556066","Spot":0.0,"SideOfStreet":"left","CountryId":"20215059","StateId":"20226804","CountyId":"20226807","CityId":"20286631"}}},{"Relevance":1.0,"Distance":88.0,"MatchLevel":"street","MatchQuality":{"Country":1.0,"State":1.0,"County":1.0,"City":1.0,"Street":[1.0],"PostalCode":1.0},"Location":{"LocationId":"NT_zT9ozKm1jqHQLapxL9NG1C_l_1200963036_L","LocationType":"point","DisplayPosition":{"Latitude":43.26246,"Longitude":-2.88173},"MapView":{"TopLeft":{"Latitude":43.26246,"Longitude":-2.88173},"BottomRight":{"Latitude":43.26234,"Longitude":-2.88165}},"Address":{"Label":"Carretera Santa María, 48004 Bilbao (Vizcaya), España","Country":"ESP","State":"País Vasco","County":"Vizcaya","City":"Bilbao","Street":"Carretera Santa María","PostalCode":"48004","AdditionalData":[{"value":"España","key":"CountryName"},{"value":"País Vasco","key":"StateName"},{"value":"Vizcaya","key":"CountyName"}]},"MapReference":{"ReferenceId":"1200963036","Spot":1.0,"SideOfStreet":"left","CountryId":"20215059","StateId":"20226804","CountyId":"20226807","CityId":"20286631"}}},{"Relevance":1.0,"Distance":88.0,"MatchLevel":"street","MatchQuality":{"Country":1.0,"State":1.0,"County":1.0,"City":1.0,"PostalCode":1.0},"Location":{"LocationId":"NT_L1AHY53LPBPDXcKWOeIK2A_l_1199546382_L","LocationType":"point","DisplayPosition":{"Latitude":43.26246,"Longitude":-2.88173},"MapView":{"TopLeft":{"Latitude":43.26246,"Longitude":-2.88173},"BottomRight":{"Latitude":43.26242,"Longitude":-2.88155}},"Address":{"Label":"48004 Bilbao (Vizcaya), España","Country":"ESP","State":"País Vasco","County":"Vizcaya","City":"Bilbao","PostalCode":"48004","AdditionalData":[{"value":"España","key":"CountryName"},{"value":"País Vasco","key":"StateName"},{"value":"Vizcaya","key":"CountyName"}]},"MapReference":{"ReferenceId":"1199546382","Spot":1.0,"SideOfStreet":"left","CountryId":"20215059","StateId":"20226804","CountyId":"20226807","CityId":"20286631"}}},{"Relevance":1.0,"Distance":95.5,"MatchLevel":"street","MatchQuality":{"Country":1.0,"State":1.0,"County":1.0,"City":1.0,"Street":[1.0],"PostalCode":1.0},"Location":{"LocationId":"NT_zT9ozKm1jqHQLapxL9NG1C_l_1200963035_L","LocationType":"point","DisplayPosition":{"Latitude":43.26234,"Longitude":-2.88165},"MapView":{"TopLeft":{"Latitude":43.26234,"Longitude":-2.88165},"BottomRight":{"Latitude":43.2622,"Longitude":-2.88163}},"Address":{"Label":"Carretera Santa María, 48004 Bilbao (Vizcaya), España","Country":"ESP","State":"País Vasco","County":"Vizcaya","City":"Bilbao","Street":"Carretera Santa María","PostalCode":"48004","AdditionalData":[{"value":"España","key":"CountryName"},{"value":"País Vasco","key":"StateName"},{"value":"Vizcaya","key":"CountyName"}]},"MapReference":{"ReferenceId":"1200963035","Spot":1.0,"SideOfStreet":"left","CountryId":"20215059","StateId":"20226804","CountyId":"20226807","CityId":"20286631"}}},{"Relevance":1.0,"Distance":95.5,"MatchLevel":"street","MatchQuality":{"Country":1.0,"State":1.0,"County":1.0,"City":1.0,"PostalCode":1.0},"Location":{"LocationId":"NT_L1AHY53LPBPDXcKWOeIK2A_l_1200926925_L","LocationType":"point","DisplayPosition":{"Latitude":43.26234,"Longitude":-2.88165},"MapView":{"TopLeft":{"Latitude":43.26234,"Longitude":-2.88165},"BottomRight":{"Latitude":43.26203,"Longitude":-2.88135}},"Address":{"Label":"48004 Bilbao (Vizcaya), España","Country":"ESP","State":"País Vasco","County":"Vizcaya","City":"Bilbao","PostalCode":"48004","AdditionalData":[{"value":"España","key":"CountryName"},{"value":"País Vasco","key":"StateName"},{"value":"Vizcaya","key":"CountyName"}]},"MapReference":{"ReferenceId":"1200926925","Spot":1.0,"SideOfStreet":"left","CountryId":"20215059","StateId":"20226804","CountyId":"20226807","CityId":"20286631"}}}]}]}}