{"Response":{"MetaInfo":{"Timestamp":"2020-03-28T09:42:05.388+0000","NextPageInformation":"2"},"View":[{"_type":"SearchResultsViewType","ViewId":0,"Result":[{"Relevance":1.0,"Distance":0.0,"Direction":0.0,"MatchLevel":"city","MatchQuality":{"Country":1.0,"State":1.0,"County":1.0,"City":1.0,"PostalCode":1.0},"Location":{"LocationId":"NT_MkwpSaqZn.FQse37J6suZB","LocationType":"point","DisplayPosition":{"Latitude":43.3465333,"Longitude":-4.0487936},"MapView":{"TopLeft":{"Latitude":43.38207,"Longitude":-4.08179},"BottomRight":{"Latitude":43.30011,"Longitude":-4.00224}},"Address":{"Label":"Torrelavega, Cantabria, España","Country":"ESP","State":"Cantabria","County":"Cantabria","City":"Torrelavega","PostalCode":"39300","AdditionalData":[{"value":"España","key":"CountryName"},{"value":"Cantabria","key":"StateName"},{"value":"Cantabria","key":"CountyName"}]},"MapReference":{"ReferenceId":"571937739","SideOfStreet":"neither","CountryId":"20215059","StateId":"20221901","CountyId":"20221902","CityId":"20282353"}}},{"Relevance":1.0,"Distance":15.1,"MatchLevel":"houseNumber","MatchQuality":{"Country":1.0,"State":1.0,"County":1.0,"City":1.0,"Street":[1.0],"HouseNumber":1.0,"PostalCode":1.0},"MatchType":"interpolated","Location":{"LocationId":"NT_60Xcj.rlKX.R7P1jPIN3kA_xED","LocationType":"point","DisplayPosition":{"Latitude":43.34661,"Longitude":-4.04864},"MapView":{"TopLeft":{"Latitude":43.3477342,"Longitude":-4.0501858},"BottomRight":{"Latitude":43.3454858,"Longitude":-4.0470942}},"Address":{"Label":"Calle Coro Ronda Garcilaso, 11, 39300 Torrelavega (Cantabria), España","Country":"ESP","State":"Cantabria","County":"Cantabria","City":"Torrelavega","Street":"Calle Coro Ronda Garcilaso","HouseNumber":"11","PostalCode":"39300","AdditionalData":[{"value":"España","key":"CountryName"},{"value":"Cantabria","key":"StateName"},{"value":"Cantabria","key":"CountyName"}]},"MapReference":{"ReferenceId":"571934012","Spot":0.54,"SideOfStreet":"right","CountryId":"20215059","StateId":"20221901","CountyId":"20221902","CityId":"20282353","AddressId":"348106535","RoadLinkId":"68584647"}}},{"Relevance":1.0,"Distance":22.5,"MatchLevel":"houseNumber","MatchQuality":{"Country":1.0,"State":1.0,"County":1.0,"City":1.0,"Street":[1.0],"HouseNumber":1.0,"PostalCode":1.0},"MatchType":"interpolated","Location":{"LocationId":"NT_DctHfR9cy3SjZcajFKIMbA_4A","LocationType":"point","DisplayPosition":{"Latitude":43.34628,"Longitude":-4.04898},"MapView":{"TopLeft":{"Latitude":43.3474042,"Longitude":-4.0505258},"BottomRight":{"Latitude":43.3451558,"Longitude":-4.0474342}},"Address":{"Label":"Calle Marqués de Santillana, 8, 39300 Torrelavega (Cantabria), España","Country":"ESP","State":"Cantabria","County":"Cantabria","City":"Torrelavega","Street":"Calle Marqués de Santillana","HouseNumber":"8","PostalCode":"39300","AdditionalData":[{"value":"España","key":"CountryName"},{"value":"Cantabria","key":"StateName"},{"value":"Cantabria","key":"CountyName"}]},"MapReference":{"ReferenceId":"571934007","Spot":0.56,"SideOfStreet":"right","CountryId":"20215059","StateId":"20221901","CountyId":"20221902","CityId":"20282353","AddressId":"348126701","RoadLinkId":"69040003"}}},{"Relevance":1.0,"Distance":32.8,"MatchLevel":"houseNumber","MatchQuality":{"Country":1.0,"State":1.0,"County":1.0,"City":1.0,"Street":[1.0],"HouseNumber":1.0,"PostalCode":1.0},"MatchType":"interpolated","Location":{"LocationId":"NT_wTuAn6REznxnAbAkswbz7B_xA","LocationType":"point","DisplayPosition":{"Latitude":43.34666,"Longitude":-4.04916},"MapView":{"TopLeft":{"Latitude":43.3477842,"Longitude":-4.0507058},"BottomRight":{"Latitude":43.3455358,"Longitude":-4.0476142}},"Address":{"Label":"Travesía Coro Ronda Garcilaso, 1, 39300 Torrelavega (Cantabria), España","Country":"ESP","State":"Cantabria","County":"Cantabria","City":"Torrelavega","Street":"Travesía Coro Ronda Garcilaso","HouseNumber":"1","PostalCode":"39300","AdditionalData":[{"value":"España","key":"CountryName"},{"value":"Cantabria","key":"StateName"},{"value":"Cantabria","key":"CountyName"}]},"MapReference":{"ReferenceId":"571937753","Spot":0.56,"SideOfStreet":"left","CountryId":"20215059","StateId":"20221901","CountyId":"20221902","CityId":"20282353","AddressId":"782163439","RoadLinkId":"68112731"}}},{"Relevance":1.0,"Distance":35.8,"MatchLevel":"street","MatchQuality":{"Country":1.0,"State":1.0,"County":1.0,"City":1.0,"Street":[1.0],"PostalCode":1.0},"Location":{"LocationId":"NT_60Xcj.rlKX.R7P1jPIN3kA_l_571937754_L","LocationType":"point","DisplayPosition":{"Latitude":43.34681,"Longitude":-4.04902},"MapView":{"TopLeft":{"Latitude":43.3469,"Longitude":-4.04915},"BottomRight":{"Latitude":43.34681,"Longitude":-4.04902}},"Address":{"Label":"Calle Coro Ronda Garcilaso, 39300 Torrelavega (Cantabria), España","Country":"ESP","State":"Cantabria","County":"Cantabria","City":"Torrelavega","Street":"Calle Coro Ronda Garcilaso","PostalCode":"39300","AdditionalData":[{"value":"España","key":"CountryName"},{"value":"Cantabria","key":"StateName"},{"value":"Cantabria","key":"CountyName"}]},"MapReference":{"ReferenceId":"571937754","Spot":0.0,"SideOfStreet":"left","CountryId":"20215059","StateId":"20221901","CountyId":"20221902","CityId":"20282353"}}},{"Relevance":1.0,"Distance":37.2,"MatchLevel":"houseNumber","MatchQuality":{"Country":1.0,"State":1.0,"County":1.0,"City":1.0,"Street":[1.0],"HouseNumber":1.0,"PostalCode":1.0},"MatchType":"interpolated","Location":{"LocationId":"NT_wNZgvOaKCbj2pqQKOunIuA_l_571933995_L_4A","LocationType":"point","DisplayPosition":{"Latitude":43.3462107,"Longitude":-4.0483338},"MapView":{"TopLeft":{"Latitude":43.3473348,"Longitude":-4.0498796},"BottomRight":{"Latitude":43.3450865,"Longitude":-4.046788}},"Address":{"Label":"Avenida Constitución, 8, 39300 Torrelavega (Cantabria), España","Country":"ESP","State":"Cantabria","County":"Cantabria","City":"Torrelavega","Street":"Avenida Constitución","HouseNumber":"8","PostalCode":"39300","AdditionalData":[{"value":"España","key":"CountryName"},{"value":"Cantabria","key":"StateName"},{"value":"Cantabria","key":"CountyName"}]},"MapReference":{"ReferenceId":"571933995","Spot":0.52,"SideOfStreet":"left","CountryId":"20215059","StateId":"20221901","CountyId":"20221902","CityId":"20282353"}}},{"Relevance":1.0,"Distance":44.7,"MatchLevel":"street","MatchQuality":{"Country":1.0,"State":1.0,"County":1.0,"City":1.0,"Street":[1.0],"PostalCode":1.0},"Location":{"LocationId":"NT_DctHfR9cy3SjZcajFKIMbA_l_594742034_R","LocationType":"point","DisplayPosition":{"Latitude":43.34647,"Longitude":-4.04934},"MapView":{"TopLeft":{"Latitude":43.34655,"Longitude":-4.0495},"BottomRight":{"Latitude":43.34647,"Longitude":-4.04934}},"Address":{"Label":"Calle Marqués de Santillana, 39300 Torrelavega (Cantabria), España","Country":"ESP","State":"Cantabria","County":"Cantabria","City":"Torrelavega","Street":"Calle Marqués de Santillana","PostalCode":"39300","AdditionalData":[{"value":"España","key":"CountryName"},{"value":"Cantabria","key":"StateName"},{"value":"Cantabria","key":"CountyName"}]},"MapReference":{"ReferenceId":"594742034","Spot":0.0,"SideOfStreet":"right","CountryId":"20215059","StateId":"20221901","CountyId":"20221902","CityId":"20282353"}}},{"Relevance":1.0,"Distance":49.7,"MatchLevel":"street","MatchQuality":{"Country":1.0,"State":1.0,"County":1.0,"City":1.0,"Street":[1.0],"PostalCode":1.0},"Location":{"LocationId":"NT_wTuAn6REznxnAbAkswbz7B_l_571937755_R","LocationType":"point","DisplayPosition":{"Latitude":43.3468949,"Longitude":-4.0491551},"MapView":{"TopLeft":{"Latitude":43.3469,"Longitude":-4.0495},"BottomRight":{"Latitude":43.34655,"Longitude":-4.04915}},"Address":{"Label":"Travesía Coro Ronda Garcilaso, 39300 Torrelavega (Cantabria), España","Country":"ESP","State":"Cantabria","County":"Cantabria","City":"Torrelavega","Street":"Travesía Coro Ronda Garcilaso","PostalCode":"39300","AdditionalData":[{"value":"España","key":"CountryName"},{"value":"Cantabria","key":"StateName"},{"value":"Cantabria","key":"CountyName"}]},"MapReference":{"ReferenceId":"571937755","Spot":0.99,"SideOfStreet":"right","CountryId":"20215059","StateId":"20221901","CountyId":"20221902","CityId":"20282353"}}},{"Relevance":1.0,"Distance":49.9,"MatchLevel":"street","MatchQuality":{"Country":1.0,"State":1.0,"County":1.0,"City":1.0,"Street":[1.0],"PostalCode":1.0},"Location":{"LocationId":"NT_60Xcj.rlKX.R7P1jPIN3kA_l_832879951_R","LocationType":"point","DisplayPosition":{"Latitude":43.3469,"Longitude":-4.04915},"MapView":{"TopLeft":{"Latitude":43.34698,"Longitude":-4.04916},"BottomRight":{"Latitude":43.3469,"Longitude":-4.04915}},"Address":{"Label":"Calle Coro Ronda Garcilaso, 39300 Torrelavega (Cantabria), España","Country":"ESP","State":"Cantabria","County":"Cantabria","City":"Torrelavega","Street":"Calle Coro Ronda Garcilaso","PostalCode":"39300","AdditionalData":[{"value":"España","key":"CountryName"},{"value":"Cantabria","key":"StateName"},{"value":"Cantabria","key":"CountyName"}]},"MapReference":{"ReferenceId":"832879951","Spot":0.0,"SideOfStreet":"right","CountryId":"20215059","StateId":"20221901","CountyId":"20221902","CityId":"20282353"}}},{"Relevance":1.0,"Distance":52.5,"MatchLevel":"street","MatchQuality":{"Country":1.0,"State":1.0,"County":1.0,"City":1.0,"Street":[1.0],"PostalCode":1.0},"Location":{"LocationId":"NT_wNZgvOaKCbj2pqQKOunIuA_l_571937751_L","LocationType":"point","DisplayPosition":{"Latitude":43.34638,"Longitude":-4.04818},"MapView":{"TopLeft":{"Latitude":43.34638,"Longitude":-4.04818},"BottomRight":{"Latitude":43.34633,"Longitude":-4.04809}},"Address":{"Label":"Avenida Constitución, 39300 Torrelavega (Cantabria), España","Country":"ESP","State":"Cantabria","County":"Cantabria","City":"Torrelavega","Street":"Avenida Constitución","PostalCode":"39300","AdditionalData":[{"value":"España","key":"CountryName"},{"value":"Cantabria","key":"StateName"},{"value":"Cantabria","key":"CountyName"}]},"MapReference":{"ReferenceId":"571937751","Spot":1.0,"SideOfStreet":"left","CountryId":"20215059","StateId":"20221901","CountyId":"20221902","CityId":"20282353"}}}]}]}}