{"Response":{"MetaInfo":{"Timestamp":"2020-03-28T11:25:25.455+0000","NextPageInformation":"2"},"View":[{"_type":"SearchResultsViewType","ViewId":0,"Result":[{"Relevance":1.0,"Distance":0.0,"Direction":0.0,"MatchLevel":"city","MatchQuality":{"Country":1.0,"State":1.0,"County":1.0,"City":1.0,"PostalCode":1.0},"Location":{"LocationId":"NT_tBIlXz31g0xsCCvpdBImcB","LocationType":"point","DisplayPosition":{"Latitude":43.3415969,"Longitude":12.9065838},"MapView":{"TopLeft":{"Latitude":43.4308,"Longitude":12.75967},"BottomRight":{"Latitude":43.20972,"Longitude":13.06487}},"Address":{"Label":"Fabriano, Marche, Italia","Country":"ITA","State":"Marche","County":"AN","City":"Fabriano","PostalCode":"60044","AdditionalData":[{"value":"Italia","key":"CountryName"},{"value":"Marche","key":"StateName"},{"value":"Ancona","key":"CountyName"}]},"MapReference":{"ReferenceId":"75776763","SideOfStreet":"neither","CountryId":"20110484","StateId":"20126185","CountyId":"20209046","CityId":"20209096"}}},{"Relevance":1.0,"Distance":4.5,"MatchLevel":"street","MatchQuality":{"Country":1.0,"State":1.0,"County":1.0,"City":1.0,"PostalCode":1.0},"Location":{"LocationId":"NT_dT.EAWE5QfjQ8A6DHkFbWC_l_1111525370_R","LocationType":"point","DisplayPosition":{"Latitude":43.3415574,"Longitude":12.9065747},"MapView":{"TopLeft":{"Latitude":43.3416,"Longitude":12.90627},"BottomRight":{"Latitude":43.34142,"Longitude":12.90687}},"Address":{"Label":"60044 Fabriano AN, Italia","Country":"ITA","State":"Marche","County":"AN","City":"Fabriano","PostalCode":"60044","AdditionalData":[{"value":"Italia","key":"CountryName"},{"value":"Marche","key":"StateName"},{"value":"Ancona","key":"CountyName"}]},"MapReference":{"ReferenceId":"1111525370","Spot":0.52,"SideOfStreet":"right","CountryId":"20110484","StateId":"20126185","CountyId":"20209046","CityId":"20209096"}}},{"Relevance":1.0,"Distance":15.3,"MatchLevel":"houseNumber","MatchQuality":{"Country":1.0,"State":1.0,"County":1.0,"City":1.0,"Street":[1.0],"HouseNumber":1.0,"PostalCode":1.0},"MatchType":"interpolated","Location":{"LocationId":"NT_skVMX4S997cfoZPCTOyYEA_xUzQ","LocationType":"point","DisplayPosition":{"Latitude":43.3417,"Longitude":12.90671},"MapView":{"TopLeft":{"Latitude":43.3428242,"Longitude":12.9051643},"BottomRight":{"Latitude":43.3405758,"Longitude":12.9082557}},"Address":{"Label":"Via del Molino, 15C, 60044 Fabriano AN, Italia","Country":"ITA","State":"Marche","County":"AN","City":"Fabriano","Street":"Via del Molino","HouseNumber":"15C","PostalCode":"60044","AdditionalData":[{"value":"Italia","key":"CountryName"},{"value":"Marche","key":"StateName"},{"value":"Ancona","key":"CountyName"}]},"MapReference":{"ReferenceId":"1111522726","Spot":0.94,"SideOfStreet":"right","CountryId":"20110484","StateId":"20126185","CountyId":"20209046","CityId":"20209096","AddressId":"717220716","RoadLinkId":"421711208"}}},{"Relevance":1.0,"Distance":16.2,"MatchLevel":"street","MatchQuality":{"Country":1.0,"State":1.0,"County":1.0,"City":1.0,"PostalCode":1.0},"Location":{"LocationId":"NT_dT.EAWE5QfjQ8A6DHkFbWC_l_1112148194_R","LocationType":"point","DisplayPosition":{"Latitude":43.3417401,"Longitude":12.9066196},"MapView":{"TopLeft":{"Latitude":43.34184,"Longitude":12.90453},"BottomRight":{"Latitude":43.34089,"Longitude":12.9067}},"Address":{"Label":"60044 Fabriano AN, Italia","Country":"ITA","State":"Marche","County":"AN","City":"Fabriano","PostalCode":"60044","AdditionalData":[{"value":"Italia","key":"CountryName"},{"value":"Marche","key":"StateName"},{"value":"Ancona","key":"CountyName"}]},"MapReference":{"ReferenceId":"1112148194","Spot":0.97,"SideOfStreet":"right","CountryId":"20110484","StateId":"20126185","CountyId":"20209046","CityId":"20209096"}}},{"Relevance":1.0,"Distance":20.1,"MatchLevel":"houseNumber","MatchQuality":{"Country":1.0,"State":1.0,"County":1.0,"City":1.0,"Street":[1.0],"HouseNumber":1.0,"PostalCode":1.0},"MatchType":"interpolated","Location":{"LocationId":"NT_skVMX4S997cfoZPCTOyYEA_2QjQ","LocationType":"point","DisplayPosition":{"Latitude":43.34176,"Longitude":12.90669},"MapView":{"TopLeft":{"Latitude":43.3428842,"Longitude":12.9051443},"BottomRight":{"Latitude":43.3406358,"Longitude":12.9082357}},"Address":{"Label":"Via del Molino, 64B, 60044 Fabriano AN, Italia","Country":"ITA","State":"Marche","County":"AN","City":"Fabriano","Street":"Via del Molino","HouseNumber":"64B","PostalCode":"60044","AdditionalData":[{"value":"Italia","key":"CountryName"},{"value":"Marche","key":"StateName"},{"value":"Ancona","key":"CountyName"}]},"MapReference":{"ReferenceId":"1111522727","Spot":0.05,"SideOfStreet":"right","CountryId":"20110484","StateId":"20126185","CountyId":"20209046","CityId":"20209096","AddressId":"710016882","RoadLinkId":"421711209"}}},{"Relevance":1.0,"Distance":22.7,"MatchLevel":"street","MatchQuality":{"Country":1.0,"State":1.0,"County":1.0,"City":1.0,"PostalCode":1.0},"Location":{"LocationId":"NT_dT.EAWE5QfjQ8A6DHkFbWC_l_1111794349_R","LocationType":"point","DisplayPosition":{"Latitude":43.34141,"Longitude":12.90647},"MapView":{"TopLeft":{"Latitude":43.34142,"Longitude":12.90635},"BottomRight":{"Latitude":43.34129,"Longitude":12.90657}},"Address":{"Label":"60044 Fabriano AN, Italia","Country":"ITA","State":"Marche","County":"AN","City":"Fabriano","PostalCode":"60044","AdditionalData":[{"value":"Italia","key":"CountryName"},{"value":"Marche","key":"StateName"},{"value":"Ancona","key":"CountyName"}]},"MapReference":{"ReferenceId":"1111794349","Spot":0.56,"SideOfStreet":"right","CountryId":"20110484","StateId":"20126185","CountyId":"20209046","CityId":"20209096"}}},{"Relevance":1.0,"Distance":25.4,"MatchLevel":"street","MatchQuality":{"Country":1.0,"State":1.0,"County":1.0,"City":1.0,"PostalCode":1.0},"Location":{"LocationId":"NT_dT.EAWE5QfjQ8A6DHkFbWC_l_1111524961_R","LocationType":"point","DisplayPosition":{"Latitude":43.3415969,"Longitude":12.90627},"MapView":{"TopLeft":{"Latitude":43.3416,"Longitude":12.90591},"BottomRight":{"Latitude":43.34142,"Longitude":12.90627}},"Address":{"Label":"60044 Fabriano AN, Italia","Country":"ITA","State":"Marche","County":"AN","City":"Fabriano","PostalCode":"60044","AdditionalData":[{"value":"Italia","key":"CountryName"},{"value":"Marche","key":"StateName"},{"value":"Ancona","key":"CountyName"}]},"MapReference":{"ReferenceId":"1111524961","Spot":0.99,"SideOfStreet":"right","CountryId":"20110484","StateId":"20126185","CountyId":"20209046","CityId":"20209096"}}},{"Relevance":1.0,"Distance":25.4,"MatchLevel":"street","MatchQuality":{"Country":1.0,"State":1.0,"County":1.0,"City":1.0,"PostalCode":1.0},"Location":{"LocationId":"NT_dT.EAWE5QfjQ8A6DHkFbWC_l_1111525136_L","LocationType":"point","DisplayPosition":{"Latitude":43.3416,"Longitude":12.90627},"MapView":{"TopLeft":{"Latitude":43.34162,"Longitude":12.90559},"BottomRight":{"Latitude":43.34133,"Longitude":12.90627}},"Address":{"Label":"60044 Fabriano AN, Italia","Country":"ITA","State":"Marche","County":"AN","City":"Fabriano","PostalCode":"60044","AdditionalData":[{"value":"Italia","key":"CountryName"},{"value":"Marche","key":"StateName"},{"value":"Ancona","key":"CountyName"}]},"MapReference":{"ReferenceId":"1111525136","Spot":1.0,"SideOfStreet":"left","CountryId":"20110484","StateId":"20126185","CountyId":"20209046","CityId":"20209096"}}},{"Relevance":1.0,"Distance":28.1,"MatchLevel":"street","MatchQuality":{"Country":1.0,"State":1.0,"County":1.0,"City":1.0,"PostalCode":1.0},"Location":{"LocationId":"NT_dT.EAWE5QfjQ8A6DHkFbWC_l_1111525614_R","LocationType":"point","DisplayPosition":{"Latitude":43.34141,"Longitude":12.90635},"MapView":{"TopLeft":{"Latitude":43.34141,"Longitude":12.90632},"BottomRight":{"Latitude":43.34101,"Longitude":12.90675}},"Address":{"Label":"60044 Fabriano AN, Italia","Country":"ITA","State":"Marche","County":"AN","City":"Fabriano","PostalCode":"60044","AdditionalData":[{"value":"Italia","key":"CountryName"},{"value":"Marche","key":"StateName"},{"value":"Ancona","key":"CountyName"}]},"MapReference":{"ReferenceId":"1111525614","Spot":1.0,"SideOfStreet":"right","CountryId":"20110484","StateId":"20126185","CountyId":"20209046","CityId":"20209096"}}},{"Relevance":1.0,"Distance":28.1,"MatchLevel":"street","MatchQuality":{"Country":1.0,"State":1.0,"County":1.0,"City":1.0,"PostalCode":1.0},"Location":{"LocationId":"NT_dT.EAWE5QfjQ8A6DHkFbWC_l_1111525128_R","LocationType":"point","DisplayPosition":{"Latitude":43.34141,"Longitude":12.90635},"MapView":{"TopLeft":{"Latitude":43.34142,"Longitude":12.90591},"BottomRight":{"Latitude":43.3413,"Longitude":12.90635}},"Address":{"Label":"60044 Fabriano AN, Italia","Country":"ITA","State":"Marche","County":"AN","City":"Fabriano","PostalCode":"60044","AdditionalData":[{"value":"Italia","key":"CountryName"},{"value":"Marche","key":"StateName"},{"value":"Ancona","key":"CountyName"}]},"MapReference":{"ReferenceId":"1111525128","Spot":0.0,"SideOfStreet":"right","CountryId":"20110484","StateId":"20126185","CountyId":"20209046","CityId":"20209096"}}}]}]}}