{"Response":{"MetaInfo":{"Timestamp":"2020-03-28T10:28:45.279+0000","NextPageInformation":"2"},"View":[{"_type":"SearchResultsViewType","ViewId":0,"Result":[{"Relevance":1.0,"Distance":-79.6,"MatchLevel":"landmark","MatchQuality":{"Country":1.0,"State":1.0,"County":1.0,"City":1.0,"District":1.0,"Street":[1.0],"PostalCode":1.0,"Name":1.0},"Location":{"LocationId":"NT_cE65fKVd6DgcpMwLA5Vt6B_p_dSIFzvDVX8y52IKOj8ivlD","LocationType":"universityCollege","Name":"Faculté de Saint-Jérome","DisplayPosition":{"Latitude":43.33696,"Longitude":5.41052},"MapView":{"TopLeft":{"Latitude":43.34128,"Longitude":5.4097},"BottomRight":{"Latitude":43.33434,"Longitude":5.41492}},"Address":{"Label":"Université Saint-Jérôme, 13013 Marseille, France","Country":"FRA","State":"Provence-Alpes-Côte d'Azur","County":"Bouches-du-Rhône","City":"Marseille","District":"13e Arrondissement","Street":"Université Saint-Jérôme","PostalCode":"13013","AdditionalData":[{"value":"France","key":"CountryName"},{"value":"Provence-Alpes-Côte d'Azur","key":"StateName"},{"value":"Bouches-du-Rhône","key":"CountyName"}]},"MapReference":{"CountryId":"20000001","StateId":"20000193","CountyId":"20048302","CityId":"20048481","DistrictId":"20048497","PlaceId":"51387016"}}},{"Relevance":1.0,"Distance":0.0,"Direction":0.0,"MatchLevel":"district","MatchQuality":{"Country":1.0,"State":1.0,"County":1.0,"City":1.0,"District":1.0,"PostalCode":1.0},"Location":{"LocationId":"NT_aFkoOMvfq9.9MF.vcFY7LA","LocationType":"point","DisplayPosition":{"Latitude":43.3402609,"Longitude":5.4110411},"MapView":{"TopLeft":{"Latitude":43.34114,"Longitude":5.40611},"BottomRight":{"Latitude":43.32789,"Longitude":5.42507}},"Address":{"Label":"Saint-Jérôme, Marseille, Provence-Alpes-Côte d'Azur, France","Country":"FRA","State":"Provence-Alpes-Côte d'Azur","County":"Bouches-du-Rhône","City":"Marseille","District":"Saint-Jérôme","PostalCode":"13013","AdditionalData":[{"value":"France","key":"CountryName"},{"value":"Provence-Alpes-Côte d'Azur","key":"StateName"},{"value":"Bouches-du-Rhône","key":"CountyName"}]},"MapReference":{"ReferenceId":"832598303","SideOfStreet":"neither","CountryId":"20000001","StateId":"20000193","CountyId":"20048302","CityId":"20048481"}}},{"Relevance":1.0,"Distance":41.4,"MatchLevel":"street","MatchQuality":{"Country":1.0,"State":1.0,"County":1.0,"City":1.0,"District":1.0,"PostalCode":1.0},"Location":{"LocationId":"NT_RmIHKD.or5kaRqTb86sfNC_l_1038381930_L","LocationType":"point","DisplayPosition":{"Latitude":43.33997,"Longitude":5.41136},"MapView":{"TopLeft":{"Latitude":43.33997,"Longitude":5.41136},"BottomRight":{"Latitude":43.33917,"Longitude":5.4114}},"Address":{"Label":"13013 Marseille, France","Country":"FRA","State":"Provence-Alpes-Côte d'Azur","County":"Bouches-du-Rhône","City":"Marseille","District":"13e Arrondissement","PostalCode":"13013","AdditionalData":[{"value":"France","key":"CountryName"},{"value":"Provence-Alpes-Côte d'Azur","key":"StateName"},{"value":"Bouches-du-Rhône","key":"CountyName"}]},"MapReference":{"ReferenceId":"1038381930","Spot":1.0,"SideOfStreet":"left","CountryId":"20000001","StateId":"20000193","CountyId":"20048302","CityId":"20048481","DistrictId":"20048497"}}},{"Relevance":1.0,"Distance":79.4,"MatchLevel":"houseNumber","MatchQuality":{"Country":1.0,"State":1.0,"County":1.0,"City":1.0,"District":1.0,"Street":[1.0],"HouseNumber":1.0,"PostalCode":1.0},"MatchType":"interpolated","Location":{"LocationId":"NT_stSUQl1OXkyzgtYprXqVtA_l_546164629_R_xQjM","LocationType":"point","DisplayPosition":{"Latitude":43.3407894,"Longitude":5.4117013},"MapView":{"TopLeft":{"Latitude":43.3419136,"Longitude":5.4101556},"BottomRight":{"Latitude":43.3396653,"Longitude":5.413247}},"Address":{"Label":"142 Traverse Charles Susini, 13013 Marseille, France","Country":"FRA","State":"Provence-Alpes-Côte d'Azur","County":"Bouches-du-Rhône","City":"Marseille","District":"13e Arrondissement","Street":"Traverse Charles Susini","HouseNumber":"142","PostalCode":"13013","AdditionalData":[{"value":"France","key":"CountryName"},{"value":"Provence-Alpes-Côte d'Azur","key":"StateName"},{"value":"Bouches-du-Rhône","key":"CountyName"}]},"MapReference":{"ReferenceId":"546164629","Spot":0.5,"SideOfStreet":"right","CountryId":"20000001","StateId":"20000193","CountyId":"20048302","CityId":"20048481","DistrictId":"20048497"}}},{"Relevance":1.0,"Distance":79.7,"MatchLevel":"landmark","MatchQuality":{"Country":1.0,"State":1.0,"County":1.0,"City":1.0,"District":1.0,"Street":[1.0],"HouseNumber":1.0,"PostalCode":1.0,"Name":1.0},"Location":{"LocationId":"NT_YizDLDTRKm3u4hyGgkG2TC_p_JHAdIb8NF1dISd3lGfR.TD","LocationType":"universityCollege","Name":"I.U.T. Saint-Jérôme","DisplayPosition":{"Latitude":43.34079,"Longitude":5.41171},"MapView":{"TopLeft":{"Latitude":43.3419142,"Longitude":5.4101643},"BottomRight":{"Latitude":43.3396658,"Longitude":5.4132557}},"Address":{"Label":"142 Traverse Charles Susini, 13013 Marseille, France","Country":"FRA","State":"Provence-Alpes-Côte d'Azur","County":"Bouches-du-Rhône","City":"Marseille","District":"13e Arrondissement","Street":"Traverse Charles Susini","HouseNumber":"142","PostalCode":"13013","AdditionalData":[{"value":"France","key":"CountryName"},{"value":"Provence-Alpes-Côte d'Azur","key":"StateName"},{"value":"Bouches-du-Rhône","key":"CountyName"}]},"MapReference":{"CountryId":"20000001","StateId":"20000193","CountyId":"20048302","CityId":"20048481","DistrictId":"20048497","PlaceId":"51428554"}}},{"Relevance":1.0,"Distance":80.8,"MatchLevel":"street","MatchQuality":{"Country":1.0,"State":1.0,"County":1.0,"City":1.0,"District":1.0,"Street":[1.0],"PostalCode":1.0},"Location":{"LocationId":"NT_t.MvJ247jvMt3bT4wiU9iC_l_1203185847_R","LocationType":"point","DisplayPosition":{"Latitude":43.3402413,"Longitude":5.4100417},"MapView":{"TopLeft":{"Latitude":43.34116,"Longitude":5.41002},"BottomRight":{"Latitude":43.33862,"Longitude":5.41015}},"Address":{"Label":"Avenue Escadrille Normandie-Niemen, 13014 Marseille, France","Country":"FRA","State":"Provence-Alpes-Côte d'Azur","County":"Bouches-du-Rhône","City":"Marseille","District":"14e Arrondissement","Street":"Avenue Escadrille Normandie-Niemen","PostalCode":"13014","AdditionalData":[{"value":"France","key":"CountryName"},{"value":"Provence-Alpes-Côte d'Azur","key":"StateName"},{"value":"Bouches-du-Rhône","key":"CountyName"}]},"MapReference":{"ReferenceId":"1203185847","Spot":0.63,"SideOfStreet":"right","CountryId":"20000001","StateId":"20000193","CountyId":"20048302","CityId":"20048481","DistrictId":"20048499"}}},{"Relevance":1.0,"Distance":90.4,"MatchLevel":"street","MatchQuality":{"Country":1.0,"State":1.0,"County":1.0,"City":1.0,"District":1.0,"Street":[1.0],"PostalCode":1.0},"Location":{"LocationId":"NT_t.MvJ247jvMt3bT4wiU9iC_l_1203185868_R","LocationType":"point","DisplayPosition":{"Latitude":43.3402271,"Longitude":5.4099243},"MapView":{"TopLeft":{"Latitude":43.34115,"Longitude":5.40991},"BottomRight":{"Latitude":43.33828,"Longitude":5.41002}},"Address":{"Label":"Avenue Escadrille Normandie-Niemen, 13014 Marseille, France","Country":"FRA","State":"Provence-Alpes-Côte d'Azur","County":"Bouches-du-Rhône","City":"Marseille","District":"14e Arrondissement","Street":"Avenue Escadrille Normandie-Niemen","PostalCode":"13014","AdditionalData":[{"value":"France","key":"CountryName"},{"value":"Provence-Alpes-Côte d'Azur","key":"StateName"},{"value":"Bouches-du-Rhône","key":"CountyName"}]},"MapReference":{"ReferenceId":"1203185868","Spot":0.67,"SideOfStreet":"right","CountryId":"20000001","StateId":"20000193","CountyId":"20048302","CityId":"20048481","DistrictId":"20048499"}}},{"Relevance":1.0,"Distance":100.9,"MatchLevel":"street","MatchQuality":{"Country":1.0,"State":1.0,"County":1.0,"City":1.0,"District":1.0,"Street":[1.0],"PostalCode":1.0},"Location":{"LocationId":"NT_t.MvJ247jvMt3bT4wiU9iC_l_58186050_R","LocationType":"point","DisplayPosition":{"Latitude":43.3401825,"Longitude":5.4097976},"MapView":{"TopLeft":{"Latitude":43.34121,"Longitude":5.4097},"BottomRight":{"Latitude":43.33804,"Longitude":5.40991}},"Address":{"Label":"Avenue Escadrille Normandie-Niemen, 13014 Marseille, France","Country":"FRA","State":"Provence-Alpes-Côte d'Azur","County":"Bouches-du-Rhône","City":"Marseille","District":"14e Arrondissement","Street":"Avenue Escadrille Normandie-Niemen","PostalCode":"13014","AdditionalData":[{"value":"France","key":"CountryName"},{"value":"Provence-Alpes-Côte d'Azur","key":"StateName"},{"value":"Bouches-du-Rhône","key":"CountyName"}]},"MapReference":{"ReferenceId":"58186050","Spot":0.65,"SideOfStreet":"right","CountryId":"20000001","StateId":"20000193","CountyId":"20048302","CityId":"20048481","DistrictId":"20048499"}}},{"Relevance":1.0,"Distance":110.6,"MatchLevel":"houseNumber","MatchQuality":{"Country":1.0,"State":1.0,"County":1.0,"City":1.0,"District":1.0,"Street":[1.0],"HouseNumber":1.0,"PostalCode":1.0},"MatchType":"interpolated","Location":{"LocationId":"NT_IcksOT9QWrWl0OEug-g7iD_xQjN","LocationType":"point","DisplayPosition":{"Latitude":43.34121,"Longitude":5.41063},"MapView":{"TopLeft":{"Latitude":43.3423342,"Longitude":5.4090843},"BottomRight":{"Latitude":43.3400858,"Longitude":5.4121757}},"Address":{"Label":"146 Traverse Charles Susini, 13013 Marseille, France","Country":"FRA","State":"Provence-Alpes-Côte d'Azur","County":"Bouches-du-Rhône","City":"Marseille","District":"13e Arrondissement","Street":"Traverse Charles Susini","HouseNumber":"146","PostalCode":"13013","AdditionalData":[{"value":"France","key":"CountryName"},{"value":"Provence-Alpes-Côte d'Azur","key":"StateName"},{"value":"Bouches-du-Rhône","key":"CountyName"}]},"MapReference":{"ReferenceId":"546129418","Spot":0.44,"SideOfStreet":"right","CountryId":"20000001","StateId":"20000193","CountyId":"20048302","CityId":"20048481","DistrictId":"20048497","AddressId":"573436314","RoadLinkId":"45241936"}}},{"Relevance":1.0,"Distance":123.2,"MatchLevel":"street","MatchQuality":{"Country":1.0,"State":1.0,"County":1.0,"City":1.0,"District":1.0,"PostalCode":1.0},"Location":{"LocationId":"NT_gmdJ0xwU6DMMquYQxtLsqB_l_1203185866_R","LocationType":"point","DisplayPosition":{"Latitude":43.34116,"Longitude":5.41015},"MapView":{"TopLeft":{"Latitude":43.34116,"Longitude":5.41002},"BottomRight":{"Latitude":43.34115,"Longitude":5.41015}},"Address":{"Label":"13014 Marseille, France","Country":"FRA","State":"Provence-Alpes-Côte d'Azur","County":"Bouches-du-Rhône","City":"Marseille","District":"14e Arrondissement","PostalCode":"13014","AdditionalData":[{"value":"France","key":"CountryName"},{"value":"Provence-Alpes-Côte d'Azur","key":"StateName"},{"value":"Bouches-du-Rhône","key":"CountyName"}]},"MapReference":{"ReferenceId":"1203185866","Spot":1.0,"SideOfStreet":"right","CountryId":"20000001","StateId":"20000193","CountyId":"20048302","CityId":"20048481","DistrictId":"20048499"}}}]}]}}