{"Response":{"MetaInfo":{"Timestamp":"2020-03-28T11:10:05.104+0000","NextPageInformation":"2"},"View":[{"_type":"SearchResultsViewType","ViewId":0,"Result":[{"Relevance":1.0,"Distance":-38.0,"MatchLevel":"landmark","MatchQuality":{"Country":1.0,"State":1.0,"County":1.0,"City":1.0,"PostalCode":1.0,"Name":1.0},"Location":{"LocationId":"NT_lVfRlX-mLsBPOJcnNYvOjA_p_2VRuWDfdH0AhAcabv6FtID","LocationType":"hospital","Name":"CH de Saint-Palais","DisplayPosition":{"Latitude":43.32605,"Longitude":-1.02647},"MapView":{"TopLeft":{"Latitude":43.32668,"Longitude":-1.02876},"BottomRight":{"Latitude":43.32577,"Longitude":-1.02503}},"Address":{"Label":"64120 Saint-Palais, France","Country":"FRA","State":"Nouvelle-Aquitaine","County":"Pyrénées-Atlantiques","City":"Saint-Palais","PostalCode":"64120","AdditionalData":[{"value":"France","key":"CountryName"},{"value":"Nouvelle-Aquitaine","key":"StateName"},{"value":"Pyrénées-Atlantiques","key":"CountyName"}]},"MapReference":{"CountryId":"20000001","StateId":"20000383","CountyId":"20104588","CityId":"20106014","PlaceId":"1069775191"}}},{"Relevance":1.0,"Distance":0.0,"Direction":0.0,"MatchLevel":"city","MatchQuality":{"Country":1.0,"State":1.0,"County":1.0,"City":1.0,"PostalCode":1.0},"Location":{"LocationId":"NT_I4FzfVrAzvxhc4RwCoD3cB","LocationType":"point","DisplayPosition":{"Latitude":43.3263326,"Longitude":-1.0266192},"MapView":{"TopLeft":{"Latitude":43.33493,"Longitude":-1.06376},"BottomRight":{"Latitude":43.29933,"Longitude":-1.01695}},"Address":{"Label":"Saint-Palais, Nouvelle-Aquitaine, France","Country":"FRA","State":"Nouvelle-Aquitaine","County":"Pyrénées-Atlantiques","City":"Saint-Palais","PostalCode":"64120","AdditionalData":[{"value":"France","key":"CountryName"},{"value":"Nouvelle-Aquitaine","key":"StateName"},{"value":"Pyrénées-Atlantiques","key":"CountyName"}]},"MapReference":{"ReferenceId":"799395942","SideOfStreet":"neither","CountryId":"20000001","StateId":"20000383","CountyId":"20104588","CityId":"20106014"}}},{"Relevance":1.0,"Distance":23.2,"MatchLevel":"street","MatchQuality":{"Country":1.0,"State":1.0,"County":1.0,"City":1.0,"PostalCode":1.0},"Location":{"LocationId":"NT_sVQvFA36ayLWKOhnQbvQVC_l_862588013_R","LocationType":"point","DisplayPosition":{"Latitude":43.32619,"Longitude":-1.02641},"MapView":{"TopLeft":{"Latitude":43.32619,"Longitude":-1.02641},"BottomRight":{"Latitude":43.32618,"Longitude":-1.02564}},"Address":{"Label":"64120 Saint-Palais, France","Country":"FRA","State":"Nouvelle-Aquitaine","County":"Pyrénées-Atlantiques","City":"Saint-Palais","PostalCode":"64120","AdditionalData":[{"value":"France","key":"CountryName"},{"value":"Nouvelle-Aquitaine","key":"StateName"},{"value":"Pyrénées-Atlantiques","key":"CountyName"}]},"MapReference":{"ReferenceId":"862588013","Spot":1.0,"SideOfStreet":"right","CountryId":"20000001","StateId":"20000383","CountyId":"20104588","CityId":"20106014"}}},{"Relevance":1.0,"Distance":24.3,"MatchLevel":"street","MatchQuality":{"Country":1.0,"State":1.0,"County":1.0,"City":1.0,"PostalCode":1.0},"Location":{"LocationId":"NT_sVQvFA36ayLWKOhnQbvQVC_l_862588011_L","LocationType":"point","DisplayPosition":{"Latitude":43.326147,"Longitude":-1.0264601},"MapView":{"TopLeft":{"Latitude":43.32619,"Longitude":-1.02648},"BottomRight":{"Latitude":43.32599,"Longitude":-1.02641}},"Address":{"Label":"64120 Saint-Palais, France","Country":"FRA","State":"Nouvelle-Aquitaine","County":"Pyrénées-Atlantiques","City":"Saint-Palais","PostalCode":"64120","AdditionalData":[{"value":"France","key":"CountryName"},{"value":"Nouvelle-Aquitaine","key":"StateName"},{"value":"Pyrénées-Atlantiques","key":"CountyName"}]},"MapReference":{"ReferenceId":"862588011","Spot":0.74,"SideOfStreet":"left","CountryId":"20000001","StateId":"20000383","CountyId":"20104588","CityId":"20106014"}}},{"Relevance":1.0,"Distance":41.4,"MatchLevel":"street","MatchQuality":{"Country":1.0,"State":1.0,"County":1.0,"City":1.0,"PostalCode":1.0},"Location":{"LocationId":"NT_sVQvFA36ayLWKOhnQbvQVC_l_862588012_L","LocationType":"point","DisplayPosition":{"Latitude":43.32599,"Longitude":-1.02642},"MapView":{"TopLeft":{"Latitude":43.32618,"Longitude":-1.02642},"BottomRight":{"Latitude":43.32599,"Longitude":-1.02564}},"Address":{"Label":"64120 Saint-Palais, France","Country":"FRA","State":"Nouvelle-Aquitaine","County":"Pyrénées-Atlantiques","City":"Saint-Palais","PostalCode":"64120","AdditionalData":[{"value":"France","key":"CountryName"},{"value":"Nouvelle-Aquitaine","key":"StateName"},{"value":"Pyrénées-Atlantiques","key":"CountyName"}]},"MapReference":{"ReferenceId":"862588012","Spot":0.0,"SideOfStreet":"left","CountryId":"20000001","StateId":"20000383","CountyId":"20104588","CityId":"20106014"}}},{"Relevance":1.0,"Distance":62.1,"MatchLevel":"street","MatchQuality":{"Country":1.0,"State":1.0,"County":1.0,"City":1.0,"Street":[1.0],"PostalCode":1.0},"Location":{"LocationId":"NT_auhDoeHZLdIZVnSElXsscD_l_1055981854_L","LocationType":"point","DisplayPosition":{"Latitude":43.32581,"Longitude":-1.02635},"MapView":{"TopLeft":{"Latitude":43.32583,"Longitude":-1.02635},"BottomRight":{"Latitude":43.32581,"Longitude":-1.02609}},"Address":{"Label":"D933, 64120 Saint-Palais, France","Country":"FRA","State":"Nouvelle-Aquitaine","County":"Pyrénées-Atlantiques","City":"Saint-Palais","Street":"D933","PostalCode":"64120","AdditionalData":[{"value":"France","key":"CountryName"},{"value":"Nouvelle-Aquitaine","key":"StateName"},{"value":"Pyrénées-Atlantiques","key":"CountyName"}]},"MapReference":{"ReferenceId":"1055981854","Spot":0.0,"SideOfStreet":"left","CountryId":"20000001","StateId":"20000383","CountyId":"20104588","CityId":"20106014"}}},{"Relevance":1.0,"Distance":70.4,"MatchLevel":"street","MatchQuality":{"Country":1.0,"State":1.0,"County":1.0,"City":1.0,"Street":[1.0],"PostalCode":1.0},"Location":{"LocationId":"NT_auhDoeHZLdIZVnSElXsscD_l_1055981855_L","LocationType":"point","DisplayPosition":{"Latitude":43.32583,"Longitude":-1.02609},"MapView":{"TopLeft":{"Latitude":43.32591,"Longitude":-1.02609},"BottomRight":{"Latitude":43.32583,"Longitude":-1.02541}},"Address":{"Label":"D933, 64120 Saint-Palais, France","Country":"FRA","State":"Nouvelle-Aquitaine","County":"Pyrénées-Atlantiques","City":"Saint-Palais","Street":"D933","PostalCode":"64120","AdditionalData":[{"value":"France","key":"CountryName"},{"value":"Nouvelle-Aquitaine","key":"StateName"},{"value":"Pyrénées-Atlantiques","key":"CountyName"}]},"MapReference":{"ReferenceId":"1055981855","Spot":0.0,"SideOfStreet":"left","CountryId":"20000001","StateId":"20000383","CountyId":"20104588","CityId":"20106014"}}},{"Relevance":1.0,"Distance":75.4,"MatchLevel":"street","MatchQuality":{"Country":1.0,"State":1.0,"County":1.0,"City":1.0,"PostalCode":1.0},"Location":{"LocationId":"NT_sVQvFA36ayLWKOhnQbvQVC_l_579561215_R","LocationType":"point","DisplayPosition":{"Latitude":43.32619,"Longitude":-1.02753},"MapView":{"TopLeft":{"Latitude":43.32619,"Longitude":-1.02841},"BottomRight":{"Latitude":43.32584,"Longitude":-1.02753}},"Address":{"Label":"64120 Saint-Palais, France","Country":"FRA","State":"Nouvelle-Aquitaine","County":"Pyrénées-Atlantiques","City":"Saint-Palais","PostalCode":"64120","AdditionalData":[{"value":"France","key":"CountryName"},{"value":"Nouvelle-Aquitaine","key":"StateName"},{"value":"Pyrénées-Atlantiques","key":"CountyName"}]},"MapReference":{"ReferenceId":"579561215","Spot":1.0,"SideOfStreet":"right","CountryId":"20000001","StateId":"20000383","CountyId":"20104588","CityId":"20106014"}}},{"Relevance":1.0,"Distance":81.0,"MatchLevel":"street","MatchQuality":{"Country":1.0,"State":1.0,"County":1.0,"City":1.0,"PostalCode":1.0},"Location":{"LocationId":"NT_sVQvFA36ayLWKOhnQbvQVC_l_862588014_L","LocationType":"point","DisplayPosition":{"Latitude":43.32618,"Longitude":-1.02564},"MapView":{"TopLeft":{"Latitude":43.32623,"Longitude":-1.02564},"BottomRight":{"Latitude":43.32618,"Longitude":-1.0251}},"Address":{"Label":"64120 Saint-Palais, France","Country":"FRA","State":"Nouvelle-Aquitaine","County":"Pyrénées-Atlantiques","City":"Saint-Palais","PostalCode":"64120","AdditionalData":[{"value":"France","key":"CountryName"},{"value":"Nouvelle-Aquitaine","key":"StateName"},{"value":"Pyrénées-Atlantiques","key":"CountyName"}]},"MapReference":{"ReferenceId":"862588014","Spot":0.0,"SideOfStreet":"left","CountryId":"20000001","StateId":"20000383","CountyId":"20104588","CityId":"20106014"}}},{"Relevance":1.0,"Distance":100.6,"MatchLevel":"street","MatchQuality":{"Country":1.0,"State":1.0,"County":1.0,"City":1.0,"PostalCode":1.0},"Location":{"LocationId":"NT_sVQvFA36ayLWKOhnQbvQVC_l_836369080_L","LocationType":"point","DisplayPosition":{"Latitude":43.32662,"Longitude":-1.02544},"MapView":{"TopLeft":{"Latitude":43.32669,"Longitude":-1.02544},"BottomRight":{"Latitude":43.32654,"Longitude":-1.02527}},"Address":{"Label":"64120 Saint-Palais, France","Country":"FRA","State":"Nouvelle-Aquitaine","County":"Pyrénées-Atlantiques","City":"Saint-Palais","PostalCode":"64120","AdditionalData":[{"value":"France","key":"CountryName"},{"value":"Nouvelle-Aquitaine","key":"StateName"},{"value":"Pyrénées-Atlantiques","key":"CountyName"}]},"MapReference":{"ReferenceId":"836369080","Spot":0.7,"SideOfStreet":"left","CountryId":"20000001","StateId":"20000383","CountyId":"20104588","CityId":"20106014"}}}]}]}}