{"Response":{"MetaInfo":{"Timestamp":"2020-03-28T09:41:01.775+0000","NextPageInformation":"2"},"View":[{"_type":"SearchResultsViewType","ViewId":0,"Result":[{"Relevance":1.0,"Distance":0.0,"Direction":0.0,"MatchLevel":"district","MatchQuality":{"Country":1.0,"State":1.0,"County":1.0,"City":1.0,"District":1.0,"PostalCode":1.0},"Location":{"LocationId":"NT_UiYtn4G.se444RnQmHsw6A","LocationType":"point","DisplayPosition":{"Latitude":43.3874122,"Longitude":-5.6635859},"MapView":{"TopLeft":{"Latitude":43.39651,"Longitude":-5.67658},"BottomRight":{"Latitude":43.38647,"Longitude":-5.64757}},"Address":{"Label":"Pola de Siero, Siero, Principado de Asturias, España","Country":"ESP","State":"Principado de Asturias","County":"Asturias","City":"Siero","District":"Pola de Siero","PostalCode":"33510","AdditionalData":[{"value":"España","key":"CountryName"},{"value":"Principado de Asturias","key":"StateName"},{"value":"Asturias","key":"CountyName"}]},"MapReference":{"ReferenceId":"592106668","SideOfStreet":"neither","CountryId":"20215059","StateId":"20226808","CountyId":"20226809","CityId":"20326908","DistrictId":"20326969"}}},{"Relevance":1.0,"Distance":5.8,"MatchLevel":"street","MatchQuality":{"Country":1.0,"State":1.0,"County":1.0,"City":1.0,"District":1.0,"Street":[1.0],"PostalCode":1.0},"Location":{"LocationId":"NT_QeJ.j7oDif34l3BxUH185D_l_1156945269_L","LocationType":"point","DisplayPosition":{"Latitude":43.38736,"Longitude":-5.6635859},"MapView":{"TopLeft":{"Latitude":43.38736,"Longitude":-5.66375},"BottomRight":{"Latitude":43.38736,"Longitude":-5.66324}},"Address":{"Label":"Calle Molín, 33510 Siero (Asturias), España","Country":"ESP","State":"Principado de Asturias","County":"Asturias","City":"Siero","District":"Pola de Siero","Street":"Calle Molín","PostalCode":"33510","AdditionalData":[{"value":"España","key":"CountryName"},{"value":"Principado de Asturias","key":"StateName"},{"value":"Asturias","key":"CountyName"}]},"MapReference":{"ReferenceId":"1156945269","Spot":0.32,"SideOfStreet":"left","CountryId":"20215059","StateId":"20226808","CountyId":"20226809","CityId":"20326908","DistrictId":"20326969"}}},{"Relevance":1.0,"Distance":14.5,"MatchLevel":"street","MatchQuality":{"Country":1.0,"State":1.0,"County":1.0,"City":1.0,"District":1.0,"PostalCode":1.0},"Location":{"LocationId":"NT_-eLq5g4jiMODmha2sjv6HB_l_1156945515_R","LocationType":"point","DisplayPosition":{"Latitude":43.38736,"Longitude":-5.66375},"MapView":{"TopLeft":{"Latitude":43.38748,"Longitude":-5.6638},"BottomRight":{"Latitude":43.38736,"Longitude":-5.66375}},"Address":{"Label":"33510 Siero (Asturias), España","Country":"ESP","State":"Principado de Asturias","County":"Asturias","City":"Siero","District":"Pola de Siero","PostalCode":"33510","AdditionalData":[{"value":"España","key":"CountryName"},{"value":"Principado de Asturias","key":"StateName"},{"value":"Asturias","key":"CountyName"}]},"MapReference":{"ReferenceId":"1156945515","Spot":0.0,"SideOfStreet":"right","CountryId":"20215059","StateId":"20226808","CountyId":"20226809","CityId":"20326908","DistrictId":"20326969"}}},{"Relevance":1.0,"Distance":17.4,"MatchLevel":"houseNumber","MatchQuality":{"Country":1.0,"State":1.0,"County":1.0,"City":1.0,"District":1.0,"Street":[1.0],"HouseNumber":1.0,"PostalCode":1.0},"MatchType":"interpolated","Location":{"LocationId":"NT_36PEXpOZuPzCMYQQjzf2-D_l_539399547_L_yA","LocationType":"point","DisplayPosition":{"Latitude":43.3876332,"Longitude":-5.6633687},"MapView":{"TopLeft":{"Latitude":43.3887573,"Longitude":-5.6649155},"BottomRight":{"Latitude":43.386509,"Longitude":-5.6618218}},"Address":{"Label":"Calle Maestros Martín Galache, 2, 33510 Siero (Asturias), España","Country":"ESP","State":"Principado de Asturias","County":"Asturias","City":"Siero","District":"Pola de Siero","Street":"Calle Maestros Martín Galache","HouseNumber":"2","PostalCode":"33510","AdditionalData":[{"value":"España","key":"CountryName"},{"value":"Principado de Asturias","key":"StateName"},{"value":"Asturias","key":"CountyName"}]},"MapReference":{"ReferenceId":"539399547","Spot":0.5,"SideOfStreet":"left","CountryId":"20215059","StateId":"20226808","CountyId":"20226809","CityId":"20326908","DistrictId":"20326969"}}},{"Relevance":1.0,"Distance":18.9,"MatchLevel":"street","MatchQuality":{"Country":1.0,"State":1.0,"County":1.0,"City":1.0,"District":1.0,"PostalCode":1.0},"Location":{"LocationId":"NT_-eLq5g4jiMODmha2sjv6HB_l_1157020668_L","LocationType":"point","DisplayPosition":{"Latitude":43.38748,"Longitude":-5.6638},"MapView":{"TopLeft":{"Latitude":43.38761,"Longitude":-5.66396},"BottomRight":{"Latitude":43.38748,"Longitude":-5.6638}},"Address":{"Label":"33510 Siero (Asturias), España","Country":"ESP","State":"Principado de Asturias","County":"Asturias","City":"Siero","District":"Pola de Siero","PostalCode":"33510","AdditionalData":[{"value":"España","key":"CountryName"},{"value":"Principado de Asturias","key":"StateName"},{"value":"Asturias","key":"CountyName"}]},"MapReference":{"ReferenceId":"1157020668","Spot":0.0,"SideOfStreet":"left","CountryId":"20215059","StateId":"20226808","CountyId":"20226809","CityId":"20326908","DistrictId":"20326969"}}},{"Relevance":1.0,"Distance":19.6,"MatchLevel":"street","MatchQuality":{"Country":1.0,"State":1.0,"County":1.0,"City":1.0,"District":1.0,"PostalCode":1.0},"Location":{"LocationId":"NT_-eLq5g4jiMODmha2sjv6HB_l_1156945543_R","LocationType":"point","DisplayPosition":{"Latitude":43.3875246,"Longitude":-5.6637732},"MapView":{"TopLeft":{"Latitude":43.38787,"Longitude":-5.66406},"BottomRight":{"Latitude":43.38748,"Longitude":-5.66377}},"Address":{"Label":"33510 Siero (Asturias), España","Country":"ESP","State":"Principado de Asturias","County":"Asturias","City":"Siero","District":"Pola de Siero","PostalCode":"33510","AdditionalData":[{"value":"España","key":"CountryName"},{"value":"Principado de Asturias","key":"StateName"},{"value":"Asturias","key":"CountyName"}]},"MapReference":{"ReferenceId":"1156945543","Spot":0.08,"SideOfStreet":"right","CountryId":"20215059","StateId":"20226808","CountyId":"20226809","CityId":"20326908","DistrictId":"20326969"}}},{"Relevance":1.0,"Distance":37.2,"MatchLevel":"houseNumber","MatchQuality":{"Country":1.0,"State":1.0,"County":1.0,"City":1.0,"District":1.0,"Street":[1.0],"HouseNumber":1.0,"PostalCode":1.0},"MatchType":"interpolated","Location":{"LocationId":"NT_36PEXpOZuPzCMYQQjzf2-D_0A","LocationType":"point","DisplayPosition":{"Latitude":43.38722,"Longitude":-5.66316},"MapView":{"TopLeft":{"Latitude":43.3883442,"Longitude":-5.6647069},"BottomRight":{"Latitude":43.3860958,"Longitude":-5.6616131}},"Address":{"Label":"Calle Maestros Martín Galache, 4, 33510 Siero (Asturias), España","Country":"ESP","State":"Principado de Asturias","County":"Asturias","City":"Siero","District":"Pola de Siero","Street":"Calle Maestros Martín Galache","HouseNumber":"4","PostalCode":"33510","AdditionalData":[{"value":"España","key":"CountryName"},{"value":"Principado de Asturias","key":"StateName"},{"value":"Asturias","key":"CountyName"}]},"MapReference":{"ReferenceId":"942037618","Spot":0.37,"SideOfStreet":"left","CountryId":"20215059","StateId":"20226808","CountyId":"20226809","CityId":"20326908","DistrictId":"20326969","AddressId":"352017660","RoadLinkId":"291914111"}}},{"Relevance":1.0,"Distance":37.4,"MatchLevel":"street","MatchQuality":{"Country":1.0,"State":1.0,"County":1.0,"City":1.0,"District":1.0,"PostalCode":1.0},"Location":{"LocationId":"NT_-eLq5g4jiMODmha2sjv6HB_l_1157020669_R","LocationType":"point","DisplayPosition":{"Latitude":43.38761,"Longitude":-5.66396},"MapView":{"TopLeft":{"Latitude":43.38775,"Longitude":-5.66404},"BottomRight":{"Latitude":43.38761,"Longitude":-5.66396}},"Address":{"Label":"33510 Siero (Asturias), España","Country":"ESP","State":"Principado de Asturias","County":"Asturias","City":"Siero","District":"Pola de Siero","PostalCode":"33510","AdditionalData":[{"value":"España","key":"CountryName"},{"value":"Principado de Asturias","key":"StateName"},{"value":"Asturias","key":"CountyName"}]},"MapReference":{"ReferenceId":"1157020669","Spot":0.0,"SideOfStreet":"right","CountryId":"20215059","StateId":"20226808","CountyId":"20226809","CityId":"20326908","DistrictId":"20326969"}}},{"Relevance":1.0,"Distance":41.6,"MatchLevel":"houseNumber","MatchQuality":{"Country":1.0,"State":1.0,"County":1.0,"City":1.0,"District":1.0,"Street":[1.0],"HouseNumber":1.0,"PostalCode":1.0},"MatchType":"interpolated","Location":{"LocationId":"NT_QeJ.j7oDif34l3BxUH185D_yQE","LocationType":"point","DisplayPosition":{"Latitude":43.38736,"Longitude":-5.66411},"MapView":{"TopLeft":{"Latitude":43.3884842,"Longitude":-5.6656569},"BottomRight":{"Latitude":43.3862358,"Longitude":-5.6625631}},"Address":{"Label":"Calle Molín, 2D, 33510 Siero (Asturias), España","Country":"ESP","State":"Principado de Asturias","County":"Asturias","City":"Siero","District":"Pola de Siero","Street":"Calle Molín","HouseNumber":"2D","PostalCode":"33510","AdditionalData":[{"value":"España","key":"CountryName"},{"value":"Principado de Asturias","key":"StateName"},{"value":"Asturias","key":"CountyName"}]},"MapReference":{"ReferenceId":"1156945270","Spot":0.44,"SideOfStreet":"right","CountryId":"20215059","StateId":"20226808","CountyId":"20226809","CityId":"20326908","DistrictId":"20326969","AddressId":"351992571","RoadLinkId":"463250589"}}},{"Relevance":1.0,"Distance":48.9,"MatchLevel":"street","MatchQuality":{"Country":1.0,"State":1.0,"County":1.0,"City":1.0,"District":1.0,"Street":[1.0],"PostalCode":1.0},"Location":{"LocationId":"NT_36PEXpOZuPzCMYQQjzf2-D_l_942037617_L","LocationType":"point","DisplayPosition":{"Latitude":43.38714,"Longitude":-5.66311},"MapView":{"TopLeft":{"Latitude":43.38714,"Longitude":-5.66311},"BottomRight":{"Latitude":43.38647,"Longitude":-5.66277}},"Address":{"Label":"Calle Maestros Martín Galache, 33510 Siero (Asturias), España","Country":"ESP","State":"Principado de Asturias","County":"Asturias","City":"Siero","District":"Pola de Siero","Street":"Calle Maestros Martín Galache","PostalCode":"33510","AdditionalData":[{"value":"España","key":"CountryName"},{"value":"Principado de Asturias","key":"StateName"},{"value":"Asturias","key":"CountyName"}]},"MapReference":{"ReferenceId":"942037617","Spot":1.0,"SideOfStreet":"left","CountryId":"20215059","StateId":"20226808","CountyId":"20226809","CityId":"20326908","DistrictId":"20326969"}}}]}]}}