{"Response":{"MetaInfo":{"Timestamp":"2020-03-28T11:50:50.285+0000","NextPageInformation":"2"},"View":[{"_type":"SearchResultsViewType","ViewId":0,"Result":[{"Relevance":1.0,"Distance":0.0,"Direction":0.0,"MatchLevel":"district","MatchQuality":{"Country":1.0,"State":1.0,"County":1.0,"City":1.0,"District":1.0,"PostalCode":1.0},"Location":{"LocationId":"NT_jKPFBvJuSO3bk8hviTa5SA","LocationType":"point","DisplayPosition":{"Latitude":43.3251753,"Longitude":5.3935625},"MapView":{"TopLeft":{"Latitude":43.37623,"Longitude":5.36636},"BottomRight":{"Latitude":43.31491,"Longitude":5.41593}},"Address":{"Label":"14e Arrondissement, Marseille, Provence-Alpes-Côte d'Azur, France","Country":"FRA","State":"Provence-Alpes-Côte d'Azur","County":"Bouches-du-Rhône","City":"Marseille","District":"14e Arrondissement","PostalCode":"13014","AdditionalData":[{"value":"France","key":"CountryName"},{"value":"Provence-Alpes-Côte d'Azur","key":"StateName"},{"value":"Bouches-du-Rhône","key":"CountyName"}]},"MapReference":{"ReferenceId":"1002333043","SideOfStreet":"neither","CountryId":"20000001","StateId":"20000193","CountyId":"20048302","CityId":"20048481","DistrictId":"20048499"}}},{"Relevance":1.0,"Distance":24.4,"MatchLevel":"houseNumber","MatchQuality":{"Country":1.0,"State":1.0,"County":1.0,"City":1.0,"District":1.0,"Street":[1.0],"HouseNumber":1.0,"PostalCode":1.0},"MatchType":"interpolated","Location":{"LocationId":"NT_egGPFE3LXwHFXLlxIEaXGB_xkD","LocationType":"point","DisplayPosition":{"Latitude":43.32548,"Longitude":5.39343},"MapView":{"TopLeft":{"Latitude":43.3266042,"Longitude":5.3918847},"BottomRight":{"Latitude":43.3243558,"Longitude":5.3949753}},"Address":{"Label":"19 Rue Edgard Melik, 13014 Marseille, France","Country":"FRA","State":"Provence-Alpes-Côte d'Azur","County":"Bouches-du-Rhône","City":"Marseille","District":"14e Arrondissement","Street":"Rue Edgard Melik","HouseNumber":"19","PostalCode":"13014","AdditionalData":[{"value":"France","key":"CountryName"},{"value":"Provence-Alpes-Côte d'Azur","key":"StateName"},{"value":"Bouches-du-Rhône","key":"CountyName"}]},"MapReference":{"ReferenceId":"1265055859","Spot":0.4,"SideOfStreet":"left","CountryId":"20000001","StateId":"20000193","CountyId":"20048302","CityId":"20048481","DistrictId":"20048499","AddressId":"319169917","RoadLinkId":"591246698"}}},{"Relevance":1.0,"Distance":40.4,"MatchLevel":"street","MatchQuality":{"Country":1.0,"State":1.0,"County":1.0,"City":1.0,"District":1.0,"Street":[1.0],"PostalCode":1.0},"Location":{"LocationId":"NT_nrJ6PxXC7ydcIxkG5ULjkA_l_1164687836_L","LocationType":"point","DisplayPosition":{"Latitude":43.32532,"Longitude":5.39402},"MapView":{"TopLeft":{"Latitude":43.32532,"Longitude":5.39402},"BottomRight":{"Latitude":43.32524,"Longitude":5.39428}},"Address":{"Label":"Avenue Claude Monet, 13014 Marseille, France","Country":"FRA","State":"Provence-Alpes-Côte d'Azur","County":"Bouches-du-Rhône","City":"Marseille","District":"14e Arrondissement","Street":"Avenue Claude Monet","PostalCode":"13014","AdditionalData":[{"value":"France","key":"CountryName"},{"value":"Provence-Alpes-Côte d'Azur","key":"StateName"},{"value":"Bouches-du-Rhône","key":"CountyName"}]},"MapReference":{"ReferenceId":"1164687836","Spot":1.0,"SideOfStreet":"left","CountryId":"20000001","StateId":"20000193","CountyId":"20048302","CityId":"20048481","DistrictId":"20048499"}}},{"Relevance":1.0,"Distance":50.3,"MatchLevel":"street","MatchQuality":{"Country":1.0,"State":1.0,"County":1.0,"City":1.0,"District":1.0,"PostalCode":1.0},"Location":{"LocationId":"NT_3PrU0Rk5.kkR-M3MGdSHaC_l_1119441072_L","LocationType":"point","DisplayPosition":{"Latitude":43.3249192,"Longitude":5.3940746},"MapView":{"TopLeft":{"Latitude":43.32513,"Longitude":5.39406},"BottomRight":{"Latitude":43.32489,"Longitude":5.39463}},"Address":{"Label":"13014 Marseille, France","Country":"FRA","State":"Provence-Alpes-Côte d'Azur","County":"Bouches-du-Rhône","City":"Marseille","District":"14e Arrondissement","PostalCode":"13014","AdditionalData":[{"value":"France","key":"CountryName"},{"value":"Provence-Alpes-Côte d'Azur","key":"StateName"},{"value":"Bouches-du-Rhône","key":"CountyName"}]},"MapReference":{"ReferenceId":"1119441072","Spot":0.04,"SideOfStreet":"left","CountryId":"20000001","StateId":"20000193","CountyId":"20048302","CityId":"20048481","DistrictId":"20048499"}}},{"Relevance":1.0,"Distance":51.2,"MatchLevel":"street","MatchQuality":{"Country":1.0,"State":1.0,"County":1.0,"City":1.0,"District":1.0,"PostalCode":1.0},"Location":{"LocationId":"NT_3PrU0Rk5.kkR-M3MGdSHaC_l_1119441071_L","LocationType":"point","DisplayPosition":{"Latitude":43.32489,"Longitude":5.39406},"MapView":{"TopLeft":{"Latitude":43.32489,"Longitude":5.39375},"BottomRight":{"Latitude":43.32426,"Longitude":5.39406}},"Address":{"Label":"13014 Marseille, France","Country":"FRA","State":"Provence-Alpes-Côte d'Azur","County":"Bouches-du-Rhône","City":"Marseille","District":"14e Arrondissement","PostalCode":"13014","AdditionalData":[{"value":"France","key":"CountryName"},{"value":"Provence-Alpes-Côte d'Azur","key":"StateName"},{"value":"Bouches-du-Rhône","key":"CountyName"}]},"MapReference":{"ReferenceId":"1119441071","Spot":1.0,"SideOfStreet":"left","CountryId":"20000001","StateId":"20000193","CountyId":"20048302","CityId":"20048481","DistrictId":"20048499"}}},{"Relevance":1.0,"Distance":51.2,"MatchLevel":"street","MatchQuality":{"Country":1.0,"State":1.0,"County":1.0,"City":1.0,"District":1.0,"PostalCode":1.0},"Location":{"LocationId":"NT_3PrU0Rk5.kkR-M3MGdSHaC_l_1119441074_R","LocationType":"point","DisplayPosition":{"Latitude":43.32489,"Longitude":5.39406},"MapView":{"TopLeft":{"Latitude":43.32489,"Longitude":5.39406},"BottomRight":{"Latitude":43.32449,"Longitude":5.39454}},"Address":{"Label":"13014 Marseille, France","Country":"FRA","State":"Provence-Alpes-Côte d'Azur","County":"Bouches-du-Rhône","City":"Marseille","District":"14e Arrondissement","PostalCode":"13014","AdditionalData":[{"value":"France","key":"CountryName"},{"value":"Provence-Alpes-Côte d'Azur","key":"StateName"},{"value":"Bouches-du-Rhône","key":"CountyName"}]},"MapReference":{"ReferenceId":"1119441074","Spot":1.0,"SideOfStreet":"right","CountryId":"20000001","StateId":"20000193","CountyId":"20048302","CityId":"20048481","DistrictId":"20048499"}}},{"Relevance":1.0,"Distance":58.5,"MatchLevel":"street","MatchQuality":{"Country":1.0,"State":1.0,"County":1.0,"City":1.0,"District":1.0,"Street":[1.0],"PostalCode":1.0},"Location":{"LocationId":"NT_.ati74WGdM1DWvDGWZEw9C_l_1164687835_L","LocationType":"point","DisplayPosition":{"Latitude":43.32524,"Longitude":5.39428},"MapView":{"TopLeft":{"Latitude":43.32524,"Longitude":5.39428},"BottomRight":{"Latitude":43.32504,"Longitude":5.39475}},"Address":{"Label":"Avenue Claude Monet, 13014 Marseille, France","Country":"FRA","State":"Provence-Alpes-Côte d'Azur","County":"Bouches-du-Rhône","City":"Marseille","District":"14e Arrondissement","Street":"Avenue Claude Monet","PostalCode":"13014","AdditionalData":[{"value":"France","key":"CountryName"},{"value":"Provence-Alpes-Côte d'Azur","key":"StateName"},{"value":"Bouches-du-Rhône","key":"CountyName"}]},"MapReference":{"ReferenceId":"1164687835","Spot":1.0,"SideOfStreet":"left","CountryId":"20000001","StateId":"20000193","CountyId":"20048302","CityId":"20048481","DistrictId":"20048499"}}},{"Relevance":1.0,"Distance":70.0,"MatchLevel":"houseNumber","MatchQuality":{"Country":1.0,"State":1.0,"County":1.0,"City":1.0,"District":1.0,"Street":[1.0],"HouseNumber":1.0,"PostalCode":1.0},"MatchType":"interpolated","Location":{"LocationId":"NT_.ati74WGdM1DWvDGWZEw9C_zkD","LocationType":"point","DisplayPosition":{"Latitude":43.32563,"Longitude":5.39417},"MapView":{"TopLeft":{"Latitude":43.3267542,"Longitude":5.3926247},"BottomRight":{"Latitude":43.3245058,"Longitude":5.3957153}},"Address":{"Label":"39 Avenue Claude Monet, 13014 Marseille, France","Country":"FRA","State":"Provence-Alpes-Côte d'Azur","County":"Bouches-du-Rhône","City":"Marseille","District":"14e Arrondissement","Street":"Avenue Claude Monet","HouseNumber":"39","PostalCode":"13014","AdditionalData":[{"value":"France","key":"CountryName"},{"value":"Provence-Alpes-Côte d'Azur","key":"StateName"},{"value":"Bouches-du-Rhône","key":"CountyName"}]},"MapReference":{"ReferenceId":"1119444196","Spot":0.35,"SideOfStreet":"left","CountryId":"20000001","StateId":"20000193","CountyId":"20048302","CityId":"20048481","DistrictId":"20048499","AddressId":"319258705","RoadLinkId":"429590758"}}},{"Relevance":1.0,"Distance":71.8,"MatchLevel":"houseNumber","MatchQuality":{"Country":1.0,"State":1.0,"County":1.0,"City":1.0,"District":1.0,"Street":[1.0],"HouseNumber":1.0,"PostalCode":1.0},"MatchType":"interpolated","Location":{"LocationId":"NT_.ati74WGdM1DWvDGWZEw9C_xkD","LocationType":"point","DisplayPosition":{"Latitude":43.32451,"Longitude":5.39359},"MapView":{"TopLeft":{"Latitude":43.3256342,"Longitude":5.3920447},"BottomRight":{"Latitude":43.3233858,"Longitude":5.3951353}},"Address":{"Label":"19 Avenue Claude Monet, 13014 Marseille, France","Country":"FRA","State":"Provence-Alpes-Côte d'Azur","County":"Bouches-du-Rhône","City":"Marseille","District":"14e Arrondissement","Street":"Avenue Claude Monet","HouseNumber":"19","PostalCode":"13014","AdditionalData":[{"value":"France","key":"CountryName"},{"value":"Provence-Alpes-Côte d'Azur","key":"StateName"},{"value":"Bouches-du-Rhône","key":"CountyName"}]},"MapReference":{"ReferenceId":"58188488","Spot":0.5,"SideOfStreet":"left","CountryId":"20000001","StateId":"20000193","CountyId":"20048302","CityId":"20048481","DistrictId":"20048499","AddressId":"319284255","RoadLinkId":"45333595"}}},{"Relevance":1.0,"Distance":71.9,"MatchLevel":"street","MatchQuality":{"Country":1.0,"State":1.0,"County":1.0,"City":1.0,"District":1.0,"PostalCode":1.0},"Location":{"LocationId":"NT_3PrU0Rk5.kkR-M3MGdSHaC_l_1119444207_L","LocationType":"point","DisplayPosition":{"Latitude":43.32543,"Longitude":5.39438},"MapView":{"TopLeft":{"Latitude":43.32545,"Longitude":5.39438},"BottomRight":{"Latitude":43.3254,"Longitude":5.39443}},"Address":{"Label":"13014 Marseille, France","Country":"FRA","State":"Provence-Alpes-Côte d'Azur","County":"Bouches-du-Rhône","City":"Marseille","District":"14e Arrondissement","PostalCode":"13014","AdditionalData":[{"value":"France","key":"CountryName"},{"value":"Provence-Alpes-Côte d'Azur","key":"StateName"},{"value":"Bouches-du-Rhône","key":"CountyName"}]},"MapReference":{"ReferenceId":"1119444207","Spot":0.67,"SideOfStreet":"left","CountryId":"20000001","StateId":"20000193","CountyId":"20048302","CityId":"20048481","DistrictId":"20048499"}}}]}]}}