{"Response":{"MetaInfo":{"Timestamp":"2020-03-28T09:49:18.560+0000","NextPageInformation":"2"},"View":[{"_type":"SearchResultsViewType","ViewId":0,"Result":[{"Relevance":1.0,"Distance":0.0,"Direction":0.0,"MatchLevel":"district","MatchQuality":{"Country":1.0,"State":1.0,"County":1.0,"City":1.0,"District":1.0,"PostalCode":1.0},"Location":{"LocationId":"NT_SllRQUB9wzD1Yr7nFr1jxB","LocationType":"point","DisplayPosition":{"Latitude":43.3135242,"Longitude":5.467258},"MapView":{"TopLeft":{"Latitude":43.32456,"Longitude":5.407},"BottomRight":{"Latitude":43.28995,"Longitude":5.4771}},"Address":{"Label":"12e Arrondissement, Marseille, Provence-Alpes-Côte d'Azur, France","Country":"FRA","State":"Provence-Alpes-Côte d'Azur","County":"Bouches-du-Rhône","City":"Marseille","District":"12e Arrondissement","PostalCode":"13012","AdditionalData":[{"value":"France","key":"CountryName"},{"value":"Provence-Alpes-Côte d'Azur","key":"StateName"},{"value":"Bouches-du-Rhône","key":"CountyName"}]},"MapReference":{"ReferenceId":"58191736","SideOfStreet":"neither","CountryId":"20000001","StateId":"20000193","CountyId":"20048302","CityId":"20048481","DistrictId":"20048496"}}},{"Relevance":1.0,"Distance":5.2,"MatchLevel":"houseNumber","MatchQuality":{"Country":1.0,"State":1.0,"County":1.0,"City":1.0,"District":1.0,"Street":[1.0],"HouseNumber":1.0,"PostalCode":1.0},"MatchType":"interpolated","Location":{"LocationId":"NT_PB56-RhwM.lmwmRo9Zc4TC_xID","LocationType":"point","DisplayPosition":{"Latitude":43.31357,"Longitude":5.46727},"MapView":{"TopLeft":{"Latitude":43.3146942,"Longitude":5.465725},"BottomRight":{"Latitude":43.3124458,"Longitude":5.468815}},"Address":{"Label":"12 Traverse de la Salette, 13012 Marseille, France","Country":"FRA","State":"Provence-Alpes-Côte d'Azur","County":"Bouches-du-Rhône","City":"Marseille","District":"12e Arrondissement","Street":"Traverse de la Salette","HouseNumber":"12","PostalCode":"13012","AdditionalData":[{"value":"France","key":"CountryName"},{"value":"Provence-Alpes-Côte d'Azur","key":"StateName"},{"value":"Bouches-du-Rhône","key":"CountyName"}]},"MapReference":{"ReferenceId":"722669725","Spot":0.77,"SideOfStreet":"left","CountryId":"20000001","StateId":"20000193","CountyId":"20048302","CityId":"20048481","DistrictId":"20048496","AddressId":"573424631","RoadLinkId":"126277047"}}},{"Relevance":1.0,"Distance":43.8,"MatchLevel":"houseNumber","MatchQuality":{"Country":1.0,"State":1.0,"County":1.0,"City":1.0,"District":1.0,"Street":[1.0],"HouseNumber":1.0,"PostalCode":1.0},"MatchType":"interpolated","Location":{"LocationId":"NT_05rE1U9.6FURKmy2WJeEfB_yA","LocationType":"point","DisplayPosition":{"Latitude":43.31311,"Longitude":5.46734},"MapView":{"TopLeft":{"Latitude":43.3142342,"Longitude":5.465795},"BottomRight":{"Latitude":43.3119858,"Longitude":5.468885}},"Address":{"Label":"2 Lotissement La Farandole, 13012 Marseille, France","Country":"FRA","State":"Provence-Alpes-Côte d'Azur","County":"Bouches-du-Rhône","City":"Marseille","District":"12e Arrondissement","Street":"Lotissement La Farandole","HouseNumber":"2","PostalCode":"13012","AdditionalData":[{"value":"France","key":"CountryName"},{"value":"Provence-Alpes-Côte d'Azur","key":"StateName"},{"value":"Bouches-du-Rhône","key":"CountyName"}]},"MapReference":{"ReferenceId":"940398980","Spot":0.64,"SideOfStreet":"right","CountryId":"20000001","StateId":"20000193","CountyId":"20048302","CityId":"20048481","DistrictId":"20048496","AddressId":"379879374","RoadLinkId":"290370612"}}},{"Relevance":1.0,"Distance":57.1,"MatchLevel":"houseNumber","MatchQuality":{"Country":1.0,"State":1.0,"County":1.0,"City":1.0,"District":1.0,"Street":[1.0],"HouseNumber":1.0,"PostalCode":1.0},"MatchType":"interpolated","Location":{"LocationId":"NT_PB56-RhwM.lmwmRo9Zc4TC_yED","LocationType":"point","DisplayPosition":{"Latitude":43.31387,"Longitude":5.46778},"MapView":{"TopLeft":{"Latitude":43.3149942,"Longitude":5.466235},"BottomRight":{"Latitude":43.3127458,"Longitude":5.469325}},"Address":{"Label":"21 Traverse de la Salette, 13012 Marseille, France","Country":"FRA","State":"Provence-Alpes-Côte d'Azur","County":"Bouches-du-Rhône","City":"Marseille","District":"12e Arrondissement","Street":"Traverse de la Salette","HouseNumber":"21","PostalCode":"13012","AdditionalData":[{"value":"France","key":"CountryName"},{"value":"Provence-Alpes-Côte d'Azur","key":"StateName"},{"value":"Bouches-du-Rhône","key":"CountyName"}]},"MapReference":{"ReferenceId":"722669726","Spot":0.35,"SideOfStreet":"left","CountryId":"20000001","StateId":"20000193","CountyId":"20048302","CityId":"20048481","DistrictId":"20048496","AddressId":"319227146","RoadLinkId":"126277048"}}},{"Relevance":1.0,"Distance":82.8,"MatchLevel":"houseNumber","MatchQuality":{"Country":1.0,"State":1.0,"County":1.0,"City":1.0,"District":1.0,"Street":[1.0],"HouseNumber":1.0,"PostalCode":1.0},"MatchType":"interpolated","Location":{"LocationId":"NT_wBUMvY-wkNW7hxHaTWHuSC_zQD","LocationType":"point","DisplayPosition":{"Latitude":43.31411,"Longitude":5.46647},"MapView":{"TopLeft":{"Latitude":43.3152342,"Longitude":5.464925},"BottomRight":{"Latitude":43.3129858,"Longitude":5.468015}},"Address":{"Label":"34 Route d'Enco de Botte, 13012 Marseille, France","Country":"FRA","State":"Provence-Alpes-Côte d'Azur","County":"Bouches-du-Rhône","City":"Marseille","District":"12e Arrondissement","Street":"Route d'Enco de Botte","HouseNumber":"34","PostalCode":"13012","AdditionalData":[{"value":"France","key":"CountryName"},{"value":"Provence-Alpes-Côte d'Azur","key":"StateName"},{"value":"Bouches-du-Rhône","key":"CountyName"}]},"MapReference":{"ReferenceId":"941264086","Spot":0.89,"SideOfStreet":"right","CountryId":"20000001","StateId":"20000193","CountyId":"20048302","CityId":"20048481","DistrictId":"20048496","AddressId":"319224819","RoadLinkId":"291305218"}}},{"Relevance":1.0,"Distance":84.3,"MatchLevel":"houseNumber","MatchQuality":{"Country":1.0,"State":1.0,"County":1.0,"City":1.0,"District":1.0,"Street":[1.0],"HouseNumber":1.0,"PostalCode":1.0},"MatchType":"interpolated","Location":{"LocationId":"NT_wBUMvY-wkNW7hxHaTWHuSC_zYD","LocationType":"point","DisplayPosition":{"Latitude":43.31421,"Longitude":5.46662},"MapView":{"TopLeft":{"Latitude":43.3153342,"Longitude":5.465075},"BottomRight":{"Latitude":43.3130858,"Longitude":5.468165}},"Address":{"Label":"36 Route d'Enco de Botte, 13012 Marseille, France","Country":"FRA","State":"Provence-Alpes-Côte d'Azur","County":"Bouches-du-Rhône","City":"Marseille","District":"12e Arrondissement","Street":"Route d'Enco de Botte","HouseNumber":"36","PostalCode":"13012","AdditionalData":[{"value":"France","key":"CountryName"},{"value":"Provence-Alpes-Côte d'Azur","key":"StateName"},{"value":"Bouches-du-Rhône","key":"CountyName"}]},"MapReference":{"ReferenceId":"946033602","Spot":0.12,"SideOfStreet":"right","CountryId":"20000001","StateId":"20000193","CountyId":"20048302","CityId":"20048481","DistrictId":"20048496","AddressId":"319224816","RoadLinkId":"294272170"}}},{"Relevance":1.0,"Distance":90.0,"MatchLevel":"houseNumber","MatchQuality":{"Country":1.0,"State":1.0,"County":1.0,"City":1.0,"District":1.0,"Street":[1.0],"HouseNumber":1.0,"PostalCode":1.0},"MatchType":"interpolated","Location":{"LocationId":"NT_g.-K65vVn9Palm0z5Xk0zC_zA","LocationType":"point","DisplayPosition":{"Latitude":43.31295,"Longitude":5.46646},"MapView":{"TopLeft":{"Latitude":43.3140742,"Longitude":5.464915},"BottomRight":{"Latitude":43.3118258,"Longitude":5.468005}},"Address":{"Label":"3 Impasse de la Salette, 13012 Marseille, France","Country":"FRA","State":"Provence-Alpes-Côte d'Azur","County":"Bouches-du-Rhône","City":"Marseille","District":"12e Arrondissement","Street":"Impasse de la Salette","HouseNumber":"3","PostalCode":"13012","AdditionalData":[{"value":"France","key":"CountryName"},{"value":"Provence-Alpes-Côte d'Azur","key":"StateName"},{"value":"Bouches-du-Rhône","key":"CountyName"}]},"MapReference":{"ReferenceId":"58190126","Spot":0.89,"SideOfStreet":"right","CountryId":"20000001","StateId":"20000193","CountyId":"20048302","CityId":"20048481","DistrictId":"20048496","AddressId":"319192196","RoadLinkId":"45455278"}}},{"Relevance":1.0,"Distance":90.3,"MatchLevel":"houseNumber","MatchQuality":{"Country":1.0,"State":1.0,"County":1.0,"City":1.0,"District":1.0,"Street":[1.0],"HouseNumber":1.0,"PostalCode":1.0},"MatchType":"interpolated","Location":{"LocationId":"NT_PB56-RhwM.lmwmRo9Zc4TC_yA","LocationType":"point","DisplayPosition":{"Latitude":43.31312,"Longitude":5.46629},"MapView":{"TopLeft":{"Latitude":43.3142442,"Longitude":5.464745},"BottomRight":{"Latitude":43.3119958,"Longitude":5.467835}},"Address":{"Label":"2 Traverse de la Salette, 13012 Marseille, France","Country":"FRA","State":"Provence-Alpes-Côte d'Azur","County":"Bouches-du-Rhône","City":"Marseille","District":"12e Arrondissement","Street":"Traverse de la Salette","HouseNumber":"2","PostalCode":"13012","AdditionalData":[{"value":"France","key":"CountryName"},{"value":"Provence-Alpes-Côte d'Azur","key":"StateName"},{"value":"Bouches-du-Rhône","key":"CountyName"}]},"MapReference":{"ReferenceId":"58189954","Spot":0.17,"SideOfStreet":"left","CountryId":"20000001","StateId":"20000193","CountyId":"20048302","CityId":"20048481","DistrictId":"20048496","AddressId":"345398046","RoadLinkId":"45511267"}}},{"Relevance":1.0,"Distance":91.1,"MatchLevel":"houseNumber","MatchQuality":{"Country":1.0,"State":1.0,"County":1.0,"City":1.0,"District":1.0,"Street":[1.0],"HouseNumber":1.0,"PostalCode":1.0},"MatchType":"interpolated","Location":{"LocationId":"NT_PB56-RhwM.lmwmRo9Zc4TC_l_722669724_R_ygD","LocationType":"point","DisplayPosition":{"Latitude":43.3137504,"Longitude":5.46834},"MapView":{"TopLeft":{"Latitude":43.3148745,"Longitude":5.466795},"BottomRight":{"Latitude":43.3126262,"Longitude":5.469885}},"Address":{"Label":"28 Traverse de la Salette, 13012 Marseille, France","Country":"FRA","State":"Provence-Alpes-Côte d'Azur","County":"Bouches-du-Rhône","City":"Marseille","District":"12e Arrondissement","Street":"Traverse de la Salette","HouseNumber":"28","PostalCode":"13012","AdditionalData":[{"value":"France","key":"CountryName"},{"value":"Provence-Alpes-Côte d'Azur","key":"StateName"},{"value":"Bouches-du-Rhône","key":"CountyName"}]},"MapReference":{"ReferenceId":"722669724","Spot":0.5,"SideOfStreet":"right","CountryId":"20000001","StateId":"20000193","CountyId":"20048302","CityId":"20048481","DistrictId":"20048496"}}},{"Relevance":1.0,"Distance":98.5,"MatchLevel":"houseNumber","MatchQuality":{"Country":1.0,"State":1.0,"County":1.0,"City":1.0,"District":1.0,"Street":[1.0],"HouseNumber":1.0,"PostalCode":1.0},"MatchType":"interpolated","Location":{"LocationId":"NT_PB56-RhwM.lmwmRo9Zc4TC_l_546164334_R_ycD","LocationType":"point","DisplayPosition":{"Latitude":43.3140269,"Longitude":5.468261},"MapView":{"TopLeft":{"Latitude":43.3151511,"Longitude":5.466716},"BottomRight":{"Latitude":43.3129028,"Longitude":5.469806}},"Address":{"Label":"27 Traverse de la Salette, 13012 Marseille, France","Country":"FRA","State":"Provence-Alpes-Côte d'Azur","County":"Bouches-du-Rhône","City":"Marseille","District":"12e Arrondissement","Street":"Traverse de la Salette","HouseNumber":"27","PostalCode":"13012","AdditionalData":[{"value":"France","key":"CountryName"},{"value":"Provence-Alpes-Côte d'Azur","key":"StateName"},{"value":"Bouches-du-Rhône","key":"CountyName"}]},"MapReference":{"ReferenceId":"546164334","Spot":0.5,"SideOfStreet":"right","CountryId":"20000001","StateId":"20000193","CountyId":"20048302","CityId":"20048481","DistrictId":"20048496"}}}]}]}}