{"Response":{"MetaInfo":{"Timestamp":"2020-03-28T09:43:21.124+0000","NextPageInformation":"2"},"View":[{"_type":"SearchResultsViewType","ViewId":0,"Result":[{"Relevance":1.0,"Distance":0.0,"Direction":0.0,"MatchLevel":"city","MatchQuality":{"Country":1.0,"State":1.0,"County":1.0,"City":1.0,"PostalCode":1.0},"Location":{"LocationId":"NT_pdwypkboMN0QDp2fQ0bzjD","LocationType":"point","DisplayPosition":{"Latitude":43.3090575,"Longitude":-3.0526965},"MapView":{"TopLeft":{"Latitude":43.32495,"Longitude":-3.07571},"BottomRight":{"Latitude":43.2737,"Longitude":-3.02921}},"Address":{"Label":"Ortuella, País Vasco, España","Country":"ESP","State":"País Vasco","County":"Vizcaya","City":"Ortuella","PostalCode":"48530","AdditionalData":[{"value":"España","key":"CountryName"},{"value":"País Vasco","key":"StateName"},{"value":"Vizcaya","key":"CountyName"}]},"MapReference":{"ReferenceId":"1238316181","SideOfStreet":"neither","CountryId":"20215059","StateId":"20226804","CountyId":"20226807","CityId":"20287367"}}},{"Relevance":1.0,"Distance":2.7,"MatchLevel":"street","MatchQuality":{"Country":1.0,"State":1.0,"County":1.0,"City":1.0,"PostalCode":1.0},"Location":{"LocationId":"NT_xFNSDWngvIFDV41Sx12qaD_l_1190388694_L","LocationType":"point","DisplayPosition":{"Latitude":43.3090373,"Longitude":-3.0526788},"MapView":{"TopLeft":{"Latitude":43.30908,"Longitude":-3.05271},"BottomRight":{"Latitude":43.30901,"Longitude":-3.05263}},"Address":{"Label":"48530 Ortuella (Vizcaya), España","Country":"ESP","State":"País Vasco","County":"Vizcaya","City":"Ortuella","PostalCode":"48530","AdditionalData":[{"value":"España","key":"CountryName"},{"value":"País Vasco","key":"StateName"},{"value":"Vizcaya","key":"CountyName"}]},"MapReference":{"ReferenceId":"1190388694","Spot":0.39,"SideOfStreet":"neither","CountryId":"20215059","StateId":"20226804","CountyId":"20226807","CityId":"20287367"}}},{"Relevance":1.0,"Distance":4.7,"MatchLevel":"street","MatchQuality":{"Country":1.0,"State":1.0,"County":1.0,"City":1.0,"Street":[1.0],"PostalCode":1.0},"Location":{"LocationId":"NT_z8gGkft2CO6Q4ku35JL6UB_l_1190388698_L","LocationType":"point","DisplayPosition":{"Latitude":43.3090985,"Longitude":-3.0526819},"MapView":{"TopLeft":{"Latitude":43.30947,"Longitude":-3.05288},"BottomRight":{"Latitude":43.30908,"Longitude":-3.05263}},"Address":{"Label":"Avenida Minero, 48530 Ortuella (Vizcaya), España","Country":"ESP","State":"País Vasco","County":"Vizcaya","City":"Ortuella","Street":"Avenida Minero","PostalCode":"48530","AdditionalData":[{"value":"España","key":"CountryName"},{"value":"País Vasco","key":"StateName"},{"value":"Vizcaya","key":"CountyName"}]},"MapReference":{"ReferenceId":"1190388698","Spot":0.09,"SideOfStreet":"left","CountryId":"20215059","StateId":"20226804","CountyId":"20226807","CityId":"20287367"}}},{"Relevance":1.0,"Distance":5.2,"MatchLevel":"street","MatchQuality":{"Country":1.0,"State":1.0,"County":1.0,"City":1.0,"PostalCode":1.0},"Location":{"LocationId":"NT_xFNSDWngvIFDV41Sx12qaD_l_1190388697_R","LocationType":"point","DisplayPosition":{"Latitude":43.3090135,"Longitude":-3.0527174},"MapView":{"TopLeft":{"Latitude":43.30914,"Longitude":-3.05304},"BottomRight":{"Latitude":43.30901,"Longitude":-3.05271}},"Address":{"Label":"48530 Ortuella (Vizcaya), España","Country":"ESP","State":"País Vasco","County":"Vizcaya","City":"Ortuella","PostalCode":"48530","AdditionalData":[{"value":"España","key":"CountryName"},{"value":"País Vasco","key":"StateName"},{"value":"Vizcaya","key":"CountyName"}]},"MapReference":{"ReferenceId":"1190388697","Spot":0.02,"SideOfStreet":"right","CountryId":"20215059","StateId":"20226804","CountyId":"20226807","CityId":"20287367"}}},{"Relevance":1.0,"Distance":5.4,"MatchLevel":"street","MatchQuality":{"Country":1.0,"State":1.0,"County":1.0,"City":1.0,"PostalCode":1.0},"Location":{"LocationId":"NT_xFNSDWngvIFDV41Sx12qaD_l_1190388696_R","LocationType":"point","DisplayPosition":{"Latitude":43.30901,"Longitude":-3.05271},"MapView":{"TopLeft":{"Latitude":43.30901,"Longitude":-3.05271},"BottomRight":{"Latitude":43.30891,"Longitude":-3.05253}},"Address":{"Label":"48530 Ortuella (Vizcaya), España","Country":"ESP","State":"País Vasco","County":"Vizcaya","City":"Ortuella","PostalCode":"48530","AdditionalData":[{"value":"España","key":"CountryName"},{"value":"País Vasco","key":"StateName"},{"value":"Vizcaya","key":"CountyName"}]},"MapReference":{"ReferenceId":"1190388696","Spot":1.0,"SideOfStreet":"right","CountryId":"20215059","StateId":"20226804","CountyId":"20226807","CityId":"20287367"}}},{"Relevance":1.0,"Distance":5.9,"MatchLevel":"street","MatchQuality":{"Country":1.0,"State":1.0,"County":1.0,"City":1.0,"PostalCode":1.0},"Location":{"LocationId":"NT_xFNSDWngvIFDV41Sx12qaD_l_1190388695_L","LocationType":"point","DisplayPosition":{"Latitude":43.30908,"Longitude":-3.05263},"MapView":{"TopLeft":{"Latitude":43.30908,"Longitude":-3.05263},"BottomRight":{"Latitude":43.309,"Longitude":-3.05227}},"Address":{"Label":"48530 Ortuella (Vizcaya), España","Country":"ESP","State":"País Vasco","County":"Vizcaya","City":"Ortuella","PostalCode":"48530","AdditionalData":[{"value":"España","key":"CountryName"},{"value":"País Vasco","key":"StateName"},{"value":"Vizcaya","key":"CountyName"}]},"MapReference":{"ReferenceId":"1190388695","Spot":1.0,"SideOfStreet":"left","CountryId":"20215059","StateId":"20226804","CountyId":"20226807","CityId":"20287367"}}},{"Relevance":1.0,"Distance":16.5,"MatchLevel":"houseNumber","MatchQuality":{"Country":1.0,"State":1.0,"County":1.0,"City":1.0,"Street":[1.0],"HouseNumber":1.0,"PostalCode":1.0},"MatchType":"interpolated","Location":{"LocationId":"NT_BjnDTQhRI74TDr4bnfWbGB_xAD","LocationType":"point","DisplayPosition":{"Latitude":43.30893,"Longitude":-3.0528},"MapView":{"TopLeft":{"Latitude":43.3100542,"Longitude":-3.0543449},"BottomRight":{"Latitude":43.3078058,"Longitude":-3.0512551}},"Address":{"Label":"Avenida Bilbao, 10, 48530 Ortuella (Vizcaya), España","Country":"ESP","State":"País Vasco","County":"Vizcaya","City":"Ortuella","Street":"Avenida Bilbao","HouseNumber":"10","PostalCode":"48530","AdditionalData":[{"value":"España","key":"CountryName"},{"value":"País Vasco","key":"StateName"},{"value":"Vizcaya","key":"CountyName"}]},"MapReference":{"ReferenceId":"539445442","Spot":1.0,"SideOfStreet":"left","CountryId":"20215059","StateId":"20226804","CountyId":"20226807","CityId":"20287367","AddressId":"351806831","RoadLinkId":"67987871"}}},{"Relevance":1.0,"Distance":21.2,"MatchLevel":"street","MatchQuality":{"Country":1.0,"State":1.0,"County":1.0,"City":1.0,"Street":[1.0],"PostalCode":1.0},"Location":{"LocationId":"NT_z8gGkft2CO6Q4ku35JL6UB_l_1004911778_R","LocationType":"point","DisplayPosition":{"Latitude":43.30891,"Longitude":-3.05253},"MapView":{"TopLeft":{"Latitude":43.30891,"Longitude":-3.05253},"BottomRight":{"Latitude":43.30877,"Longitude":-3.05223}},"Address":{"Label":"Avenida Minero, 48530 Ortuella (Vizcaya), España","Country":"ESP","State":"País Vasco","County":"Vizcaya","City":"Ortuella","Street":"Avenida Minero","PostalCode":"48530","AdditionalData":[{"value":"España","key":"CountryName"},{"value":"País Vasco","key":"StateName"},{"value":"Vizcaya","key":"CountyName"}]},"MapReference":{"ReferenceId":"1004911778","Spot":1.0,"SideOfStreet":"right","CountryId":"20215059","StateId":"20226804","CountyId":"20226807","CityId":"20287367"}}},{"Relevance":1.0,"Distance":21.6,"MatchLevel":"houseNumber","MatchQuality":{"Country":1.0,"State":1.0,"County":1.0,"City":1.0,"Street":[1.0],"HouseNumber":1.0,"PostalCode":1.0},"MatchType":"interpolated","Location":{"LocationId":"NT_1astQGXT9cmteG6LWMJKvA_l_539445441_L_yA","LocationType":"point","DisplayPosition":{"Latitude":43.3090511,"Longitude":-3.0529635},"MapView":{"TopLeft":{"Latitude":43.3101753,"Longitude":-3.0545084},"BottomRight":{"Latitude":43.3079269,"Longitude":-3.0514187}},"Address":{"Label":"Avenida Bilbao, 2, 48530 Ortuella (Vizcaya), España","Country":"ESP","State":"País Vasco","County":"Vizcaya","City":"Ortuella","Street":"Avenida Bilbao","HouseNumber":"2","PostalCode":"48530","AdditionalData":[{"value":"España","key":"CountryName"},{"value":"País Vasco","key":"StateName"},{"value":"Vizcaya","key":"CountyName"}]},"MapReference":{"ReferenceId":"539445441","Spot":0.5,"SideOfStreet":"left","CountryId":"20215059","StateId":"20226804","CountyId":"20226807","CityId":"20287367"}}},{"Relevance":1.0,"Distance":22.1,"MatchLevel":"street","MatchQuality":{"Country":1.0,"State":1.0,"County":1.0,"City":1.0,"PostalCode":1.0},"Location":{"LocationId":"NT_xFNSDWngvIFDV41Sx12qaD_l_80962793_L","LocationType":"point","DisplayPosition":{"Latitude":43.3088756,"Longitude":-3.0525874},"MapView":{"TopLeft":{"Latitude":43.30891,"Longitude":-3.05267},"BottomRight":{"Latitude":43.30882,"Longitude":-3.05253}},"Address":{"Label":"48530 Ortuella (Vizcaya), España","Country":"ESP","State":"País Vasco","County":"Vizcaya","City":"Ortuella","PostalCode":"48530","AdditionalData":[{"value":"España","key":"CountryName"},{"value":"País Vasco","key":"StateName"},{"value":"Vizcaya","key":"CountyName"}]},"MapReference":{"ReferenceId":"80962793","Spot":0.6,"SideOfStreet":"left","CountryId":"20215059","StateId":"20226804","CountyId":"20226807","CityId":"20287367"}}}]}]}}