{"Response":{"MetaInfo":{"Timestamp":"2020-03-28T11:52:45.328+0000","NextPageInformation":"2"},"View":[{"_type":"SearchResultsViewType","ViewId":0,"Result":[{"Relevance":1.0,"Distance":0.0,"Direction":0.0,"MatchLevel":"city","MatchQuality":{"Country":1.0,"State":1.0,"County":1.0,"City":1.0,"PostalCode":1.0},"Location":{"LocationId":"NT_-0r2JYcI9RtyqtiFZejcGD","LocationType":"point","DisplayPosition":{"Latitude":43.3599114,"Longitude":2.1702935},"MapView":{"TopLeft":{"Latitude":43.41677,"Longitude":2.1084},"BottomRight":{"Latitude":43.30799,"Longitude":2.21527}},"Address":{"Label":"Saissac, Occitanie, France","Country":"FRA","State":"Occitanie","County":"Aude","City":"Saissac","PostalCode":"11310","AdditionalData":[{"value":"France","key":"CountryName"},{"value":"Occitanie","key":"StateName"},{"value":"Aude","key":"CountyName"}]},"MapReference":{"ReferenceId":"1198154584","SideOfStreet":"neither","CountryId":"20000001","StateId":"20050212","CountyId":"20084624","CityId":"20085726"}}},{"Relevance":1.0,"Distance":5.8,"MatchLevel":"street","MatchQuality":{"Country":1.0,"State":1.0,"County":1.0,"City":1.0,"Street":[1.0],"PostalCode":1.0},"Location":{"LocationId":"NT_TnNC8kzFqrL8Bsi8do89WC_l_579299299_R","LocationType":"point","DisplayPosition":{"Latitude":43.3598689,"Longitude":2.1702523},"MapView":{"TopLeft":{"Latitude":43.35991,"Longitude":2.17021},"BottomRight":{"Latitude":43.35942,"Longitude":2.17057}},"Address":{"Label":"Rue du Rempart, 11310 Saissac, France","Country":"FRA","State":"Occitanie","County":"Aude","City":"Saissac","Street":"Rue du Rempart","PostalCode":"11310","AdditionalData":[{"value":"France","key":"CountryName"},{"value":"Occitanie","key":"StateName"},{"value":"Aude","key":"CountyName"}]},"MapReference":{"ReferenceId":"579299299","Spot":0.91,"SideOfStreet":"right","CountryId":"20000001","StateId":"20050212","CountyId":"20084624","CityId":"20085726"}}},{"Relevance":1.0,"Distance":6.5,"MatchLevel":"street","MatchQuality":{"Country":1.0,"State":1.0,"County":1.0,"City":1.0,"Street":[1.0],"PostalCode":1.0},"Location":{"LocationId":"NT_8pfRcy.6zZzv1y1Mg7-nlA_l_1051572240_L","LocationType":"point","DisplayPosition":{"Latitude":43.3599682,"Longitude":2.1703148},"MapView":{"TopLeft":{"Latitude":43.35997,"Longitude":2.17031},"BottomRight":{"Latitude":43.35988,"Longitude":2.17055}},"Address":{"Label":"Avenue Maurice Sarraut, 11310 Saissac, France","Country":"FRA","State":"Occitanie","County":"Aude","City":"Saissac","Street":"Avenue Maurice Sarraut","PostalCode":"11310","AdditionalData":[{"value":"France","key":"CountryName"},{"value":"Occitanie","key":"StateName"},{"value":"Aude","key":"CountyName"}]},"MapReference":{"ReferenceId":"1051572240","Spot":0.98,"SideOfStreet":"left","CountryId":"20000001","StateId":"20050212","CountyId":"20084624","CityId":"20085726"}}},{"Relevance":1.0,"Distance":6.7,"MatchLevel":"street","MatchQuality":{"Country":1.0,"State":1.0,"County":1.0,"City":1.0,"Street":[1.0],"PostalCode":1.0},"Location":{"LocationId":"NT_6dB9ydpvhgEMjMoOjNH9kC_l_579299799_L","LocationType":"point","DisplayPosition":{"Latitude":43.35997,"Longitude":2.17031},"MapView":{"TopLeft":{"Latitude":43.36029,"Longitude":2.17021},"BottomRight":{"Latitude":43.35997,"Longitude":2.17031}},"Address":{"Label":"Place Victor Hugo, 11310 Saissac, France","Country":"FRA","State":"Occitanie","County":"Aude","City":"Saissac","Street":"Place Victor Hugo","PostalCode":"11310","AdditionalData":[{"value":"France","key":"CountryName"},{"value":"Occitanie","key":"StateName"},{"value":"Aude","key":"CountyName"}]},"MapReference":{"ReferenceId":"579299799","Spot":0.0,"SideOfStreet":"left","CountryId":"20000001","StateId":"20050212","CountyId":"20084624","CityId":"20085726"}}},{"Relevance":1.0,"Distance":6.7,"MatchLevel":"street","MatchQuality":{"Country":1.0,"State":1.0,"County":1.0,"City":1.0,"Street":[1.0],"PostalCode":1.0},"Location":{"LocationId":"NT_E4YKE9bx3FnlBwXV-FdchC_l_579299801_L","LocationType":"point","DisplayPosition":{"Latitude":43.35997,"Longitude":2.17031},"MapView":{"TopLeft":{"Latitude":43.36008,"Longitude":2.16995},"BottomRight":{"Latitude":43.35997,"Longitude":2.17031}},"Address":{"Label":"Avenue Maurice Sarraut, 11310 Saissac, France","Country":"FRA","State":"Occitanie","County":"Aude","City":"Saissac","Street":"Avenue Maurice Sarraut","PostalCode":"11310","AdditionalData":[{"value":"France","key":"CountryName"},{"value":"Occitanie","key":"StateName"},{"value":"Aude","key":"CountyName"}]},"MapReference":{"ReferenceId":"579299801","Spot":0.0,"SideOfStreet":"left","CountryId":"20000001","StateId":"20050212","CountyId":"20084624","CityId":"20085726"}}},{"Relevance":1.0,"Distance":6.8,"MatchLevel":"street","MatchQuality":{"Country":1.0,"State":1.0,"County":1.0,"City":1.0,"Street":[1.0],"PostalCode":1.0},"Location":{"LocationId":"NT_z0P.9OK-DSa8jHgmxYvCRD_l_579299300_R","LocationType":"point","DisplayPosition":{"Latitude":43.35991,"Longitude":2.17021},"MapView":{"TopLeft":{"Latitude":43.35991,"Longitude":2.17014},"BottomRight":{"Latitude":43.35949,"Longitude":2.17041}},"Address":{"Label":"Place des Lauriers, 11310 Saissac, France","Country":"FRA","State":"Occitanie","County":"Aude","City":"Saissac","Street":"Place des Lauriers","PostalCode":"11310","AdditionalData":[{"value":"France","key":"CountryName"},{"value":"Occitanie","key":"StateName"},{"value":"Aude","key":"CountyName"}]},"MapReference":{"ReferenceId":"579299300","Spot":1.0,"SideOfStreet":"right","CountryId":"20000001","StateId":"20050212","CountyId":"20084624","CityId":"20085726"}}},{"Relevance":1.0,"Distance":33.5,"MatchLevel":"street","MatchQuality":{"Country":1.0,"State":1.0,"County":1.0,"City":1.0,"Street":[1.0],"PostalCode":1.0},"Location":{"LocationId":"NT_8pfRcy.6zZzv1y1Mg7-nlA_l_579299802_L","LocationType":"point","DisplayPosition":{"Latitude":43.36008,"Longitude":2.16995},"MapView":{"TopLeft":{"Latitude":43.36011,"Longitude":2.16986},"BottomRight":{"Latitude":43.36008,"Longitude":2.16995}},"Address":{"Label":"Avenue Maurice Sarraut, 11310 Saissac, France","Country":"FRA","State":"Occitanie","County":"Aude","City":"Saissac","Street":"Avenue Maurice Sarraut","PostalCode":"11310","AdditionalData":[{"value":"France","key":"CountryName"},{"value":"Occitanie","key":"StateName"},{"value":"Aude","key":"CountyName"}]},"MapReference":{"ReferenceId":"579299802","Spot":0.0,"SideOfStreet":"left","CountryId":"20000001","StateId":"20050212","CountyId":"20084624","CityId":"20085726"}}},{"Relevance":1.0,"Distance":34.4,"MatchLevel":"houseNumber","MatchQuality":{"Country":1.0,"State":1.0,"County":1.0,"City":1.0,"Street":[1.0],"HouseNumber":1.0,"PostalCode":1.0},"MatchType":"interpolated","Location":{"LocationId":"NT_l.IiypDNGWMwbZOLRd1XCB_xA","LocationType":"point","DisplayPosition":{"Latitude":43.36003,"Longitude":2.1699},"MapView":{"TopLeft":{"Latitude":43.3611542,"Longitude":2.1683538},"BottomRight":{"Latitude":43.3589058,"Longitude":2.1714462}},"Address":{"Label":"1 Place des Tours, 11310 Saissac, France","Country":"FRA","State":"Occitanie","County":"Aude","City":"Saissac","Street":"Place des Tours","HouseNumber":"1","PostalCode":"11310","AdditionalData":[{"value":"France","key":"CountryName"},{"value":"Occitanie","key":"StateName"},{"value":"Aude","key":"CountyName"}]},"MapReference":{"ReferenceId":"579299298","Spot":0.74,"SideOfStreet":"left","CountryId":"20000001","StateId":"20050212","CountyId":"20084624","CityId":"20085726","AddressId":"571212933","RoadLinkId":"50575809"}}},{"Relevance":1.0,"Distance":34.8,"MatchLevel":"street","MatchQuality":{"Country":1.0,"State":1.0,"County":1.0,"City":1.0,"Street":[1.0],"PostalCode":1.0},"Location":{"LocationId":"NT_6dB9ydpvhgEMjMoOjNH9kC_l_579299803_R","LocationType":"point","DisplayPosition":{"Latitude":43.3601813,"Longitude":2.1700755},"MapView":{"TopLeft":{"Latitude":43.36029,"Longitude":2.16995},"BottomRight":{"Latitude":43.36008,"Longitude":2.17021}},"Address":{"Label":"Place Victor Hugo, 11310 Saissac, France","Country":"FRA","State":"Occitanie","County":"Aude","City":"Saissac","Street":"Place Victor Hugo","PostalCode":"11310","AdditionalData":[{"value":"France","key":"CountryName"},{"value":"Occitanie","key":"StateName"},{"value":"Aude","key":"CountyName"}]},"MapReference":{"ReferenceId":"579299803","Spot":0.48,"SideOfStreet":"right","CountryId":"20000001","StateId":"20050212","CountyId":"20084624","CityId":"20085726"}}},{"Relevance":1.0,"Distance":40.9,"MatchLevel":"houseNumber","MatchQuality":{"Country":1.0,"State":1.0,"County":1.0,"City":1.0,"Street":[1.0],"HouseNumber":1.0,"PostalCode":1.0},"MatchType":"interpolated","Location":{"LocationId":"NT_8pfRcy.6zZzv1y1Mg7-nlA_yA","LocationType":"point","DisplayPosition":{"Latitude":43.3598,"Longitude":2.17078},"MapView":{"TopLeft":{"Latitude":43.3609242,"Longitude":2.1692338},"BottomRight":{"Latitude":43.3586758,"Longitude":2.1723262}},"Address":{"Label":"2 Avenue Maurice Sarraut, 11310 Saissac, France","Country":"FRA","State":"Occitanie","County":"Aude","City":"Saissac","Street":"Avenue Maurice Sarraut","HouseNumber":"2","PostalCode":"11310","AdditionalData":[{"value":"France","key":"CountryName"},{"value":"Occitanie","key":"StateName"},{"value":"Aude","key":"CountyName"}]},"MapReference":{"ReferenceId":"1051572239","Spot":0.73,"SideOfStreet":"left","CountryId":"20000001","StateId":"20050212","CountyId":"20084624","CityId":"20085726","AddressId":"571299383","RoadLinkId":"371201183"}}}]}]}}