{"Response":{"MetaInfo":{"Timestamp":"2020-03-28T11:11:38.707+0000","NextPageInformation":"2"},"View":[{"_type":"SearchResultsViewType","ViewId":0,"Result":[{"Relevance":1.0,"Distance":0.0,"Direction":0.0,"MatchLevel":"district","MatchQuality":{"Country":1.0,"State":1.0,"County":1.0,"City":1.0,"District":1.0,"PostalCode":1.0},"Location":{"LocationId":"NT_2Bbwza5gIBn4eJ0i0yN0mB","LocationType":"point","DisplayPosition":{"Latitude":43.3010772,"Longitude":5.5029729},"MapView":{"TopLeft":{"Latitude":43.3219,"Longitude":5.42438},"BottomRight":{"Latitude":43.25489,"Longitude":5.5324}},"Address":{"Label":"11e Arrondissement, Marseille, Provence-Alpes-Côte d'Azur, France","Country":"FRA","State":"Provence-Alpes-Côte d'Azur","County":"Bouches-du-Rhône","City":"Marseille","District":"11e Arrondissement","PostalCode":"13011","AdditionalData":[{"value":"France","key":"CountryName"},{"value":"Provence-Alpes-Côte d'Azur","key":"StateName"},{"value":"Bouches-du-Rhône","key":"CountyName"}]},"MapReference":{"ReferenceId":"1124432094","SideOfStreet":"neither","CountryId":"20000001","StateId":"20000193","CountyId":"20048302","CityId":"20048481","DistrictId":"20048493"}}},{"Relevance":1.0,"Distance":29.1,"MatchLevel":"houseNumber","MatchQuality":{"Country":1.0,"State":1.0,"County":1.0,"City":1.0,"District":1.0,"Street":[1.0],"HouseNumber":1.0,"PostalCode":1.0},"MatchType":"interpolated","Location":{"LocationId":"NT_zE8v08gbN6gkUqv6HFg9uA_l_58192297_R_xczN","LocationType":"point","DisplayPosition":{"Latitude":43.3010698,"Longitude":5.5024497},"MapView":{"TopLeft":{"Latitude":43.3021939,"Longitude":5.500905},"BottomRight":{"Latitude":43.2999456,"Longitude":5.5039944}},"Address":{"Label":"177 Route des Camoins, 13011 Marseille, France","Country":"FRA","State":"Provence-Alpes-Côte d'Azur","County":"Bouches-du-Rhône","City":"Marseille","District":"11e Arrondissement","Street":"Route des Camoins","HouseNumber":"177","PostalCode":"13011","AdditionalData":[{"value":"France","key":"CountryName"},{"value":"Provence-Alpes-Côte d'Azur","key":"StateName"},{"value":"Bouches-du-Rhône","key":"CountyName"}]},"MapReference":{"ReferenceId":"58192297","Spot":0.49,"SideOfStreet":"right","CountryId":"20000001","StateId":"20000193","CountyId":"20048302","CityId":"20048481","DistrictId":"20048493"}}},{"Relevance":1.0,"Distance":46.2,"MatchLevel":"street","MatchQuality":{"Country":1.0,"State":1.0,"County":1.0,"City":1.0,"District":1.0,"Street":[1.0],"PostalCode":1.0},"Location":{"LocationId":"NT_FWOOqEQnBnPl8mmN3O5hCA_l_1249710617_R","LocationType":"point","DisplayPosition":{"Latitude":43.30081,"Longitude":5.50341},"MapView":{"TopLeft":{"Latitude":43.30081,"Longitude":5.50341},"BottomRight":{"Latitude":43.30062,"Longitude":5.50395}},"Address":{"Label":"Clinique la Provençale, 13011 Marseille, France","Country":"FRA","State":"Provence-Alpes-Côte d'Azur","County":"Bouches-du-Rhône","City":"Marseille","District":"11e Arrondissement","Street":"Clinique la Provençale","PostalCode":"13011","AdditionalData":[{"value":"France","key":"CountryName"},{"value":"Provence-Alpes-Côte d'Azur","key":"StateName"},{"value":"Bouches-du-Rhône","key":"CountyName"}]},"MapReference":{"ReferenceId":"1249710617","Spot":1.0,"SideOfStreet":"right","CountryId":"20000001","StateId":"20000193","CountyId":"20048302","CityId":"20048481","DistrictId":"20048493"}}},{"Relevance":1.0,"Distance":47.0,"MatchLevel":"street","MatchQuality":{"Country":1.0,"State":1.0,"County":1.0,"City":1.0,"District":1.0,"Street":[1.0],"PostalCode":1.0},"Location":{"LocationId":"NT_zE8v08gbN6gkUqv6HFg9uA_l_1165688291_L","LocationType":"point","DisplayPosition":{"Latitude":43.3007499,"Longitude":5.5033411},"MapView":{"TopLeft":{"Latitude":43.30081,"Longitude":5.50319},"BottomRight":{"Latitude":43.30057,"Longitude":5.50341}},"Address":{"Label":"Route des Camoins, 13011 Marseille, France","Country":"FRA","State":"Provence-Alpes-Côte d'Azur","County":"Bouches-du-Rhône","City":"Marseille","District":"11e Arrondissement","Street":"Route des Camoins","PostalCode":"13011","AdditionalData":[{"value":"France","key":"CountryName"},{"value":"Provence-Alpes-Côte d'Azur","key":"StateName"},{"value":"Bouches-du-Rhône","key":"CountyName"}]},"MapReference":{"ReferenceId":"1165688291","Spot":0.72,"SideOfStreet":"left","CountryId":"20000001","StateId":"20000193","CountyId":"20048302","CityId":"20048481","DistrictId":"20048493"}}},{"Relevance":1.0,"Distance":55.1,"MatchLevel":"houseNumber","MatchQuality":{"Country":1.0,"State":1.0,"County":1.0,"City":1.0,"District":1.0,"Street":[1.0],"HouseNumber":1.0,"PostalCode":1.0},"MatchType":"interpolated","Location":{"LocationId":"NT_zE8v08gbN6gkUqv6HFg9uA_l_1165688292_R_xcjM","LocationType":"point","DisplayPosition":{"Latitude":43.3009942,"Longitude":5.5036439},"MapView":{"TopLeft":{"Latitude":43.3021184,"Longitude":5.5020992},"BottomRight":{"Latitude":43.2998701,"Longitude":5.5051886}},"Address":{"Label":"172 Route des Camoins, 13011 Marseille, France","Country":"FRA","State":"Provence-Alpes-Côte d'Azur","County":"Bouches-du-Rhône","City":"Marseille","District":"11e Arrondissement","Street":"Route des Camoins","HouseNumber":"172","PostalCode":"13011","AdditionalData":[{"value":"France","key":"CountryName"},{"value":"Provence-Alpes-Côte d'Azur","key":"StateName"},{"value":"Bouches-du-Rhône","key":"CountyName"}]},"MapReference":{"ReferenceId":"1165688292","Spot":0.49,"SideOfStreet":"right","CountryId":"20000001","StateId":"20000193","CountyId":"20048302","CityId":"20048481","DistrictId":"20048493"}}},{"Relevance":1.0,"Distance":71.7,"MatchLevel":"houseNumber","MatchQuality":{"Country":1.0,"State":1.0,"County":1.0,"City":1.0,"District":1.0,"Street":[1.0],"HouseNumber":1.0,"PostalCode":1.0},"MatchType":"interpolated","Location":{"LocationId":"NT_zE8v08gbN6gkUqv6HFg9uA_l_1247085150_R_xYDN","LocationType":"point","DisplayPosition":{"Latitude":43.3004355,"Longitude":5.5030655},"MapView":{"TopLeft":{"Latitude":43.3015596,"Longitude":5.5015208},"BottomRight":{"Latitude":43.2993113,"Longitude":5.5046101}},"Address":{"Label":"164 Route des Camoins, 13011 Marseille, France","Country":"FRA","State":"Provence-Alpes-Côte d'Azur","County":"Bouches-du-Rhône","City":"Marseille","District":"11e Arrondissement","Street":"Route des Camoins","HouseNumber":"164","PostalCode":"13011","AdditionalData":[{"value":"France","key":"CountryName"},{"value":"Provence-Alpes-Côte d'Azur","key":"StateName"},{"value":"Bouches-du-Rhône","key":"CountyName"}]},"MapReference":{"ReferenceId":"1247085150","Spot":0.51,"SideOfStreet":"right","CountryId":"20000001","StateId":"20000193","CountyId":"20048302","CityId":"20048481","DistrictId":"20048493"}}},{"Relevance":1.0,"Distance":75.0,"MatchLevel":"houseNumber","MatchQuality":{"Country":1.0,"State":1.0,"County":1.0,"City":1.0,"District":1.0,"Street":[1.0],"HouseNumber":1.0,"PostalCode":1.0},"MatchType":"interpolated","Location":{"LocationId":"NT_zE8v08gbN6gkUqv6HFg9uA_xczN","LocationType":"point","DisplayPosition":{"Latitude":43.30174,"Longitude":5.5028},"MapView":{"TopLeft":{"Latitude":43.3028642,"Longitude":5.5012553},"BottomRight":{"Latitude":43.3006158,"Longitude":5.5043447}},"Address":{"Label":"177 Route des Camoins, 13011 Marseille, France","Country":"FRA","State":"Provence-Alpes-Côte d'Azur","County":"Bouches-du-Rhône","City":"Marseille","District":"11e Arrondissement","Street":"Route des Camoins","HouseNumber":"177","PostalCode":"13011","AdditionalData":[{"value":"France","key":"CountryName"},{"value":"Provence-Alpes-Côte d'Azur","key":"StateName"},{"value":"Bouches-du-Rhône","key":"CountyName"}]},"MapReference":{"ReferenceId":"1170713921","Spot":1.0,"SideOfStreet":"left","CountryId":"20000001","StateId":"20000193","CountyId":"20048302","CityId":"20048481","DistrictId":"20048493","AddressId":"605785694","RoadLinkId":"477649241"}}},{"Relevance":1.0,"Distance":76.3,"MatchLevel":"street","MatchQuality":{"Country":1.0,"State":1.0,"County":1.0,"City":1.0,"District":1.0,"Street":[1.0],"PostalCode":1.0},"Location":{"LocationId":"NT_zE8v08gbN6gkUqv6HFg9uA_l_1165688290_L","LocationType":"point","DisplayPosition":{"Latitude":43.30115,"Longitude":5.50391},"MapView":{"TopLeft":{"Latitude":43.30122,"Longitude":5.50391},"BottomRight":{"Latitude":43.30115,"Longitude":5.50407}},"Address":{"Label":"Route des Camoins, 13011 Marseille, France","Country":"FRA","State":"Provence-Alpes-Côte d'Azur","County":"Bouches-du-Rhône","City":"Marseille","District":"11e Arrondissement","Street":"Route des Camoins","PostalCode":"13011","AdditionalData":[{"value":"France","key":"CountryName"},{"value":"Provence-Alpes-Côte d'Azur","key":"StateName"},{"value":"Bouches-du-Rhône","key":"CountyName"}]},"MapReference":{"ReferenceId":"1165688290","Spot":0.0,"SideOfStreet":"left","CountryId":"20000001","StateId":"20000193","CountyId":"20048302","CityId":"20048481","DistrictId":"20048493"}}},{"Relevance":1.0,"Distance":84.4,"MatchLevel":"street","MatchQuality":{"Country":1.0,"State":1.0,"County":1.0,"City":1.0,"District":1.0,"Street":[1.0],"PostalCode":1.0},"Location":{"LocationId":"NT_zE8v08gbN6gkUqv6HFg9uA_l_1247085149_L","LocationType":"point","DisplayPosition":{"Latitude":43.30032,"Longitude":5.50291},"MapView":{"TopLeft":{"Latitude":43.30032,"Longitude":5.50273},"BottomRight":{"Latitude":43.30022,"Longitude":5.50291}},"Address":{"Label":"Route des Camoins, 13011 Marseille, France","Country":"FRA","State":"Provence-Alpes-Côte d'Azur","County":"Bouches-du-Rhône","City":"Marseille","District":"11e Arrondissement","Street":"Route des Camoins","PostalCode":"13011","AdditionalData":[{"value":"France","key":"CountryName"},{"value":"Provence-Alpes-Côte d'Azur","key":"StateName"},{"value":"Bouches-du-Rhône","key":"CountyName"}]},"MapReference":{"ReferenceId":"1247085149","Spot":1.0,"SideOfStreet":"left","CountryId":"20000001","StateId":"20000193","CountyId":"20048302","CityId":"20048481","DistrictId":"20048493"}}},{"Relevance":1.0,"Distance":84.4,"MatchLevel":"street","MatchQuality":{"Country":1.0,"State":1.0,"County":1.0,"City":1.0,"District":1.0,"PostalCode":1.0},"Location":{"LocationId":"NT_3jAKltToQyug.0cgWHFVID_l_1249710595_R","LocationType":"point","DisplayPosition":{"Latitude":43.30032,"Longitude":5.50291},"MapView":{"TopLeft":{"Latitude":43.30032,"Longitude":5.50291},"BottomRight":{"Latitude":43.30011,"Longitude":5.50401}},"Address":{"Label":"13011 Marseille, France","Country":"FRA","State":"Provence-Alpes-Côte d'Azur","County":"Bouches-du-Rhône","City":"Marseille","District":"11e Arrondissement","PostalCode":"13011","AdditionalData":[{"value":"France","key":"CountryName"},{"value":"Provence-Alpes-Côte d'Azur","key":"StateName"},{"value":"Bouches-du-Rhône","key":"CountyName"}]},"MapReference":{"ReferenceId":"1249710595","Spot":1.0,"SideOfStreet":"right","CountryId":"20000001","StateId":"20000193","CountyId":"20048302","CityId":"20048481","DistrictId":"20048493"}}}]}]}}