{"Response":{"MetaInfo":{"Timestamp":"2020-03-28T09:41:38.590+0000","NextPageInformation":"2"},"View":[{"_type":"SearchResultsViewType","ViewId":0,"Result":[{"Relevance":1.0,"Distance":0.0,"Direction":0.0,"MatchLevel":"city","MatchQuality":{"Country":1.0,"State":1.0,"County":1.0,"City":1.0,"PostalCode":1.0},"Location":{"LocationId":"NT_MkwpSaqZn.FQse37J6suZB","LocationType":"point","DisplayPosition":{"Latitude":43.3442515,"Longitude":-4.0609077},"MapView":{"TopLeft":{"Latitude":43.38207,"Longitude":-4.08179},"BottomRight":{"Latitude":43.30011,"Longitude":-4.00224}},"Address":{"Label":"Torrelavega, Cantabria, España","Country":"ESP","State":"Cantabria","County":"Cantabria","City":"Torrelavega","PostalCode":"39300","AdditionalData":[{"value":"España","key":"CountryName"},{"value":"Cantabria","key":"StateName"},{"value":"Cantabria","key":"CountyName"}]},"MapReference":{"ReferenceId":"571937739","SideOfStreet":"neither","CountryId":"20215059","StateId":"20221901","CountyId":"20221902","CityId":"20282353"}}},{"Relevance":1.0,"Distance":13.4,"MatchLevel":"houseNumber","MatchQuality":{"Country":1.0,"State":1.0,"County":1.0,"City":1.0,"Street":[1.0],"HouseNumber":1.0,"PostalCode":1.0},"MatchType":"interpolated","Location":{"LocationId":"NT_SqR0kmBTFIVCsevIkNn70A_ykjQ","LocationType":"point","DisplayPosition":{"Latitude":43.3444,"Longitude":-4.06107},"MapView":{"TopLeft":{"Latitude":43.3455242,"Longitude":-4.0626158},"BottomRight":{"Latitude":43.3432758,"Longitude":-4.0595242}},"Address":{"Label":"Avenida del Besaya, 29B, 39300 Torrelavega (Cantabria), España","Country":"ESP","State":"Cantabria","County":"Cantabria","City":"Torrelavega","Street":"Avenida del Besaya","HouseNumber":"29B","PostalCode":"39300","AdditionalData":[{"value":"España","key":"CountryName"},{"value":"Cantabria","key":"StateName"},{"value":"Cantabria","key":"CountyName"}]},"MapReference":{"ReferenceId":"897382662","Spot":0.08,"SideOfStreet":"right","CountryId":"20215059","StateId":"20221901","CountyId":"20221902","CityId":"20282353","AddressId":"348109695","RoadLinkId":"259515248"}}},{"Relevance":1.0,"Distance":22.9,"MatchLevel":"street","MatchQuality":{"Country":1.0,"State":1.0,"County":1.0,"City":1.0,"Street":[1.0],"PostalCode":1.0},"Location":{"LocationId":"NT_SqR0kmBTFIVCsevIkNn70A_l_832934200_L","LocationType":"point","DisplayPosition":{"Latitude":43.34432,"Longitude":-4.06064},"MapView":{"TopLeft":{"Latitude":43.34432,"Longitude":-4.06064},"BottomRight":{"Latitude":43.34357,"Longitude":-4.05985}},"Address":{"Label":"Avenida del Besaya, 39300 Torrelavega (Cantabria), España","Country":"ESP","State":"Cantabria","County":"Cantabria","City":"Torrelavega","Street":"Avenida del Besaya","PostalCode":"39300","AdditionalData":[{"value":"España","key":"CountryName"},{"value":"Cantabria","key":"StateName"},{"value":"Cantabria","key":"CountyName"}]},"MapReference":{"ReferenceId":"832934200","Spot":1.0,"SideOfStreet":"left","CountryId":"20215059","StateId":"20221901","CountyId":"20221902","CityId":"20282353"}}},{"Relevance":1.0,"Distance":24.9,"MatchLevel":"street","MatchQuality":{"Country":1.0,"State":1.0,"County":1.0,"City":1.0,"Street":[1.0],"PostalCode":1.0},"Location":{"LocationId":"NT_SqR0kmBTFIVCsevIkNn70A_l_897382661_R","LocationType":"point","DisplayPosition":{"Latitude":43.34438,"Longitude":-4.06116},"MapView":{"TopLeft":{"Latitude":43.34438,"Longitude":-4.06145},"BottomRight":{"Latitude":43.34433,"Longitude":-4.06116}},"Address":{"Label":"Avenida del Besaya, 39300 Torrelavega (Cantabria), España","Country":"ESP","State":"Cantabria","County":"Cantabria","City":"Torrelavega","Street":"Avenida del Besaya","PostalCode":"39300","AdditionalData":[{"value":"España","key":"CountryName"},{"value":"Cantabria","key":"StateName"},{"value":"Cantabria","key":"CountyName"}]},"MapReference":{"ReferenceId":"897382661","Spot":1.0,"SideOfStreet":"right","CountryId":"20215059","StateId":"20221901","CountyId":"20221902","CityId":"20282353"}}},{"Relevance":1.0,"Distance":36.1,"MatchLevel":"houseNumber","MatchQuality":{"Country":1.0,"State":1.0,"County":1.0,"City":1.0,"Street":[1.0],"HouseNumber":1.0,"PostalCode":1.0},"MatchType":"interpolated","Location":{"LocationId":"NT_AmJR0BTbR..rfzJwoDuweA_ykzQ","LocationType":"point","DisplayPosition":{"Latitude":43.34394,"Longitude":-4.06133},"MapView":{"TopLeft":{"Latitude":43.3450642,"Longitude":-4.0628758},"BottomRight":{"Latitude":43.3428158,"Longitude":-4.0597842}},"Address":{"Label":"Carretera Campuzano a Cartes, 29C, 39300 Torrelavega (Cantabria), España","Country":"ESP","State":"Cantabria","County":"Cantabria","City":"Torrelavega","Street":"Carretera Campuzano a Cartes","HouseNumber":"29C","PostalCode":"39300","AdditionalData":[{"value":"España","key":"CountryName"},{"value":"Cantabria","key":"StateName"},{"value":"Cantabria","key":"CountyName"}]},"MapReference":{"ReferenceId":"571934076","Spot":0.25,"SideOfStreet":"right","CountryId":"20215059","StateId":"20221901","CountyId":"20221902","CityId":"20282353","AddressId":"348119459","RoadLinkId":"216152446"}}},{"Relevance":1.0,"Distance":44.7,"MatchLevel":"street","MatchQuality":{"Country":1.0,"State":1.0,"County":1.0,"City":1.0,"Street":[1.0],"PostalCode":1.0},"Location":{"LocationId":"NT_3BsIoGYVXY5oN6x4jN9b5D_l_571937872_R","LocationType":"point","DisplayPosition":{"Latitude":43.34433,"Longitude":-4.06145},"MapView":{"TopLeft":{"Latitude":43.34433,"Longitude":-4.06155},"BottomRight":{"Latitude":43.34418,"Longitude":-4.06145}},"Address":{"Label":"Glorieta Fuente Monumental, 39300 Torrelavega (Cantabria), España","Country":"ESP","State":"Cantabria","County":"Cantabria","City":"Torrelavega","Street":"Glorieta Fuente Monumental","PostalCode":"39300","AdditionalData":[{"value":"España","key":"CountryName"},{"value":"Cantabria","key":"StateName"},{"value":"Cantabria","key":"CountyName"}]},"MapReference":{"ReferenceId":"571937872","Spot":1.0,"SideOfStreet":"right","CountryId":"20215059","StateId":"20221901","CountyId":"20221902","CityId":"20282353"}}},{"Relevance":1.0,"Distance":44.7,"MatchLevel":"street","MatchQuality":{"Country":1.0,"State":1.0,"County":1.0,"City":1.0,"Street":[1.0],"PostalCode":1.0},"Location":{"LocationId":"NT_3BsIoGYVXY5oN6x4jN9b5D_l_571937959_R","LocationType":"point","DisplayPosition":{"Latitude":43.34433,"Longitude":-4.06145},"MapView":{"TopLeft":{"Latitude":43.34453,"Longitude":-4.06173},"BottomRight":{"Latitude":43.34433,"Longitude":-4.06145}},"Address":{"Label":"Glorieta Fuente Monumental, 39300 Torrelavega (Cantabria), España","Country":"ESP","State":"Cantabria","County":"Cantabria","City":"Torrelavega","Street":"Glorieta Fuente Monumental","PostalCode":"39300","AdditionalData":[{"value":"España","key":"CountryName"},{"value":"Cantabria","key":"StateName"},{"value":"Cantabria","key":"CountyName"}]},"MapReference":{"ReferenceId":"571937959","Spot":0.0,"SideOfStreet":"right","CountryId":"20215059","StateId":"20221901","CountyId":"20221902","CityId":"20282353"}}},{"Relevance":1.0,"Distance":52.5,"MatchLevel":"street","MatchQuality":{"Country":1.0,"State":1.0,"County":1.0,"City":1.0,"Street":[1.0],"PostalCode":1.0},"Location":{"LocationId":"NT_3BsIoGYVXY5oN6x4jN9b5D_l_571938275_R","LocationType":"point","DisplayPosition":{"Latitude":43.34418,"Longitude":-4.06155},"MapView":{"TopLeft":{"Latitude":43.34418,"Longitude":-4.06181},"BottomRight":{"Latitude":43.34411,"Longitude":-4.06155}},"Address":{"Label":"Glorieta Fuente Monumental, 39300 Torrelavega (Cantabria), España","Country":"ESP","State":"Cantabria","County":"Cantabria","City":"Torrelavega","Street":"Glorieta Fuente Monumental","PostalCode":"39300","AdditionalData":[{"value":"España","key":"CountryName"},{"value":"Cantabria","key":"StateName"},{"value":"Cantabria","key":"CountyName"}]},"MapReference":{"ReferenceId":"571938275","Spot":1.0,"SideOfStreet":"right","CountryId":"20215059","StateId":"20221901","CountyId":"20221902","CityId":"20282353"}}},{"Relevance":1.0,"Distance":56.4,"MatchLevel":"street","MatchQuality":{"Country":1.0,"State":1.0,"County":1.0,"City":1.0,"Street":[1.0],"PostalCode":1.0},"Location":{"LocationId":"NT_SqR0kmBTFIVCsevIkNn70A_l_571937979_L","LocationType":"point","DisplayPosition":{"Latitude":43.34426,"Longitude":-4.06021},"MapView":{"TopLeft":{"Latitude":43.34426,"Longitude":-4.06021},"BottomRight":{"Latitude":43.344,"Longitude":-4.05972}},"Address":{"Label":"Avenida del Besaya, 39300 Torrelavega (Cantabria), España","Country":"ESP","State":"Cantabria","County":"Cantabria","City":"Torrelavega","Street":"Avenida del Besaya","PostalCode":"39300","AdditionalData":[{"value":"España","key":"CountryName"},{"value":"Cantabria","key":"StateName"},{"value":"Cantabria","key":"CountyName"}]},"MapReference":{"ReferenceId":"571937979","Spot":1.0,"SideOfStreet":"left","CountryId":"20215059","StateId":"20221901","CountyId":"20221902","CityId":"20282353"}}},{"Relevance":1.0,"Distance":61.9,"MatchLevel":"houseNumber","MatchQuality":{"Country":1.0,"State":1.0,"County":1.0,"City":1.0,"Street":[1.0],"HouseNumber":1.0,"PostalCode":1.0},"MatchType":"interpolated","Location":{"LocationId":"NT_kxpm5FiqrA.qCi5zfhx8uC_zA","LocationType":"point","DisplayPosition":{"Latitude":43.34472,"Longitude":-4.06132},"MapView":{"TopLeft":{"Latitude":43.3458442,"Longitude":-4.0628658},"BottomRight":{"Latitude":43.3435958,"Longitude":-4.0597742}},"Address":{"Label":"Plaza Covadonga, 3, 39300 Torrelavega (Cantabria), España","Country":"ESP","State":"Cantabria","County":"Cantabria","City":"Torrelavega","Street":"Plaza Covadonga","HouseNumber":"3","PostalCode":"39300","AdditionalData":[{"value":"España","key":"CountryName"},{"value":"Cantabria","key":"StateName"},{"value":"Cantabria","key":"CountyName"}]},"MapReference":{"ReferenceId":"571937964","Spot":0.73,"SideOfStreet":"left","CountryId":"20215059","StateId":"20221901","CountyId":"20221902","CityId":"20282353","AddressId":"348113262","RoadLinkId":"68392136"}}}]}]}}