{"Response":{"MetaInfo":{"Timestamp":"2020-03-28T11:14:30.719+0000","NextPageInformation":"2"},"View":[{"_type":"SearchResultsViewType","ViewId":0,"Result":[{"Relevance":1.0,"Distance":-12.7,"MatchLevel":"landmark","MatchQuality":{"Country":1.0,"State":1.0,"County":1.0,"City":1.0,"PostalCode":1.0,"Name":1.0},"Location":{"LocationId":"NT_2SGvV9O0y5pa.03yVaQ99B_p_FzmI8aXWbyoRuzKDbivFYB","LocationType":"hospital","Name":"Polyclinique Côte Basque Sud","DisplayPosition":{"Latitude":43.39766,"Longitude":-1.63936},"MapView":{"TopLeft":{"Latitude":43.39812,"Longitude":-1.64056},"BottomRight":{"Latitude":43.39659,"Longitude":-1.63863}},"Address":{"Label":"64500 Saint-Jean-de-Luz, France","Country":"FRA","State":"Nouvelle-Aquitaine","County":"Pyrénées-Atlantiques","City":"Saint-Jean-de-Luz","PostalCode":"64500","AdditionalData":[{"value":"France","key":"CountryName"},{"value":"Nouvelle-Aquitaine","key":"StateName"},{"value":"Pyrénées-Atlantiques","key":"CountyName"}]},"MapReference":{"CountryId":"20000001","StateId":"20000383","CountyId":"20104588","CityId":"20105984","PlaceId":"51349938"}}},{"Relevance":1.0,"Distance":0.0,"Direction":0.0,"MatchLevel":"city","MatchQuality":{"Country":1.0,"State":1.0,"County":1.0,"City":1.0,"PostalCode":1.0},"Location":{"LocationId":"NT_JsJ4PsubkMi2mMAjrk8cOA","LocationType":"point","DisplayPosition":{"Latitude":43.3978643,"Longitude":-1.639169},"MapView":{"TopLeft":{"Latitude":43.42209,"Longitude":-1.66945},"BottomRight":{"Latitude":43.36527,"Longitude":-1.59729}},"Address":{"Label":"Saint-Jean-de-Luz, Nouvelle-Aquitaine, France","Country":"FRA","State":"Nouvelle-Aquitaine","County":"Pyrénées-Atlantiques","City":"Saint-Jean-de-Luz","PostalCode":"64500","AdditionalData":[{"value":"France","key":"CountryName"},{"value":"Nouvelle-Aquitaine","key":"StateName"},{"value":"Pyrénées-Atlantiques","key":"CountyName"}]},"MapReference":{"ReferenceId":"58037642","SideOfStreet":"neither","CountryId":"20000001","StateId":"20000383","CountyId":"20104588","CityId":"20105984"}}},{"Relevance":1.0,"Distance":5.5,"MatchLevel":"street","MatchQuality":{"Country":1.0,"State":1.0,"County":1.0,"City":1.0,"PostalCode":1.0},"Location":{"LocationId":"NT_ENm209rXYxZBBbvGbQSvbD_l_1160001765_R","LocationType":"point","DisplayPosition":{"Latitude":43.3979065,"Longitude":-1.6392042},"MapView":{"TopLeft":{"Latitude":43.39791,"Longitude":-1.63949},"BottomRight":{"Latitude":43.39784,"Longitude":-1.6392}},"Address":{"Label":"64500 Saint-Jean-de-Luz, France","Country":"FRA","State":"Nouvelle-Aquitaine","County":"Pyrénées-Atlantiques","City":"Saint-Jean-de-Luz","PostalCode":"64500","AdditionalData":[{"value":"France","key":"CountryName"},{"value":"Nouvelle-Aquitaine","key":"StateName"},{"value":"Pyrénées-Atlantiques","key":"CountyName"}]},"MapReference":{"ReferenceId":"1160001765","Spot":0.98,"SideOfStreet":"right","CountryId":"20000001","StateId":"20000383","CountyId":"20104588","CityId":"20105984"}}},{"Relevance":1.0,"Distance":5.7,"MatchLevel":"street","MatchQuality":{"Country":1.0,"State":1.0,"County":1.0,"City":1.0,"PostalCode":1.0},"Location":{"LocationId":"NT_ENm209rXYxZBBbvGbQSvbD_l_1160001764_R","LocationType":"point","DisplayPosition":{"Latitude":43.39791,"Longitude":-1.6392},"MapView":{"TopLeft":{"Latitude":43.39798,"Longitude":-1.6392},"BottomRight":{"Latitude":43.39791,"Longitude":-1.63917}},"Address":{"Label":"64500 Saint-Jean-de-Luz, France","Country":"FRA","State":"Nouvelle-Aquitaine","County":"Pyrénées-Atlantiques","City":"Saint-Jean-de-Luz","PostalCode":"64500","AdditionalData":[{"value":"France","key":"CountryName"},{"value":"Nouvelle-Aquitaine","key":"StateName"},{"value":"Pyrénées-Atlantiques","key":"CountyName"}]},"MapReference":{"ReferenceId":"1160001764","Spot":0.0,"SideOfStreet":"right","CountryId":"20000001","StateId":"20000383","CountyId":"20104588","CityId":"20105984"}}},{"Relevance":1.0,"Distance":7.9,"MatchLevel":"houseNumber","MatchQuality":{"Country":1.0,"State":1.0,"County":1.0,"City":1.0,"Street":[1.0],"HouseNumber":1.0,"PostalCode":1.0},"MatchType":"interpolated","Location":{"LocationId":"NT_NzTf61pCURgWbxF5qfWWED_l_546738716_L_0A","LocationType":"point","DisplayPosition":{"Latitude":43.397975,"Longitude":-1.63907},"MapView":{"TopLeft":{"Latitude":43.3990992,"Longitude":-1.6406172},"BottomRight":{"Latitude":43.3968508,"Longitude":-1.6375229}},"Address":{"Label":"4 Avenue de Layats, 64500 Saint-Jean-de-Luz, France","Country":"FRA","State":"Nouvelle-Aquitaine","County":"Pyrénées-Atlantiques","City":"Saint-Jean-de-Luz","Street":"Avenue de Layats","HouseNumber":"4","PostalCode":"64500","AdditionalData":[{"value":"France","key":"CountryName"},{"value":"Nouvelle-Aquitaine","key":"StateName"},{"value":"Pyrénées-Atlantiques","key":"CountyName"}]},"MapReference":{"ReferenceId":"546738716","Spot":0.5,"SideOfStreet":"left","CountryId":"20000001","StateId":"20000383","CountyId":"20104588","CityId":"20105984"}}},{"Relevance":1.0,"Distance":11.5,"MatchLevel":"street","MatchQuality":{"Country":1.0,"State":1.0,"County":1.0,"City":1.0,"PostalCode":1.0},"Location":{"LocationId":"NT_ENm209rXYxZBBbvGbQSvbD_l_590837591_L","LocationType":"point","DisplayPosition":{"Latitude":43.3977849,"Longitude":-1.6390782},"MapView":{"TopLeft":{"Latitude":43.39797,"Longitude":-1.64009},"BottomRight":{"Latitude":43.39732,"Longitude":-1.63897}},"Address":{"Label":"64500 Saint-Jean-de-Luz, France","Country":"FRA","State":"Nouvelle-Aquitaine","County":"Pyrénées-Atlantiques","City":"Saint-Jean-de-Luz","PostalCode":"64500","AdditionalData":[{"value":"France","key":"CountryName"},{"value":"Nouvelle-Aquitaine","key":"StateName"},{"value":"Pyrénées-Atlantiques","key":"CountyName"}]},"MapReference":{"ReferenceId":"590837591","Spot":0.84,"SideOfStreet":"left","CountryId":"20000001","StateId":"20000383","CountyId":"20104588","CityId":"20105984"}}},{"Relevance":1.0,"Distance":12.8,"MatchLevel":"landmark","MatchQuality":{"Country":1.0,"State":1.0,"County":1.0,"City":1.0,"PostalCode":1.0,"Name":1.0},"Location":{"LocationId":"NT_jVWMlzSE-2YyVvHldg272A","LocationType":"industrialComplex","Name":"Z.I. Laiats","DisplayPosition":{"Latitude":43.39931,"Longitude":-1.63853},"MapView":{"TopLeft":{"Latitude":43.40141,"Longitude":-1.64308},"BottomRight":{"Latitude":43.39721,"Longitude":-1.6359}},"Address":{"Label":"64500 Saint-Jean-de-Luz, France","Country":"FRA","State":"Nouvelle-Aquitaine","County":"Pyrénées-Atlantiques","City":"Saint-Jean-de-Luz","PostalCode":"64500","AdditionalData":[{"value":"France","key":"CountryName"},{"value":"Nouvelle-Aquitaine","key":"StateName"},{"value":"Pyrénées-Atlantiques","key":"CountyName"}]},"MapReference":{"CountryId":"20000001","StateId":"20000383","CountyId":"20104588","CityId":"20105984","PlaceId":"554732588"}}},{"Relevance":1.0,"Distance":12.9,"MatchLevel":"street","MatchQuality":{"Country":1.0,"State":1.0,"County":1.0,"City":1.0,"PostalCode":1.0},"Location":{"LocationId":"NT_ENm209rXYxZBBbvGbQSvbD_l_1160001767_L","LocationType":"point","DisplayPosition":{"Latitude":43.39798,"Longitude":-1.63917},"MapView":{"TopLeft":{"Latitude":43.39812,"Longitude":-1.63946},"BottomRight":{"Latitude":43.39798,"Longitude":-1.63917}},"Address":{"Label":"64500 Saint-Jean-de-Luz, France","Country":"FRA","State":"Nouvelle-Aquitaine","County":"Pyrénées-Atlantiques","City":"Saint-Jean-de-Luz","PostalCode":"64500","AdditionalData":[{"value":"France","key":"CountryName"},{"value":"Nouvelle-Aquitaine","key":"StateName"},{"value":"Pyrénées-Atlantiques","key":"CountyName"}]},"MapReference":{"ReferenceId":"1160001767","Spot":0.0,"SideOfStreet":"left","CountryId":"20000001","StateId":"20000383","CountyId":"20104588","CityId":"20105984"}}},{"Relevance":1.0,"Distance":19.9,"MatchLevel":"street","MatchQuality":{"Country":1.0,"State":1.0,"County":1.0,"City":1.0,"Street":[1.0],"PostalCode":1.0},"Location":{"LocationId":"NT_uikkloLlt3PBjmdWCzwrkB_l_826875401_L","LocationType":"point","DisplayPosition":{"Latitude":43.39797,"Longitude":-1.63897},"MapView":{"TopLeft":{"Latitude":43.39797,"Longitude":-1.63897},"BottomRight":{"Latitude":43.39786,"Longitude":-1.63889}},"Address":{"Label":"Chemin Behereko Landa, 64500 Saint-Jean-de-Luz, France","Country":"FRA","State":"Nouvelle-Aquitaine","County":"Pyrénées-Atlantiques","City":"Saint-Jean-de-Luz","Street":"Chemin Behereko Landa","PostalCode":"64500","AdditionalData":[{"value":"France","key":"CountryName"},{"value":"Nouvelle-Aquitaine","key":"StateName"},{"value":"Pyrénées-Atlantiques","key":"CountyName"}]},"MapReference":{"ReferenceId":"826875401","Spot":1.0,"SideOfStreet":"left","CountryId":"20000001","StateId":"20000383","CountyId":"20104588","CityId":"20105984"}}},{"Relevance":1.0,"Distance":22.5,"MatchLevel":"street","MatchQuality":{"Country":1.0,"State":1.0,"County":1.0,"City":1.0,"Street":[1.0],"PostalCode":1.0},"Location":{"LocationId":"NT_uikkloLlt3PBjmdWCzwrkB_l_826875400_L","LocationType":"point","DisplayPosition":{"Latitude":43.39786,"Longitude":-1.63889},"MapView":{"TopLeft":{"Latitude":43.39786,"Longitude":-1.63889},"BottomRight":{"Latitude":43.39749,"Longitude":-1.63871}},"Address":{"Label":"Chemin Behereko Landa, 64500 Saint-Jean-de-Luz, France","Country":"FRA","State":"Nouvelle-Aquitaine","County":"Pyrénées-Atlantiques","City":"Saint-Jean-de-Luz","Street":"Chemin Behereko Landa","PostalCode":"64500","AdditionalData":[{"value":"France","key":"CountryName"},{"value":"Nouvelle-Aquitaine","key":"StateName"},{"value":"Pyrénées-Atlantiques","key":"CountyName"}]},"MapReference":{"ReferenceId":"826875400","Spot":1.0,"SideOfStreet":"left","CountryId":"20000001","StateId":"20000383","CountyId":"20104588","CityId":"20105984"}}}]}]}}