{"Response":{"MetaInfo":{"Timestamp":"2020-03-28T10:53:03.695+0000","NextPageInformation":"2"},"View":[{"_type":"SearchResultsViewType","ViewId":0,"Result":[{"Relevance":1.0,"Distance":0.0,"Direction":0.0,"MatchLevel":"district","MatchQuality":{"Country":1.0,"County":1.0,"City":1.0,"District":1.0,"PostalCode":1.0},"Location":{"LocationId":"NT_7JAF.R2rwGNXn40qtsZ13D","LocationType":"point","DisplayPosition":{"Latitude":43.3139532,"Longitude":27.6655407},"MapView":{"TopLeft":{"Latitude":43.31867,"Longitude":27.65874},"BottomRight":{"Latitude":43.30868,"Longitude":27.67582}},"Address":{"Label":"Левски, Суворово, България","Country":"BGR","County":"Варна","City":"Суворово","District":"Левски","PostalCode":"9171","AdditionalData":[{"value":"България","key":"CountryName"},{"value":"Варна","key":"CountyName"}]},"MapReference":{"ReferenceId":"950633542","SideOfStreet":"neither","CountryId":"20656214","CountyId":"20665470","CityId":"23719211","DistrictId":"23718398"}}},{"Relevance":1.0,"Distance":7.2,"MatchLevel":"street","MatchQuality":{"Country":1.0,"County":1.0,"City":1.0,"District":1.0,"Street":[1.0],"PostalCode":1.0},"Location":{"LocationId":"NT_nq-9QCEaMzKL6VbOHQK7WC_l_815804040_R","LocationType":"point","DisplayPosition":{"Latitude":43.3140089,"Longitude":27.6654945},"MapView":{"TopLeft":{"Latitude":43.31443,"Longitude":27.66517},"BottomRight":{"Latitude":43.31374,"Longitude":27.66559}},"Address":{"Label":"Левски, 9171 Суворово, България","Country":"BGR","County":"Варна","City":"Суворово","District":"Левски","Street":"Левски","PostalCode":"9171","AdditionalData":[{"value":"България","key":"CountryName"},{"value":"Варна","key":"CountyName"}]},"MapReference":{"ReferenceId":"815804040","Spot":0.48,"SideOfStreet":"right","CountryId":"20656214","CountyId":"20665470","CityId":"23719211","DistrictId":"23718398"}}},{"Relevance":1.0,"Distance":41.9,"MatchLevel":"street","MatchQuality":{"Country":1.0,"County":1.0,"City":1.0,"District":1.0,"Street":[1.0],"PostalCode":1.0},"Location":{"LocationId":"NT_nq-9QCEaMzKL6VbOHQK7WC_l_815804048_L","LocationType":"point","DisplayPosition":{"Latitude":43.3136115,"Longitude":27.6657601},"MapView":{"TopLeft":{"Latitude":43.31436,"Longitude":27.66429},"BottomRight":{"Latitude":43.31291,"Longitude":27.66672}},"Address":{"Label":"Левски, 9171 Суворово, България","Country":"BGR","County":"Варна","City":"Суворово","District":"Левски","Street":"Левски","PostalCode":"9171","AdditionalData":[{"value":"България","key":"CountryName"},{"value":"Варна","key":"CountyName"}]},"MapReference":{"ReferenceId":"815804048","Spot":0.57,"SideOfStreet":"left","CountryId":"20656214","CountyId":"20665470","CityId":"23719211","DistrictId":"23718398"}}},{"Relevance":1.0,"Distance":53.0,"MatchLevel":"street","MatchQuality":{"Country":1.0,"County":1.0,"City":1.0,"District":1.0,"Street":[1.0],"PostalCode":1.0},"Location":{"LocationId":"NT_2lLNsb212YFaWg9wowgf5D_l_815804041_R","LocationType":"point","DisplayPosition":{"Latitude":43.31443,"Longitude":27.6655407},"MapView":{"TopLeft":{"Latitude":43.31444,"Longitude":27.66416},"BottomRight":{"Latitude":43.31434,"Longitude":27.66558}},"Address":{"Label":"2901, 9171 Суворово, България","Country":"BGR","County":"Варна","City":"Суворово","District":"Левски","Street":"2901","PostalCode":"9171","AdditionalData":[{"value":"България","key":"CountryName"},{"value":"Варна","key":"CountyName"}]},"MapReference":{"ReferenceId":"815804041","Spot":0.97,"SideOfStreet":"right","CountryId":"20656214","CountyId":"20665470","CityId":"23719211","DistrictId":"23718398"}}},{"Relevance":1.0,"Distance":53.1,"MatchLevel":"street","MatchQuality":{"Country":1.0,"County":1.0,"City":1.0,"District":1.0,"Street":[1.0],"PostalCode":1.0},"Location":{"LocationId":"NT_2lLNsb212YFaWg9wowgf5D_l_815804042_L","LocationType":"point","DisplayPosition":{"Latitude":43.31443,"Longitude":27.66558},"MapView":{"TopLeft":{"Latitude":43.31443,"Longitude":27.66558},"BottomRight":{"Latitude":43.31441,"Longitude":27.66593}},"Address":{"Label":"2901, 9171 Суворово, България","Country":"BGR","County":"Варна","City":"Суворово","District":"Левски","Street":"2901","PostalCode":"9171","AdditionalData":[{"value":"България","key":"CountryName"},{"value":"Варна","key":"CountyName"}]},"MapReference":{"ReferenceId":"815804042","Spot":1.0,"SideOfStreet":"left","CountryId":"20656214","CountyId":"20665470","CityId":"23719211","DistrictId":"23718398"}}},{"Relevance":1.0,"Distance":59.8,"MatchLevel":"street","MatchQuality":{"Country":1.0,"County":1.0,"City":1.0,"District":1.0,"Street":[1.0],"PostalCode":1.0},"Location":{"LocationId":"NT_nq-9QCEaMzKL6VbOHQK7WC_l_815804039_L","LocationType":"point","DisplayPosition":{"Latitude":43.31441,"Longitude":27.66593},"MapView":{"TopLeft":{"Latitude":43.31622,"Longitude":27.66478},"BottomRight":{"Latitude":43.31441,"Longitude":27.66593}},"Address":{"Label":"Левски, 9171 Суворово, България","Country":"BGR","County":"Варна","City":"Суворово","District":"Левски","Street":"Левски","PostalCode":"9171","AdditionalData":[{"value":"България","key":"CountryName"},{"value":"Варна","key":"CountyName"}]},"MapReference":{"ReferenceId":"815804039","Spot":0.0,"SideOfStreet":"left","CountryId":"20656214","CountyId":"20665470","CityId":"23719211","DistrictId":"23718398"}}},{"Relevance":1.0,"Distance":59.8,"MatchLevel":"street","MatchQuality":{"Country":1.0,"County":1.0,"City":1.0,"District":1.0,"Street":[1.0],"PostalCode":1.0},"Location":{"LocationId":"NT_2lLNsb212YFaWg9wowgf5D_l_815804047_L","LocationType":"point","DisplayPosition":{"Latitude":43.31441,"Longitude":27.66593},"MapView":{"TopLeft":{"Latitude":43.31441,"Longitude":27.66593},"BottomRight":{"Latitude":43.31436,"Longitude":27.66672}},"Address":{"Label":"2901, 9171 Суворово, България","Country":"BGR","County":"Варна","City":"Суворово","District":"Левски","Street":"2901","PostalCode":"9171","AdditionalData":[{"value":"България","key":"CountryName"},{"value":"Варна","key":"CountyName"}]},"MapReference":{"ReferenceId":"815804047","Spot":1.0,"SideOfStreet":"left","CountryId":"20656214","CountyId":"20665470","CityId":"23719211","DistrictId":"23718398"}}},{"Relevance":1.0,"Distance":105.6,"MatchLevel":"street","MatchQuality":{"Country":1.0,"County":1.0,"City":1.0,"District":1.0,"Street":[1.0],"PostalCode":1.0},"Location":{"LocationId":"NT_nq-9QCEaMzKL6VbOHQK7WC_l_1216126341_L","LocationType":"point","DisplayPosition":{"Latitude":43.31436,"Longitude":27.66672},"MapView":{"TopLeft":{"Latitude":43.31436,"Longitude":27.66672},"BottomRight":{"Latitude":43.31326,"Longitude":27.66769}},"Address":{"Label":"Левски, 9171 Суворово, България","Country":"BGR","County":"Варна","City":"Суворово","District":"Левски","Street":"Левски","PostalCode":"9171","AdditionalData":[{"value":"България","key":"CountryName"},{"value":"Варна","key":"CountyName"}]},"MapReference":{"ReferenceId":"1216126341","Spot":1.0,"SideOfStreet":"left","CountryId":"20656214","CountyId":"20665470","CityId":"23719211","DistrictId":"23718398"}}},{"Relevance":1.0,"Distance":105.6,"MatchLevel":"street","MatchQuality":{"Country":1.0,"County":1.0,"City":1.0,"District":1.0,"Street":[1.0],"PostalCode":1.0},"Location":{"LocationId":"NT_2lLNsb212YFaWg9wowgf5D_l_815804046_L","LocationType":"point","DisplayPosition":{"Latitude":43.31436,"Longitude":27.66672},"MapView":{"TopLeft":{"Latitude":43.31436,"Longitude":27.66672},"BottomRight":{"Latitude":43.31429,"Longitude":27.66756}},"Address":{"Label":"2901, 9171 Суворово, България","Country":"BGR","County":"Варна","City":"Суворово","District":"Левски","Street":"2901","PostalCode":"9171","AdditionalData":[{"value":"България","key":"CountryName"},{"value":"Варна","key":"CountyName"}]},"MapReference":{"ReferenceId":"815804046","Spot":1.0,"SideOfStreet":"left","CountryId":"20656214","CountyId":"20665470","CityId":"23719211","DistrictId":"23718398"}}},{"Relevance":1.0,"Distance":119.7,"MatchLevel":"street","MatchQuality":{"Country":1.0,"County":1.0,"City":1.0,"District":1.0,"Street":[1.0],"PostalCode":1.0},"Location":{"LocationId":"NT_2lLNsb212YFaWg9wowgf5D_l_815804044_R","LocationType":"point","DisplayPosition":{"Latitude":43.31434,"Longitude":27.66416},"MapView":{"TopLeft":{"Latitude":43.31434,"Longitude":27.66323},"BottomRight":{"Latitude":43.31411,"Longitude":27.66416}},"Address":{"Label":"2901, 9171 Суворово, България","Country":"BGR","County":"Варна","City":"Суворово","District":"Левски","Street":"2901","PostalCode":"9171","AdditionalData":[{"value":"България","key":"CountryName"},{"value":"Варна","key":"CountyName"}]},"MapReference":{"ReferenceId":"815804044","Spot":1.0,"SideOfStreet":"right","CountryId":"20656214","CountyId":"20665470","CityId":"23719211","DistrictId":"23718398"}}}]}]}}