{"Response":{"MetaInfo":{"Timestamp":"2020-03-28T10:53:32.583+0000","NextPageInformation":"2"},"View":[{"_type":"SearchResultsViewType","ViewId":0,"Result":[{"Relevance":1.0,"Distance":0.0,"Direction":0.0,"MatchLevel":"district","MatchQuality":{"Country":1.0,"County":1.0,"City":1.0,"District":1.0,"PostalCode":1.0},"Location":{"LocationId":"NT_fVvRXymU3nBVWiHFOVhE5D","LocationType":"point","DisplayPosition":{"Latitude":43.3425253,"Longitude":23.8470798},"MapView":{"TopLeft":{"Latitude":43.3459,"Longitude":23.84247},"BottomRight":{"Latitude":43.33774,"Longitude":23.85729}},"Address":{"Label":"Тлачене, Бяла Слатина, България","Country":"BGR","County":"Враца","City":"Бяла Слатина","District":"Тлачене","PostalCode":"3243","AdditionalData":[{"value":"България","key":"CountryName"},{"value":"Враца","key":"CountyName"}]},"MapReference":{"ReferenceId":"809987186","SideOfStreet":"neither","CountryId":"20656214","CountyId":"23719417","CityId":"23719309","DistrictId":"23719966"}}},{"Relevance":1.0,"Distance":16.4,"MatchLevel":"street","MatchQuality":{"Country":1.0,"County":1.0,"City":1.0,"District":1.0,"Street":[1.0],"PostalCode":1.0},"Location":{"LocationId":"NT_LY2JTS.WG1TyRcsQxSqj3C_l_809987186_L","LocationType":"point","DisplayPosition":{"Latitude":43.3425999,"Longitude":23.8472547},"MapView":{"TopLeft":{"Latitude":43.34315,"Longitude":23.84702},"BottomRight":{"Latitude":43.34218,"Longitude":23.84746}},"Address":{"Label":"Улица Д. Благоев, 3243 Бяла Слатина, България","Country":"BGR","County":"Враца","City":"Бяла Слатина","District":"Тлачене","Street":"Улица Д. Благоев","PostalCode":"3243","AdditionalData":[{"value":"България","key":"CountryName"},{"value":"Враца","key":"CountyName"}]},"MapReference":{"ReferenceId":"809987186","Spot":0.44,"SideOfStreet":"left","CountryId":"20656214","CountyId":"23719417","CityId":"23719309","DistrictId":"23719966"}}},{"Relevance":1.0,"Distance":48.5,"MatchLevel":"street","MatchQuality":{"Country":1.0,"County":1.0,"City":1.0,"District":1.0,"PostalCode":1.0},"Location":{"LocationId":"NT_rzTpe7AZ3ZnTxfJH1lyY7D_l_815976315_L","LocationType":"point","DisplayPosition":{"Latitude":43.3421012,"Longitude":23.8472179},"MapView":{"TopLeft":{"Latitude":43.34218,"Longitude":23.84703},"BottomRight":{"Latitude":43.34204,"Longitude":23.84746}},"Address":{"Label":"3243 Бяла Слатина, България","Country":"BGR","County":"Враца","City":"Бяла Слатина","District":"Тлачене","PostalCode":"3243","AdditionalData":[{"value":"България","key":"CountryName"},{"value":"Враца","key":"CountyName"}]},"MapReference":{"ReferenceId":"815976315","Spot":0.44,"SideOfStreet":"left","CountryId":"20656214","CountyId":"23719417","CityId":"23719309","DistrictId":"23719966"}}},{"Relevance":1.0,"Distance":49.2,"MatchLevel":"street","MatchQuality":{"Country":1.0,"County":1.0,"City":1.0,"District":1.0,"PostalCode":1.0},"Location":{"LocationId":"NT_rzTpe7AZ3ZnTxfJH1lyY7D_l_815976318_R","LocationType":"point","DisplayPosition":{"Latitude":43.34218,"Longitude":23.84746},"MapView":{"TopLeft":{"Latitude":43.34218,"Longitude":23.84746},"BottomRight":{"Latitude":43.34178,"Longitude":23.84822}},"Address":{"Label":"3243 Бяла Слатина, България","Country":"BGR","County":"Враца","City":"Бяла Слатина","District":"Тлачене","PostalCode":"3243","AdditionalData":[{"value":"България","key":"CountryName"},{"value":"Враца","key":"CountyName"}]},"MapReference":{"ReferenceId":"815976318","Spot":1.0,"SideOfStreet":"right","CountryId":"20656214","CountyId":"23719417","CityId":"23719309","DistrictId":"23719966"}}},{"Relevance":1.0,"Distance":54.1,"MatchLevel":"street","MatchQuality":{"Country":1.0,"County":1.0,"City":1.0,"District":1.0,"Street":[1.0],"PostalCode":1.0},"Location":{"LocationId":"NT_ZAjsZ22MSv-IvcPrf8VHdC_l_815976314_L","LocationType":"point","DisplayPosition":{"Latitude":43.34204,"Longitude":23.84703},"MapView":{"TopLeft":{"Latitude":43.34204,"Longitude":23.84572},"BottomRight":{"Latitude":43.34169,"Longitude":23.84703}},"Address":{"Label":"Улица Васил Левски, 3243 Бяла Слатина, България","Country":"BGR","County":"Враца","City":"Бяла Слатина","District":"Тлачене","Street":"Улица Васил Левски","PostalCode":"3243","AdditionalData":[{"value":"България","key":"CountryName"},{"value":"Враца","key":"CountyName"}]},"MapReference":{"ReferenceId":"815976314","Spot":1.0,"SideOfStreet":"left","CountryId":"20656214","CountyId":"23719417","CityId":"23719309","DistrictId":"23719966"}}},{"Relevance":1.0,"Distance":54.1,"MatchLevel":"street","MatchQuality":{"Country":1.0,"County":1.0,"City":1.0,"District":1.0,"PostalCode":1.0},"Location":{"LocationId":"NT_rzTpe7AZ3ZnTxfJH1lyY7D_l_815976316_R","LocationType":"point","DisplayPosition":{"Latitude":43.34204,"Longitude":23.84703},"MapView":{"TopLeft":{"Latitude":43.34204,"Longitude":23.84703},"BottomRight":{"Latitude":43.34178,"Longitude":23.84736}},"Address":{"Label":"3243 Бяла Слатина, България","Country":"BGR","County":"Враца","City":"Бяла Слатина","District":"Тлачене","PostalCode":"3243","AdditionalData":[{"value":"България","key":"CountryName"},{"value":"Враца","key":"CountyName"}]},"MapReference":{"ReferenceId":"815976316","Spot":1.0,"SideOfStreet":"right","CountryId":"20656214","CountyId":"23719417","CityId":"23719309","DistrictId":"23719966"}}},{"Relevance":1.0,"Distance":55.7,"MatchLevel":"street","MatchQuality":{"Country":1.0,"County":1.0,"City":1.0,"District":1.0,"Street":[1.0],"PostalCode":1.0},"Location":{"LocationId":"NT_E5iciFEH5xUaPC1bBNbIwA_l_815976330_R","LocationType":"point","DisplayPosition":{"Latitude":43.3429615,"Longitude":23.8467405},"MapView":{"TopLeft":{"Latitude":43.34307,"Longitude":23.84566},"BottomRight":{"Latitude":43.34196,"Longitude":23.84688}},"Address":{"Label":"Улица Г. Генов, 3243 Бяла Слатина, България","Country":"BGR","County":"Враца","City":"Бяла Слатина","District":"Тлачене","Street":"Улица Г. Генов","PostalCode":"3243","AdditionalData":[{"value":"България","key":"CountryName"},{"value":"Враца","key":"CountyName"}]},"MapReference":{"ReferenceId":"815976330","Spot":0.89,"SideOfStreet":"right","CountryId":"20656214","CountyId":"23719417","CityId":"23719309","DistrictId":"23719966"}}},{"Relevance":1.0,"Distance":62.7,"MatchLevel":"street","MatchQuality":{"Country":1.0,"County":1.0,"City":1.0,"District":1.0,"Street":[1.0],"PostalCode":1.0},"Location":{"LocationId":"NT_E5iciFEH5xUaPC1bBNbIwA_l_809987180_R","LocationType":"point","DisplayPosition":{"Latitude":43.34307,"Longitude":23.84688},"MapView":{"TopLeft":{"Latitude":43.34315,"Longitude":23.84688},"BottomRight":{"Latitude":43.34307,"Longitude":23.84702}},"Address":{"Label":"Улица Г. Генов, 3243 Бяла Слатина, България","Country":"BGR","County":"Враца","City":"Бяла Слатина","District":"Тлачене","Street":"Улица Г. Генов","PostalCode":"3243","AdditionalData":[{"value":"България","key":"CountryName"},{"value":"Враца","key":"CountyName"}]},"MapReference":{"ReferenceId":"809987180","Spot":0.0,"SideOfStreet":"right","CountryId":"20656214","CountyId":"23719417","CityId":"23719309","DistrictId":"23719966"}}},{"Relevance":1.0,"Distance":69.0,"MatchLevel":"street","MatchQuality":{"Country":1.0,"County":1.0,"City":1.0,"District":1.0,"PostalCode":1.0},"Location":{"LocationId":"NT_rzTpe7AZ3ZnTxfJH1lyY7D_l_809987182_L","LocationType":"point","DisplayPosition":{"Latitude":43.3431453,"Longitude":23.8471114},"MapView":{"TopLeft":{"Latitude":43.34315,"Longitude":23.84702},"BottomRight":{"Latitude":43.3431,"Longitude":23.848}},"Address":{"Label":"3243 Бяла Слатина, България","Country":"BGR","County":"Враца","City":"Бяла Слатина","District":"Тлачене","PostalCode":"3243","AdditionalData":[{"value":"България","key":"CountryName"},{"value":"Враца","key":"CountyName"}]},"MapReference":{"ReferenceId":"809987182","Spot":0.91,"SideOfStreet":"left","CountryId":"20656214","CountyId":"23719417","CityId":"23719309","DistrictId":"23719966"}}},{"Relevance":1.0,"Distance":69.6,"MatchLevel":"street","MatchQuality":{"Country":1.0,"County":1.0,"City":1.0,"District":1.0,"Street":[1.0],"PostalCode":1.0},"Location":{"LocationId":"NT_LY2JTS.WG1TyRcsQxSqj3C_l_809987184_L","LocationType":"point","DisplayPosition":{"Latitude":43.34315,"Longitude":23.84702},"MapView":{"TopLeft":{"Latitude":43.344,"Longitude":23.84664},"BottomRight":{"Latitude":43.34315,"Longitude":23.84702}},"Address":{"Label":"Улица Д. Благоев, 3243 Бяла Слатина, България","Country":"BGR","County":"Враца","City":"Бяла Слатина","District":"Тлачене","Street":"Улица Д. Благоев","PostalCode":"3243","AdditionalData":[{"value":"България","key":"CountryName"},{"value":"Враца","key":"CountyName"}]},"MapReference":{"ReferenceId":"809987184","Spot":0.0,"SideOfStreet":"left","CountryId":"20656214","CountyId":"23719417","CityId":"23719309","DistrictId":"23719966"}}}]}]}}