{"Response":{"MetaInfo":{"Timestamp":"2020-03-28T11:12:20.506+0000","NextPageInformation":"2"},"View":[{"_type":"SearchResultsViewType","ViewId":0,"Result":[{"Relevance":1.0,"Distance":0.0,"Direction":0.0,"MatchLevel":"city","MatchQuality":{"Country":1.0,"State":1.0,"County":1.0,"City":1.0,"PostalCode":1.0},"Location":{"LocationId":"NT_2HSUpPw99ZhdRw6wG6SxPA","LocationType":"point","DisplayPosition":{"Latitude":43.3951868,"Longitude":6.3164952},"MapView":{"TopLeft":{"Latitude":43.43448,"Longitude":6.25612},"BottomRight":{"Latitude":43.33643,"Longitude":6.36671}},"Address":{"Label":"Le Luc, Provence-Alpes-Côte d'Azur, France","Country":"FRA","State":"Provence-Alpes-Côte d'Azur","County":"Var","City":"Le Luc","PostalCode":"83340","AdditionalData":[{"value":"France","key":"CountryName"},{"value":"Provence-Alpes-Côte d'Azur","key":"StateName"},{"value":"Var","key":"CountyName"}]},"MapReference":{"ReferenceId":"834088524","SideOfStreet":"neither","CountryId":"20000001","StateId":"20000193","CountyId":"20055539","CityId":"20055770"}}},{"Relevance":1.0,"Distance":20.7,"MatchLevel":"street","MatchQuality":{"Country":1.0,"State":1.0,"County":1.0,"City":1.0,"Street":[1.0],"PostalCode":1.0},"Location":{"LocationId":"NT_OnczdmISR6IKB9tsDyAxcA_l_1027842598_L","LocationType":"point","DisplayPosition":{"Latitude":43.3953711,"Longitude":6.316535},"MapView":{"TopLeft":{"Latitude":43.39545,"Longitude":6.31617},"BottomRight":{"Latitude":43.39503,"Longitude":6.31893}},"Address":{"Label":"La Provençale, 83340 Le Luc, France","Country":"FRA","State":"Provence-Alpes-Côte d'Azur","County":"Var","City":"Le Luc","Street":"La Provençale","PostalCode":"83340","AdditionalData":[{"value":"France","key":"CountryName"},{"value":"Provence-Alpes-Côte d'Azur","key":"StateName"},{"value":"Var","key":"CountyName"}]},"MapReference":{"ReferenceId":"1027842598","Spot":0.87,"SideOfStreet":"left","CountryId":"20000001","StateId":"20000193","CountyId":"20055539","CityId":"20055770"}}},{"Relevance":1.0,"Distance":31.1,"MatchLevel":"street","MatchQuality":{"Country":1.0,"State":1.0,"County":1.0,"City":1.0,"Street":[1.0],"PostalCode":1.0},"Location":{"LocationId":"NT_OnczdmISR6IKB9tsDyAxcA_l_58457823_R","LocationType":"point","DisplayPosition":{"Latitude":43.3954623,"Longitude":6.3165578},"MapView":{"TopLeft":{"Latitude":43.3958,"Longitude":6.31648},"BottomRight":{"Latitude":43.3951,"Longitude":6.32502}},"Address":{"Label":"La Provençale, 83340 Le Luc, France","Country":"FRA","State":"Provence-Alpes-Côte d'Azur","County":"Var","City":"Le Luc","Street":"La Provençale","PostalCode":"83340","AdditionalData":[{"value":"France","key":"CountryName"},{"value":"Provence-Alpes-Côte d'Azur","key":"StateName"},{"value":"Var","key":"CountyName"}]},"MapReference":{"ReferenceId":"58457823","Spot":0.01,"SideOfStreet":"right","CountryId":"20000001","StateId":"20000193","CountyId":"20055539","CityId":"20055770"}}},{"Relevance":1.0,"Distance":32.6,"MatchLevel":"street","MatchQuality":{"Country":1.0,"State":1.0,"County":1.0,"City":1.0,"Street":[1.0],"PostalCode":1.0},"Location":{"LocationId":"NT_H2Nr.G-Xy7z1-Q2td-r97D_l_1250519426_L","LocationType":"point","DisplayPosition":{"Latitude":43.39548,"Longitude":6.31648},"MapView":{"TopLeft":{"Latitude":43.39554,"Longitude":6.31623},"BottomRight":{"Latitude":43.39548,"Longitude":6.31648}},"Address":{"Label":"La Provençale, 83340 Le Luc, France","Country":"FRA","State":"Provence-Alpes-Côte d'Azur","County":"Var","City":"Le Luc","Street":"La Provençale","PostalCode":"83340","AdditionalData":[{"value":"France","key":"CountryName"},{"value":"Provence-Alpes-Côte d'Azur","key":"StateName"},{"value":"Var","key":"CountyName"}]},"MapReference":{"ReferenceId":"1250519426","Spot":0.0,"SideOfStreet":"left","CountryId":"20000001","StateId":"20000193","CountyId":"20055539","CityId":"20055770"}}},{"Relevance":1.0,"Distance":39.3,"MatchLevel":"street","MatchQuality":{"Country":1.0,"State":1.0,"County":1.0,"City":1.0,"Street":[1.0],"PostalCode":1.0},"Location":{"LocationId":"NT_H2Nr.G-Xy7z1-Q2td-r97D_l_58068821_L","LocationType":"point","DisplayPosition":{"Latitude":43.39545,"Longitude":6.31617},"MapView":{"TopLeft":{"Latitude":43.39597,"Longitude":6.31448},"BottomRight":{"Latitude":43.39545,"Longitude":6.31617}},"Address":{"Label":"La Provençale, 83340 Le Luc, France","Country":"FRA","State":"Provence-Alpes-Côte d'Azur","County":"Var","City":"Le Luc","Street":"La Provençale","PostalCode":"83340","AdditionalData":[{"value":"France","key":"CountryName"},{"value":"Provence-Alpes-Côte d'Azur","key":"StateName"},{"value":"Var","key":"CountyName"}]},"MapReference":{"ReferenceId":"58068821","Spot":0.0,"SideOfStreet":"left","CountryId":"20000001","StateId":"20000193","CountyId":"20055539","CityId":"20055770"}}},{"Relevance":1.0,"Distance":44.7,"MatchLevel":"street","MatchQuality":{"Country":1.0,"State":1.0,"County":1.0,"City":1.0,"Street":[1.0],"PostalCode":1.0},"Location":{"LocationId":"NT_WpgMrB7QEVru3rESvRT1HA_l_1250519427_L","LocationType":"point","DisplayPosition":{"Latitude":43.39554,"Longitude":6.31623},"MapView":{"TopLeft":{"Latitude":43.39608,"Longitude":6.31449},"BottomRight":{"Latitude":43.39554,"Longitude":6.31623}},"Address":{"Label":"La Provençale, 83340 Le Luc, France","Country":"FRA","State":"Provence-Alpes-Côte d'Azur","County":"Var","City":"Le Luc","Street":"La Provençale","PostalCode":"83340","AdditionalData":[{"value":"France","key":"CountryName"},{"value":"Provence-Alpes-Côte d'Azur","key":"StateName"},{"value":"Var","key":"CountyName"}]},"MapReference":{"ReferenceId":"1250519427","Spot":0.0,"SideOfStreet":"left","CountryId":"20000001","StateId":"20000193","CountyId":"20055539","CityId":"20055770"}}},{"Relevance":1.0,"Distance":108.0,"MatchLevel":"street","MatchQuality":{"Country":1.0,"State":1.0,"County":1.0,"City":1.0,"PostalCode":1.0},"Location":{"LocationId":"NT_XfCpe7zXedvvEqDE89MdbA_l_68280126_R","LocationType":"point","DisplayPosition":{"Latitude":43.39463,"Longitude":6.3154},"MapView":{"TopLeft":{"Latitude":43.39463,"Longitude":6.31526},"BottomRight":{"Latitude":43.39444,"Longitude":6.3154}},"Address":{"Label":"83340 Le Luc, France","Country":"FRA","State":"Provence-Alpes-Côte d'Azur","County":"Var","City":"Le Luc","PostalCode":"83340","AdditionalData":[{"value":"France","key":"CountryName"},{"value":"Provence-Alpes-Côte d'Azur","key":"StateName"},{"value":"Var","key":"CountyName"}]},"MapReference":{"ReferenceId":"68280126","Spot":1.0,"SideOfStreet":"right","CountryId":"20000001","StateId":"20000193","CountyId":"20055539","CityId":"20055770"}}},{"Relevance":1.0,"Distance":128.6,"MatchLevel":"houseNumber","MatchQuality":{"Country":1.0,"State":1.0,"County":1.0,"City":1.0,"Street":[1.0],"HouseNumber":1.0,"PostalCode":1.0},"MatchType":"interpolated","Location":{"LocationId":"NT_dCfiqlR.nsog73enjh8YEB_ycD","LocationType":"point","DisplayPosition":{"Latitude":43.39399,"Longitude":6.31626},"MapView":{"TopLeft":{"Latitude":43.3951142,"Longitude":6.314713},"BottomRight":{"Latitude":43.3928658,"Longitude":6.317807}},"Address":{"Label":"27 Avenue Jean Jaurès, 83340 Le Luc, France","Country":"FRA","State":"Provence-Alpes-Côte d'Azur","County":"Var","City":"Le Luc","Street":"Avenue Jean Jaurès","HouseNumber":"27","PostalCode":"83340","AdditionalData":[{"value":"France","key":"CountryName"},{"value":"Provence-Alpes-Côte d'Azur","key":"StateName"},{"value":"Var","key":"CountyName"}]},"MapReference":{"ReferenceId":"1168064073","Spot":0.67,"SideOfStreet":"right","CountryId":"20000001","StateId":"20000193","CountyId":"20055539","CityId":"20055770","AddressId":"573366870","RoadLinkId":"474754234"}}},{"Relevance":1.0,"Distance":129.8,"MatchLevel":"street","MatchQuality":{"Country":1.0,"State":1.0,"County":1.0,"City":1.0,"PostalCode":1.0},"Location":{"LocationId":"NT_XfCpe7zXedvvEqDE89MdbA_l_68280125_R","LocationType":"point","DisplayPosition":{"Latitude":43.39444,"Longitude":6.31526},"MapView":{"TopLeft":{"Latitude":43.39444,"Longitude":6.3151},"BottomRight":{"Latitude":43.39432,"Longitude":6.31526}},"Address":{"Label":"83340 Le Luc, France","Country":"FRA","State":"Provence-Alpes-Côte d'Azur","County":"Var","City":"Le Luc","PostalCode":"83340","AdditionalData":[{"value":"France","key":"CountryName"},{"value":"Provence-Alpes-Côte d'Azur","key":"StateName"},{"value":"Var","key":"CountyName"}]},"MapReference":{"ReferenceId":"68280125","Spot":1.0,"SideOfStreet":"right","CountryId":"20000001","StateId":"20000193","CountyId":"20055539","CityId":"20055770"}}},{"Relevance":1.0,"Distance":136.4,"MatchLevel":"houseNumber","MatchQuality":{"Country":1.0,"State":1.0,"County":1.0,"City":1.0,"Street":[1.0],"HouseNumber":1.0,"PostalCode":1.0},"MatchType":"interpolated","Location":{"LocationId":"NT_5xCj3fpuhAkH1no6fYiQBB_l_835599904_R_1A","LocationType":"point","DisplayPosition":{"Latitude":43.39432,"Longitude":6.3151},"MapView":{"TopLeft":{"Latitude":43.3954442,"Longitude":6.3135529},"BottomRight":{"Latitude":43.3931959,"Longitude":6.316647}},"Address":{"Label":"5 Avenue Jean Jaurès, 83340 Le Luc, France","Country":"FRA","State":"Provence-Alpes-Côte d'Azur","County":"Var","City":"Le Luc","Street":"Avenue Jean Jaurès","HouseNumber":"5","PostalCode":"83340","AdditionalData":[{"value":"France","key":"CountryName"},{"value":"Provence-Alpes-Côte d'Azur","key":"StateName"},{"value":"Var","key":"CountyName"}]},"MapReference":{"ReferenceId":"835599904","Spot":0.0,"SideOfStreet":"right","CountryId":"20000001","StateId":"20000193","CountyId":"20055539","CityId":"20055770"}}}]}]}}