{"Response":{"MetaInfo":{"Timestamp":"2020-03-28T10:30:47.682+0000","NextPageInformation":"2"},"View":[{"_type":"SearchResultsViewType","ViewId":0,"Result":[{"Relevance":1.0,"Distance":0.0,"Direction":0.0,"MatchLevel":"city","MatchQuality":{"Country":1.0,"State":1.0,"County":1.0,"City":1.0,"PostalCode":1.0},"Location":{"LocationId":"NT_LwdVtTT0ngTYADbiP74IHA","LocationType":"point","DisplayPosition":{"Latitude":43.459991,"Longitude":1.245685},"MapView":{"TopLeft":{"Latitude":43.46916,"Longitude":1.22045},"BottomRight":{"Latitude":43.44172,"Longitude":1.26169}},"Address":{"Label":"Labastidette, Occitanie, France","Country":"FRA","State":"Occitanie","County":"Haute-Garonne","City":"Labastidette","PostalCode":"31600","AdditionalData":[{"value":"France","key":"CountryName"},{"value":"Occitanie","key":"StateName"},{"value":"Haute-Garonne","key":"CountyName"}]},"MapReference":{"ReferenceId":"542289342","SideOfStreet":"neither","CountryId":"20000001","StateId":"20050212","CountyId":"20094636","CityId":"20095386"}}},{"Relevance":1.0,"Distance":24.9,"MatchLevel":"houseNumber","MatchQuality":{"Country":1.0,"State":1.0,"County":1.0,"City":1.0,"Street":[1.0],"HouseNumber":1.0,"PostalCode":1.0},"MatchType":"interpolated","Location":{"LocationId":"NT_3QJuLGBErmBqANbML-ZwsC_3A","LocationType":"point","DisplayPosition":{"Latitude":43.46021,"Longitude":1.24562},"MapView":{"TopLeft":{"Latitude":43.4613342,"Longitude":1.2440713},"BottomRight":{"Latitude":43.4590858,"Longitude":1.2471687}},"Address":{"Label":"7 Place de l'École, 31600 Labastidette, France","Country":"FRA","State":"Occitanie","County":"Haute-Garonne","City":"Labastidette","Street":"Place de l'École","HouseNumber":"7","PostalCode":"31600","AdditionalData":[{"value":"France","key":"CountryName"},{"value":"Occitanie","key":"StateName"},{"value":"Haute-Garonne","key":"CountyName"}]},"MapReference":{"ReferenceId":"542289369","Spot":0.49,"SideOfStreet":"right","CountryId":"20000001","StateId":"20050212","CountyId":"20094636","CityId":"20095386","AddressId":"321078118","RoadLinkId":"51075845"}}},{"Relevance":1.0,"Distance":37.1,"MatchLevel":"houseNumber","MatchQuality":{"Country":1.0,"State":1.0,"County":1.0,"City":1.0,"Street":[1.0],"HouseNumber":1.0,"PostalCode":1.0},"MatchType":"interpolated","Location":{"LocationId":"NT_gFaNL3aD-BFtSfKHy.HdZB_l_941653329_L_zA","LocationType":"point","DisplayPosition":{"Latitude":43.459814,"Longitude":1.24621},"MapView":{"TopLeft":{"Latitude":43.4609382,"Longitude":1.2446613},"BottomRight":{"Latitude":43.4586899,"Longitude":1.2477587}},"Address":{"Label":"3 Place de l'Éole, 31600 Labastidette, France","Country":"FRA","State":"Occitanie","County":"Haute-Garonne","City":"Labastidette","Street":"Place de l'Éole","HouseNumber":"3","PostalCode":"31600","AdditionalData":[{"value":"France","key":"CountryName"},{"value":"Occitanie","key":"StateName"},{"value":"Haute-Garonne","key":"CountyName"}]},"MapReference":{"ReferenceId":"941653329","Spot":0.51,"SideOfStreet":"left","CountryId":"20000001","StateId":"20050212","CountyId":"20094636","CityId":"20095386"}}},{"Relevance":1.0,"Distance":39.4,"MatchLevel":"houseNumber","MatchQuality":{"Country":1.0,"State":1.0,"County":1.0,"City":1.0,"Street":[1.0],"HouseNumber":1.0,"PostalCode":1.0},"MatchType":"interpolated","Location":{"LocationId":"NT_pCuk2z2LfA.V.bfaPTQgoA_zA","LocationType":"point","DisplayPosition":{"Latitude":43.45968,"Longitude":1.24592},"MapView":{"TopLeft":{"Latitude":43.4608042,"Longitude":1.2443713},"BottomRight":{"Latitude":43.4585558,"Longitude":1.2474687}},"Address":{"Label":"3 Route de l'Aérodrome, 31600 Labastidette, France","Country":"FRA","State":"Occitanie","County":"Haute-Garonne","City":"Labastidette","Street":"Route de l'Aérodrome","HouseNumber":"3","PostalCode":"31600","AdditionalData":[{"value":"France","key":"CountryName"},{"value":"Occitanie","key":"StateName"},{"value":"Haute-Garonne","key":"CountyName"}]},"MapReference":{"ReferenceId":"941653328","Spot":0.42,"SideOfStreet":"right","CountryId":"20000001","StateId":"20050212","CountyId":"20094636","CityId":"20095386","AddressId":"379699955","RoadLinkId":"291634349"}}},{"Relevance":1.0,"Distance":41.4,"MatchLevel":"houseNumber","MatchQuality":{"Country":1.0,"State":1.0,"County":1.0,"City":1.0,"Street":[1.0],"HouseNumber":1.0,"PostalCode":1.0},"MatchType":"interpolated","Location":{"LocationId":"NT_pCuk2z2LfA.V.bfaPTQgoA_yA","LocationType":"point","DisplayPosition":{"Latitude":43.45982,"Longitude":1.24523},"MapView":{"TopLeft":{"Latitude":43.4609442,"Longitude":1.2436813},"BottomRight":{"Latitude":43.4586958,"Longitude":1.2467787}},"Address":{"Label":"2 Route de l'Aérodrome, 31600 Labastidette, France","Country":"FRA","State":"Occitanie","County":"Haute-Garonne","City":"Labastidette","Street":"Route de l'Aérodrome","HouseNumber":"2","PostalCode":"31600","AdditionalData":[{"value":"France","key":"CountryName"},{"value":"Occitanie","key":"StateName"},{"value":"Haute-Garonne","key":"CountyName"}]},"MapReference":{"ReferenceId":"57718125","Spot":0.59,"SideOfStreet":"left","CountryId":"20000001","StateId":"20050212","CountyId":"20094636","CityId":"20095386","AddressId":"320953899","RoadLinkId":"153798111"}}},{"Relevance":1.0,"Distance":49.0,"MatchLevel":"houseNumber","MatchQuality":{"Country":1.0,"State":1.0,"County":1.0,"City":1.0,"Street":[1.0],"HouseNumber":1.0,"PostalCode":1.0},"MatchType":"interpolated","Location":{"LocationId":"NT_tSiceHMF0TCy3uhu7GoCKB_l_833455118_L_1UD","LocationType":"point","DisplayPosition":{"Latitude":43.4601105,"Longitude":1.2451003},"MapView":{"TopLeft":{"Latitude":43.4612347,"Longitude":1.2435516},"BottomRight":{"Latitude":43.4589864,"Longitude":1.246649}},"Address":{"Label":"55 Route Principale, 31600 Labastidette, France","Country":"FRA","State":"Occitanie","County":"Haute-Garonne","City":"Labastidette","Street":"Route Principale","HouseNumber":"55","PostalCode":"31600","AdditionalData":[{"value":"France","key":"CountryName"},{"value":"Occitanie","key":"StateName"},{"value":"Haute-Garonne","key":"CountyName"}]},"MapReference":{"ReferenceId":"833455118","Spot":0.51,"SideOfStreet":"left","CountryId":"20000001","StateId":"20050212","CountyId":"20094636","CityId":"20095386"}}},{"Relevance":1.0,"Distance":49.3,"MatchLevel":"houseNumber","MatchQuality":{"Country":1.0,"State":1.0,"County":1.0,"City":1.0,"Street":[1.0],"HouseNumber":1.0,"PostalCode":1.0},"MatchType":"interpolated","Location":{"LocationId":"NT_h-cKhRFHE7stO723wrrm4D_1kD","LocationType":"point","DisplayPosition":{"Latitude":43.46025,"Longitude":1.24519},"MapView":{"TopLeft":{"Latitude":43.4613742,"Longitude":1.2436413},"BottomRight":{"Latitude":43.4591258,"Longitude":1.2467387}},"Address":{"Label":"59 Route Principale, 31600 Labastidette, France","Country":"FRA","State":"Occitanie","County":"Haute-Garonne","City":"Labastidette","Street":"Route Principale","HouseNumber":"59","PostalCode":"31600","AdditionalData":[{"value":"France","key":"CountryName"},{"value":"Occitanie","key":"StateName"},{"value":"Haute-Garonne","key":"CountyName"}]},"MapReference":{"ReferenceId":"833455119","Spot":0.21,"SideOfStreet":"left","CountryId":"20000001","StateId":"20050212","CountyId":"20094636","CityId":"20095386","AddressId":"320847799","RoadLinkId":"216762023"}}},{"Relevance":1.0,"Distance":56.8,"MatchLevel":"houseNumber","MatchQuality":{"Country":1.0,"State":1.0,"County":1.0,"City":1.0,"Street":[1.0],"HouseNumber":1.0,"PostalCode":1.0},"MatchType":"interpolated","Location":{"LocationId":"NT_h-cKhRFHE7stO723wrrm4D_yA","LocationType":"point","DisplayPosition":{"Latitude":43.45991,"Longitude":1.24499},"MapView":{"TopLeft":{"Latitude":43.4610342,"Longitude":1.2434413},"BottomRight":{"Latitude":43.4587858,"Longitude":1.2465387}},"Address":{"Label":"2 Route Principale, 31600 Labastidette, France","Country":"FRA","State":"Occitanie","County":"Haute-Garonne","City":"Labastidette","Street":"Route Principale","HouseNumber":"2","PostalCode":"31600","AdditionalData":[{"value":"France","key":"CountryName"},{"value":"Occitanie","key":"StateName"},{"value":"Haute-Garonne","key":"CountyName"}]},"MapReference":{"ReferenceId":"542289345","Spot":0.17,"SideOfStreet":"left","CountryId":"20000001","StateId":"20050212","CountyId":"20094636","CityId":"20095386","AddressId":"321100132","RoadLinkId":"50608053"}}},{"Relevance":1.0,"Distance":65.6,"MatchLevel":"houseNumber","MatchQuality":{"Country":1.0,"State":1.0,"County":1.0,"City":1.0,"Street":[1.0],"HouseNumber":1.0,"PostalCode":1.0},"MatchType":"interpolated","Location":{"LocationId":"NT_h-cKhRFHE7stO723wrrm4D_0gD","LocationType":"point","DisplayPosition":{"Latitude":43.45975,"Longitude":1.24491},"MapView":{"TopLeft":{"Latitude":43.4608742,"Longitude":1.2433613},"BottomRight":{"Latitude":43.4586258,"Longitude":1.2464587}},"Address":{"Label":"48 Route Principale, 31600 Labastidette, France","Country":"FRA","State":"Occitanie","County":"Haute-Garonne","City":"Labastidette","Street":"Route Principale","HouseNumber":"48","PostalCode":"31600","AdditionalData":[{"value":"France","key":"CountryName"},{"value":"Occitanie","key":"StateName"},{"value":"Haute-Garonne","key":"CountyName"}]},"MapReference":{"ReferenceId":"833051834","Spot":0.2,"SideOfStreet":"right","CountryId":"20000001","StateId":"20050212","CountyId":"20094636","CityId":"20095386","AddressId":"571695243","RoadLinkId":"216287654"}}},{"Relevance":1.0,"Distance":67.8,"MatchLevel":"houseNumber","MatchQuality":{"Country":1.0,"State":1.0,"County":1.0,"City":1.0,"Street":[1.0],"HouseNumber":1.0,"PostalCode":1.0},"MatchType":"interpolated","Location":{"LocationId":"NT_pCuk2z2LfA.V.bfaPTQgoA_1A","LocationType":"point","DisplayPosition":{"Latitude":43.4596,"Longitude":1.24633},"MapView":{"TopLeft":{"Latitude":43.4607242,"Longitude":1.2447813},"BottomRight":{"Latitude":43.4584758,"Longitude":1.2478787}},"Address":{"Label":"5 Route de l'Aérodrome, 31600 Labastidette, France","Country":"FRA","State":"Occitanie","County":"Haute-Garonne","City":"Labastidette","Street":"Route de l'Aérodrome","HouseNumber":"5","PostalCode":"31600","AdditionalData":[{"value":"France","key":"CountryName"},{"value":"Occitanie","key":"StateName"},{"value":"Haute-Garonne","key":"CountyName"}]},"MapReference":{"ReferenceId":"941653327","Spot":0.28,"SideOfStreet":"right","CountryId":"20000001","StateId":"20050212","CountyId":"20094636","CityId":"20095386","AddressId":"320791652","RoadLinkId":"291634348"}}}]}]}}