{"Response":{"MetaInfo":{"Timestamp":"2020-03-28T09:44:18.558+0000","NextPageInformation":"2"},"View":[{"_type":"SearchResultsViewType","ViewId":0,"Result":[{"Relevance":1.0,"Distance":0.0,"Direction":0.0,"MatchLevel":"city","MatchQuality":{"Country":1.0,"State":1.0,"County":1.0,"City":1.0,"PostalCode":1.0},"Location":{"LocationId":"NT_uE4UKj4Ck5hEFVbliBrGFA","LocationType":"point","DisplayPosition":{"Latitude":43.4988346,"Longitude":-8.2444073},"MapView":{"TopLeft":{"Latitude":43.56946,"Longitude":-8.34793},"BottomRight":{"Latitude":43.45354,"Longitude":-8.191}},"Address":{"Label":"Ferrol, Galicia, España","Country":"ESP","State":"Galicia","County":"A Coruña","City":"Ferrol","PostalCode":"15403","AdditionalData":[{"value":"España","key":"CountryName"},{"value":"Galicia","key":"StateName"},{"value":"A Coruña","key":"CountyName"}]},"MapReference":{"ReferenceId":"551550964","SideOfStreet":"neither","CountryId":"20215059","StateId":"20226791","CountyId":"20226792","CityId":"20322123"}}},{"Relevance":1.0,"Distance":3.0,"MatchLevel":"street","MatchQuality":{"Country":1.0,"State":1.0,"County":1.0,"City":1.0,"PostalCode":1.0},"Location":{"LocationId":"NT_00kNzoiF-uqaQ1mvw1Xg8B_l_551550842_L","LocationType":"point","DisplayPosition":{"Latitude":43.498859,"Longitude":-8.2443914},"MapView":{"TopLeft":{"Latitude":43.49891,"Longitude":-8.24447},"BottomRight":{"Latitude":43.49867,"Longitude":-8.2441}},"Address":{"Label":"15405 Ferrol (A Coruña), España","Country":"ESP","State":"Galicia","County":"A Coruña","City":"Ferrol","PostalCode":"15405","AdditionalData":[{"value":"España","key":"CountryName"},{"value":"Galicia","key":"StateName"},{"value":"A Coruña","key":"CountyName"}]},"MapReference":{"ReferenceId":"551550842","Spot":0.79,"SideOfStreet":"neither","CountryId":"20215059","StateId":"20226791","CountyId":"20226792","CityId":"20322123"}}},{"Relevance":1.0,"Distance":9.8,"MatchLevel":"landmark","MatchQuality":{"Country":1.0,"State":1.0,"County":1.0,"City":1.0,"Street":[1.0],"PostalCode":1.0,"Name":1.0},"Location":{"LocationId":"NT_uJFwhRlHlx51QG-Oj7fBSC_p_rZsFscs3yQV8D6fO6lDvrA","LocationType":"universityCollege","Name":"Campus de Serantes","DisplayPosition":{"Latitude":43.50042,"Longitude":-8.24246},"MapView":{"TopLeft":{"Latitude":43.50062,"Longitude":-8.24609},"BottomRight":{"Latitude":43.49873,"Longitude":-8.24232}},"Address":{"Label":"G-11, 15405 Ferrol (A Coruña), España","Country":"ESP","State":"Galicia","County":"A Coruña","City":"Ferrol","Street":"G-11","PostalCode":"15405","AdditionalData":[{"value":"España","key":"CountryName"},{"value":"Galicia","key":"StateName"},{"value":"A Coruña","key":"CountyName"}]},"MapReference":{"CountryId":"20215059","StateId":"20226791","CountyId":"20226792","CityId":"20322123","PlaceId":"1098623736"}}},{"Relevance":1.0,"Distance":13.1,"MatchLevel":"houseNumber","MatchQuality":{"Country":1.0,"State":1.0,"County":1.0,"City":1.0,"Street":[1.0],"HouseNumber":1.0,"PostalCode":1.0},"MatchType":"interpolated","Location":{"LocationId":"NT_8Nf4hnby5tU0NYCw79x-hA_zA","LocationType":"point","DisplayPosition":{"Latitude":43.49883,"Longitude":-8.24457},"MapView":{"TopLeft":{"Latitude":43.4999542,"Longitude":-8.2461197},"BottomRight":{"Latitude":43.4977058,"Longitude":-8.2430203}},"Address":{"Label":"Avenida 19 de Febreiro, 3, 15405 Ferrol (A Coruña), España","Country":"ESP","State":"Galicia","County":"A Coruña","City":"Ferrol","Street":"Avenida 19 de Febreiro","HouseNumber":"3","PostalCode":"15405","AdditionalData":[{"value":"España","key":"CountryName"},{"value":"Galicia","key":"StateName"},{"value":"A Coruña","key":"CountyName"}]},"MapReference":{"ReferenceId":"551550859","Spot":0.15,"SideOfStreet":"right","CountryId":"20215059","StateId":"20226791","CountyId":"20226792","CityId":"20322123","AddressId":"778583124","RoadLinkId":"69186516"}}},{"Relevance":1.0,"Distance":14.8,"MatchLevel":"street","MatchQuality":{"Country":1.0,"State":1.0,"County":1.0,"City":1.0,"PostalCode":1.0},"Location":{"LocationId":"NT_00kNzoiF-uqaQ1mvw1Xg8B_l_551550860_R","LocationType":"point","DisplayPosition":{"Latitude":43.49882,"Longitude":-8.24459},"MapView":{"TopLeft":{"Latitude":43.49882,"Longitude":-8.24513},"BottomRight":{"Latitude":43.49873,"Longitude":-8.24459}},"Address":{"Label":"15405 Ferrol (A Coruña), España","Country":"ESP","State":"Galicia","County":"A Coruña","City":"Ferrol","PostalCode":"15405","AdditionalData":[{"value":"España","key":"CountryName"},{"value":"Galicia","key":"StateName"},{"value":"A Coruña","key":"CountyName"}]},"MapReference":{"ReferenceId":"551550860","Spot":1.0,"SideOfStreet":"right","CountryId":"20215059","StateId":"20226791","CountyId":"20226792","CityId":"20322123"}}},{"Relevance":1.0,"Distance":26.3,"MatchLevel":"houseNumber","MatchQuality":{"Country":1.0,"State":1.0,"County":1.0,"City":1.0,"Street":[1.0],"HouseNumber":1.0,"PostalCode":1.0},"MatchType":"interpolated","Location":{"LocationId":"NT_8Nf4hnby5tU0NYCw79x-hA_yA","LocationType":"point","DisplayPosition":{"Latitude":43.49873,"Longitude":-8.2447},"MapView":{"TopLeft":{"Latitude":43.4998542,"Longitude":-8.2462497},"BottomRight":{"Latitude":43.4976058,"Longitude":-8.2431503}},"Address":{"Label":"Avenida 19 de Febreiro, 2, 15405 Ferrol (A Coruña), España","Country":"ESP","State":"Galicia","County":"A Coruña","City":"Ferrol","Street":"Avenida 19 de Febreiro","HouseNumber":"2","PostalCode":"15405","AdditionalData":[{"value":"España","key":"CountryName"},{"value":"Galicia","key":"StateName"},{"value":"A Coruña","key":"CountyName"}]},"MapReference":{"ReferenceId":"551550858","Spot":0.56,"SideOfStreet":"right","CountryId":"20215059","StateId":"20226791","CountyId":"20226792","CityId":"20322123","AddressId":"778483570","RoadLinkId":"67982813"}}},{"Relevance":1.0,"Distance":28.1,"MatchLevel":"houseNumber","MatchQuality":{"Country":1.0,"State":1.0,"County":1.0,"City":1.0,"Street":[1.0],"HouseNumber":1.0,"PostalCode":1.0},"MatchType":"interpolated","Location":{"LocationId":"NT_8Nf4hnby5tU0NYCw79x-hA_xkD","LocationType":"point","DisplayPosition":{"Latitude":43.49907,"Longitude":-8.24428},"MapView":{"TopLeft":{"Latitude":43.5001942,"Longitude":-8.2458297},"BottomRight":{"Latitude":43.4979458,"Longitude":-8.2427303}},"Address":{"Label":"Avenida 19 de Febreiro, 19, 15405 Ferrol (A Coruña), España","Country":"ESP","State":"Galicia","County":"A Coruña","City":"Ferrol","Street":"Avenida 19 de Febreiro","HouseNumber":"19","PostalCode":"15405","AdditionalData":[{"value":"España","key":"CountryName"},{"value":"Galicia","key":"StateName"},{"value":"A Coruña","key":"CountyName"}]},"MapReference":{"ReferenceId":"82193411","Spot":0.52,"SideOfStreet":"right","CountryId":"20215059","StateId":"20226791","CountyId":"20226792","CityId":"20322123","AddressId":"351072734","RoadLinkId":"68803530"}}},{"Relevance":1.0,"Distance":30.8,"MatchLevel":"street","MatchQuality":{"Country":1.0,"State":1.0,"County":1.0,"City":1.0,"PostalCode":1.0},"Location":{"LocationId":"NT_00kNzoiF-uqaQ1mvw1Xg8B_l_551550843_L","LocationType":"point","DisplayPosition":{"Latitude":43.49867,"Longitude":-8.2441},"MapView":{"TopLeft":{"Latitude":43.49867,"Longitude":-8.2441},"BottomRight":{"Latitude":43.49858,"Longitude":-8.24394}},"Address":{"Label":"15405 Ferrol (A Coruña), España","Country":"ESP","State":"Galicia","County":"A Coruña","City":"Ferrol","PostalCode":"15405","AdditionalData":[{"value":"España","key":"CountryName"},{"value":"Galicia","key":"StateName"},{"value":"A Coruña","key":"CountyName"}]},"MapReference":{"ReferenceId":"551550843","Spot":1.0,"SideOfStreet":"left","CountryId":"20215059","StateId":"20226791","CountyId":"20226792","CityId":"20322123"}}},{"Relevance":1.0,"Distance":31.2,"MatchLevel":"street","MatchQuality":{"Country":1.0,"State":1.0,"County":1.0,"City":1.0,"PostalCode":1.0},"Location":{"LocationId":"NT_00kNzoiF-uqaQ1mvw1Xg8B_l_551550851_L","LocationType":"point","DisplayPosition":{"Latitude":43.4986583,"Longitude":-8.2441069},"MapView":{"TopLeft":{"Latitude":43.49867,"Longitude":-8.24437},"BottomRight":{"Latitude":43.49821,"Longitude":-8.2441}},"Address":{"Label":"15405 Ferrol (A Coruña), España","Country":"ESP","State":"Galicia","County":"A Coruña","City":"Ferrol","PostalCode":"15405","AdditionalData":[{"value":"España","key":"CountryName"},{"value":"Galicia","key":"StateName"},{"value":"A Coruña","key":"CountyName"}]},"MapReference":{"ReferenceId":"551550851","Spot":0.97,"SideOfStreet":"left","CountryId":"20215059","StateId":"20226791","CountyId":"20226792","CityId":"20322123"}}},{"Relevance":1.0,"Distance":42.3,"MatchLevel":"street","MatchQuality":{"Country":1.0,"State":1.0,"County":1.0,"City":1.0,"PostalCode":1.0},"Location":{"LocationId":"NT_00kNzoiF-uqaQ1mvw1Xg8B_l_1253292222_L","LocationType":"point","DisplayPosition":{"Latitude":43.49862,"Longitude":-8.24484},"MapView":{"TopLeft":{"Latitude":43.49865,"Longitude":-8.24503},"BottomRight":{"Latitude":43.4986,"Longitude":-8.24484}},"Address":{"Label":"15405 Ferrol (A Coruña), España","Country":"ESP","State":"Galicia","County":"A Coruña","City":"Ferrol","PostalCode":"15405","AdditionalData":[{"value":"España","key":"CountryName"},{"value":"Galicia","key":"StateName"},{"value":"A Coruña","key":"CountyName"}]},"MapReference":{"ReferenceId":"1253292222","Spot":1.0,"SideOfStreet":"left","CountryId":"20215059","StateId":"20226791","CountyId":"20226792","CityId":"20322123"}}}]}]}}