{"Response":{"MetaInfo":{"Timestamp":"2020-03-28T11:52:56.937+0000","NextPageInformation":"2"},"View":[{"_type":"SearchResultsViewType","ViewId":0,"Result":[{"Relevance":1.0,"Distance":0.0,"Direction":0.0,"MatchLevel":"city","MatchQuality":{"Country":1.0,"State":1.0,"County":1.0,"City":1.0,"PostalCode":1.0},"Location":{"LocationId":"NT_RthNdv6oFk2kiifcnZLLwA","LocationType":"point","DisplayPosition":{"Latitude":43.4117352,"Longitude":5.051809},"MapView":{"TopLeft":{"Latitude":43.45354,"Longitude":4.98508},"BottomRight":{"Latitude":43.32425,"Longitude":5.11099}},"Address":{"Label":"Martigues, Provence-Alpes-Côte d'Azur, France","Country":"FRA","State":"Provence-Alpes-Côte d'Azur","County":"Bouches-du-Rhône","City":"Martigues","PostalCode":"13500","AdditionalData":[{"value":"France","key":"CountryName"},{"value":"Provence-Alpes-Côte d'Azur","key":"StateName"},{"value":"Bouches-du-Rhône","key":"CountyName"}]},"MapReference":{"ReferenceId":"546112238","SideOfStreet":"neither","CountryId":"20000001","StateId":"20000193","CountyId":"20048302","CityId":"20048505"}}},{"Relevance":1.0,"Distance":8.4,"MatchLevel":"houseNumber","MatchQuality":{"Country":1.0,"State":1.0,"County":1.0,"City":1.0,"Street":[1.0],"HouseNumber":1.0,"PostalCode":1.0},"MatchType":"interpolated","Location":{"LocationId":"NT_AxDx82MWcMQRfo1wGWUDQB_xgD","LocationType":"point","DisplayPosition":{"Latitude":43.41165,"Longitude":5.0518},"MapView":{"TopLeft":{"Latitude":43.4127742,"Longitude":5.0502525},"BottomRight":{"Latitude":43.4105258,"Longitude":5.0533475}},"Address":{"Label":"18 Chemin du Couteau, 13500 Martigues, France","Country":"FRA","State":"Provence-Alpes-Côte d'Azur","County":"Bouches-du-Rhône","City":"Martigues","Street":"Chemin du Couteau","HouseNumber":"18","PostalCode":"13500","AdditionalData":[{"value":"France","key":"CountryName"},{"value":"Provence-Alpes-Côte d'Azur","key":"StateName"},{"value":"Bouches-du-Rhône","key":"CountyName"}]},"MapReference":{"ReferenceId":"546115418","Spot":0.42,"SideOfStreet":"left","CountryId":"20000001","StateId":"20000193","CountyId":"20048302","CityId":"20048505","AddressId":"573377449","RoadLinkId":"45727463"}}},{"Relevance":1.0,"Distance":37.0,"MatchLevel":"street","MatchQuality":{"Country":1.0,"State":1.0,"County":1.0,"City":1.0,"Street":[1.0],"PostalCode":1.0},"Location":{"LocationId":"NT_A5Yl-HZYM0sMpH9fv07.MB_l_546112020_R","LocationType":"point","DisplayPosition":{"Latitude":43.4116155,"Longitude":5.0513816},"MapView":{"TopLeft":{"Latitude":43.4118,"Longitude":5.05133},"BottomRight":{"Latitude":43.41155,"Longitude":5.0514}},"Address":{"Label":"Impasse Escavis-Sicard, 13500 Martigues, France","Country":"FRA","State":"Provence-Alpes-Côte d'Azur","County":"Bouches-du-Rhône","City":"Martigues","Street":"Impasse Escavis-Sicard","PostalCode":"13500","AdditionalData":[{"value":"France","key":"CountryName"},{"value":"Provence-Alpes-Côte d'Azur","key":"StateName"},{"value":"Bouches-du-Rhône","key":"CountyName"}]},"MapReference":{"ReferenceId":"546112020","Spot":0.26,"SideOfStreet":"right","CountryId":"20000001","StateId":"20000193","CountyId":"20048302","CityId":"20048505"}}},{"Relevance":1.0,"Distance":41.4,"MatchLevel":"houseNumber","MatchQuality":{"Country":1.0,"State":1.0,"County":1.0,"City":1.0,"Street":[1.0],"HouseNumber":1.0,"PostalCode":1.0},"MatchType":"interpolated","Location":{"LocationId":"NT_AxDx82MWcMQRfo1wGWUDQB_yID","LocationType":"point","DisplayPosition":{"Latitude":43.41154,"Longitude":5.05135},"MapView":{"TopLeft":{"Latitude":43.4126642,"Longitude":5.0498025},"BottomRight":{"Latitude":43.4104158,"Longitude":5.0528975}},"Address":{"Label":"22 Chemin du Couteau, 13500 Martigues, France","Country":"FRA","State":"Provence-Alpes-Côte d'Azur","County":"Bouches-du-Rhône","City":"Martigues","Street":"Chemin du Couteau","HouseNumber":"22","PostalCode":"13500","AdditionalData":[{"value":"France","key":"CountryName"},{"value":"Provence-Alpes-Côte d'Azur","key":"StateName"},{"value":"Bouches-du-Rhône","key":"CountyName"}]},"MapReference":{"ReferenceId":"546112026","Spot":0.86,"SideOfStreet":"left","CountryId":"20000001","StateId":"20000193","CountyId":"20048302","CityId":"20048505","AddressId":"573325794","RoadLinkId":"45135268"}}},{"Relevance":1.0,"Distance":44.1,"MatchLevel":"street","MatchQuality":{"Country":1.0,"State":1.0,"County":1.0,"City":1.0,"Street":[1.0],"PostalCode":1.0},"Location":{"LocationId":"NT_AxDx82MWcMQRfo1wGWUDQB_l_546113827_L","LocationType":"point","DisplayPosition":{"Latitude":43.41179,"Longitude":5.05235},"MapView":{"TopLeft":{"Latitude":43.41193,"Longitude":5.05235},"BottomRight":{"Latitude":43.41179,"Longitude":5.05269}},"Address":{"Label":"Chemin du Couteau, 13500 Martigues, France","Country":"FRA","State":"Provence-Alpes-Côte d'Azur","County":"Bouches-du-Rhône","City":"Martigues","Street":"Chemin du Couteau","PostalCode":"13500","AdditionalData":[{"value":"France","key":"CountryName"},{"value":"Provence-Alpes-Côte d'Azur","key":"StateName"},{"value":"Bouches-du-Rhône","key":"CountyName"}]},"MapReference":{"ReferenceId":"546113827","Spot":0.0,"SideOfStreet":"left","CountryId":"20000001","StateId":"20000193","CountyId":"20048302","CityId":"20048505"}}},{"Relevance":1.0,"Distance":44.7,"MatchLevel":"street","MatchQuality":{"Country":1.0,"State":1.0,"County":1.0,"City":1.0,"Street":[1.0],"PostalCode":1.0},"Location":{"LocationId":"NT_VrA1xZjfrc9-TI-VtWA0OB_l_546114151_L","LocationType":"point","DisplayPosition":{"Latitude":43.4119293,"Longitude":5.0522943},"MapView":{"TopLeft":{"Latitude":43.41271,"Longitude":5.05198},"BottomRight":{"Latitude":43.41179,"Longitude":5.05235}},"Address":{"Label":"Allée Louis Daquin, 13500 Martigues, France","Country":"FRA","State":"Provence-Alpes-Côte d'Azur","County":"Bouches-du-Rhône","City":"Martigues","Street":"Allée Louis Daquin","PostalCode":"13500","AdditionalData":[{"value":"France","key":"CountryName"},{"value":"Provence-Alpes-Côte d'Azur","key":"StateName"},{"value":"Bouches-du-Rhône","key":"CountyName"}]},"MapReference":{"ReferenceId":"546114151","Spot":0.15,"SideOfStreet":"left","CountryId":"20000001","StateId":"20000193","CountyId":"20048302","CityId":"20048505"}}},{"Relevance":1.0,"Distance":51.9,"MatchLevel":"houseNumber","MatchQuality":{"Country":1.0,"State":1.0,"County":1.0,"City":1.0,"Street":[1.0],"HouseNumber":1.0,"PostalCode":1.0},"MatchType":"interpolated","Location":{"LocationId":"NT_C1Q-oR6Or1zmHcdKcpzIwA_ygD","LocationType":"point","DisplayPosition":{"Latitude":43.41145,"Longitude":5.0513},"MapView":{"TopLeft":{"Latitude":43.4125742,"Longitude":5.0497525},"BottomRight":{"Latitude":43.4103258,"Longitude":5.0528475}},"Address":{"Label":"28 Rue Anatole France, 13500 Martigues, France","Country":"FRA","State":"Provence-Alpes-Côte d'Azur","County":"Bouches-du-Rhône","City":"Martigues","Street":"Rue Anatole France","HouseNumber":"28","PostalCode":"13500","AdditionalData":[{"value":"France","key":"CountryName"},{"value":"Provence-Alpes-Côte d'Azur","key":"StateName"},{"value":"Bouches-du-Rhône","key":"CountyName"}]},"MapReference":{"ReferenceId":"546115416","Spot":0.08,"SideOfStreet":"right","CountryId":"20000001","StateId":"20000193","CountyId":"20048302","CityId":"20048505","AddressId":"573294205","RoadLinkId":"45280972"}}},{"Relevance":1.0,"Distance":65.9,"MatchLevel":"street","MatchQuality":{"Country":1.0,"State":1.0,"County":1.0,"City":1.0,"Street":[1.0],"PostalCode":1.0},"Location":{"LocationId":"NT_2ihCEV53v13LXK9tPsLwoA_l_546115413_R","LocationType":"point","DisplayPosition":{"Latitude":43.41143,"Longitude":5.05111},"MapView":{"TopLeft":{"Latitude":43.41149,"Longitude":5.05103},"BottomRight":{"Latitude":43.41143,"Longitude":5.05111}},"Address":{"Label":"Boulevard Notre-Dame, 13500 Martigues, France","Country":"FRA","State":"Provence-Alpes-Côte d'Azur","County":"Bouches-du-Rhône","City":"Martigues","Street":"Boulevard Notre-Dame","PostalCode":"13500","AdditionalData":[{"value":"France","key":"CountryName"},{"value":"Provence-Alpes-Côte d'Azur","key":"StateName"},{"value":"Bouches-du-Rhône","key":"CountyName"}]},"MapReference":{"ReferenceId":"546115413","Spot":0.0,"SideOfStreet":"right","CountryId":"20000001","StateId":"20000193","CountyId":"20048302","CityId":"20048505"}}},{"Relevance":1.0,"Distance":68.2,"MatchLevel":"street","MatchQuality":{"Country":1.0,"State":1.0,"County":1.0,"City":1.0,"Street":[1.0],"PostalCode":1.0},"Location":{"LocationId":"NT_2ihCEV53v13LXK9tPsLwoA_l_546115412_R","LocationType":"point","DisplayPosition":{"Latitude":43.41122,"Longitude":5.05135},"MapView":{"TopLeft":{"Latitude":43.41143,"Longitude":5.05111},"BottomRight":{"Latitude":43.41122,"Longitude":5.05135}},"Address":{"Label":"Boulevard Notre-Dame, 13500 Martigues, France","Country":"FRA","State":"Provence-Alpes-Côte d'Azur","County":"Bouches-du-Rhône","City":"Martigues","Street":"Boulevard Notre-Dame","PostalCode":"13500","AdditionalData":[{"value":"France","key":"CountryName"},{"value":"Provence-Alpes-Côte d'Azur","key":"StateName"},{"value":"Bouches-du-Rhône","key":"CountyName"}]},"MapReference":{"ReferenceId":"546115412","Spot":0.0,"SideOfStreet":"right","CountryId":"20000001","StateId":"20000193","CountyId":"20048302","CityId":"20048505"}}},{"Relevance":1.0,"Distance":68.2,"MatchLevel":"street","MatchQuality":{"Country":1.0,"State":1.0,"County":1.0,"City":1.0,"Street":[1.0],"PostalCode":1.0},"Location":{"LocationId":"NT_IfI8BQfwSuNuTOTLm.rMHD_l_546114150_L","LocationType":"point","DisplayPosition":{"Latitude":43.41122,"Longitude":5.05135},"MapView":{"TopLeft":{"Latitude":43.41122,"Longitude":5.05057},"BottomRight":{"Latitude":43.41103,"Longitude":5.05135}},"Address":{"Label":"Place Vaillant-Couturier, 13500 Martigues, France","Country":"FRA","State":"Provence-Alpes-Côte d'Azur","County":"Bouches-du-Rhône","City":"Martigues","Street":"Place Vaillant-Couturier","PostalCode":"13500","AdditionalData":[{"value":"France","key":"CountryName"},{"value":"Provence-Alpes-Côte d'Azur","key":"StateName"},{"value":"Bouches-du-Rhône","key":"CountyName"}]},"MapReference":{"ReferenceId":"546114150","Spot":1.0,"SideOfStreet":"left","CountryId":"20000001","StateId":"20000193","CountyId":"20048302","CityId":"20048505"}}}]}]}}