{"Response":{"MetaInfo":{"Timestamp":"2020-03-28T09:44:06.581+0000","NextPageInformation":"2"},"View":[{"_type":"SearchResultsViewType","ViewId":0,"Result":[{"Relevance":1.0,"Distance":0.0,"Direction":0.0,"MatchLevel":"city","MatchQuality":{"Country":1.0,"State":1.0,"County":1.0,"City":1.0,"PostalCode":1.0},"Location":{"LocationId":"NT_eA4ov8MGtf9Og4kU3ALoTB","LocationType":"point","DisplayPosition":{"Latitude":43.4507239,"Longitude":-8.199367},"MapView":{"TopLeft":{"Latitude":43.48787,"Longitude":-8.20468},"BottomRight":{"Latitude":43.4231,"Longitude":-8.09933}},"Address":{"Label":"Fene, Galicia, España","Country":"ESP","State":"Galicia","County":"A Coruña","City":"Fene","PostalCode":"15500","AdditionalData":[{"value":"España","key":"CountryName"},{"value":"Galicia","key":"StateName"},{"value":"A Coruña","key":"CountyName"}]},"MapReference":{"ReferenceId":"82232033","SideOfStreet":"neither","CountryId":"20215059","StateId":"20226791","CountyId":"20226792","CityId":"20322121"}}},{"Relevance":1.0,"Distance":14.4,"MatchLevel":"houseNumber","MatchQuality":{"Country":1.0,"State":1.0,"County":1.0,"City":1.0,"Street":[1.0],"HouseNumber":1.0,"PostalCode":1.0},"MatchType":"interpolated","Location":{"LocationId":"NT_TOviEvvNZ0P9Bhmz.2BRSA_xMD","LocationType":"point","DisplayPosition":{"Latitude":43.45088,"Longitude":-8.19951},"MapView":{"TopLeft":{"Latitude":43.4520042,"Longitude":-8.2010585},"BottomRight":{"Latitude":43.4497558,"Longitude":-8.1979615}},"Address":{"Label":"Rúa Unión, 13, 15520 Fene (A Coruña), España","Country":"ESP","State":"Galicia","County":"A Coruña","City":"Fene","Street":"Rúa Unión","HouseNumber":"13","PostalCode":"15520","AdditionalData":[{"value":"España","key":"CountryName"},{"value":"Galicia","key":"StateName"},{"value":"A Coruña","key":"CountyName"}]},"MapReference":{"ReferenceId":"82194013","Spot":0.72,"SideOfStreet":"right","CountryId":"20215059","StateId":"20226791","CountyId":"20226792","CityId":"20322121","AddressId":"350987325","RoadLinkId":"68780113"}}},{"Relevance":1.0,"Distance":45.6,"MatchLevel":"street","MatchQuality":{"Country":1.0,"State":1.0,"County":1.0,"City":1.0,"Street":[1.0],"PostalCode":1.0},"Location":{"LocationId":"NT_TOviEvvNZ0P9Bhmz.2BRSA_l_1132347731_R","LocationType":"point","DisplayPosition":{"Latitude":43.45113,"Longitude":-8.19929},"MapView":{"TopLeft":{"Latitude":43.45125,"Longitude":-8.19929},"BottomRight":{"Latitude":43.45113,"Longitude":-8.19899}},"Address":{"Label":"Rúa Unión, 15520 Fene (A Coruña), España","Country":"ESP","State":"Galicia","County":"A Coruña","City":"Fene","Street":"Rúa Unión","PostalCode":"15520","AdditionalData":[{"value":"España","key":"CountryName"},{"value":"Galicia","key":"StateName"},{"value":"A Coruña","key":"CountyName"}]},"MapReference":{"ReferenceId":"1132347731","Spot":0.0,"SideOfStreet":"right","CountryId":"20215059","StateId":"20226791","CountyId":"20226792","CityId":"20322121"}}},{"Relevance":1.0,"Distance":53.6,"MatchLevel":"street","MatchQuality":{"Country":1.0,"State":1.0,"County":1.0,"City":1.0,"Street":[1.0],"PostalCode":1.0},"Location":{"LocationId":"NT_TOviEvvNZ0P9Bhmz.2BRSA_l_1132328951_L","LocationType":"point","DisplayPosition":{"Latitude":43.4509328,"Longitude":-8.1987682},"MapView":{"TopLeft":{"Latitude":43.45125,"Longitude":-8.19899},"BottomRight":{"Latitude":43.45068,"Longitude":-8.19868}},"Address":{"Label":"Rúa Unión, 15520 Fene (A Coruña), España","Country":"ESP","State":"Galicia","County":"A Coruña","City":"Fene","Street":"Rúa Unión","PostalCode":"15520","AdditionalData":[{"value":"España","key":"CountryName"},{"value":"Galicia","key":"StateName"},{"value":"A Coruña","key":"CountyName"}]},"MapReference":{"ReferenceId":"1132328951","Spot":0.4,"SideOfStreet":"left","CountryId":"20215059","StateId":"20226791","CountyId":"20226792","CityId":"20322121"}}},{"Relevance":1.0,"Distance":64.2,"MatchLevel":"houseNumber","MatchQuality":{"Country":1.0,"State":1.0,"County":1.0,"City":1.0,"Street":[1.0],"HouseNumber":1.0,"PostalCode":1.0},"MatchType":"interpolated","Location":{"LocationId":"NT_TOviEvvNZ0P9Bhmz.2BRSA_ygD","LocationType":"point","DisplayPosition":{"Latitude":43.4513,"Longitude":-8.19932},"MapView":{"TopLeft":{"Latitude":43.4524242,"Longitude":-8.2008685},"BottomRight":{"Latitude":43.4501758,"Longitude":-8.1977715}},"Address":{"Label":"Rúa Unión, 28, 15520 Fene (A Coruña), España","Country":"ESP","State":"Galicia","County":"A Coruña","City":"Fene","Street":"Rúa Unión","HouseNumber":"28","PostalCode":"15520","AdditionalData":[{"value":"España","key":"CountryName"},{"value":"Galicia","key":"StateName"},{"value":"A Coruña","key":"CountyName"}]},"MapReference":{"ReferenceId":"759114746","Spot":0.28,"SideOfStreet":"right","CountryId":"20215059","StateId":"20226791","CountyId":"20226792","CityId":"20322121","AddressId":"351081949","RoadLinkId":"153706580"}}},{"Relevance":1.0,"Distance":67.0,"MatchLevel":"houseNumber","MatchQuality":{"Country":1.0,"State":1.0,"County":1.0,"City":1.0,"Street":[1.0],"HouseNumber":1.0,"PostalCode":1.0},"MatchType":"interpolated","Location":{"LocationId":"NT_27ywTW60h9iHfJ3byZ1qBA_yITN","LocationType":"point","DisplayPosition":{"Latitude":43.45104,"Longitude":-8.20021},"MapView":{"TopLeft":{"Latitude":43.4521642,"Longitude":-8.2017585},"BottomRight":{"Latitude":43.4499158,"Longitude":-8.1986615}},"Address":{"Label":"Estrada Palma, 225, 15520 Fene (A Coruña), España","Country":"ESP","State":"Galicia","County":"A Coruña","City":"Fene","Street":"Estrada Palma","HouseNumber":"225","PostalCode":"15520","AdditionalData":[{"value":"España","key":"CountryName"},{"value":"Galicia","key":"StateName"},{"value":"A Coruña","key":"CountyName"}]},"MapReference":{"ReferenceId":"757030162","Spot":0.27,"SideOfStreet":"right","CountryId":"20215059","StateId":"20226791","CountyId":"20226792","CityId":"20322121","AddressId":"351135598","RoadLinkId":"152092658"}}},{"Relevance":1.0,"Distance":72.5,"MatchLevel":"houseNumber","MatchQuality":{"Country":1.0,"State":1.0,"County":1.0,"City":1.0,"Street":[1.0],"HouseNumber":1.0,"PostalCode":1.0},"MatchType":"interpolated","Location":{"LocationId":"NT_FDYGHp0M6I.y9GG0QczCcA_l_1132347776_R_5A","LocationType":"point","DisplayPosition":{"Latitude":43.4499421,"Longitude":-8.1992447},"MapView":{"TopLeft":{"Latitude":43.4510662,"Longitude":-8.2007932},"BottomRight":{"Latitude":43.4488179,"Longitude":-8.1976962}},"Address":{"Label":"Camiño Terreiro, 9, 15520 Fene (A Coruña), España","Country":"ESP","State":"Galicia","County":"A Coruña","City":"Fene","Street":"Camiño Terreiro","HouseNumber":"9","PostalCode":"15520","AdditionalData":[{"value":"España","key":"CountryName"},{"value":"Galicia","key":"StateName"},{"value":"A Coruña","key":"CountyName"}]},"MapReference":{"ReferenceId":"1132347776","Spot":0.57,"SideOfStreet":"right","CountryId":"20215059","StateId":"20226791","CountyId":"20226792","CityId":"20322121"}}},{"Relevance":1.0,"Distance":75.7,"MatchLevel":"houseNumber","MatchQuality":{"Country":1.0,"State":1.0,"County":1.0,"City":1.0,"Street":[1.0],"HouseNumber":1.0,"PostalCode":1.0},"MatchType":"interpolated","Location":{"LocationId":"NT_TOviEvvNZ0P9Bhmz.2BRSA_xED","LocationType":"point","DisplayPosition":{"Latitude":43.45131,"Longitude":-8.19889},"MapView":{"TopLeft":{"Latitude":43.4524342,"Longitude":-8.2004385},"BottomRight":{"Latitude":43.4501858,"Longitude":-8.1973415}},"Address":{"Label":"Rúa Unión, 11, 15520 Fene (A Coruña), España","Country":"ESP","State":"Galicia","County":"A Coruña","City":"Fene","Street":"Rúa Unión","HouseNumber":"11","PostalCode":"15520","AdditionalData":[{"value":"España","key":"CountryName"},{"value":"Galicia","key":"StateName"},{"value":"A Coruña","key":"CountyName"}]},"MapReference":{"ReferenceId":"1132347732","Spot":0.09,"SideOfStreet":"right","CountryId":"20215059","StateId":"20226791","CountyId":"20226792","CityId":"20322121","AddressId":"351120928","RoadLinkId":"442304539"}}},{"Relevance":1.0,"Distance":75.8,"MatchLevel":"street","MatchQuality":{"Country":1.0,"State":1.0,"County":1.0,"City":1.0,"PostalCode":1.0},"Location":{"LocationId":"NT_isorzclI177LgHXOS7vt8B_l_757030161_R","LocationType":"point","DisplayPosition":{"Latitude":43.4508,"Longitude":-8.2003},"MapView":{"TopLeft":{"Latitude":43.45129,"Longitude":-8.20041},"BottomRight":{"Latitude":43.4508,"Longitude":-8.20028}},"Address":{"Label":"15520 Fene (A Coruña), España","Country":"ESP","State":"Galicia","County":"A Coruña","City":"Fene","PostalCode":"15520","AdditionalData":[{"value":"España","key":"CountryName"},{"value":"Galicia","key":"StateName"},{"value":"A Coruña","key":"CountyName"}]},"MapReference":{"ReferenceId":"757030161","Spot":0.0,"SideOfStreet":"right","CountryId":"20215059","StateId":"20226791","CountyId":"20226792","CityId":"20322121"}}},{"Relevance":1.0,"Distance":77.3,"MatchLevel":"houseNumber","MatchQuality":{"Country":1.0,"State":1.0,"County":1.0,"City":1.0,"Street":[1.0],"HouseNumber":1.0,"PostalCode":1.0},"MatchType":"interpolated","Location":{"LocationId":"NT_FDYGHp0M6I.y9GG0QczCcA_l_82194014_R_xAD","LocationType":"point","DisplayPosition":{"Latitude":43.45013,"Longitude":-8.2001},"MapView":{"TopLeft":{"Latitude":43.4512542,"Longitude":-8.2016485},"BottomRight":{"Latitude":43.4490059,"Longitude":-8.1985515}},"Address":{"Label":"Camiño Terreiro, 10, 15520 Fene (A Coruña), España","Country":"ESP","State":"Galicia","County":"A Coruña","City":"Fene","Street":"Camiño Terreiro","HouseNumber":"10","PostalCode":"15520","AdditionalData":[{"value":"España","key":"CountryName"},{"value":"Galicia","key":"StateName"},{"value":"A Coruña","key":"CountyName"}]},"MapReference":{"ReferenceId":"82194014","Spot":0.28,"SideOfStreet":"right","CountryId":"20215059","StateId":"20226791","CountyId":"20226792","CityId":"20322121"}}}]}]}}