{"Response":{"MetaInfo":{"Timestamp":"2020-03-28T11:11:21.673+0000","NextPageInformation":"2"},"View":[{"_type":"SearchResultsViewType","ViewId":0,"Result":[{"Relevance":1.0,"Distance":0.0,"Direction":0.0,"MatchLevel":"city","MatchQuality":{"Country":1.0,"State":1.0,"County":1.0,"City":1.0,"PostalCode":1.0},"Location":{"LocationId":"NT_wOX.jIv061oN.pinedhnGA","LocationType":"point","DisplayPosition":{"Latitude":43.4650052,"Longitude":1.3368925},"MapView":{"TopLeft":{"Latitude":43.49222,"Longitude":1.22281},"BottomRight":{"Latitude":43.38916,"Longitude":1.37474}},"Address":{"Label":"Muret, Occitanie, France","Country":"FRA","State":"Occitanie","County":"Haute-Garonne","City":"Muret","PostalCode":"31600","AdditionalData":[{"value":"France","key":"CountryName"},{"value":"Occitanie","key":"StateName"},{"value":"Haute-Garonne","key":"CountyName"}]},"MapReference":{"ReferenceId":"549055938","SideOfStreet":"neither","CountryId":"20000001","StateId":"20050212","CountyId":"20094636","CityId":"20095804"}}},{"Relevance":1.0,"Distance":4.7,"MatchLevel":"landmark","MatchQuality":{"Country":1.0,"State":1.0,"County":1.0,"City":1.0,"PostalCode":1.0,"Name":1.0},"Location":{"LocationId":"NT_BRVhgwKf3oUUS7pmtuQDtC_p_.-hUAfF1ZX5TnJ3yJfjlWA","LocationType":"hospital","Name":"Clinique d'Occitanie","DisplayPosition":{"Latitude":43.4657,"Longitude":1.33766},"MapView":{"TopLeft":{"Latitude":43.46658,"Longitude":1.33689},"BottomRight":{"Latitude":43.46459,"Longitude":1.33956}},"Address":{"Label":"31600 Muret, France","Country":"FRA","State":"Occitanie","County":"Haute-Garonne","City":"Muret","PostalCode":"31600","AdditionalData":[{"value":"France","key":"CountryName"},{"value":"Occitanie","key":"StateName"},{"value":"Haute-Garonne","key":"CountyName"}]},"MapReference":{"CountryId":"20000001","StateId":"20050212","CountyId":"20094636","CityId":"20095804","PlaceId":"553799117"}}},{"Relevance":1.0,"Distance":19.4,"MatchLevel":"houseNumber","MatchQuality":{"Country":1.0,"State":1.0,"County":1.0,"City":1.0,"Street":[1.0],"HouseNumber":1.0,"PostalCode":1.0},"MatchType":"interpolated","Location":{"LocationId":"NT_usD4KouugncowsjB8ah-SB_yA","LocationType":"point","DisplayPosition":{"Latitude":43.4651,"Longitude":1.33669},"MapView":{"TopLeft":{"Latitude":43.4662242,"Longitude":1.3351411},"BottomRight":{"Latitude":43.4639758,"Longitude":1.3382389}},"Address":{"Label":"2 Impasse Goudouli, 31600 Muret, France","Country":"FRA","State":"Occitanie","County":"Haute-Garonne","City":"Muret","Street":"Impasse Goudouli","HouseNumber":"2","PostalCode":"31600","AdditionalData":[{"value":"France","key":"CountryName"},{"value":"Occitanie","key":"StateName"},{"value":"Haute-Garonne","key":"CountyName"}]},"MapReference":{"ReferenceId":"57966523","Spot":0.18,"SideOfStreet":"right","CountryId":"20000001","StateId":"20050212","CountyId":"20094636","CityId":"20095804","AddressId":"362504596","RoadLinkId":"51382671"}}},{"Relevance":1.0,"Distance":32.2,"MatchLevel":"houseNumber","MatchQuality":{"Country":1.0,"State":1.0,"County":1.0,"City":1.0,"Street":[1.0],"HouseNumber":1.0,"PostalCode":1.0},"MatchType":"interpolated","Location":{"LocationId":"NT_9u.4um8DQkrY5yr-dsAeQB_xAD","LocationType":"point","DisplayPosition":{"Latitude":43.46472,"Longitude":1.33677},"MapView":{"TopLeft":{"Latitude":43.4658442,"Longitude":1.3352212},"BottomRight":{"Latitude":43.4635958,"Longitude":1.3383188}},"Address":{"Label":"10 Rue du Cagire, 31600 Muret, France","Country":"FRA","State":"Occitanie","County":"Haute-Garonne","City":"Muret","Street":"Rue du Cagire","HouseNumber":"10","PostalCode":"31600","AdditionalData":[{"value":"France","key":"CountryName"},{"value":"Occitanie","key":"StateName"},{"value":"Haute-Garonne","key":"CountyName"}]},"MapReference":{"ReferenceId":"59770116","Spot":0.8,"SideOfStreet":"left","CountryId":"20000001","StateId":"20050212","CountyId":"20094636","CityId":"20095804","AddressId":"379716720","RoadLinkId":"51038524"}}},{"Relevance":1.0,"Distance":32.8,"MatchLevel":"street","MatchQuality":{"Country":1.0,"State":1.0,"County":1.0,"City":1.0,"Street":[1.0],"PostalCode":1.0},"Location":{"LocationId":"NT_9u.4um8DQkrY5yr-dsAeQB_l_59770117_R","LocationType":"point","DisplayPosition":{"Latitude":43.46471,"Longitude":1.3369},"MapView":{"TopLeft":{"Latitude":43.46471,"Longitude":1.3369},"BottomRight":{"Latitude":43.46466,"Longitude":1.337}},"Address":{"Label":"Rue du Cagire, 31600 Muret, France","Country":"FRA","State":"Occitanie","County":"Haute-Garonne","City":"Muret","Street":"Rue du Cagire","PostalCode":"31600","AdditionalData":[{"value":"France","key":"CountryName"},{"value":"Occitanie","key":"StateName"},{"value":"Haute-Garonne","key":"CountyName"}]},"MapReference":{"ReferenceId":"59770117","Spot":1.0,"SideOfStreet":"right","CountryId":"20000001","StateId":"20050212","CountyId":"20094636","CityId":"20095804"}}},{"Relevance":1.0,"Distance":35.5,"MatchLevel":"houseNumber","MatchQuality":{"Country":1.0,"State":1.0,"County":1.0,"City":1.0,"Street":[1.0],"HouseNumber":1.0,"PostalCode":1.0},"MatchType":"interpolated","Location":{"LocationId":"NT_9u.4um8DQkrY5yr-dsAeQB_xID","LocationType":"point","DisplayPosition":{"Latitude":43.46466,"Longitude":1.33702},"MapView":{"TopLeft":{"Latitude":43.4657842,"Longitude":1.3354712},"BottomRight":{"Latitude":43.4635358,"Longitude":1.3385688}},"Address":{"Label":"12 Rue du Cagire, 31600 Muret, France","Country":"FRA","State":"Occitanie","County":"Haute-Garonne","City":"Muret","Street":"Rue du Cagire","HouseNumber":"12","PostalCode":"31600","AdditionalData":[{"value":"France","key":"CountryName"},{"value":"Occitanie","key":"StateName"},{"value":"Haute-Garonne","key":"CountyName"}]},"MapReference":{"ReferenceId":"57966613","Spot":1.0,"SideOfStreet":"right","CountryId":"20000001","StateId":"20050212","CountyId":"20094636","CityId":"20095804","AddressId":"379680092","RoadLinkId":"51211465"}}},{"Relevance":1.0,"Distance":42.5,"MatchLevel":"houseNumber","MatchQuality":{"Country":1.0,"State":1.0,"County":1.0,"City":1.0,"Street":[1.0],"HouseNumber":1.0,"PostalCode":1.0},"MatchType":"interpolated","Location":{"LocationId":"NT_9u.4um8DQkrY5yr-dsAeQB_3A","LocationType":"point","DisplayPosition":{"Latitude":43.46463,"Longitude":1.33679},"MapView":{"TopLeft":{"Latitude":43.4657542,"Longitude":1.3352412},"BottomRight":{"Latitude":43.4635058,"Longitude":1.3383388}},"Address":{"Label":"7 Rue du Cagire, 31600 Muret, France","Country":"FRA","State":"Occitanie","County":"Haute-Garonne","City":"Muret","Street":"Rue du Cagire","HouseNumber":"7","PostalCode":"31600","AdditionalData":[{"value":"France","key":"CountryName"},{"value":"Occitanie","key":"StateName"},{"value":"Haute-Garonne","key":"CountyName"}]},"MapReference":{"ReferenceId":"57966576","Spot":0.67,"SideOfStreet":"right","CountryId":"20000001","StateId":"20050212","CountyId":"20094636","CityId":"20095804","AddressId":"321031936","RoadLinkId":"50428191"}}},{"Relevance":1.0,"Distance":75.6,"MatchLevel":"houseNumber","MatchQuality":{"Country":1.0,"State":1.0,"County":1.0,"City":1.0,"Street":[1.0],"HouseNumber":1.0,"PostalCode":1.0},"MatchType":"interpolated","Location":{"LocationId":"NT_9u.4um8DQkrY5yr-dsAeQB_yA","LocationType":"point","DisplayPosition":{"Latitude":43.46454,"Longitude":1.33621},"MapView":{"TopLeft":{"Latitude":43.4656642,"Longitude":1.3346612},"BottomRight":{"Latitude":43.4634158,"Longitude":1.3377588}},"Address":{"Label":"2 Rue du Cagire, 31600 Muret, France","Country":"FRA","State":"Occitanie","County":"Haute-Garonne","City":"Muret","Street":"Rue du Cagire","HouseNumber":"2","PostalCode":"31600","AdditionalData":[{"value":"France","key":"CountryName"},{"value":"Occitanie","key":"StateName"},{"value":"Haute-Garonne","key":"CountyName"}]},"MapReference":{"ReferenceId":"57966583","Spot":0.74,"SideOfStreet":"left","CountryId":"20000001","StateId":"20050212","CountyId":"20094636","CityId":"20095804","AddressId":"320939496","RoadLinkId":"50777625"}}},{"Relevance":1.0,"Distance":79.5,"MatchLevel":"houseNumber","MatchQuality":{"Country":1.0,"State":1.0,"County":1.0,"City":1.0,"Street":[1.0],"HouseNumber":1.0,"PostalCode":1.0},"MatchType":"interpolated","Location":{"LocationId":"NT_dVKem8qKMd6bzVIkH6-P0B_0A","LocationType":"point","DisplayPosition":{"Latitude":43.46578,"Longitude":1.33697},"MapView":{"TopLeft":{"Latitude":43.4669042,"Longitude":1.3354211},"BottomRight":{"Latitude":43.4646558,"Longitude":1.3385189}},"Address":{"Label":"4 Impasse de la Clinique, 31600 Muret, France","Country":"FRA","State":"Occitanie","County":"Haute-Garonne","City":"Muret","Street":"Impasse de la Clinique","HouseNumber":"4","PostalCode":"31600","AdditionalData":[{"value":"France","key":"CountryName"},{"value":"Occitanie","key":"StateName"},{"value":"Haute-Garonne","key":"CountyName"}]},"MapReference":{"ReferenceId":"58000490","Spot":0.0,"SideOfStreet":"left","CountryId":"20000001","StateId":"20050212","CountyId":"20094636","CityId":"20095804","AddressId":"320860070","RoadLinkId":"50468412"}}},{"Relevance":1.0,"Distance":84.5,"MatchLevel":"street","MatchQuality":{"Country":1.0,"State":1.0,"County":1.0,"City":1.0,"PostalCode":1.0},"Location":{"LocationId":"NT_vtnB0rvmqyPC5vSS6oNMOB_l_854589063_L","LocationType":"point","DisplayPosition":{"Latitude":43.46486,"Longitude":1.33792},"MapView":{"TopLeft":{"Latitude":43.46492,"Longitude":1.33792},"BottomRight":{"Latitude":43.4648,"Longitude":1.33798}},"Address":{"Label":"31600 Muret, France","Country":"FRA","State":"Occitanie","County":"Haute-Garonne","City":"Muret","PostalCode":"31600","AdditionalData":[{"value":"France","key":"CountryName"},{"value":"Occitanie","key":"StateName"},{"value":"Haute-Garonne","key":"CountyName"}]},"MapReference":{"ReferenceId":"854589063","Spot":0.58,"SideOfStreet":"left","CountryId":"20000001","StateId":"20050212","CountyId":"20094636","CityId":"20095804"}}}]}]}}