{"Response":{"MetaInfo":{"Timestamp":"2020-03-28T11:10:36.219+0000","NextPageInformation":"2"},"View":[{"_type":"SearchResultsViewType","ViewId":0,"Result":[{"Relevance":1.0,"Distance":-4.7,"MatchLevel":"landmark","MatchQuality":{"Country":1.0,"State":1.0,"County":1.0,"City":1.0,"Street":[1.0],"PostalCode":1.0,"Name":1.0},"Location":{"LocationId":"NT_dihREkYO1kcdWjpwkATVBD_p_0WKRuLyHyjTQPgqg4Q9WTA","LocationType":"hospital","Name":"Clinique Aguiléra","DisplayPosition":{"Latitude":43.48507,"Longitude":-1.53877},"MapView":{"TopLeft":{"Latitude":43.48583,"Longitude":-1.54051},"BottomRight":{"Latitude":43.48458,"Longitude":-1.53846}},"Address":{"Label":"Boulevard du B.A.B., 64200 Biarritz, France","Country":"FRA","State":"Nouvelle-Aquitaine","County":"Pyrénées-Atlantiques","City":"Biarritz","Street":"Boulevard du B.A.B.","PostalCode":"64200","AdditionalData":[{"value":"France","key":"CountryName"},{"value":"Nouvelle-Aquitaine","key":"StateName"},{"value":"Pyrénées-Atlantiques","key":"CountyName"}]},"MapReference":{"CountryId":"20000001","StateId":"20000383","CountyId":"20104588","CityId":"20104934","PlaceId":"51334319"}}},{"Relevance":1.0,"Distance":0.0,"Direction":0.0,"MatchLevel":"city","MatchQuality":{"Country":1.0,"State":1.0,"County":1.0,"City":1.0,"PostalCode":1.0},"Location":{"LocationId":"NT_j3s3dj3Q5HlV6cWFxhmvnA","LocationType":"point","DisplayPosition":{"Latitude":43.4850145,"Longitude":-1.5401687},"MapView":{"TopLeft":{"Latitude":43.49477,"Longitude":-1.57788},"BottomRight":{"Latitude":43.44732,"Longitude":-1.53454}},"Address":{"Label":"Biarritz, Nouvelle-Aquitaine, France","Country":"FRA","State":"Nouvelle-Aquitaine","County":"Pyrénées-Atlantiques","City":"Biarritz","PostalCode":"64200","AdditionalData":[{"value":"France","key":"CountryName"},{"value":"Nouvelle-Aquitaine","key":"StateName"},{"value":"Pyrénées-Atlantiques","key":"CountyName"}]},"MapReference":{"ReferenceId":"1159308213","SideOfStreet":"neither","CountryId":"20000001","StateId":"20000383","CountyId":"20104588","CityId":"20104934"}}},{"Relevance":1.0,"Distance":3.0,"MatchLevel":"houseNumber","MatchQuality":{"Country":1.0,"State":1.0,"County":1.0,"City":1.0,"Street":[1.0],"HouseNumber":1.0,"PostalCode":1.0},"MatchType":"interpolated","Location":{"LocationId":"NT_h3UPS34a9.y7mlwIvLGDAB_zUD","LocationType":"point","DisplayPosition":{"Latitude":43.48502,"Longitude":-1.54024},"MapView":{"TopLeft":{"Latitude":43.4861442,"Longitude":-1.5417894},"BottomRight":{"Latitude":43.4838958,"Longitude":-1.5386906}},"Address":{"Label":"35 Rue de l'Estagnas, 64200 Biarritz, France","Country":"FRA","State":"Nouvelle-Aquitaine","County":"Pyrénées-Atlantiques","City":"Biarritz","Street":"Rue de l'Estagnas","HouseNumber":"35","PostalCode":"64200","AdditionalData":[{"value":"France","key":"CountryName"},{"value":"Nouvelle-Aquitaine","key":"StateName"},{"value":"Pyrénées-Atlantiques","key":"CountyName"}]},"MapReference":{"ReferenceId":"711271181","Spot":0.54,"SideOfStreet":"right","CountryId":"20000001","StateId":"20000383","CountyId":"20104588","CityId":"20104934","AddressId":"674021269","RoadLinkId":"116203925"}}},{"Relevance":1.0,"Distance":13.7,"MatchLevel":"street","MatchQuality":{"Country":1.0,"State":1.0,"County":1.0,"City":1.0,"PostalCode":1.0},"Location":{"LocationId":"NT_Alb7F5VC70XOGg8hz6BUbB_l_590837611_L","LocationType":"point","DisplayPosition":{"Latitude":43.48513,"Longitude":-1.54011},"MapView":{"TopLeft":{"Latitude":43.48513,"Longitude":-1.54011},"BottomRight":{"Latitude":43.48511,"Longitude":-1.53965}},"Address":{"Label":"64200 Biarritz, France","Country":"FRA","State":"Nouvelle-Aquitaine","County":"Pyrénées-Atlantiques","City":"Biarritz","PostalCode":"64200","AdditionalData":[{"value":"France","key":"CountryName"},{"value":"Nouvelle-Aquitaine","key":"StateName"},{"value":"Pyrénées-Atlantiques","key":"CountyName"}]},"MapReference":{"ReferenceId":"590837611","Spot":1.0,"SideOfStreet":"left","CountryId":"20000001","StateId":"20000383","CountyId":"20104588","CityId":"20104934"}}},{"Relevance":1.0,"Distance":13.9,"MatchLevel":"street","MatchQuality":{"Country":1.0,"State":1.0,"County":1.0,"City":1.0,"Street":[1.0],"PostalCode":1.0},"Location":{"LocationId":"NT_5tMyPpu8OM3xuo7pPMRoWB_l_711271185_L","LocationType":"point","DisplayPosition":{"Latitude":43.4851364,"Longitude":-1.5401306},"MapView":{"TopLeft":{"Latitude":43.48518,"Longitude":-1.54027},"BottomRight":{"Latitude":43.48513,"Longitude":-1.54011}},"Address":{"Label":"Résidence Larochefoucauld, 64200 Biarritz, France","Country":"FRA","State":"Nouvelle-Aquitaine","County":"Pyrénées-Atlantiques","City":"Biarritz","Street":"Résidence Larochefoucauld","PostalCode":"64200","AdditionalData":[{"value":"France","key":"CountryName"},{"value":"Nouvelle-Aquitaine","key":"StateName"},{"value":"Pyrénées-Atlantiques","key":"CountyName"}]},"MapReference":{"ReferenceId":"711271185","Spot":0.13,"SideOfStreet":"left","CountryId":"20000001","StateId":"20000383","CountyId":"20104588","CityId":"20104934"}}},{"Relevance":1.0,"Distance":20.1,"MatchLevel":"street","MatchQuality":{"Country":1.0,"State":1.0,"County":1.0,"City":1.0,"Street":[1.0],"PostalCode":1.0},"Location":{"LocationId":"NT_5tMyPpu8OM3xuo7pPMRoWB_l_711271186_L","LocationType":"point","DisplayPosition":{"Latitude":43.48518,"Longitude":-1.54027},"MapView":{"TopLeft":{"Latitude":43.48561,"Longitude":-1.54092},"BottomRight":{"Latitude":43.48518,"Longitude":-1.54027}},"Address":{"Label":"Résidence Larochefoucauld, 64200 Biarritz, France","Country":"FRA","State":"Nouvelle-Aquitaine","County":"Pyrénées-Atlantiques","City":"Biarritz","Street":"Résidence Larochefoucauld","PostalCode":"64200","AdditionalData":[{"value":"France","key":"CountryName"},{"value":"Nouvelle-Aquitaine","key":"StateName"},{"value":"Pyrénées-Atlantiques","key":"CountyName"}]},"MapReference":{"ReferenceId":"711271186","Spot":0.0,"SideOfStreet":"left","CountryId":"20000001","StateId":"20000383","CountyId":"20104588","CityId":"20104934"}}},{"Relevance":1.0,"Distance":22.8,"MatchLevel":"street","MatchQuality":{"Country":1.0,"State":1.0,"County":1.0,"City":1.0,"Street":[1.0],"PostalCode":1.0},"Location":{"LocationId":"NT_pLUDpXg.cUfrMw5ksoJN5D_l_711271182_R","LocationType":"point","DisplayPosition":{"Latitude":43.48487,"Longitude":-1.54037},"MapView":{"TopLeft":{"Latitude":43.48512,"Longitude":-1.54097},"BottomRight":{"Latitude":43.48487,"Longitude":-1.54037}},"Address":{"Label":"Résidence Oldarra, 64200 Biarritz, France","Country":"FRA","State":"Nouvelle-Aquitaine","County":"Pyrénées-Atlantiques","City":"Biarritz","Street":"Résidence Oldarra","PostalCode":"64200","AdditionalData":[{"value":"France","key":"CountryName"},{"value":"Nouvelle-Aquitaine","key":"StateName"},{"value":"Pyrénées-Atlantiques","key":"CountyName"}]},"MapReference":{"ReferenceId":"711271182","Spot":0.0,"SideOfStreet":"right","CountryId":"20000001","StateId":"20000383","CountyId":"20104588","CityId":"20104934"}}},{"Relevance":1.0,"Distance":25.3,"MatchLevel":"houseNumber","MatchQuality":{"Country":1.0,"State":1.0,"County":1.0,"City":1.0,"Street":[1.0],"HouseNumber":1.0,"PostalCode":1.0},"MatchType":"interpolated","Location":{"LocationId":"NT_h3UPS34a9.y7mlwIvLGDAB_zcD","LocationType":"point","DisplayPosition":{"Latitude":43.48485,"Longitude":-1.54039},"MapView":{"TopLeft":{"Latitude":43.4859742,"Longitude":-1.5419394},"BottomRight":{"Latitude":43.4837258,"Longitude":-1.5388406}},"Address":{"Label":"37 Rue de l'Estagnas, 64200 Biarritz, France","Country":"FRA","State":"Nouvelle-Aquitaine","County":"Pyrénées-Atlantiques","City":"Biarritz","Street":"Rue de l'Estagnas","HouseNumber":"37","PostalCode":"64200","AdditionalData":[{"value":"France","key":"CountryName"},{"value":"Nouvelle-Aquitaine","key":"StateName"},{"value":"Pyrénées-Atlantiques","key":"CountyName"}]},"MapReference":{"ReferenceId":"711271180","Spot":0.84,"SideOfStreet":"right","CountryId":"20000001","StateId":"20000383","CountyId":"20104588","CityId":"20104934","AddressId":"674020966","RoadLinkId":"116203924"}}},{"Relevance":1.0,"Distance":38.6,"MatchLevel":"street","MatchQuality":{"Country":1.0,"State":1.0,"County":1.0,"City":1.0,"Street":[1.0],"PostalCode":1.0},"Location":{"LocationId":"NT_8myasaedHWyiFvC5IS2uEB_l_711271179_L","LocationType":"point","DisplayPosition":{"Latitude":43.4846726,"Longitude":-1.540088},"MapView":{"TopLeft":{"Latitude":43.48488,"Longitude":-1.54048},"BottomRight":{"Latitude":43.48458,"Longitude":-1.53911}},"Address":{"Label":"Résidence Peintres d'Europe, 64200 Biarritz, France","Country":"FRA","State":"Nouvelle-Aquitaine","County":"Pyrénées-Atlantiques","City":"Biarritz","Street":"Résidence Peintres d'Europe","PostalCode":"64200","AdditionalData":[{"value":"France","key":"CountryName"},{"value":"Nouvelle-Aquitaine","key":"StateName"},{"value":"Pyrénées-Atlantiques","key":"CountyName"}]},"MapReference":{"ReferenceId":"711271179","Spot":0.29,"SideOfStreet":"left","CountryId":"20000001","StateId":"20000383","CountyId":"20104588","CityId":"20104934"}}},{"Relevance":1.0,"Distance":39.5,"MatchLevel":"street","MatchQuality":{"Country":1.0,"State":1.0,"County":1.0,"City":1.0,"Street":[1.0],"PostalCode":1.0},"Location":{"LocationId":"NT_8myasaedHWyiFvC5IS2uEB_l_711271178_R","LocationType":"point","DisplayPosition":{"Latitude":43.48476,"Longitude":-1.54051},"MapView":{"TopLeft":{"Latitude":43.48476,"Longitude":-1.54051},"BottomRight":{"Latitude":43.48458,"Longitude":-1.54048}},"Address":{"Label":"Résidence Peintres d'Europe, 64200 Biarritz, France","Country":"FRA","State":"Nouvelle-Aquitaine","County":"Pyrénées-Atlantiques","City":"Biarritz","Street":"Résidence Peintres d'Europe","PostalCode":"64200","AdditionalData":[{"value":"France","key":"CountryName"},{"value":"Nouvelle-Aquitaine","key":"StateName"},{"value":"Pyrénées-Atlantiques","key":"CountyName"}]},"MapReference":{"ReferenceId":"711271178","Spot":1.0,"SideOfStreet":"right","CountryId":"20000001","StateId":"20000383","CountyId":"20104588","CityId":"20104934"}}}]}]}}