{"Response":{"MetaInfo":{"Timestamp":"2020-03-28T11:49:50.414+0000","NextPageInformation":"2"},"View":[{"_type":"SearchResultsViewType","ViewId":0,"Result":[{"Relevance":1.0,"Distance":0.0,"Direction":0.0,"MatchLevel":"city","MatchQuality":{"Country":1.0,"State":1.0,"County":1.0,"City":1.0,"PostalCode":1.0},"Location":{"LocationId":"NT_VZ4N9InbNVtYlxzMs4XOQA","LocationType":"point","DisplayPosition":{"Latitude":43.476253,"Longitude":6.183078},"MapView":{"TopLeft":{"Latitude":43.50519,"Longitude":6.11527},"BottomRight":{"Latitude":43.4423,"Longitude":6.23499}},"Address":{"Label":"Carcès, Provence-Alpes-Côte d'Azur, France","Country":"FRA","State":"Provence-Alpes-Côte d'Azur","County":"Var","City":"Carcès","PostalCode":"83570","AdditionalData":[{"value":"France","key":"CountryName"},{"value":"Provence-Alpes-Côte d'Azur","key":"StateName"},{"value":"Var","key":"CountyName"}]},"MapReference":{"ReferenceId":"79486875","SideOfStreet":"neither","CountryId":"20000001","StateId":"20000193","CountyId":"20055539","CityId":"20055634"}}},{"Relevance":1.0,"Distance":11.8,"MatchLevel":"houseNumber","MatchQuality":{"Country":1.0,"State":1.0,"County":1.0,"City":1.0,"Street":[1.0],"HouseNumber":1.0,"PostalCode":1.0},"MatchType":"interpolated","Location":{"LocationId":"NT_xzTfzLqz0ato72afYFk95B_5A","LocationType":"point","DisplayPosition":{"Latitude":43.47639,"Longitude":6.18302},"MapView":{"TopLeft":{"Latitude":43.4775142,"Longitude":6.1814709},"BottomRight":{"Latitude":43.4752658,"Longitude":6.1845691}},"Address":{"Label":"13 Rue Maréchal Foch, 83570 Carcès, France","Country":"FRA","State":"Provence-Alpes-Côte d'Azur","County":"Var","City":"Carcès","Street":"Rue Maréchal Foch","HouseNumber":"13","PostalCode":"83570","AdditionalData":[{"value":"France","key":"CountryName"},{"value":"Provence-Alpes-Côte d'Azur","key":"StateName"},{"value":"Var","key":"CountyName"}]},"MapReference":{"ReferenceId":"79486826","Spot":0.05,"SideOfStreet":"left","CountryId":"20000001","StateId":"20000193","CountyId":"20055539","CityId":"20055634","AddressId":"573311950","RoadLinkId":"45601505"}}},{"Relevance":1.0,"Distance":19.1,"MatchLevel":"houseNumber","MatchQuality":{"Country":1.0,"State":1.0,"County":1.0,"City":1.0,"Street":[1.0],"HouseNumber":1.0,"PostalCode":1.0},"MatchType":"interpolated","Location":{"LocationId":"NT_xzTfzLqz0ato72afYFk95B_3A","LocationType":"point","DisplayPosition":{"Latitude":43.47638,"Longitude":6.18329},"MapView":{"TopLeft":{"Latitude":43.4775042,"Longitude":6.1817409},"BottomRight":{"Latitude":43.4752558,"Longitude":6.1848391}},"Address":{"Label":"7 Rue Maréchal Foch, 83570 Carcès, France","Country":"FRA","State":"Provence-Alpes-Côte d'Azur","County":"Var","City":"Carcès","Street":"Rue Maréchal Foch","HouseNumber":"7","PostalCode":"83570","AdditionalData":[{"value":"France","key":"CountryName"},{"value":"Provence-Alpes-Côte d'Azur","key":"StateName"},{"value":"Var","key":"CountyName"}]},"MapReference":{"ReferenceId":"761212876","Spot":0.37,"SideOfStreet":"right","CountryId":"20000001","StateId":"20000193","CountyId":"20055539","CityId":"20055634","AddressId":"573340867","RoadLinkId":"155506316"}}},{"Relevance":1.0,"Distance":29.2,"MatchLevel":"houseNumber","MatchQuality":{"Country":1.0,"State":1.0,"County":1.0,"City":1.0,"Street":[1.0],"HouseNumber":1.0,"PostalCode":1.0},"MatchType":"interpolated","Location":{"LocationId":"NT_dwhxKiClR23RdqnfSqN9tB_yA","LocationType":"point","DisplayPosition":{"Latitude":43.47652,"Longitude":6.18309},"MapView":{"TopLeft":{"Latitude":43.4776442,"Longitude":6.1815408},"BottomRight":{"Latitude":43.4753958,"Longitude":6.1846392}},"Address":{"Label":"2 Rue de la Rampe, 83570 Carcès, France","Country":"FRA","State":"Provence-Alpes-Côte d'Azur","County":"Var","City":"Carcès","Street":"Rue de la Rampe","HouseNumber":"2","PostalCode":"83570","AdditionalData":[{"value":"France","key":"CountryName"},{"value":"Provence-Alpes-Côte d'Azur","key":"StateName"},{"value":"Var","key":"CountyName"}]},"MapReference":{"ReferenceId":"79486836","Spot":0.64,"SideOfStreet":"right","CountryId":"20000001","StateId":"20000193","CountyId":"20055539","CityId":"20055634","AddressId":"573461547","RoadLinkId":"46080154"}}},{"Relevance":1.0,"Distance":33.7,"MatchLevel":"houseNumber","MatchQuality":{"Country":1.0,"State":1.0,"County":1.0,"City":1.0,"Street":[1.0],"HouseNumber":1.0,"PostalCode":1.0},"MatchType":"interpolated","Location":{"LocationId":"NT_QztI9wWWZb2qWWXNaBpMxB_xcD","LocationType":"point","DisplayPosition":{"Latitude":43.47658,"Longitude":6.18316},"MapView":{"TopLeft":{"Latitude":43.4777042,"Longitude":6.1816108},"BottomRight":{"Latitude":43.4754558,"Longitude":6.1847092}},"Address":{"Label":"17 Rue Jean Brémond, 83570 Carcès, France","Country":"FRA","State":"Provence-Alpes-Côte d'Azur","County":"Var","City":"Carcès","Street":"Rue Jean Brémond","HouseNumber":"17","PostalCode":"83570","AdditionalData":[{"value":"France","key":"CountryName"},{"value":"Provence-Alpes-Côte d'Azur","key":"StateName"},{"value":"Var","key":"CountyName"}]},"MapReference":{"ReferenceId":"79486839","Spot":0.07,"SideOfStreet":"right","CountryId":"20000001","StateId":"20000193","CountyId":"20055539","CityId":"20055634","AddressId":"573296645","RoadLinkId":"46156603"}}},{"Relevance":1.0,"Distance":37.6,"MatchLevel":"street","MatchQuality":{"Country":1.0,"State":1.0,"County":1.0,"City":1.0,"Street":[1.0],"PostalCode":1.0},"Location":{"LocationId":"NT_dwhxKiClR23RdqnfSqN9tB_l_79486837_R","LocationType":"point","DisplayPosition":{"Latitude":43.47659,"Longitude":6.18311},"MapView":{"TopLeft":{"Latitude":43.47677,"Longitude":6.18311},"BottomRight":{"Latitude":43.47659,"Longitude":6.18315}},"Address":{"Label":"Rue de la Rampe, 83570 Carcès, France","Country":"FRA","State":"Provence-Alpes-Côte d'Azur","County":"Var","City":"Carcès","Street":"Rue de la Rampe","PostalCode":"83570","AdditionalData":[{"value":"France","key":"CountryName"},{"value":"Provence-Alpes-Côte d'Azur","key":"StateName"},{"value":"Var","key":"CountyName"}]},"MapReference":{"ReferenceId":"79486837","Spot":0.0,"SideOfStreet":"right","CountryId":"20000001","StateId":"20000193","CountyId":"20055539","CityId":"20055634"}}},{"Relevance":1.0,"Distance":39.8,"MatchLevel":"houseNumber","MatchQuality":{"Country":1.0,"State":1.0,"County":1.0,"City":1.0,"Street":[1.0],"HouseNumber":1.0,"PostalCode":1.0},"MatchType":"interpolated","Location":{"LocationId":"NT_QztI9wWWZb2qWWXNaBpMxB_xkD","LocationType":"point","DisplayPosition":{"Latitude":43.47662,"Longitude":6.18291},"MapView":{"TopLeft":{"Latitude":43.4777442,"Longitude":6.1813608},"BottomRight":{"Latitude":43.4754958,"Longitude":6.1844592}},"Address":{"Label":"19 Rue Jean Brémond, 83570 Carcès, France","Country":"FRA","State":"Provence-Alpes-Côte d'Azur","County":"Var","City":"Carcès","Street":"Rue Jean Brémond","HouseNumber":"19","PostalCode":"83570","AdditionalData":[{"value":"France","key":"CountryName"},{"value":"Provence-Alpes-Côte d'Azur","key":"StateName"},{"value":"Var","key":"CountyName"}]},"MapReference":{"ReferenceId":"79486840","Spot":0.25,"SideOfStreet":"left","CountryId":"20000001","StateId":"20000193","CountyId":"20055539","CityId":"20055634","AddressId":"573306342","RoadLinkId":"46011385"}}},{"Relevance":1.0,"Distance":51.4,"MatchLevel":"street","MatchQuality":{"Country":1.0,"State":1.0,"County":1.0,"City":1.0,"PostalCode":1.0},"Location":{"LocationId":"NT_Xi7dLbIRJSPm1vU9ARUzCA_l_79486873_R","LocationType":"point","DisplayPosition":{"Latitude":43.4757915,"Longitude":6.1830441},"MapView":{"TopLeft":{"Latitude":43.47588,"Longitude":6.18184},"BottomRight":{"Latitude":43.47541,"Longitude":6.18323}},"Address":{"Label":"83570 Carcès, France","Country":"FRA","State":"Provence-Alpes-Côte d'Azur","County":"Var","City":"Carcès","PostalCode":"83570","AdditionalData":[{"value":"France","key":"CountryName"},{"value":"Provence-Alpes-Côte d'Azur","key":"StateName"},{"value":"Var","key":"CountyName"}]},"MapReference":{"ReferenceId":"79486873","Spot":0.31,"SideOfStreet":"right","CountryId":"20000001","StateId":"20000193","CountyId":"20055539","CityId":"20055634"}}},{"Relevance":1.0,"Distance":53.0,"MatchLevel":"houseNumber","MatchQuality":{"Country":1.0,"State":1.0,"County":1.0,"City":1.0,"Street":[1.0],"HouseNumber":1.0,"PostalCode":1.0},"MatchType":"interpolated","Location":{"LocationId":"NT_9utvWwmf3tXkwj3QIN2adC_yED","LocationType":"point","DisplayPosition":{"Latitude":43.47676,"Longitude":6.18321},"MapView":{"TopLeft":{"Latitude":43.4778842,"Longitude":6.1816608},"BottomRight":{"Latitude":43.4756358,"Longitude":6.1847592}},"Address":{"Label":"21 Rue de l'Horloge, 83570 Carcès, France","Country":"FRA","State":"Provence-Alpes-Côte d'Azur","County":"Var","City":"Carcès","Street":"Rue de l'Horloge","HouseNumber":"21","PostalCode":"83570","AdditionalData":[{"value":"France","key":"CountryName"},{"value":"Provence-Alpes-Côte d'Azur","key":"StateName"},{"value":"Var","key":"CountyName"}]},"MapReference":{"ReferenceId":"79486834","Spot":0.91,"SideOfStreet":"left","CountryId":"20000001","StateId":"20000193","CountyId":"20055539","CityId":"20055634","AddressId":"573367870","RoadLinkId":"46225152"}}},{"Relevance":1.0,"Distance":54.3,"MatchLevel":"houseNumber","MatchQuality":{"Country":1.0,"State":1.0,"County":1.0,"City":1.0,"Street":[1.0],"HouseNumber":1.0,"PostalCode":1.0},"MatchType":"interpolated","Location":{"LocationId":"NT_9utvWwmf3tXkwj3QIN2adC_yID","LocationType":"point","DisplayPosition":{"Latitude":43.47677,"Longitude":6.18313},"MapView":{"TopLeft":{"Latitude":43.4778942,"Longitude":6.1815808},"BottomRight":{"Latitude":43.4756458,"Longitude":6.1846792}},"Address":{"Label":"22 Rue de l'Horloge, 83570 Carcès, France","Country":"FRA","State":"Provence-Alpes-Côte d'Azur","County":"Var","City":"Carcès","Street":"Rue de l'Horloge","HouseNumber":"22","PostalCode":"83570","AdditionalData":[{"value":"France","key":"CountryName"},{"value":"Provence-Alpes-Côte d'Azur","key":"StateName"},{"value":"Var","key":"CountyName"}]},"MapReference":{"ReferenceId":"79486841","Spot":0.03,"SideOfStreet":"left","CountryId":"20000001","StateId":"20000193","CountyId":"20055539","CityId":"20055634","AddressId":"573423923","RoadLinkId":"45940818"}}}]}]}}