{"Response":{"MetaInfo":{"Timestamp":"2020-03-28T09:49:04.631+0000","NextPageInformation":"2"},"View":[{"_type":"SearchResultsViewType","ViewId":0,"Result":[{"Relevance":1.0,"Distance":0.0,"Direction":0.0,"MatchLevel":"city","MatchQuality":{"Country":1.0,"State":1.0,"County":1.0,"City":1.0,"PostalCode":1.0},"Location":{"LocationId":"NT_RthNdv6oFk2kiifcnZLLwA","LocationType":"point","DisplayPosition":{"Latitude":43.401284,"Longitude":5.0522505},"MapView":{"TopLeft":{"Latitude":43.45354,"Longitude":4.98508},"BottomRight":{"Latitude":43.32425,"Longitude":5.11099}},"Address":{"Label":"Martigues, Provence-Alpes-Côte d'Azur, France","Country":"FRA","State":"Provence-Alpes-Côte d'Azur","County":"Bouches-du-Rhône","City":"Martigues","PostalCode":"13500","AdditionalData":[{"value":"France","key":"CountryName"},{"value":"Provence-Alpes-Côte d'Azur","key":"StateName"},{"value":"Bouches-du-Rhône","key":"CountyName"}]},"MapReference":{"ReferenceId":"546112238","SideOfStreet":"neither","CountryId":"20000001","StateId":"20000193","CountyId":"20048302","CityId":"20048505"}}},{"Relevance":1.0,"Distance":18.7,"MatchLevel":"houseNumber","MatchQuality":{"Country":1.0,"State":1.0,"County":1.0,"City":1.0,"Street":[1.0],"HouseNumber":1.0,"PostalCode":1.0},"MatchType":"interpolated","Location":{"LocationId":"NT_V69wjMLxiW8oEyfBhagENC_xED","LocationType":"point","DisplayPosition":{"Latitude":43.40135,"Longitude":5.05202},"MapView":{"TopLeft":{"Latitude":43.4024742,"Longitude":5.0504728},"BottomRight":{"Latitude":43.4002258,"Longitude":5.0535672}},"Address":{"Label":"11 Rue Édouard Amavet, 13500 Martigues, France","Country":"FRA","State":"Provence-Alpes-Côte d'Azur","County":"Bouches-du-Rhône","City":"Martigues","Street":"Rue Édouard Amavet","HouseNumber":"11","PostalCode":"13500","AdditionalData":[{"value":"France","key":"CountryName"},{"value":"Provence-Alpes-Côte d'Azur","key":"StateName"},{"value":"Bouches-du-Rhône","key":"CountyName"}]},"MapReference":{"ReferenceId":"546112492","Spot":0.25,"SideOfStreet":"right","CountryId":"20000001","StateId":"20000193","CountyId":"20048302","CityId":"20048505","AddressId":"345406238","RoadLinkId":"45482965"}}},{"Relevance":1.0,"Distance":46.1,"MatchLevel":"street","MatchQuality":{"Country":1.0,"State":1.0,"County":1.0,"City":1.0,"Street":[1.0],"PostalCode":1.0},"Location":{"LocationId":"NT_p5NzG5F1W38bDmjADXftZC_l_716115560_R","LocationType":"point","DisplayPosition":{"Latitude":43.401284,"Longitude":5.05168},"MapView":{"TopLeft":{"Latitude":43.40139,"Longitude":5.05167},"BottomRight":{"Latitude":43.40118,"Longitude":5.05168}},"Address":{"Label":"Avenue Hippolyte Bayard, 13500 Martigues, France","Country":"FRA","State":"Provence-Alpes-Côte d'Azur","County":"Bouches-du-Rhône","City":"Martigues","Street":"Avenue Hippolyte Bayard","PostalCode":"13500","AdditionalData":[{"value":"France","key":"CountryName"},{"value":"Provence-Alpes-Côte d'Azur","key":"StateName"},{"value":"Bouches-du-Rhône","key":"CountyName"}]},"MapReference":{"ReferenceId":"716115560","Spot":0.49,"SideOfStreet":"right","CountryId":"20000001","StateId":"20000193","CountyId":"20048302","CityId":"20048505"}}},{"Relevance":1.0,"Distance":47.5,"MatchLevel":"street","MatchQuality":{"Country":1.0,"State":1.0,"County":1.0,"City":1.0,"Street":[1.0],"PostalCode":1.0},"Location":{"LocationId":"NT_p5NzG5F1W38bDmjADXftZC_l_722669732_R","LocationType":"point","DisplayPosition":{"Latitude":43.40118,"Longitude":5.05168},"MapView":{"TopLeft":{"Latitude":43.40118,"Longitude":5.05168},"BottomRight":{"Latitude":43.40096,"Longitude":5.05168}},"Address":{"Label":"Avenue Hippolyte Bayard, 13500 Martigues, France","Country":"FRA","State":"Provence-Alpes-Côte d'Azur","County":"Bouches-du-Rhône","City":"Martigues","Street":"Avenue Hippolyte Bayard","PostalCode":"13500","AdditionalData":[{"value":"France","key":"CountryName"},{"value":"Provence-Alpes-Côte d'Azur","key":"StateName"},{"value":"Bouches-du-Rhône","key":"CountyName"}]},"MapReference":{"ReferenceId":"722669732","Spot":1.0,"SideOfStreet":"right","CountryId":"20000001","StateId":"20000193","CountyId":"20048302","CityId":"20048505"}}},{"Relevance":1.0,"Distance":55.8,"MatchLevel":"houseNumber","MatchQuality":{"Country":1.0,"State":1.0,"County":1.0,"City":1.0,"Street":[1.0],"HouseNumber":1.0,"PostalCode":1.0},"MatchType":"interpolated","Location":{"LocationId":"NT_V69wjMLxiW8oEyfBhagENC_yQD","LocationType":"point","DisplayPosition":{"Latitude":43.40141,"Longitude":5.05158},"MapView":{"TopLeft":{"Latitude":43.4025342,"Longitude":5.0500328},"BottomRight":{"Latitude":43.4002858,"Longitude":5.0531272}},"Address":{"Label":"24 Rue Édouard Amavet, 13500 Martigues, France","Country":"FRA","State":"Provence-Alpes-Côte d'Azur","County":"Bouches-du-Rhône","City":"Martigues","Street":"Rue Édouard Amavet","HouseNumber":"24","PostalCode":"13500","AdditionalData":[{"value":"France","key":"CountryName"},{"value":"Provence-Alpes-Côte d'Azur","key":"StateName"},{"value":"Bouches-du-Rhône","key":"CountyName"}]},"MapReference":{"ReferenceId":"546112488","Spot":0.35,"SideOfStreet":"right","CountryId":"20000001","StateId":"20000193","CountyId":"20048302","CityId":"20048505","AddressId":"605805542","RoadLinkId":"46032756"}}},{"Relevance":1.0,"Distance":58.5,"MatchLevel":"street","MatchQuality":{"Country":1.0,"State":1.0,"County":1.0,"City":1.0,"Street":[1.0],"PostalCode":1.0},"Location":{"LocationId":"NT_p5NzG5F1W38bDmjADXftZC_l_722669731_R","LocationType":"point","DisplayPosition":{"Latitude":43.40096,"Longitude":5.05168},"MapView":{"TopLeft":{"Latitude":43.40096,"Longitude":5.05167},"BottomRight":{"Latitude":43.40035,"Longitude":5.05168}},"Address":{"Label":"Avenue Hippolyte Bayard, 13500 Martigues, France","Country":"FRA","State":"Provence-Alpes-Côte d'Azur","County":"Bouches-du-Rhône","City":"Martigues","Street":"Avenue Hippolyte Bayard","PostalCode":"13500","AdditionalData":[{"value":"France","key":"CountryName"},{"value":"Provence-Alpes-Côte d'Azur","key":"StateName"},{"value":"Bouches-du-Rhône","key":"CountyName"}]},"MapReference":{"ReferenceId":"722669731","Spot":1.0,"SideOfStreet":"right","CountryId":"20000001","StateId":"20000193","CountyId":"20048302","CityId":"20048505"}}},{"Relevance":1.0,"Distance":65.0,"MatchLevel":"street","MatchQuality":{"Country":1.0,"State":1.0,"County":1.0,"City":1.0,"PostalCode":1.0},"Location":{"LocationId":"NT_B-sdgmth8ZIAGv.5joATDC_l_1060474058_L","LocationType":"point","DisplayPosition":{"Latitude":43.40092,"Longitude":5.05288},"MapView":{"TopLeft":{"Latitude":43.40092,"Longitude":5.05288},"BottomRight":{"Latitude":43.40043,"Longitude":5.05332}},"Address":{"Label":"13500 Martigues, France","Country":"FRA","State":"Provence-Alpes-Côte d'Azur","County":"Bouches-du-Rhône","City":"Martigues","PostalCode":"13500","AdditionalData":[{"value":"France","key":"CountryName"},{"value":"Provence-Alpes-Côte d'Azur","key":"StateName"},{"value":"Bouches-du-Rhône","key":"CountyName"}]},"MapReference":{"ReferenceId":"1060474058","Spot":1.0,"SideOfStreet":"left","CountryId":"20000001","StateId":"20000193","CountyId":"20048302","CityId":"20048505"}}},{"Relevance":1.0,"Distance":68.7,"MatchLevel":"houseNumber","MatchQuality":{"Country":1.0,"State":1.0,"County":1.0,"City":1.0,"Street":[1.0],"HouseNumber":1.0,"PostalCode":1.0},"MatchType":"interpolated","Location":{"LocationId":"NT_4edQcntPxY0Gn3itK2cKiD_yQD","LocationType":"point","DisplayPosition":{"Latitude":43.40156,"Longitude":5.05141},"MapView":{"TopLeft":{"Latitude":43.4026842,"Longitude":5.0498628},"BottomRight":{"Latitude":43.4004358,"Longitude":5.0529572}},"Address":{"Label":"24 Boulevard Lucien Degut, 13500 Martigues, France","Country":"FRA","State":"Provence-Alpes-Côte d'Azur","County":"Bouches-du-Rhône","City":"Martigues","Street":"Boulevard Lucien Degut","HouseNumber":"24","PostalCode":"13500","AdditionalData":[{"value":"France","key":"CountryName"},{"value":"Provence-Alpes-Côte d'Azur","key":"StateName"},{"value":"Bouches-du-Rhône","key":"CountyName"}]},"MapReference":{"ReferenceId":"1122757586","Spot":0.25,"SideOfStreet":"right","CountryId":"20000001","StateId":"20000193","CountyId":"20048302","CityId":"20048505","AddressId":"345379504","RoadLinkId":"433007035"}}},{"Relevance":1.0,"Distance":73.9,"MatchLevel":"houseNumber","MatchQuality":{"Country":1.0,"State":1.0,"County":1.0,"City":1.0,"Street":[1.0],"HouseNumber":1.0,"PostalCode":1.0},"MatchType":"interpolated","Location":{"LocationId":"NT_t.03ojz5tSbPCxzyLA.LAB_yQD","LocationType":"point","DisplayPosition":{"Latitude":43.40061,"Longitude":5.05227},"MapView":{"TopLeft":{"Latitude":43.4017342,"Longitude":5.0507228},"BottomRight":{"Latitude":43.3994858,"Longitude":5.0538172}},"Address":{"Label":"24 Boulevard Commandant Mandine, 13500 Martigues, France","Country":"FRA","State":"Provence-Alpes-Côte d'Azur","County":"Bouches-du-Rhône","City":"Martigues","Street":"Boulevard Commandant Mandine","HouseNumber":"24","PostalCode":"13500","AdditionalData":[{"value":"France","key":"CountryName"},{"value":"Provence-Alpes-Côte d'Azur","key":"StateName"},{"value":"Bouches-du-Rhône","key":"CountyName"}]},"MapReference":{"ReferenceId":"716093687","Spot":0.9,"SideOfStreet":"right","CountryId":"20000001","StateId":"20000193","CountyId":"20048302","CityId":"20048505","AddressId":"363426266","RoadLinkId":"120990157"}}},{"Relevance":1.0,"Distance":91.0,"MatchLevel":"houseNumber","MatchQuality":{"Country":1.0,"State":1.0,"County":1.0,"City":1.0,"Street":[1.0],"HouseNumber":1.0,"PostalCode":1.0},"MatchType":"interpolated","Location":{"LocationId":"NT_V69wjMLxiW8oEyfBhagENC_2A","LocationType":"point","DisplayPosition":{"Latitude":43.40154,"Longitude":5.05332},"MapView":{"TopLeft":{"Latitude":43.4026642,"Longitude":5.0517728},"BottomRight":{"Latitude":43.4004158,"Longitude":5.0548672}},"Address":{"Label":"6 Rue Édouard Amavet, 13500 Martigues, France","Country":"FRA","State":"Provence-Alpes-Côte d'Azur","County":"Bouches-du-Rhône","City":"Martigues","Street":"Rue Édouard Amavet","HouseNumber":"6","PostalCode":"13500","AdditionalData":[{"value":"France","key":"CountryName"},{"value":"Provence-Alpes-Côte d'Azur","key":"StateName"},{"value":"Bouches-du-Rhône","key":"CountyName"}]},"MapReference":{"ReferenceId":"546113909","Spot":0.49,"SideOfStreet":"left","CountryId":"20000001","StateId":"20000193","CountyId":"20048302","CityId":"20048505","AddressId":"573460586","RoadLinkId":"45324032"}}}]}]}}