{"Response":{"MetaInfo":{"Timestamp":"2020-03-28T11:03:24.975+0000","NextPageInformation":"2"},"View":[{"_type":"SearchResultsViewType","ViewId":0,"Result":[{"Relevance":1.0,"Distance":-41.2,"MatchLevel":"landmark","MatchQuality":{"Country":1.0,"State":1.0,"County":1.0,"City":1.0,"PostalCode":1.0,"Name":1.0},"Location":{"LocationId":"NT_lXIPmUggA9CS1Se5dxkrWD","LocationType":"hospital","Name":"Hosp. Univ. Marqués de Valdecilla","DisplayPosition":{"Latitude":43.457,"Longitude":-3.83011},"MapView":{"TopLeft":{"Latitude":43.45995,"Longitude":-3.83547},"BottomRight":{"Latitude":43.45404,"Longitude":-3.82672}},"Address":{"Label":"39008 Santander (Cantabria), España","Country":"ESP","State":"Cantabria","County":"Cantabria","City":"Santander","PostalCode":"39008","AdditionalData":[{"value":"España","key":"CountryName"},{"value":"Cantabria","key":"StateName"},{"value":"Cantabria","key":"CountyName"}]},"MapReference":{"CountryId":"20215059","StateId":"20221901","CountyId":"20221902","CityId":"20282159","PlaceId":"559230081"}}},{"Relevance":1.0,"Distance":0.0,"Direction":0.0,"MatchLevel":"city","MatchQuality":{"Country":1.0,"State":1.0,"County":1.0,"City":1.0,"PostalCode":1.0},"Location":{"LocationId":"NT_JVe5XjraDnR9a7o5rWhtqC","LocationType":"point","DisplayPosition":{"Latitude":43.4557361,"Longitude":-3.831284},"MapView":{"TopLeft":{"Latitude":43.49486,"Longitude":-3.88904},"BottomRight":{"Latitude":43.43446,"Longitude":-3.76329}},"Address":{"Label":"Santander, Cantabria, España","Country":"ESP","State":"Cantabria","County":"Cantabria","City":"Santander","PostalCode":"39008","AdditionalData":[{"value":"España","key":"CountryName"},{"value":"Cantabria","key":"StateName"},{"value":"Cantabria","key":"CountyName"}]},"MapReference":{"ReferenceId":"560597487","SideOfStreet":"neither","CountryId":"20215059","StateId":"20221901","CountyId":"20221902","CityId":"20282159"}}},{"Relevance":1.0,"Distance":19.7,"MatchLevel":"street","MatchQuality":{"Country":1.0,"State":1.0,"County":1.0,"City":1.0,"Street":[1.0],"PostalCode":1.0},"Location":{"LocationId":"NT_8hOiYruV1MCrJbiIi-liOC_l_967050764_R","LocationType":"point","DisplayPosition":{"Latitude":43.45556,"Longitude":-3.83131},"MapView":{"TopLeft":{"Latitude":43.45556,"Longitude":-3.83131},"BottomRight":{"Latitude":43.45462,"Longitude":-3.83003}},"Address":{"Label":"Avenida Segundo López Velez, 39011 Santander (Cantabria), España","Country":"ESP","State":"Cantabria","County":"Cantabria","City":"Santander","Street":"Avenida Segundo López Velez","PostalCode":"39011","AdditionalData":[{"value":"España","key":"CountryName"},{"value":"Cantabria","key":"StateName"},{"value":"Cantabria","key":"CountyName"}]},"MapReference":{"ReferenceId":"967050764","Spot":1.0,"SideOfStreet":"right","CountryId":"20215059","StateId":"20221901","CountyId":"20221902","CityId":"20282159"}}},{"Relevance":1.0,"Distance":26.6,"MatchLevel":"street","MatchQuality":{"Country":1.0,"State":1.0,"County":1.0,"City":1.0,"PostalCode":1.0},"Location":{"LocationId":"NT_JMd7yWpjsTJXl37OjA.52B_l_976678779_R","LocationType":"point","DisplayPosition":{"Latitude":43.4555457,"Longitude":-3.831484},"MapView":{"TopLeft":{"Latitude":43.45594,"Longitude":-3.83186},"BottomRight":{"Latitude":43.45481,"Longitude":-3.8308}},"Address":{"Label":"39011 Santander (Cantabria), España","Country":"ESP","State":"Cantabria","County":"Cantabria","City":"Santander","PostalCode":"39011","AdditionalData":[{"value":"España","key":"CountryName"},{"value":"Cantabria","key":"StateName"},{"value":"Cantabria","key":"CountyName"}]},"MapReference":{"ReferenceId":"976678779","Spot":0.65,"SideOfStreet":"right","CountryId":"20215059","StateId":"20221901","CountyId":"20221902","CityId":"20282159"}}},{"Relevance":1.0,"Distance":41.3,"MatchLevel":"street","MatchQuality":{"Country":1.0,"State":1.0,"County":1.0,"City":1.0,"Street":[1.0],"PostalCode":1.0},"Location":{"LocationId":"NT_H73v2Nnc2lU-bdoUN3HrND_l_967179897_R","LocationType":"point","DisplayPosition":{"Latitude":43.4554388,"Longitude":-3.8315915},"MapView":{"TopLeft":{"Latitude":43.45586,"Longitude":-3.83203},"BottomRight":{"Latitude":43.45513,"Longitude":-3.83127}},"Address":{"Label":"Distribuidor de la Marga, 39011 Santander (Cantabria), España","Country":"ESP","State":"Cantabria","County":"Cantabria","City":"Santander","Street":"Distribuidor de la Marga","PostalCode":"39011","AdditionalData":[{"value":"España","key":"CountryName"},{"value":"Cantabria","key":"StateName"},{"value":"Cantabria","key":"CountyName"}]},"MapReference":{"ReferenceId":"967179897","Spot":0.42,"SideOfStreet":"right","CountryId":"20215059","StateId":"20221901","CountyId":"20221902","CityId":"20282159"}}},{"Relevance":1.0,"Distance":51.7,"MatchLevel":"street","MatchQuality":{"Country":1.0,"State":1.0,"County":1.0,"City":1.0,"PostalCode":1.0},"Location":{"LocationId":"NT_JMd7yWpjsTJXl37OjA.52B_l_967071844_R","LocationType":"point","DisplayPosition":{"Latitude":43.45594,"Longitude":-3.83186},"MapView":{"TopLeft":{"Latitude":43.45615,"Longitude":-3.83201},"BottomRight":{"Latitude":43.45594,"Longitude":-3.83186}},"Address":{"Label":"39011 Santander (Cantabria), España","Country":"ESP","State":"Cantabria","County":"Cantabria","City":"Santander","PostalCode":"39011","AdditionalData":[{"value":"España","key":"CountryName"},{"value":"Cantabria","key":"StateName"},{"value":"Cantabria","key":"CountyName"}]},"MapReference":{"ReferenceId":"967071844","Spot":0.0,"SideOfStreet":"right","CountryId":"20215059","StateId":"20221901","CountyId":"20221902","CityId":"20282159"}}},{"Relevance":1.0,"Distance":56.9,"MatchLevel":"street","MatchQuality":{"Country":1.0,"State":1.0,"County":1.0,"City":1.0,"PostalCode":1.0},"Location":{"LocationId":"NT_JMd7yWpjsTJXl37OjA.52B_l_967180491_R","LocationType":"point","DisplayPosition":{"Latitude":43.45555,"Longitude":-3.83194},"MapView":{"TopLeft":{"Latitude":43.45576,"Longitude":-3.83214},"BottomRight":{"Latitude":43.45555,"Longitude":-3.83194}},"Address":{"Label":"39011 Santander (Cantabria), España","Country":"ESP","State":"Cantabria","County":"Cantabria","City":"Santander","PostalCode":"39011","AdditionalData":[{"value":"España","key":"CountryName"},{"value":"Cantabria","key":"StateName"},{"value":"Cantabria","key":"CountyName"}]},"MapReference":{"ReferenceId":"967180491","Spot":0.0,"SideOfStreet":"right","CountryId":"20215059","StateId":"20221901","CountyId":"20221902","CityId":"20282159"}}},{"Relevance":1.0,"Distance":57.5,"MatchLevel":"street","MatchQuality":{"Country":1.0,"State":1.0,"County":1.0,"City":1.0,"PostalCode":1.0},"Location":{"LocationId":"NT_JMd7yWpjsTJXl37OjA.52B_l_976678780_R","LocationType":"point","DisplayPosition":{"Latitude":43.4553416,"Longitude":-3.8317442},"MapView":{"TopLeft":{"Latitude":43.45555,"Longitude":-3.83194},"BottomRight":{"Latitude":43.45481,"Longitude":-3.8308}},"Address":{"Label":"39011 Santander (Cantabria), España","Country":"ESP","State":"Cantabria","County":"Cantabria","City":"Santander","PostalCode":"39011","AdditionalData":[{"value":"España","key":"CountryName"},{"value":"Cantabria","key":"StateName"},{"value":"Cantabria","key":"CountyName"}]},"MapReference":{"ReferenceId":"976678780","Spot":0.79,"SideOfStreet":"right","CountryId":"20215059","StateId":"20221901","CountyId":"20221902","CityId":"20282159"}}},{"Relevance":1.0,"Distance":61.8,"MatchLevel":"street","MatchQuality":{"Country":1.0,"State":1.0,"County":1.0,"City":1.0,"Street":[1.0],"PostalCode":1.0},"Location":{"LocationId":"NT_H73v2Nnc2lU-bdoUN3HrND_l_967176694_R","LocationType":"point","DisplayPosition":{"Latitude":43.45586,"Longitude":-3.83203},"MapView":{"TopLeft":{"Latitude":43.45595,"Longitude":-3.83213},"BottomRight":{"Latitude":43.45586,"Longitude":-3.83203}},"Address":{"Label":"Distribuidor de la Marga, 39011 Santander (Cantabria), España","Country":"ESP","State":"Cantabria","County":"Cantabria","City":"Santander","Street":"Distribuidor de la Marga","PostalCode":"39011","AdditionalData":[{"value":"España","key":"CountryName"},{"value":"Cantabria","key":"StateName"},{"value":"Cantabria","key":"CountyName"}]},"MapReference":{"ReferenceId":"967176694","Spot":0.0,"SideOfStreet":"right","CountryId":"20215059","StateId":"20221901","CountyId":"20221902","CityId":"20282159"}}},{"Relevance":1.0,"Distance":61.9,"MatchLevel":"street","MatchQuality":{"Country":1.0,"State":1.0,"County":1.0,"City":1.0,"PostalCode":1.0},"Location":{"LocationId":"NT_KeN5in.4ZbVG0qHjHlZI5D_l_1126986066_L","LocationType":"point","DisplayPosition":{"Latitude":43.45569,"Longitude":-3.83052},"MapView":{"TopLeft":{"Latitude":43.45581,"Longitude":-3.83052},"BottomRight":{"Latitude":43.45569,"Longitude":-3.83015}},"Address":{"Label":"39008 Santander (Cantabria), España","Country":"ESP","State":"Cantabria","County":"Cantabria","City":"Santander","PostalCode":"39008","AdditionalData":[{"value":"España","key":"CountryName"},{"value":"Cantabria","key":"StateName"},{"value":"Cantabria","key":"CountyName"}]},"MapReference":{"ReferenceId":"1126986066","Spot":0.0,"SideOfStreet":"left","CountryId":"20215059","StateId":"20221901","CountyId":"20221902","CityId":"20282159"}}}]}]}}