{"Response":{"MetaInfo":{"Timestamp":"2020-03-28T11:50:25.108+0000","NextPageInformation":"2"},"View":[{"_type":"SearchResultsViewType","ViewId":0,"Result":[{"Relevance":1.0,"Distance":-93.6,"MatchLevel":"landmark","MatchQuality":{"Country":1.0,"State":1.0,"County":1.0,"City":1.0,"Street":[1.0],"PostalCode":1.0,"Name":1.0},"Location":{"LocationId":"NT_IZfOEQlFvw8NOuEGsGERJA_p_YdU37vEwZuHEi.aTWVzu9B","LocationType":"shoppingCentre","Name":"Z.A.E. Fenouillet","DisplayPosition":{"Latitude":43.57304,"Longitude":3.94004},"MapView":{"TopLeft":{"Latitude":43.57772,"Longitude":3.93321},"BottomRight":{"Latitude":43.5704,"Longitude":3.94507}},"Address":{"Label":"Allée de l'Entrepôt, 34470 Pérols, France","Country":"FRA","State":"Occitanie","County":"Hérault","City":"Pérols","Street":"Allée de l'Entrepôt","PostalCode":"34470","AdditionalData":[{"value":"France","key":"CountryName"},{"value":"Occitanie","key":"StateName"},{"value":"Hérault","key":"CountyName"}]},"MapReference":{"CountryId":"20000001","StateId":"20050212","CountyId":"20097832","CityId":"20098427","PlaceId":"553795191"}}},{"Relevance":1.0,"Distance":0.0,"Direction":0.0,"MatchLevel":"city","MatchQuality":{"Country":1.0,"State":1.0,"County":1.0,"City":1.0,"PostalCode":1.0},"Location":{"LocationId":"NT_mYbrG-dqG6F5OK1LHiYS.D","LocationType":"point","DisplayPosition":{"Latitude":43.5733589,"Longitude":3.9425579},"MapView":{"TopLeft":{"Latitude":43.5839,"Longitude":3.93004},"BottomRight":{"Latitude":43.53803,"Longitude":3.97267}},"Address":{"Label":"Pérols, Occitanie, France","Country":"FRA","State":"Occitanie","County":"Hérault","City":"Pérols","PostalCode":"34470","AdditionalData":[{"value":"France","key":"CountryName"},{"value":"Occitanie","key":"StateName"},{"value":"Hérault","key":"CountyName"}]},"MapReference":{"ReferenceId":"585029241","SideOfStreet":"neither","CountryId":"20000001","StateId":"20050212","CountyId":"20097832","CityId":"20098427"}}},{"Relevance":1.0,"Distance":19.9,"MatchLevel":"street","MatchQuality":{"Country":1.0,"State":1.0,"County":1.0,"City":1.0,"PostalCode":1.0},"Location":{"LocationId":"NT_BwRhjyvoIjste6yqr4N.ED_l_1116841866_L","LocationType":"point","DisplayPosition":{"Latitude":43.5735122,"Longitude":3.9426864},"MapView":{"TopLeft":{"Latitude":43.57366,"Longitude":3.94251},"BottomRight":{"Latitude":43.57335,"Longitude":3.94288}},"Address":{"Label":"34470 Pérols, France","Country":"FRA","State":"Occitanie","County":"Hérault","City":"Pérols","PostalCode":"34470","AdditionalData":[{"value":"France","key":"CountryName"},{"value":"Occitanie","key":"StateName"},{"value":"Hérault","key":"CountyName"}]},"MapReference":{"ReferenceId":"1116841866","Spot":0.52,"SideOfStreet":"left","CountryId":"20000001","StateId":"20050212","CountyId":"20097832","CityId":"20098427"}}},{"Relevance":1.0,"Distance":26.0,"MatchLevel":"street","MatchQuality":{"Country":1.0,"State":1.0,"County":1.0,"City":1.0,"PostalCode":1.0},"Location":{"LocationId":"NT_BwRhjyvoIjste6yqr4N.ED_l_1116841865_L","LocationType":"point","DisplayPosition":{"Latitude":43.57335,"Longitude":3.94288},"MapView":{"TopLeft":{"Latitude":43.57335,"Longitude":3.94288},"BottomRight":{"Latitude":43.5732,"Longitude":3.94303}},"Address":{"Label":"34470 Pérols, France","Country":"FRA","State":"Occitanie","County":"Hérault","City":"Pérols","PostalCode":"34470","AdditionalData":[{"value":"France","key":"CountryName"},{"value":"Occitanie","key":"StateName"},{"value":"Hérault","key":"CountyName"}]},"MapReference":{"ReferenceId":"1116841865","Spot":1.0,"SideOfStreet":"left","CountryId":"20000001","StateId":"20050212","CountyId":"20097832","CityId":"20098427"}}},{"Relevance":1.0,"Distance":33.7,"MatchLevel":"street","MatchQuality":{"Country":1.0,"State":1.0,"County":1.0,"City":1.0,"PostalCode":1.0},"Location":{"LocationId":"NT_BwRhjyvoIjste6yqr4N.ED_l_966815615_R","LocationType":"point","DisplayPosition":{"Latitude":43.57366,"Longitude":3.94251},"MapView":{"TopLeft":{"Latitude":43.57388,"Longitude":3.94251},"BottomRight":{"Latitude":43.57366,"Longitude":3.94295}},"Address":{"Label":"34470 Pérols, France","Country":"FRA","State":"Occitanie","County":"Hérault","City":"Pérols","PostalCode":"34470","AdditionalData":[{"value":"France","key":"CountryName"},{"value":"Occitanie","key":"StateName"},{"value":"Hérault","key":"CountyName"}]},"MapReference":{"ReferenceId":"966815615","Spot":0.0,"SideOfStreet":"right","CountryId":"20000001","StateId":"20050212","CountyId":"20097832","CityId":"20098427"}}},{"Relevance":1.0,"Distance":33.7,"MatchLevel":"street","MatchQuality":{"Country":1.0,"State":1.0,"County":1.0,"City":1.0,"PostalCode":1.0},"Location":{"LocationId":"NT_BwRhjyvoIjste6yqr4N.ED_l_1132192459_L","LocationType":"point","DisplayPosition":{"Latitude":43.57366,"Longitude":3.94251},"MapView":{"TopLeft":{"Latitude":43.57372,"Longitude":3.94244},"BottomRight":{"Latitude":43.57366,"Longitude":3.94251}},"Address":{"Label":"34470 Pérols, France","Country":"FRA","State":"Occitanie","County":"Hérault","City":"Pérols","PostalCode":"34470","AdditionalData":[{"value":"France","key":"CountryName"},{"value":"Occitanie","key":"StateName"},{"value":"Hérault","key":"CountyName"}]},"MapReference":{"ReferenceId":"1132192459","Spot":0.0,"SideOfStreet":"left","CountryId":"20000001","StateId":"20050212","CountyId":"20097832","CityId":"20098427"}}},{"Relevance":1.0,"Distance":41.3,"MatchLevel":"street","MatchQuality":{"Country":1.0,"State":1.0,"County":1.0,"City":1.0,"PostalCode":1.0},"Location":{"LocationId":"NT_BwRhjyvoIjste6yqr4N.ED_l_1132192460_L","LocationType":"point","DisplayPosition":{"Latitude":43.57372,"Longitude":3.94244},"MapView":{"TopLeft":{"Latitude":43.5738,"Longitude":3.94235},"BottomRight":{"Latitude":43.57372,"Longitude":3.94244}},"Address":{"Label":"34470 Pérols, France","Country":"FRA","State":"Occitanie","County":"Hérault","City":"Pérols","PostalCode":"34470","AdditionalData":[{"value":"France","key":"CountryName"},{"value":"Occitanie","key":"StateName"},{"value":"Hérault","key":"CountyName"}]},"MapReference":{"ReferenceId":"1132192460","Spot":0.0,"SideOfStreet":"left","CountryId":"20000001","StateId":"20050212","CountyId":"20097832","CityId":"20098427"}}},{"Relevance":1.0,"Distance":41.9,"MatchLevel":"street","MatchQuality":{"Country":1.0,"State":1.0,"County":1.0,"City":1.0,"PostalCode":1.0},"Location":{"LocationId":"NT_BwRhjyvoIjste6yqr4N.ED_l_966815609_L","LocationType":"point","DisplayPosition":{"Latitude":43.5732,"Longitude":3.94303},"MapView":{"TopLeft":{"Latitude":43.5732,"Longitude":3.94303},"BottomRight":{"Latitude":43.57295,"Longitude":3.94326}},"Address":{"Label":"34470 Pérols, France","Country":"FRA","State":"Occitanie","County":"Hérault","City":"Pérols","PostalCode":"34470","AdditionalData":[{"value":"France","key":"CountryName"},{"value":"Occitanie","key":"StateName"},{"value":"Hérault","key":"CountyName"}]},"MapReference":{"ReferenceId":"966815609","Spot":1.0,"SideOfStreet":"left","CountryId":"20000001","StateId":"20050212","CountyId":"20097832","CityId":"20098427"}}},{"Relevance":1.0,"Distance":41.9,"MatchLevel":"street","MatchQuality":{"Country":1.0,"State":1.0,"County":1.0,"City":1.0,"PostalCode":1.0},"Location":{"LocationId":"NT_BwRhjyvoIjste6yqr4N.ED_l_966815619_L","LocationType":"point","DisplayPosition":{"Latitude":43.5732,"Longitude":3.94303},"MapView":{"TopLeft":{"Latitude":43.57354,"Longitude":3.94303},"BottomRight":{"Latitude":43.5732,"Longitude":3.94364}},"Address":{"Label":"34470 Pérols, France","Country":"FRA","State":"Occitanie","County":"Hérault","City":"Pérols","PostalCode":"34470","AdditionalData":[{"value":"France","key":"CountryName"},{"value":"Occitanie","key":"StateName"},{"value":"Hérault","key":"CountyName"}]},"MapReference":{"ReferenceId":"966815619","Spot":0.0,"SideOfStreet":"left","CountryId":"20000001","StateId":"20050212","CountyId":"20097832","CityId":"20098427"}}},{"Relevance":1.0,"Distance":51.8,"MatchLevel":"street","MatchQuality":{"Country":1.0,"State":1.0,"County":1.0,"City":1.0,"PostalCode":1.0},"Location":{"LocationId":"NT_BwRhjyvoIjste6yqr4N.ED_l_1116842254_L","LocationType":"point","DisplayPosition":{"Latitude":43.5738,"Longitude":3.94235},"MapView":{"TopLeft":{"Latitude":43.57428,"Longitude":3.94178},"BottomRight":{"Latitude":43.5738,"Longitude":3.94235}},"Address":{"Label":"34470 Pérols, France","Country":"FRA","State":"Occitanie","County":"Hérault","City":"Pérols","PostalCode":"34470","AdditionalData":[{"value":"France","key":"CountryName"},{"value":"Occitanie","key":"StateName"},{"value":"Hérault","key":"CountyName"}]},"MapReference":{"ReferenceId":"1116842254","Spot":0.0,"SideOfStreet":"left","CountryId":"20000001","StateId":"20050212","CountyId":"20097832","CityId":"20098427"}}}]}]}}