{"Response":{"MetaInfo":{"Timestamp":"2020-03-28T10:52:51.679+0000","NextPageInformation":"2"},"View":[{"_type":"SearchResultsViewType","ViewId":0,"Result":[{"Relevance":1.0,"Distance":0.0,"Direction":0.0,"MatchLevel":"district","MatchQuality":{"Country":1.0,"County":1.0,"City":1.0,"District":1.0,"PostalCode":1.0},"Location":{"LocationId":"NT_jcgbQ2wNaxrduUKSxJKZsB","LocationType":"point","DisplayPosition":{"Latitude":43.5293766,"Longitude":26.535444},"MapView":{"TopLeft":{"Latitude":43.54658,"Longitude":26.49509},"BottomRight":{"Latitude":43.51015,"Longitude":26.55558}},"Address":{"Label":"Разград, България","Country":"BGR","County":"Разград","City":"Разград","District":"Разград","PostalCode":"7200","AdditionalData":[{"value":"България","key":"CountryName"},{"value":"Разград","key":"CountyName"}]},"MapReference":{"ReferenceId":"991585944","SideOfStreet":"neither","CountryId":"20656214","CountyId":"23719422","CityId":"23718556","DistrictId":"23720443"}}},{"Relevance":1.0,"Distance":7.8,"MatchLevel":"street","MatchQuality":{"Country":1.0,"County":1.0,"City":1.0,"District":1.0,"Street":[1.0],"PostalCode":1.0},"Location":{"LocationId":"NT_cWeUhBRj8szXdY.b-oRRBA_l_809772243_L","LocationType":"point","DisplayPosition":{"Latitude":43.5293178,"Longitude":26.5354963},"MapView":{"TopLeft":{"Latitude":43.5296,"Longitude":26.53542},"BottomRight":{"Latitude":43.52925,"Longitude":26.53582}},"Address":{"Label":"Улица Хаджи Димитър, 7200 Разград, България","Country":"BGR","County":"Разград","City":"Разград","District":"Разград","Street":"Улица Хаджи Димитър","PostalCode":"7200","AdditionalData":[{"value":"България","key":"CountryName"},{"value":"Разград","key":"CountyName"}]},"MapReference":{"ReferenceId":"809772243","Spot":0.19,"SideOfStreet":"left","CountryId":"20656214","CountyId":"23719422","CityId":"23718556","DistrictId":"23720443"}}},{"Relevance":1.0,"Distance":13.1,"MatchLevel":"street","MatchQuality":{"Country":1.0,"County":1.0,"City":1.0,"District":1.0,"Street":[1.0],"PostalCode":1.0},"Location":{"LocationId":"NT_YEp0XbBXeQbAA7QVu7m8hC_l_809817786_R","LocationType":"point","DisplayPosition":{"Latitude":43.5292663,"Longitude":26.535388},"MapView":{"TopLeft":{"Latitude":43.52958,"Longitude":26.53477},"BottomRight":{"Latitude":43.52925,"Longitude":26.53542}},"Address":{"Label":"Улица Д-р Петър Берон, 7200 Разград, България","Country":"BGR","County":"Разград","City":"Разград","District":"Разград","Street":"Улица Д-р Петър Берон","PostalCode":"7200","AdditionalData":[{"value":"България","key":"CountryName"},{"value":"Разград","key":"CountyName"}]},"MapReference":{"ReferenceId":"809817786","Spot":0.05,"SideOfStreet":"right","CountryId":"20656214","CountyId":"23719422","CityId":"23718556","DistrictId":"23720443"}}},{"Relevance":1.0,"Distance":14.2,"MatchLevel":"street","MatchQuality":{"Country":1.0,"County":1.0,"City":1.0,"District":1.0,"Street":[1.0],"PostalCode":1.0},"Location":{"LocationId":"NT_cWeUhBRj8szXdY.b-oRRBA_l_809832955_L","LocationType":"point","DisplayPosition":{"Latitude":43.52925,"Longitude":26.53542},"MapView":{"TopLeft":{"Latitude":43.52925,"Longitude":26.53529},"BottomRight":{"Latitude":43.52914,"Longitude":26.53542}},"Address":{"Label":"Улица Хаджи Димитър, 7200 Разград, България","Country":"BGR","County":"Разград","City":"Разград","District":"Разград","Street":"Улица Хаджи Димитър","PostalCode":"7200","AdditionalData":[{"value":"България","key":"CountryName"},{"value":"Разград","key":"CountyName"}]},"MapReference":{"ReferenceId":"809832955","Spot":1.0,"SideOfStreet":"left","CountryId":"20656214","CountyId":"23719422","CityId":"23718556","DistrictId":"23720443"}}},{"Relevance":1.0,"Distance":39.0,"MatchLevel":"houseNumber","MatchQuality":{"Country":1.0,"County":1.0,"City":1.0,"District":1.0,"Street":[1.0],"HouseNumber":1.0,"PostalCode":1.0},"MatchType":"interpolated","Location":{"LocationId":"NT_YEp0XbBXeQbAA7QVu7m8hC_xgD","LocationType":"point","DisplayPosition":{"Latitude":43.52903,"Longitude":26.53552},"MapView":{"TopLeft":{"Latitude":43.5301542,"Longitude":26.5339695},"BottomRight":{"Latitude":43.5279058,"Longitude":26.5370705}},"Address":{"Label":"Улица Д-р Петър Берон 18, 7200 Разград, България","Country":"BGR","County":"Разград","City":"Разград","District":"Разград","Street":"Улица Д-р Петър Берон","HouseNumber":"18","PostalCode":"7200","AdditionalData":[{"value":"България","key":"CountryName"},{"value":"Разград","key":"CountyName"}]},"MapReference":{"ReferenceId":"809897583","Spot":0.9,"SideOfStreet":"left","CountryId":"20656214","CountyId":"23719422","CityId":"23718556","DistrictId":"23720443","AddressId":"344165988","RoadLinkId":"197068579"}}},{"Relevance":1.0,"Distance":39.2,"MatchLevel":"street","MatchQuality":{"Country":1.0,"County":1.0,"City":1.0,"District":1.0,"Street":[1.0],"PostalCode":1.0},"Location":{"LocationId":"NT_cWeUhBRj8szXdY.b-oRRBA_l_1179706106_L","LocationType":"point","DisplayPosition":{"Latitude":43.5296,"Longitude":26.53582},"MapView":{"TopLeft":{"Latitude":43.5298,"Longitude":26.53582},"BottomRight":{"Latitude":43.5296,"Longitude":26.53609}},"Address":{"Label":"Улица Хаджи Димитър, 7200 Разград, България","Country":"BGR","County":"Разград","City":"Разград","District":"Разград","Street":"Улица Хаджи Димитър","PostalCode":"7200","AdditionalData":[{"value":"България","key":"CountryName"},{"value":"Разград","key":"CountyName"}]},"MapReference":{"ReferenceId":"1179706106","Spot":0.0,"SideOfStreet":"left","CountryId":"20656214","CountyId":"23719422","CityId":"23718556","DistrictId":"23720443"}}},{"Relevance":1.0,"Distance":39.7,"MatchLevel":"street","MatchQuality":{"Country":1.0,"County":1.0,"City":1.0,"District":1.0,"Street":[1.0],"PostalCode":1.0},"Location":{"LocationId":"NT_j7wvZ4N9.KoRG2sbR8ZpdA_l_809774755_L","LocationType":"point","DisplayPosition":{"Latitude":43.529707,"Longitude":26.535632},"MapView":{"TopLeft":{"Latitude":43.52993,"Longitude":26.53524},"BottomRight":{"Latitude":43.5296,"Longitude":26.53582}},"Address":{"Label":"Квартал Варош, 7200 Разград, България","Country":"BGR","County":"Разград","City":"Разград","District":"Разград","Street":"Квартал Варош","PostalCode":"7200","AdditionalData":[{"value":"България","key":"CountryName"},{"value":"Разград","key":"CountyName"}]},"MapReference":{"ReferenceId":"809774755","Spot":0.32,"SideOfStreet":"left","CountryId":"20656214","CountyId":"23719422","CityId":"23718556","DistrictId":"23720443"}}},{"Relevance":1.0,"Distance":40.3,"MatchLevel":"houseNumber","MatchQuality":{"Country":1.0,"County":1.0,"City":1.0,"District":1.0,"Street":[1.0],"HouseNumber":1.0,"PostalCode":1.0},"MatchType":"interpolated","Location":{"LocationId":"NT_cWeUhBRj8szXdY.b-oRRBA_xUD","LocationType":"point","DisplayPosition":{"Latitude":43.52906,"Longitude":26.5352},"MapView":{"TopLeft":{"Latitude":43.5301842,"Longitude":26.5336495},"BottomRight":{"Latitude":43.5279358,"Longitude":26.5367505}},"Address":{"Label":"Улица Хаджи Димитър 15, 7200 Разград, България","Country":"BGR","County":"Разград","City":"Разград","District":"Разград","Street":"Улица Хаджи Димитър","HouseNumber":"15","PostalCode":"7200","AdditionalData":[{"value":"България","key":"CountryName"},{"value":"Разград","key":"CountyName"}]},"MapReference":{"ReferenceId":"809955393","Spot":0.78,"SideOfStreet":"left","CountryId":"20656214","CountyId":"23719422","CityId":"23718556","DistrictId":"23720443","AddressId":"384909580","RoadLinkId":"197198176"}}},{"Relevance":1.0,"Distance":41.8,"MatchLevel":"houseNumber","MatchQuality":{"Country":1.0,"County":1.0,"City":1.0,"District":1.0,"Street":[1.0],"HouseNumber":1.0,"PostalCode":1.0},"MatchType":"interpolated","Location":{"LocationId":"NT_YEp0XbBXeQbAA7QVu7m8hC_xYD0QC","LocationType":"point","DisplayPosition":{"Latitude":43.52929,"Longitude":26.53494},"MapView":{"TopLeft":{"Latitude":43.5304142,"Longitude":26.5333895},"BottomRight":{"Latitude":43.5281658,"Longitude":26.5364905}},"Address":{"Label":"Улица Д-р Петър Берон 16А, 7200 Разград, България","Country":"BGR","County":"Разград","City":"Разград","District":"Разград","Street":"Улица Д-р Петър Берон","HouseNumber":"16А","PostalCode":"7200","AdditionalData":[{"value":"България","key":"CountryName"},{"value":"Разград","key":"CountyName"}]},"MapReference":{"ReferenceId":"809870893","Spot":0.52,"SideOfStreet":"left","CountryId":"20656214","CountyId":"23719422","CityId":"23718556","DistrictId":"23720443","AddressId":"296785068","RoadLinkId":"197185362"}}},{"Relevance":1.0,"Distance":58.9,"MatchLevel":"street","MatchQuality":{"Country":1.0,"County":1.0,"City":1.0,"District":1.0,"Street":[1.0],"PostalCode":1.0},"Location":{"LocationId":"NT_YEp0XbBXeQbAA7QVu7m8hC_l_809928747_R","LocationType":"point","DisplayPosition":{"Latitude":43.52958,"Longitude":26.53477},"MapView":{"TopLeft":{"Latitude":43.52991,"Longitude":26.53407},"BottomRight":{"Latitude":43.52958,"Longitude":26.53477}},"Address":{"Label":"Улица Д-р Петър Берон, 7200 Разград, България","Country":"BGR","County":"Разград","City":"Разград","District":"Разград","Street":"Улица Д-р Петър Берон","PostalCode":"7200","AdditionalData":[{"value":"България","key":"CountryName"},{"value":"Разград","key":"CountyName"}]},"MapReference":{"ReferenceId":"809928747","Spot":0.0,"SideOfStreet":"right","CountryId":"20656214","CountyId":"23719422","CityId":"23718556","DistrictId":"23720443"}}}]}]}}