{"Response":{"MetaInfo":{"Timestamp":"2020-03-28T11:50:44.963+0000","NextPageInformation":"2"},"View":[{"_type":"SearchResultsViewType","ViewId":0,"Result":[{"Relevance":1.0,"Distance":0.0,"Direction":0.0,"MatchLevel":"city","MatchQuality":{"Country":1.0,"State":1.0,"County":1.0,"City":1.0,"PostalCode":1.0},"Location":{"LocationId":"NT_zxku-jM0oWISPrPGSWgpqC","LocationType":"point","DisplayPosition":{"Latitude":43.5777854,"Longitude":0.3300492},"MapView":{"TopLeft":{"Latitude":43.61199,"Longitude":0.27436},"BottomRight":{"Latitude":43.53333,"Longitude":0.3844}},"Address":{"Label":"Montesquiou, Occitanie, France","Country":"FRA","State":"Occitanie","County":"Gers","City":"Montesquiou","PostalCode":"32320","AdditionalData":[{"value":"France","key":"CountryName"},{"value":"Occitanie","key":"StateName"},{"value":"Gers","key":"CountyName"}]},"MapReference":{"ReferenceId":"584977815","SideOfStreet":"neither","CountryId":"20000001","StateId":"20050212","CountyId":"20096397","CityId":"20097235"}}},{"Relevance":1.0,"Distance":5.5,"MatchLevel":"street","MatchQuality":{"Country":1.0,"State":1.0,"County":1.0,"City":1.0,"Street":[1.0],"PostalCode":1.0},"Location":{"LocationId":"NT_whxREb-Lqe7gXnsVqEOWFC_l_57682797_L","LocationType":"point","DisplayPosition":{"Latitude":43.5778338,"Longitude":0.3300635},"MapView":{"TopLeft":{"Latitude":43.5779,"Longitude":0.32984},"BottomRight":{"Latitude":43.57768,"Longitude":0.33319}},"Address":{"Label":"D943, 32320 Montesquiou, France","Country":"FRA","State":"Occitanie","County":"Gers","City":"Montesquiou","Street":"D943","PostalCode":"32320","AdditionalData":[{"value":"France","key":"CountryName"},{"value":"Occitanie","key":"StateName"},{"value":"Gers","key":"CountyName"}]},"MapReference":{"ReferenceId":"57682797","Spot":0.93,"SideOfStreet":"left","CountryId":"20000001","StateId":"20050212","CountyId":"20096397","CityId":"20097235"}}},{"Relevance":1.0,"Distance":21.1,"MatchLevel":"street","MatchQuality":{"Country":1.0,"State":1.0,"County":1.0,"City":1.0,"Street":[1.0],"PostalCode":1.0},"Location":{"LocationId":"NT_whxREb-Lqe7gXnsVqEOWFC_l_584977815_L","LocationType":"point","DisplayPosition":{"Latitude":43.5779,"Longitude":0.32984},"MapView":{"TopLeft":{"Latitude":43.57797,"Longitude":0.32956},"BottomRight":{"Latitude":43.5779,"Longitude":0.32984}},"Address":{"Label":"D943, 32320 Montesquiou, France","Country":"FRA","State":"Occitanie","County":"Gers","City":"Montesquiou","Street":"D943","PostalCode":"32320","AdditionalData":[{"value":"France","key":"CountryName"},{"value":"Occitanie","key":"StateName"},{"value":"Gers","key":"CountyName"}]},"MapReference":{"ReferenceId":"584977815","Spot":0.0,"SideOfStreet":"left","CountryId":"20000001","StateId":"20050212","CountyId":"20096397","CityId":"20097235"}}},{"Relevance":1.0,"Distance":21.1,"MatchLevel":"street","MatchQuality":{"Country":1.0,"State":1.0,"County":1.0,"City":1.0,"Street":[1.0],"PostalCode":1.0},"Location":{"LocationId":"NT_K4SZESQ9gHezd9exNnoUHA_l_584977222_R","LocationType":"point","DisplayPosition":{"Latitude":43.5779,"Longitude":0.32984},"MapView":{"TopLeft":{"Latitude":43.5783,"Longitude":0.32907},"BottomRight":{"Latitude":43.5779,"Longitude":0.32984}},"Address":{"Label":"Rue de la Poste, 32320 Montesquiou, France","Country":"FRA","State":"Occitanie","County":"Gers","City":"Montesquiou","Street":"Rue de la Poste","PostalCode":"32320","AdditionalData":[{"value":"France","key":"CountryName"},{"value":"Occitanie","key":"StateName"},{"value":"Gers","key":"CountyName"}]},"MapReference":{"ReferenceId":"584977222","Spot":0.0,"SideOfStreet":"right","CountryId":"20000001","StateId":"20050212","CountyId":"20096397","CityId":"20097235"}}},{"Relevance":1.0,"Distance":44.4,"MatchLevel":"street","MatchQuality":{"Country":1.0,"State":1.0,"County":1.0,"City":1.0,"Street":[1.0],"PostalCode":1.0},"Location":{"LocationId":"NT_whxREb-Lqe7gXnsVqEOWFC_l_584977814_R","LocationType":"point","DisplayPosition":{"Latitude":43.57797,"Longitude":0.32956},"MapView":{"TopLeft":{"Latitude":43.57803,"Longitude":0.32626},"BottomRight":{"Latitude":43.5776,"Longitude":0.32956}},"Address":{"Label":"D943, 32320 Montesquiou, France","Country":"FRA","State":"Occitanie","County":"Gers","City":"Montesquiou","Street":"D943","PostalCode":"32320","AdditionalData":[{"value":"France","key":"CountryName"},{"value":"Occitanie","key":"StateName"},{"value":"Gers","key":"CountyName"}]},"MapReference":{"ReferenceId":"584977814","Spot":1.0,"SideOfStreet":"right","CountryId":"20000001","StateId":"20050212","CountyId":"20096397","CityId":"20097235"}}},{"Relevance":1.0,"Distance":44.4,"MatchLevel":"street","MatchQuality":{"Country":1.0,"State":1.0,"County":1.0,"City":1.0,"PostalCode":1.0},"Location":{"LocationId":"NT_Mq8YXWhND0OTALi087DrnC_l_584977816_R","LocationType":"point","DisplayPosition":{"Latitude":43.57797,"Longitude":0.32956},"MapView":{"TopLeft":{"Latitude":43.57818,"Longitude":0.32843},"BottomRight":{"Latitude":43.57797,"Longitude":0.32956}},"Address":{"Label":"32320 Montesquiou, France","Country":"FRA","State":"Occitanie","County":"Gers","City":"Montesquiou","PostalCode":"32320","AdditionalData":[{"value":"France","key":"CountryName"},{"value":"Occitanie","key":"StateName"},{"value":"Gers","key":"CountyName"}]},"MapReference":{"ReferenceId":"584977816","Spot":0.0,"SideOfStreet":"right","CountryId":"20000001","StateId":"20050212","CountyId":"20096397","CityId":"20097235"}}},{"Relevance":1.0,"Distance":46.0,"MatchLevel":"street","MatchQuality":{"Country":1.0,"State":1.0,"County":1.0,"City":1.0,"Street":[1.0],"PostalCode":1.0},"Location":{"LocationId":"NT_R9w1pLg4kkamkbtJqVFOYB_l_584977809_R","LocationType":"point","DisplayPosition":{"Latitude":43.57819,"Longitude":0.33017},"MapView":{"TopLeft":{"Latitude":43.57828,"Longitude":0.33017},"BottomRight":{"Latitude":43.57808,"Longitude":0.33137}},"Address":{"Label":"Rue des Embarrats, 32320 Montesquiou, France","Country":"FRA","State":"Occitanie","County":"Gers","City":"Montesquiou","Street":"Rue des Embarrats","PostalCode":"32320","AdditionalData":[{"value":"France","key":"CountryName"},{"value":"Occitanie","key":"StateName"},{"value":"Gers","key":"CountyName"}]},"MapReference":{"ReferenceId":"584977809","Spot":0.0,"SideOfStreet":"right","CountryId":"20000001","StateId":"20050212","CountyId":"20096397","CityId":"20097235"}}},{"Relevance":1.0,"Distance":46.2,"MatchLevel":"street","MatchQuality":{"Country":1.0,"State":1.0,"County":1.0,"City":1.0,"Street":[1.0],"PostalCode":1.0},"Location":{"LocationId":"NT_R9w1pLg4kkamkbtJqVFOYB_l_584977810_L","LocationType":"point","DisplayPosition":{"Latitude":43.5781988,"Longitude":0.3301043},"MapView":{"TopLeft":{"Latitude":43.5783,"Longitude":0.32907},"BottomRight":{"Latitude":43.57819,"Longitude":0.33017}},"Address":{"Label":"Rue des Embarrats, 32320 Montesquiou, France","Country":"FRA","State":"Occitanie","County":"Gers","City":"Montesquiou","Street":"Rue des Embarrats","PostalCode":"32320","AdditionalData":[{"value":"France","key":"CountryName"},{"value":"Occitanie","key":"StateName"},{"value":"Gers","key":"CountyName"}]},"MapReference":{"ReferenceId":"584977810","Spot":0.06,"SideOfStreet":"left","CountryId":"20000001","StateId":"20050212","CountyId":"20096397","CityId":"20097235"}}},{"Relevance":1.0,"Distance":72.0,"MatchLevel":"street","MatchQuality":{"Country":1.0,"State":1.0,"County":1.0,"City":1.0,"Street":[1.0],"PostalCode":1.0},"Location":{"LocationId":"NT_wwQ5tR1lIDTZE50aNuis1A_l_584977813_L","LocationType":"point","DisplayPosition":{"Latitude":43.5784313,"Longitude":0.3301084},"MapView":{"TopLeft":{"Latitude":43.57852,"Longitude":0.32876},"BottomRight":{"Latitude":43.5784,"Longitude":0.33045}},"Address":{"Label":"Rue du Barry, 32320 Montesquiou, France","Country":"FRA","State":"Occitanie","County":"Gers","City":"Montesquiou","Street":"Rue du Barry","PostalCode":"32320","AdditionalData":[{"value":"France","key":"CountryName"},{"value":"Occitanie","key":"StateName"},{"value":"Gers","key":"CountyName"}]},"MapReference":{"ReferenceId":"584977813","Spot":0.2,"SideOfStreet":"left","CountryId":"20000001","StateId":"20050212","CountyId":"20096397","CityId":"20097235"}}},{"Relevance":1.0,"Distance":75.6,"MatchLevel":"street","MatchQuality":{"Country":1.0,"State":1.0,"County":1.0,"City":1.0,"Street":[1.0],"PostalCode":1.0},"Location":{"LocationId":"NT_wwQ5tR1lIDTZE50aNuis1A_l_584977806_L","LocationType":"point","DisplayPosition":{"Latitude":43.5784,"Longitude":0.33045},"MapView":{"TopLeft":{"Latitude":43.5784,"Longitude":0.33045},"BottomRight":{"Latitude":43.57828,"Longitude":0.33137}},"Address":{"Label":"Rue du Barry, 32320 Montesquiou, France","Country":"FRA","State":"Occitanie","County":"Gers","City":"Montesquiou","Street":"Rue du Barry","PostalCode":"32320","AdditionalData":[{"value":"France","key":"CountryName"},{"value":"Occitanie","key":"StateName"},{"value":"Gers","key":"CountyName"}]},"MapReference":{"ReferenceId":"584977806","Spot":1.0,"SideOfStreet":"left","CountryId":"20000001","StateId":"20050212","CountyId":"20096397","CityId":"20097235"}}}]}]}}