{"Response":{"MetaInfo":{"Timestamp":"2020-03-28T10:42:11.819+0000","NextPageInformation":"2"},"View":[{"_type":"SearchResultsViewType","ViewId":0,"Result":[{"Relevance":1.0,"Distance":0.0,"Direction":0.0,"MatchLevel":"district","MatchQuality":{"Country":1.0,"County":1.0,"City":1.0,"District":1.0,"PostalCode":1.0},"Location":{"LocationId":"NT_d1cRF3t8GkGYwsB8i8guVB","LocationType":"point","DisplayPosition":{"Latitude":43.588888,"Longitude":15.926462},"MapView":{"TopLeft":{"Latitude":43.59375,"Longitude":15.91707},"BottomRight":{"Latitude":43.58364,"Longitude":15.93721}},"Address":{"Label":"Primošten, Hrvatska","Country":"HRV","County":"Šibensko-kninska županija","City":"Primošten","District":"Primošten","PostalCode":"22202","AdditionalData":[{"value":"Hrvatska","key":"CountryName"},{"value":"Šibensko-kninska županija","key":"CountyName"}]},"MapReference":{"ReferenceId":"1228900406","SideOfStreet":"neither","CountryId":"20633739","CountyId":"20642070","CityId":"22871254","DistrictId":"22877759"}}},{"Relevance":1.0,"Distance":7.2,"MatchLevel":"street","MatchQuality":{"Country":1.0,"County":1.0,"City":1.0,"District":1.0,"Street":[1.0],"PostalCode":1.0},"Location":{"LocationId":"NT_kWLXuLt.OB4CYnX0PauJNC_l_907247156_L","LocationType":"point","DisplayPosition":{"Latitude":43.58892,"Longitude":15.92654},"MapView":{"TopLeft":{"Latitude":43.58892,"Longitude":15.92654},"BottomRight":{"Latitude":43.58887,"Longitude":15.9267}},"Address":{"Label":"Ulica Stjepana Radića, HR-22202 Primošten, Hrvatska","Country":"HRV","County":"Šibensko-kninska županija","City":"Primošten","District":"Primošten","Street":"Ulica Stjepana Radića","PostalCode":"22202","AdditionalData":[{"value":"Hrvatska","key":"CountryName"},{"value":"Šibensko-kninska županija","key":"CountyName"}]},"MapReference":{"ReferenceId":"907247156","Spot":1.0,"SideOfStreet":"left","CountryId":"20633739","CountyId":"20642070","CityId":"22871254","DistrictId":"22877759"}}},{"Relevance":1.0,"Distance":15.8,"MatchLevel":"houseNumber","MatchQuality":{"Country":1.0,"County":1.0,"City":1.0,"District":1.0,"Street":[1.0],"HouseNumber":1.0,"PostalCode":1.0},"MatchType":"interpolated","Location":{"LocationId":"NT_sA31RyAd0ZRHxnqwhpbKfA_xA","LocationType":"point","DisplayPosition":{"Latitude":43.58913,"Longitude":15.92642},"MapView":{"TopLeft":{"Latitude":43.5902542,"Longitude":15.924868},"BottomRight":{"Latitude":43.5880058,"Longitude":15.927972}},"Address":{"Label":"Dalmatinska 1, HR-22202 Primošten, Hrvatska","Country":"HRV","County":"Šibensko-kninska županija","City":"Primošten","District":"Primošten","Street":"Dalmatinska","HouseNumber":"1","PostalCode":"22202","AdditionalData":[{"value":"Hrvatska","key":"CountryName"},{"value":"Šibensko-kninska županija","key":"CountyName"}]},"MapReference":{"ReferenceId":"754758094","Spot":0.77,"SideOfStreet":"left","CountryId":"20633739","CountyId":"20642070","CityId":"22871254","DistrictId":"22877759","AddressId":"624237558","RoadLinkId":"150184865"}}},{"Relevance":1.0,"Distance":17.1,"MatchLevel":"street","MatchQuality":{"Country":1.0,"County":1.0,"City":1.0,"District":1.0,"Street":[1.0],"PostalCode":1.0},"Location":{"LocationId":"NT_kWLXuLt.OB4CYnX0PauJNC_l_907247154_L","LocationType":"point","DisplayPosition":{"Latitude":43.5887597,"Longitude":15.92658},"MapView":{"TopLeft":{"Latitude":43.58887,"Longitude":15.92585},"BottomRight":{"Latitude":43.58814,"Longitude":15.9267}},"Address":{"Label":"Ulica Stjepana Radića, HR-22202 Primošten, Hrvatska","Country":"HRV","County":"Šibensko-kninska županija","City":"Primošten","District":"Primošten","Street":"Ulica Stjepana Radića","PostalCode":"22202","AdditionalData":[{"value":"Hrvatska","key":"CountryName"},{"value":"Šibensko-kninska županija","key":"CountyName"}]},"MapReference":{"ReferenceId":"907247154","Spot":0.85,"SideOfStreet":"left","CountryId":"20633739","CountyId":"20642070","CityId":"22871254","DistrictId":"22877759"}}},{"Relevance":1.0,"Distance":19.3,"MatchLevel":"street","MatchQuality":{"Country":1.0,"County":1.0,"City":1.0,"District":1.0,"Street":[1.0],"PostalCode":1.0},"Location":{"LocationId":"NT_kWLXuLt.OB4CYnX0PauJNC_l_907247155_L","LocationType":"point","DisplayPosition":{"Latitude":43.58887,"Longitude":15.9267},"MapView":{"TopLeft":{"Latitude":43.58898,"Longitude":15.9267},"BottomRight":{"Latitude":43.58887,"Longitude":15.92681}},"Address":{"Label":"Ulica Stjepana Radića, HR-22202 Primošten, Hrvatska","Country":"HRV","County":"Šibensko-kninska županija","City":"Primošten","District":"Primošten","Street":"Ulica Stjepana Radića","PostalCode":"22202","AdditionalData":[{"value":"Hrvatska","key":"CountryName"},{"value":"Šibensko-kninska županija","key":"CountyName"}]},"MapReference":{"ReferenceId":"907247155","Spot":0.0,"SideOfStreet":"left","CountryId":"20633739","CountyId":"20642070","CityId":"22871254","DistrictId":"22877759"}}},{"Relevance":1.0,"Distance":23.5,"MatchLevel":"street","MatchQuality":{"Country":1.0,"County":1.0,"City":1.0,"District":1.0,"Street":[1.0],"PostalCode":1.0},"Location":{"LocationId":"NT_SjEmCRhxrYn16nZIRbZqgC_l_1216607251_L","LocationType":"point","DisplayPosition":{"Latitude":43.58905,"Longitude":15.92665},"MapView":{"TopLeft":{"Latitude":43.58905,"Longitude":15.92665},"BottomRight":{"Latitude":43.58887,"Longitude":15.92702}},"Address":{"Label":"Splitska ulica, HR-22202 Primošten, Hrvatska","Country":"HRV","County":"Šibensko-kninska županija","City":"Primošten","District":"Primošten","Street":"Splitska ulica","PostalCode":"22202","AdditionalData":[{"value":"Hrvatska","key":"CountryName"},{"value":"Šibensko-kninska županija","key":"CountyName"}]},"MapReference":{"ReferenceId":"1216607251","Spot":1.0,"SideOfStreet":"left","CountryId":"20633739","CountyId":"20642070","CityId":"22871254","DistrictId":"22877759"}}},{"Relevance":1.0,"Distance":23.8,"MatchLevel":"houseNumber","MatchQuality":{"Country":1.0,"County":1.0,"City":1.0,"District":1.0,"Street":[1.0],"HouseNumber":1.0,"PostalCode":1.0},"MatchType":"interpolated","Location":{"LocationId":"NT_sA31RyAd0ZRHxnqwhpbKfA_zA","LocationType":"point","DisplayPosition":{"Latitude":43.58916,"Longitude":15.92629},"MapView":{"TopLeft":{"Latitude":43.5902842,"Longitude":15.924738},"BottomRight":{"Latitude":43.5880358,"Longitude":15.927842}},"Address":{"Label":"Dalmatinska 3, HR-22202 Primošten, Hrvatska","Country":"HRV","County":"Šibensko-kninska županija","City":"Primošten","District":"Primošten","Street":"Dalmatinska","HouseNumber":"3","PostalCode":"22202","AdditionalData":[{"value":"Hrvatska","key":"CountryName"},{"value":"Šibensko-kninska županija","key":"CountyName"}]},"MapReference":{"ReferenceId":"907154264","Spot":0.1,"SideOfStreet":"left","CountryId":"20633739","CountyId":"20642070","CityId":"22871254","DistrictId":"22877759","AddressId":"624192566","RoadLinkId":"267823608"}}},{"Relevance":1.0,"Distance":29.8,"MatchLevel":"street","MatchQuality":{"Country":1.0,"County":1.0,"City":1.0,"District":1.0,"Street":[1.0],"PostalCode":1.0},"Location":{"LocationId":"NT_kWLXuLt.OB4CYnX0PauJNC_l_907247150_L","LocationType":"point","DisplayPosition":{"Latitude":43.58898,"Longitude":15.92681},"MapView":{"TopLeft":{"Latitude":43.58923,"Longitude":15.92681},"BottomRight":{"Latitude":43.58898,"Longitude":15.92755}},"Address":{"Label":"Ulica Stjepana Radića, HR-22202 Primošten, Hrvatska","Country":"HRV","County":"Šibensko-kninska županija","City":"Primošten","District":"Primošten","Street":"Ulica Stjepana Radića","PostalCode":"22202","AdditionalData":[{"value":"Hrvatska","key":"CountryName"},{"value":"Šibensko-kninska županija","key":"CountyName"}]},"MapReference":{"ReferenceId":"907247150","Spot":0.0,"SideOfStreet":"left","CountryId":"20633739","CountyId":"20642070","CityId":"22871254","DistrictId":"22877759"}}},{"Relevance":1.0,"Distance":35.5,"MatchLevel":"houseNumber","MatchQuality":{"Country":1.0,"County":1.0,"City":1.0,"District":1.0,"Street":[1.0],"HouseNumber":1.0,"PostalCode":1.0},"MatchType":"interpolated","Location":{"LocationId":"NT_tfk1WUYokFVrst5F2TB4VB_yA","LocationType":"point","DisplayPosition":{"Latitude":43.58919,"Longitude":15.92632},"MapView":{"TopLeft":{"Latitude":43.5903142,"Longitude":15.924768},"BottomRight":{"Latitude":43.5880658,"Longitude":15.927872}},"Address":{"Label":"Ulica glavičica 2, HR-22202 Primošten, Hrvatska","Country":"HRV","County":"Šibensko-kninska županija","City":"Primošten","District":"Primošten","Street":"Ulica glavičica","HouseNumber":"2","PostalCode":"22202","AdditionalData":[{"value":"Hrvatska","key":"CountryName"},{"value":"Šibensko-kninska županija","key":"CountyName"}]},"MapReference":{"ReferenceId":"754758093","Spot":0.1,"SideOfStreet":"right","CountryId":"20633739","CountyId":"20642070","CityId":"22871254","DistrictId":"22877759","AddressId":"624188941","RoadLinkId":"150184862"}}},{"Relevance":1.0,"Distance":41.1,"MatchLevel":"houseNumber","MatchQuality":{"Country":1.0,"County":1.0,"City":1.0,"District":1.0,"Street":[1.0],"HouseNumber":1.0,"PostalCode":1.0},"MatchType":"interpolated","Location":{"LocationId":"NT_kWLXuLt.OB4CYnX0PauJNC_3A","LocationType":"point","DisplayPosition":{"Latitude":43.58864,"Longitude":15.92573},"MapView":{"TopLeft":{"Latitude":43.5897642,"Longitude":15.924178},"BottomRight":{"Latitude":43.5875158,"Longitude":15.927282}},"Address":{"Label":"Ulica Stjepana Radića 7, HR-22202 Primošten, Hrvatska","Country":"HRV","County":"Šibensko-kninska županija","City":"Primošten","District":"Primošten","Street":"Ulica Stjepana Radića","HouseNumber":"7","PostalCode":"22202","AdditionalData":[{"value":"Hrvatska","key":"CountryName"},{"value":"Šibensko-kninska županija","key":"CountyName"}]},"MapReference":{"ReferenceId":"754758121","Spot":1.0,"SideOfStreet":"left","CountryId":"20633739","CountyId":"20642070","CityId":"22871254","DistrictId":"22877759","AddressId":"624193197","RoadLinkId":"150184914"}}}]}]}}