{"Response":{"MetaInfo":{"Timestamp":"2020-03-28T11:12:40.630+0000","NextPageInformation":"2"},"View":[{"_type":"SearchResultsViewType","ViewId":0,"Result":[{"Relevance":1.0,"Distance":0.0,"Direction":0.0,"MatchLevel":"district","MatchQuality":{"Country":1.0,"State":1.0,"County":1.0,"City":1.0,"District":1.0,"PostalCode":1.0},"Location":{"LocationId":"NT_CWSkrbfAqRXsooDNalvG8B","LocationType":"point","DisplayPosition":{"Latitude":43.5993772,"Longitude":1.4376272},"MapView":{"TopLeft":{"Latitude":43.60406,"Longitude":1.41919},"BottomRight":{"Latitude":43.59043,"Longitude":1.43802}},"Address":{"Label":"Saint Cyprien, Toulouse, Occitanie, France","Country":"FRA","State":"Occitanie","County":"Haute-Garonne","City":"Toulouse","District":"Saint Cyprien","PostalCode":"31300","AdditionalData":[{"value":"France","key":"CountryName"},{"value":"Occitanie","key":"StateName"},{"value":"Haute-Garonne","key":"CountyName"}]},"MapReference":{"ReferenceId":"57985260","SideOfStreet":"neither","CountryId":"20000001","StateId":"20050212","CountyId":"20094636","CityId":"20096280"}}},{"Relevance":1.0,"Distance":6.1,"MatchLevel":"landmark","MatchQuality":{"Country":1.0,"State":1.0,"County":1.0,"Name":1.0},"Location":{"LocationId":"NT_.RT-q.m.g3Q1DimgRMbJDA","LocationType":"river","Name":"La Garonne","DisplayPosition":{"Latitude":43.60281,"Longitude":1.43112},"MapView":{"TopLeft":{"Latitude":43.74303,"Longitude":1.31403},"BottomRight":{"Latitude":43.46259,"Longitude":1.44193}},"Address":{"Label":"France","Country":"FRA","State":"Occitanie","County":"Haute-Garonne","AdditionalData":[{"value":"France","key":"CountryName"},{"value":"Occitanie","key":"StateName"},{"value":"Haute-Garonne","key":"CountyName"}]},"MapReference":{"CountryId":"20000001","StateId":"20050212","CountyId":"20094636","PlaceId":"554728157"}}},{"Relevance":1.0,"Distance":29.4,"MatchLevel":"street","MatchQuality":{"Country":1.0,"State":1.0,"County":1.0,"City":1.0,"District":1.0,"Street":[1.0],"PostalCode":1.0},"Location":{"LocationId":"NT_eKNa137RPt9QCLQygAkNoD_l_585033042_L","LocationType":"point","DisplayPosition":{"Latitude":43.59912,"Longitude":1.43771},"MapView":{"TopLeft":{"Latitude":43.59951,"Longitude":1.43771},"BottomRight":{"Latitude":43.59912,"Longitude":1.43981}},"Address":{"Label":"Pont Neuf, 31000 Toulouse, France","Country":"FRA","State":"Occitanie","County":"Haute-Garonne","City":"Toulouse","District":"Capitole","Street":"Pont Neuf","PostalCode":"31000","AdditionalData":[{"value":"France","key":"CountryName"},{"value":"Occitanie","key":"StateName"},{"value":"Haute-Garonne","key":"CountyName"}]},"MapReference":{"ReferenceId":"585033042","Spot":0.0,"SideOfStreet":"left","CountryId":"20000001","StateId":"20050212","CountyId":"20094636","CityId":"20096280"}}},{"Relevance":1.0,"Distance":29.6,"MatchLevel":"street","MatchQuality":{"Country":1.0,"State":1.0,"County":1.0,"City":1.0,"District":1.0,"Street":[1.0],"PostalCode":1.0},"Location":{"LocationId":"NT_QwCw3PqIrM-WO.xIs.zB4C_l_843671044_L","LocationType":"point","DisplayPosition":{"Latitude":43.599114,"Longitude":1.4376798},"MapView":{"TopLeft":{"Latitude":43.59912,"Longitude":1.43756},"BottomRight":{"Latitude":43.59909,"Longitude":1.43771}},"Address":{"Label":"Pont Neuf, 31300 Toulouse, France","Country":"FRA","State":"Occitanie","County":"Haute-Garonne","City":"Toulouse","District":"Saint Cyprien","Street":"Pont Neuf","PostalCode":"31300","AdditionalData":[{"value":"France","key":"CountryName"},{"value":"Occitanie","key":"StateName"},{"value":"Haute-Garonne","key":"CountyName"}]},"MapReference":{"ReferenceId":"843671044","Spot":0.8,"SideOfStreet":"left","CountryId":"20000001","StateId":"20050212","CountyId":"20094636","CityId":"20096280"}}},{"Relevance":1.0,"Distance":32.4,"MatchLevel":"street","MatchQuality":{"Country":1.0,"State":1.0,"County":1.0,"City":1.0,"District":1.0,"Street":[1.0],"PostalCode":1.0},"Location":{"LocationId":"NT_QwCw3PqIrM-WO.xIs.zB4C_l_843671043_L","LocationType":"point","DisplayPosition":{"Latitude":43.59909,"Longitude":1.43756},"MapView":{"TopLeft":{"Latitude":43.59909,"Longitude":1.43736},"BottomRight":{"Latitude":43.59905,"Longitude":1.43756}},"Address":{"Label":"Pont Neuf, 31300 Toulouse, France","Country":"FRA","State":"Occitanie","County":"Haute-Garonne","City":"Toulouse","District":"Saint Cyprien","Street":"Pont Neuf","PostalCode":"31300","AdditionalData":[{"value":"France","key":"CountryName"},{"value":"Occitanie","key":"StateName"},{"value":"Haute-Garonne","key":"CountyName"}]},"MapReference":{"ReferenceId":"843671043","Spot":1.0,"SideOfStreet":"left","CountryId":"20000001","StateId":"20050212","CountyId":"20094636","CityId":"20096280"}}},{"Relevance":1.0,"Distance":32.4,"MatchLevel":"street","MatchQuality":{"Country":1.0,"State":1.0,"County":1.0,"City":1.0,"District":1.0,"PostalCode":1.0},"Location":{"LocationId":"NT_LzNiSbs.E3s.dTId7vYQ-B_l_843671051_L","LocationType":"point","DisplayPosition":{"Latitude":43.59909,"Longitude":1.43756},"MapView":{"TopLeft":{"Latitude":43.59909,"Longitude":1.43706},"BottomRight":{"Latitude":43.59751,"Longitude":1.43756}},"Address":{"Label":"31300 Toulouse, France","Country":"FRA","State":"Occitanie","County":"Haute-Garonne","City":"Toulouse","District":"Saint Cyprien","PostalCode":"31300","AdditionalData":[{"value":"France","key":"CountryName"},{"value":"Occitanie","key":"StateName"},{"value":"Haute-Garonne","key":"CountyName"}]},"MapReference":{"ReferenceId":"843671051","Spot":1.0,"SideOfStreet":"left","CountryId":"20000001","StateId":"20050212","CountyId":"20094636","CityId":"20096280"}}},{"Relevance":1.0,"Distance":42.3,"MatchLevel":"street","MatchQuality":{"Country":1.0,"State":1.0,"County":1.0,"City":1.0,"District":1.0,"Street":[1.0],"PostalCode":1.0},"Location":{"LocationId":"NT_QwCw3PqIrM-WO.xIs.zB4C_l_1213506607_L","LocationType":"point","DisplayPosition":{"Latitude":43.59905,"Longitude":1.43736},"MapView":{"TopLeft":{"Latitude":43.59905,"Longitude":1.43682},"BottomRight":{"Latitude":43.59895,"Longitude":1.43736}},"Address":{"Label":"Pont Neuf, 31300 Toulouse, France","Country":"FRA","State":"Occitanie","County":"Haute-Garonne","City":"Toulouse","District":"Saint Cyprien","Street":"Pont Neuf","PostalCode":"31300","AdditionalData":[{"value":"France","key":"CountryName"},{"value":"Occitanie","key":"StateName"},{"value":"Haute-Garonne","key":"CountyName"}]},"MapReference":{"ReferenceId":"1213506607","Spot":1.0,"SideOfStreet":"left","CountryId":"20000001","StateId":"20050212","CountyId":"20094636","CityId":"20096280"}}},{"Relevance":1.0,"Distance":42.3,"MatchLevel":"street","MatchQuality":{"Country":1.0,"State":1.0,"County":1.0,"City":1.0,"District":1.0,"Street":[1.0],"PostalCode":1.0},"Location":{"LocationId":"NT_bx8J-1p-9KuFk.A0kqFzyC_l_57985321_R","LocationType":"point","DisplayPosition":{"Latitude":43.59905,"Longitude":1.43736},"MapView":{"TopLeft":{"Latitude":43.59905,"Longitude":1.43682},"BottomRight":{"Latitude":43.5976,"Longitude":1.43736}},"Address":{"Label":"Cours Dillon, 31300 Toulouse, France","Country":"FRA","State":"Occitanie","County":"Haute-Garonne","City":"Toulouse","District":"Saint Cyprien","Street":"Cours Dillon","PostalCode":"31300","AdditionalData":[{"value":"France","key":"CountryName"},{"value":"Occitanie","key":"StateName"},{"value":"Haute-Garonne","key":"CountyName"}]},"MapReference":{"ReferenceId":"57985321","Spot":1.0,"SideOfStreet":"right","CountryId":"20000001","StateId":"20050212","CountyId":"20094636","CityId":"20096280"}}},{"Relevance":1.0,"Distance":66.7,"MatchLevel":"street","MatchQuality":{"Country":1.0,"State":1.0,"County":1.0,"City":1.0,"District":1.0,"Street":[1.0],"PostalCode":1.0},"Location":{"LocationId":"NT_aUOzsU7e2lzPqGrg9vm1uD_l_590835288_L","LocationType":"point","DisplayPosition":{"Latitude":43.59915,"Longitude":1.43686},"MapView":{"TopLeft":{"Latitude":43.59915,"Longitude":1.43656},"BottomRight":{"Latitude":43.59908,"Longitude":1.43686}},"Address":{"Label":"Rue Viguerie, 31300 Toulouse, France","Country":"FRA","State":"Occitanie","County":"Haute-Garonne","City":"Toulouse","District":"Saint Cyprien","Street":"Rue Viguerie","PostalCode":"31300","AdditionalData":[{"value":"France","key":"CountryName"},{"value":"Occitanie","key":"StateName"},{"value":"Haute-Garonne","key":"CountyName"}]},"MapReference":{"ReferenceId":"590835288","Spot":1.0,"SideOfStreet":"left","CountryId":"20000001","StateId":"20050212","CountyId":"20094636","CityId":"20096280"}}},{"Relevance":1.0,"Distance":80.5,"MatchLevel":"street","MatchQuality":{"Country":1.0,"State":1.0,"County":1.0,"City":1.0,"District":1.0,"Street":[1.0],"PostalCode":1.0},"Location":{"LocationId":"NT_QwCw3PqIrM-WO.xIs.zB4C_l_1213506606_L","LocationType":"point","DisplayPosition":{"Latitude":43.59895,"Longitude":1.43682},"MapView":{"TopLeft":{"Latitude":43.59895,"Longitude":1.43653},"BottomRight":{"Latitude":43.59889,"Longitude":1.43682}},"Address":{"Label":"Pont Neuf, 31300 Toulouse, France","Country":"FRA","State":"Occitanie","County":"Haute-Garonne","City":"Toulouse","District":"Saint Cyprien","Street":"Pont Neuf","PostalCode":"31300","AdditionalData":[{"value":"France","key":"CountryName"},{"value":"Occitanie","key":"StateName"},{"value":"Haute-Garonne","key":"CountyName"}]},"MapReference":{"ReferenceId":"1213506606","Spot":1.0,"SideOfStreet":"left","CountryId":"20000001","StateId":"20050212","CountyId":"20094636","CityId":"20096280"}}}]}]}}