{"Response":{"MetaInfo":{"Timestamp":"2020-03-28T09:42:08.657+0000","NextPageInformation":"2"},"View":[{"_type":"SearchResultsViewType","ViewId":0,"Result":[{"Relevance":1.0,"Distance":0.0,"Direction":0.0,"MatchLevel":"city","MatchQuality":{"Country":1.0,"State":1.0,"County":1.0,"City":1.0,"PostalCode":1.0},"Location":{"LocationId":"NT_SSxV0ffMgC4qiqkCYZCyDD","LocationType":"point","DisplayPosition":{"Latitude":43.5549879,"Longitude":-5.9187333},"MapView":{"TopLeft":{"Latitude":43.59594,"Longitude":-5.95367},"BottomRight":{"Latitude":43.5306,"Longitude":-5.87675}},"Address":{"Label":"Avilés, Principado de Asturias, España","Country":"ESP","State":"Principado de Asturias","County":"Asturias","City":"Avilés","PostalCode":"33401","AdditionalData":[{"value":"España","key":"CountryName"},{"value":"Principado de Asturias","key":"StateName"},{"value":"Asturias","key":"CountyName"}]},"MapReference":{"ReferenceId":"1157033212","SideOfStreet":"neither","CountryId":"20215059","StateId":"20226808","CountyId":"20226809","CityId":"20326068"}}},{"Relevance":1.0,"Distance":2.9,"MatchLevel":"street","MatchQuality":{"Country":1.0,"State":1.0,"County":1.0,"City":1.0,"Street":[1.0],"PostalCode":1.0},"Location":{"LocationId":"NT_tW5b4kDE73u.JMYRswlo3A_l_1113723502_L","LocationType":"point","DisplayPosition":{"Latitude":43.5550115,"Longitude":-5.9187475},"MapView":{"TopLeft":{"Latitude":43.55519,"Longitude":-5.9188},"BottomRight":{"Latitude":43.55498,"Longitude":-5.91845}},"Address":{"Label":"Calle Conde Real Agrado, 33402 Avilés (Asturias), España","Country":"ESP","State":"Principado de Asturias","County":"Asturias","City":"Avilés","Street":"Calle Conde Real Agrado","PostalCode":"33402","AdditionalData":[{"value":"España","key":"CountryName"},{"value":"Principado de Asturias","key":"StateName"},{"value":"Asturias","key":"CountyName"}]},"MapReference":{"ReferenceId":"1113723502","Spot":0.15,"SideOfStreet":"neither","CountryId":"20215059","StateId":"20226808","CountyId":"20226809","CityId":"20326068"}}},{"Relevance":1.0,"Distance":4.8,"MatchLevel":"street","MatchQuality":{"Country":1.0,"State":1.0,"County":1.0,"City":1.0,"Street":[1.0],"PostalCode":1.0},"Location":{"LocationId":"NT_mW4bStwTT9-SOnCD7iYW1D_l_958048266_R","LocationType":"point","DisplayPosition":{"Latitude":43.5549505,"Longitude":-5.9187632},"MapView":{"TopLeft":{"Latitude":43.55498,"Longitude":-5.9188},"BottomRight":{"Latitude":43.5549,"Longitude":-5.9187}},"Address":{"Label":"Calle Llano Ponte, 33402 Avilés (Asturias), España","Country":"ESP","State":"Principado de Asturias","County":"Asturias","City":"Avilés","Street":"Calle Llano Ponte","PostalCode":"33402","AdditionalData":[{"value":"España","key":"CountryName"},{"value":"Principado de Asturias","key":"StateName"},{"value":"Asturias","key":"CountyName"}]},"MapReference":{"ReferenceId":"958048266","Spot":0.63,"SideOfStreet":"right","CountryId":"20215059","StateId":"20226808","CountyId":"20226809","CityId":"20326068"}}},{"Relevance":1.0,"Distance":13.7,"MatchLevel":"houseNumber","MatchQuality":{"Country":1.0,"State":1.0,"County":1.0,"City":1.0,"Street":[1.0],"HouseNumber":1.0,"PostalCode":1.0},"MatchType":"interpolated","Location":{"LocationId":"NT_mW4bStwTT9-SOnCD7iYW1D_xUD","LocationType":"point","DisplayPosition":{"Latitude":43.55507,"Longitude":-5.91891},"MapView":{"TopLeft":{"Latitude":43.5561942,"Longitude":-5.9204612},"BottomRight":{"Latitude":43.5539458,"Longitude":-5.9173588}},"Address":{"Label":"Calle Llano Ponte, 15, 33402 Avilés (Asturias), España","Country":"ESP","State":"Principado de Asturias","County":"Asturias","City":"Avilés","Street":"Calle Llano Ponte","HouseNumber":"15","PostalCode":"33402","AdditionalData":[{"value":"España","key":"CountryName"},{"value":"Principado de Asturias","key":"StateName"},{"value":"Asturias","key":"CountyName"}]},"MapReference":{"ReferenceId":"580783395","Spot":0.14,"SideOfStreet":"right","CountryId":"20215059","StateId":"20226808","CountyId":"20226809","CityId":"20326068","AddressId":"352003522","RoadLinkId":"68050770"}}},{"Relevance":1.0,"Distance":29.3,"MatchLevel":"houseNumber","MatchQuality":{"Country":1.0,"State":1.0,"County":1.0,"City":1.0,"Street":[1.0],"HouseNumber":1.0,"PostalCode":1.0},"MatchType":"interpolated","Location":{"LocationId":"NT_mW4bStwTT9-SOnCD7iYW1D_yAD","LocationType":"point","DisplayPosition":{"Latitude":43.55477,"Longitude":-5.91857},"MapView":{"TopLeft":{"Latitude":43.5558942,"Longitude":-5.9201212},"BottomRight":{"Latitude":43.5536458,"Longitude":-5.9170188}},"Address":{"Label":"Calle Llano Ponte, 20, 33402 Avilés (Asturias), España","Country":"ESP","State":"Principado de Asturias","County":"Asturias","City":"Avilés","Street":"Calle Llano Ponte","HouseNumber":"20","PostalCode":"33402","AdditionalData":[{"value":"España","key":"CountryName"},{"value":"Principado de Asturias","key":"StateName"},{"value":"Asturias","key":"CountyName"}]},"MapReference":{"ReferenceId":"1190023170","Spot":0.4,"SideOfStreet":"left","CountryId":"20215059","StateId":"20226808","CountyId":"20226809","CityId":"20326068","AddressId":"352004542","RoadLinkId":"499297750"}}},{"Relevance":1.0,"Distance":29.7,"MatchLevel":"houseNumber","MatchQuality":{"Country":1.0,"State":1.0,"County":1.0,"City":1.0,"Street":[1.0],"HouseNumber":1.0,"PostalCode":1.0},"MatchType":"interpolated","Location":{"LocationId":"NT_tW5b4kDE73u.JMYRswlo3A_0A","LocationType":"point","DisplayPosition":{"Latitude":43.55485,"Longitude":-5.91907},"MapView":{"TopLeft":{"Latitude":43.5559742,"Longitude":-5.9206212},"BottomRight":{"Latitude":43.5537258,"Longitude":-5.9175188}},"Address":{"Label":"Calle Conde Real Agrado, 4, 33402 Avilés (Asturias), España","Country":"ESP","State":"Principado de Asturias","County":"Asturias","City":"Avilés","Street":"Calle Conde Real Agrado","HouseNumber":"4","PostalCode":"33402","AdditionalData":[{"value":"España","key":"CountryName"},{"value":"Principado de Asturias","key":"StateName"},{"value":"Asturias","key":"CountyName"}]},"MapReference":{"ReferenceId":"580781612","Spot":0.62,"SideOfStreet":"right","CountryId":"20215059","StateId":"20226808","CountyId":"20226809","CityId":"20326068","AddressId":"351979254","RoadLinkId":"68678086"}}},{"Relevance":1.0,"Distance":32.0,"MatchLevel":"street","MatchQuality":{"Country":1.0,"State":1.0,"County":1.0,"City":1.0,"Street":[1.0],"PostalCode":1.0},"Location":{"LocationId":"NT_qDDBShfgzEtNAk4ZCR02hB_l_1190023171_L","LocationType":"point","DisplayPosition":{"Latitude":43.55519,"Longitude":-5.91845},"MapView":{"TopLeft":{"Latitude":43.55519,"Longitude":-5.91845},"BottomRight":{"Latitude":43.55483,"Longitude":-5.91815}},"Address":{"Label":"Calle El Muelle, 33402 Avilés (Asturias), España","Country":"ESP","State":"Principado de Asturias","County":"Asturias","City":"Avilés","Street":"Calle El Muelle","PostalCode":"33402","AdditionalData":[{"value":"España","key":"CountryName"},{"value":"Principado de Asturias","key":"StateName"},{"value":"Asturias","key":"CountyName"}]},"MapReference":{"ReferenceId":"1190023171","Spot":1.0,"SideOfStreet":"left","CountryId":"20215059","StateId":"20226808","CountyId":"20226809","CityId":"20326068"}}},{"Relevance":1.0,"Distance":32.0,"MatchLevel":"street","MatchQuality":{"Country":1.0,"State":1.0,"County":1.0,"City":1.0,"PostalCode":1.0},"Location":{"LocationId":"NT_hya2iy8yQ7adjNajRzQ7JD_l_1113723643_R","LocationType":"point","DisplayPosition":{"Latitude":43.55519,"Longitude":-5.91845},"MapView":{"TopLeft":{"Latitude":43.5552,"Longitude":-5.91845},"BottomRight":{"Latitude":43.55519,"Longitude":-5.9183}},"Address":{"Label":"33402 Avilés (Asturias), España","Country":"ESP","State":"Principado de Asturias","County":"Asturias","City":"Avilés","PostalCode":"33402","AdditionalData":[{"value":"España","key":"CountryName"},{"value":"Principado de Asturias","key":"StateName"},{"value":"Asturias","key":"CountyName"}]},"MapReference":{"ReferenceId":"1113723643","Spot":0.0,"SideOfStreet":"right","CountryId":"20215059","StateId":"20226808","CountyId":"20226809","CityId":"20326068"}}},{"Relevance":1.0,"Distance":34.8,"MatchLevel":"houseNumber","MatchQuality":{"Country":1.0,"State":1.0,"County":1.0,"City":1.0,"Street":[1.0],"HouseNumber":1.0,"PostalCode":1.0},"MatchType":"interpolated","Location":{"LocationId":"NT_BalsQdE.wZ0IJJH8IVmz9C_xQD","LocationType":"point","DisplayPosition":{"Latitude":43.55531,"Longitude":-5.91855},"MapView":{"TopLeft":{"Latitude":43.5564342,"Longitude":-5.9201012},"BottomRight":{"Latitude":43.5541858,"Longitude":-5.9169988}},"Address":{"Label":"Calle El Muelle, 14, 33490 Avilés (Asturias), España","Country":"ESP","State":"Principado de Asturias","County":"Asturias","City":"Avilés","Street":"Calle El Muelle","HouseNumber":"14","PostalCode":"33490","AdditionalData":[{"value":"España","key":"CountryName"},{"value":"Principado de Asturias","key":"StateName"},{"value":"Asturias","key":"CountyName"}]},"MapReference":{"ReferenceId":"580783398","Spot":0.15,"SideOfStreet":"left","CountryId":"20215059","StateId":"20226808","CountyId":"20226809","CityId":"20326068","AddressId":"351991299","RoadLinkId":"68083609"}}},{"Relevance":1.0,"Distance":38.9,"MatchLevel":"street","MatchQuality":{"Country":1.0,"State":1.0,"County":1.0,"City":1.0,"Street":[1.0],"PostalCode":1.0},"Location":{"LocationId":"NT_mW4bStwTT9-SOnCD7iYW1D_l_1190023174_R","LocationType":"point","DisplayPosition":{"Latitude":43.55469,"Longitude":-5.91848},"MapView":{"TopLeft":{"Latitude":43.55469,"Longitude":-5.91848},"BottomRight":{"Latitude":43.55463,"Longitude":-5.91842}},"Address":{"Label":"Calle Llano Ponte, 33402 Avilés (Asturias), España","Country":"ESP","State":"Principado de Asturias","County":"Asturias","City":"Avilés","Street":"Calle Llano Ponte","PostalCode":"33402","AdditionalData":[{"value":"España","key":"CountryName"},{"value":"Principado de Asturias","key":"StateName"},{"value":"Asturias","key":"CountyName"}]},"MapReference":{"ReferenceId":"1190023174","Spot":1.0,"SideOfStreet":"right","CountryId":"20215059","StateId":"20226808","CountyId":"20226809","CityId":"20326068"}}}]}]}}