{"Response":{"MetaInfo":{"Timestamp":"2020-03-28T11:48:07.505+0000","NextPageInformation":"2"},"View":[{"_type":"SearchResultsViewType","ViewId":0,"Result":[{"Relevance":1.0,"Distance":0.0,"Direction":0.0,"MatchLevel":"city","MatchQuality":{"Country":1.0,"State":1.0,"County":1.0,"City":1.0,"PostalCode":1.0},"Location":{"LocationId":"NT_KAbvGj8YnVxtdc7duHc0gB","LocationType":"point","DisplayPosition":{"Latitude":43.5318096,"Longitude":5.4301162},"MapView":{"TopLeft":{"Latitude":43.62589,"Longitude":5.2694},"BottomRight":{"Latitude":43.44601,"Longitude":5.50642}},"Address":{"Label":"Aix-en-Provence, Provence-Alpes-Côte d'Azur, France","Country":"FRA","State":"Provence-Alpes-Côte d'Azur","County":"Bouches-du-Rhône","City":"Aix-en-Provence","PostalCode":"13100","AdditionalData":[{"value":"France","key":"CountryName"},{"value":"Provence-Alpes-Côte d'Azur","key":"StateName"},{"value":"Bouches-du-Rhône","key":"CountyName"}]},"MapReference":{"ReferenceId":"58171410","SideOfStreet":"neither","CountryId":"20000001","StateId":"20000193","CountyId":"20048302","CityId":"20048305"}}},{"Relevance":1.0,"Distance":10.3,"MatchLevel":"houseNumber","MatchQuality":{"Country":1.0,"State":1.0,"County":1.0,"City":1.0,"Street":[1.0],"HouseNumber":1.0,"PostalCode":1.0},"MatchType":"interpolated","Location":{"LocationId":"NT_qzqMsGbina46qMnohS4lRB_2gTN","LocationType":"point","DisplayPosition":{"Latitude":43.53196,"Longitude":5.43011},"MapView":{"TopLeft":{"Latitude":43.5330842,"Longitude":5.4285594},"BottomRight":{"Latitude":43.5308358,"Longitude":5.4316606}},"Address":{"Label":"685 Avenue Jean Dalmas, 13090 Aix-en-Provence, France","Country":"FRA","State":"Provence-Alpes-Côte d'Azur","County":"Bouches-du-Rhône","City":"Aix-en-Provence","Street":"Avenue Jean Dalmas","HouseNumber":"685","PostalCode":"13090","AdditionalData":[{"value":"France","key":"CountryName"},{"value":"Provence-Alpes-Côte d'Azur","key":"StateName"},{"value":"Bouches-du-Rhône","key":"CountyName"}]},"MapReference":{"ReferenceId":"778442611","Spot":0.72,"SideOfStreet":"left","CountryId":"20000001","StateId":"20000193","CountyId":"20048302","CityId":"20048305","AddressId":"573554589","RoadLinkId":"171889272"}}},{"Relevance":1.0,"Distance":16.5,"MatchLevel":"street","MatchQuality":{"Country":1.0,"State":1.0,"County":1.0,"City":1.0,"Street":[1.0],"PostalCode":1.0},"Location":{"LocationId":"NT_ewThJ8VNtLbrh6rBgjKIAD_l_58170833_R","LocationType":"point","DisplayPosition":{"Latitude":43.5318743,"Longitude":5.4299323},"MapView":{"TopLeft":{"Latitude":43.53201,"Longitude":5.42979},"BottomRight":{"Latitude":43.53147,"Longitude":5.42998}},"Address":{"Label":"Rue du Jas de Bouffan, 13090 Aix-en-Provence, France","Country":"FRA","State":"Provence-Alpes-Côte d'Azur","County":"Bouches-du-Rhône","City":"Aix-en-Provence","Street":"Rue du Jas de Bouffan","PostalCode":"13090","AdditionalData":[{"value":"France","key":"CountryName"},{"value":"Provence-Alpes-Côte d'Azur","key":"StateName"},{"value":"Bouches-du-Rhône","key":"CountyName"}]},"MapReference":{"ReferenceId":"58170833","Spot":0.75,"SideOfStreet":"right","CountryId":"20000001","StateId":"20000193","CountyId":"20048302","CityId":"20048305"}}},{"Relevance":1.0,"Distance":27.3,"MatchLevel":"street","MatchQuality":{"Country":1.0,"State":1.0,"County":1.0,"City":1.0,"Street":[1.0],"PostalCode":1.0},"Location":{"LocationId":"NT_qzqMsGbina46qMnohS4lRB_l_1086481319_L","LocationType":"point","DisplayPosition":{"Latitude":43.53185,"Longitude":5.43045},"MapView":{"TopLeft":{"Latitude":43.53185,"Longitude":5.43045},"BottomRight":{"Latitude":43.53174,"Longitude":5.43083}},"Address":{"Label":"Avenue Jean Dalmas, 13090 Aix-en-Provence, France","Country":"FRA","State":"Provence-Alpes-Côte d'Azur","County":"Bouches-du-Rhône","City":"Aix-en-Provence","Street":"Avenue Jean Dalmas","PostalCode":"13090","AdditionalData":[{"value":"France","key":"CountryName"},{"value":"Provence-Alpes-Côte d'Azur","key":"StateName"},{"value":"Bouches-du-Rhône","key":"CountyName"}]},"MapReference":{"ReferenceId":"1086481319","Spot":1.0,"SideOfStreet":"left","CountryId":"20000001","StateId":"20000193","CountyId":"20048302","CityId":"20048305"}}},{"Relevance":1.0,"Distance":40.3,"MatchLevel":"houseNumber","MatchQuality":{"Country":1.0,"State":1.0,"County":1.0,"City":1.0,"Street":[1.0],"HouseNumber":1.0,"PostalCode":1.0},"MatchType":"interpolated","Location":{"LocationId":"NT_QsVJJ5S7yupcUGI.zrpc4B_l_723436344_R_4MjN","LocationType":"point","DisplayPosition":{"Latitude":43.5320725,"Longitude":5.4297725},"MapView":{"TopLeft":{"Latitude":43.5331966,"Longitude":5.428222},"BottomRight":{"Latitude":43.5309483,"Longitude":5.4313231}},"Address":{"Label":"836 Avenue Jean Dalmas, 13090 Aix-en-Provence, France","Country":"FRA","State":"Provence-Alpes-Côte d'Azur","County":"Bouches-du-Rhône","City":"Aix-en-Provence","Street":"Avenue Jean Dalmas","HouseNumber":"836","PostalCode":"13090","AdditionalData":[{"value":"France","key":"CountryName"},{"value":"Provence-Alpes-Côte d'Azur","key":"StateName"},{"value":"Bouches-du-Rhône","key":"CountyName"}]},"MapReference":{"ReferenceId":"723436344","Spot":0.53,"SideOfStreet":"right","CountryId":"20000001","StateId":"20000193","CountyId":"20048302","CityId":"20048305"}}},{"Relevance":1.0,"Distance":45.5,"MatchLevel":"houseNumber","MatchQuality":{"Country":1.0,"State":1.0,"County":1.0,"City":1.0,"Street":[1.0],"HouseNumber":1.0,"PostalCode":1.0},"MatchType":"interpolated","Location":{"LocationId":"NT_rUI6JhDWPQLHtyxD7Hsz-D_xAD","LocationType":"point","DisplayPosition":{"Latitude":43.5314,"Longitude":5.43012},"MapView":{"TopLeft":{"Latitude":43.5325242,"Longitude":5.4285694},"BottomRight":{"Latitude":43.5302758,"Longitude":5.4316706}},"Address":{"Label":"10 Rue du Chemin de Fer, 13090 Aix-en-Provence, France","Country":"FRA","State":"Provence-Alpes-Côte d'Azur","County":"Bouches-du-Rhône","City":"Aix-en-Provence","Street":"Rue du Chemin de Fer","HouseNumber":"10","PostalCode":"13090","AdditionalData":[{"value":"France","key":"CountryName"},{"value":"Provence-Alpes-Côte d'Azur","key":"StateName"},{"value":"Bouches-du-Rhône","key":"CountyName"}]},"MapReference":{"ReferenceId":"58214193","Spot":0.54,"SideOfStreet":"left","CountryId":"20000001","StateId":"20000193","CountyId":"20048302","CityId":"20048305","AddressId":"627255670","RoadLinkId":"45413835"}}},{"Relevance":1.0,"Distance":46.0,"MatchLevel":"street","MatchQuality":{"Country":1.0,"State":1.0,"County":1.0,"City":1.0,"Street":[1.0],"PostalCode":1.0},"Location":{"LocationId":"NT_3dR5K-kObkX-KRSCwL3I9A_l_58214194_R","LocationType":"point","DisplayPosition":{"Latitude":43.53147,"Longitude":5.42979},"MapView":{"TopLeft":{"Latitude":43.53147,"Longitude":5.4297},"BottomRight":{"Latitude":43.53131,"Longitude":5.42979}},"Address":{"Label":"Rue du Jas de Bouffan, 13090 Aix-en-Provence, France","Country":"FRA","State":"Provence-Alpes-Côte d'Azur","County":"Bouches-du-Rhône","City":"Aix-en-Provence","Street":"Rue du Jas de Bouffan","PostalCode":"13090","AdditionalData":[{"value":"France","key":"CountryName"},{"value":"Provence-Alpes-Côte d'Azur","key":"StateName"},{"value":"Bouches-du-Rhône","key":"CountyName"}]},"MapReference":{"ReferenceId":"58214194","Spot":1.0,"SideOfStreet":"right","CountryId":"20000001","StateId":"20000193","CountyId":"20048302","CityId":"20048305"}}},{"Relevance":1.0,"Distance":50.4,"MatchLevel":"street","MatchQuality":{"Country":1.0,"State":1.0,"County":1.0,"City":1.0,"Street":[1.0],"PostalCode":1.0},"Location":{"LocationId":"NT_vuCvt7G9eZ9SGwF7g8cHHA_l_546131698_L","LocationType":"point","DisplayPosition":{"Latitude":43.53202,"Longitude":5.43067},"MapView":{"TopLeft":{"Latitude":43.53234,"Longitude":5.43061},"BottomRight":{"Latitude":43.53196,"Longitude":5.43073}},"Address":{"Label":"Rue Général Maurice Daboval, 13090 Aix-en-Provence, France","Country":"FRA","State":"Provence-Alpes-Côte d'Azur","County":"Bouches-du-Rhône","City":"Aix-en-Provence","Street":"Rue Général Maurice Daboval","PostalCode":"13090","AdditionalData":[{"value":"France","key":"CountryName"},{"value":"Provence-Alpes-Côte d'Azur","key":"StateName"},{"value":"Bouches-du-Rhône","key":"CountyName"}]},"MapReference":{"ReferenceId":"546131698","Spot":0.21,"SideOfStreet":"left","CountryId":"20000001","StateId":"20000193","CountyId":"20048302","CityId":"20048305"}}},{"Relevance":1.0,"Distance":52.2,"MatchLevel":"street","MatchQuality":{"Country":1.0,"State":1.0,"County":1.0,"City":1.0,"Street":[1.0],"PostalCode":1.0},"Location":{"LocationId":"NT_8sIZAMsz2xLvCgua.ummjB_l_546131697_L","LocationType":"point","DisplayPosition":{"Latitude":43.53196,"Longitude":5.43073},"MapView":{"TopLeft":{"Latitude":43.53196,"Longitude":5.43073},"BottomRight":{"Latitude":43.53175,"Longitude":5.43122}},"Address":{"Label":"Rue Jean Dalmas, 13090 Aix-en-Provence, France","Country":"FRA","State":"Provence-Alpes-Côte d'Azur","County":"Bouches-du-Rhône","City":"Aix-en-Provence","Street":"Rue Jean Dalmas","PostalCode":"13090","AdditionalData":[{"value":"France","key":"CountryName"},{"value":"Provence-Alpes-Côte d'Azur","key":"StateName"},{"value":"Bouches-du-Rhône","key":"CountyName"}]},"MapReference":{"ReferenceId":"546131697","Spot":1.0,"SideOfStreet":"left","CountryId":"20000001","StateId":"20000193","CountyId":"20048302","CityId":"20048305"}}},{"Relevance":1.0,"Distance":54.2,"MatchLevel":"street","MatchQuality":{"Country":1.0,"State":1.0,"County":1.0,"City":1.0,"Street":[1.0],"PostalCode":1.0},"Location":{"LocationId":"NT_pxZ7ClPNTl4rBIbfB3kx6C_l_58170789_R","LocationType":"point","DisplayPosition":{"Latitude":43.5320862,"Longitude":5.4295631},"MapView":{"TopLeft":{"Latitude":43.53214,"Longitude":5.42937},"BottomRight":{"Latitude":43.53173,"Longitude":5.42959}},"Address":{"Label":"N296, 13090 Aix-en-Provence, France","Country":"FRA","State":"Provence-Alpes-Côte d'Azur","County":"Bouches-du-Rhône","City":"Aix-en-Provence","Street":"N296","PostalCode":"13090","AdditionalData":[{"value":"France","key":"CountryName"},{"value":"Provence-Alpes-Côte d'Azur","key":"StateName"},{"value":"Bouches-du-Rhône","key":"CountyName"}]},"MapReference":{"ReferenceId":"58170789","Spot":0.87,"SideOfStreet":"right","CountryId":"20000001","StateId":"20000193","CountyId":"20048302","CityId":"20048305"}}}]}]}}