{"Response":{"MetaInfo":{"Timestamp":"2020-03-28T11:48:03.878+0000","NextPageInformation":"2"},"View":[{"_type":"SearchResultsViewType","ViewId":0,"Result":[{"Relevance":1.0,"Distance":0.0,"Direction":0.0,"MatchLevel":"city","MatchQuality":{"Country":1.0,"State":1.0,"County":1.0,"City":1.0,"PostalCode":1.0},"Location":{"LocationId":"NT_x1qJHN6uj5ipONNuvJhs1C","LocationType":"point","DisplayPosition":{"Latitude":43.5425752,"Longitude":1.3477604},"MapView":{"TopLeft":{"Latitude":43.56165,"Longitude":1.31105},"BottomRight":{"Latitude":43.5274,"Longitude":1.37529}},"Address":{"Label":"Cugnaux, Occitanie, France","Country":"FRA","State":"Occitanie","County":"Haute-Garonne","City":"Cugnaux","PostalCode":"31270","AdditionalData":[{"value":"France","key":"CountryName"},{"value":"Occitanie","key":"StateName"},{"value":"Haute-Garonne","key":"CountyName"}]},"MapReference":{"ReferenceId":"57991639","SideOfStreet":"neither","CountryId":"20000001","StateId":"20050212","CountyId":"20094636","CityId":"20095101"}}},{"Relevance":1.0,"Distance":6.9,"MatchLevel":"houseNumber","MatchQuality":{"Country":1.0,"State":1.0,"County":1.0,"City":1.0,"Street":[1.0],"HouseNumber":1.0,"PostalCode":1.0},"MatchType":"interpolated","Location":{"LocationId":"NT_Hbf5c5f59NZhqfpXOJcFyD_3ETU","LocationType":"point","DisplayPosition":{"Latitude":43.5426,"Longitude":1.34787},"MapView":{"TopLeft":{"Latitude":43.5437242,"Longitude":1.3463192},"BottomRight":{"Latitude":43.5414758,"Longitude":1.3494208}},"Address":{"Label":"71Q Avenue de Toulouse, 31270 Cugnaux, France","Country":"FRA","State":"Occitanie","County":"Haute-Garonne","City":"Cugnaux","Street":"Avenue de Toulouse","HouseNumber":"71Q","PostalCode":"31270","AdditionalData":[{"value":"France","key":"CountryName"},{"value":"Occitanie","key":"StateName"},{"value":"Haute-Garonne","key":"CountyName"}]},"MapReference":{"ReferenceId":"57991410","Spot":0.84,"SideOfStreet":"left","CountryId":"20000001","StateId":"20050212","CountyId":"20094636","CityId":"20095101","AddressId":"320760429","RoadLinkId":"51075846"}}},{"Relevance":1.0,"Distance":45.3,"MatchLevel":"houseNumber","MatchQuality":{"Country":1.0,"State":1.0,"County":1.0,"City":1.0,"Street":[1.0],"HouseNumber":1.0,"PostalCode":1.0},"MatchType":"interpolated","Location":{"LocationId":"NT_5hyN5IiKSI51Vk3JYjTQ.B_xID","LocationType":"point","DisplayPosition":{"Latitude":43.54266,"Longitude":1.34692},"MapView":{"TopLeft":{"Latitude":43.5437842,"Longitude":1.3453691},"BottomRight":{"Latitude":43.5415358,"Longitude":1.3484709}},"Address":{"Label":"12 Rue du Petit Barry, 31270 Cugnaux, France","Country":"FRA","State":"Occitanie","County":"Haute-Garonne","City":"Cugnaux","Street":"Rue du Petit Barry","HouseNumber":"12","PostalCode":"31270","AdditionalData":[{"value":"France","key":"CountryName"},{"value":"Occitanie","key":"StateName"},{"value":"Haute-Garonne","key":"CountyName"}]},"MapReference":{"ReferenceId":"940932505","Spot":0.11,"SideOfStreet":"right","CountryId":"20000001","StateId":"20050212","CountyId":"20094636","CityId":"20095101","AddressId":"321062268","RoadLinkId":"290982929"}}},{"Relevance":1.0,"Distance":48.1,"MatchLevel":"houseNumber","MatchQuality":{"Country":1.0,"State":1.0,"County":1.0,"City":1.0,"Street":[1.0],"HouseNumber":1.0,"PostalCode":1.0},"MatchType":"interpolated","Location":{"LocationId":"NT_Hbf5c5f59NZhqfpXOJcFyD_3MD","LocationType":"point","DisplayPosition":{"Latitude":43.54293,"Longitude":1.34812},"MapView":{"TopLeft":{"Latitude":43.5440542,"Longitude":1.3465691},"BottomRight":{"Latitude":43.5418058,"Longitude":1.3496709}},"Address":{"Label":"73 Avenue de Toulouse, 31270 Cugnaux, France","Country":"FRA","State":"Occitanie","County":"Haute-Garonne","City":"Cugnaux","Street":"Avenue de Toulouse","HouseNumber":"73","PostalCode":"31270","AdditionalData":[{"value":"France","key":"CountryName"},{"value":"Occitanie","key":"StateName"},{"value":"Haute-Garonne","key":"CountyName"}]},"MapReference":{"ReferenceId":"833127140","Spot":0.64,"SideOfStreet":"left","CountryId":"20000001","StateId":"20050212","CountyId":"20094636","CityId":"20095101","AddressId":"379662860","RoadLinkId":"216395103"}}},{"Relevance":1.0,"Distance":50.6,"MatchLevel":"houseNumber","MatchQuality":{"Country":1.0,"State":1.0,"County":1.0,"City":1.0,"Street":[1.0],"HouseNumber":1.0,"PostalCode":1.0},"MatchType":"interpolated","Location":{"LocationId":"NT_5hyN5IiKSI51Vk3JYjTQ.B_4A","LocationType":"point","DisplayPosition":{"Latitude":43.54239,"Longitude":1.34699},"MapView":{"TopLeft":{"Latitude":43.5435142,"Longitude":1.3454392},"BottomRight":{"Latitude":43.5412658,"Longitude":1.3485408}},"Address":{"Label":"8 Rue du Petit Barry, 31270 Cugnaux, France","Country":"FRA","State":"Occitanie","County":"Haute-Garonne","City":"Cugnaux","Street":"Rue du Petit Barry","HouseNumber":"8","PostalCode":"31270","AdditionalData":[{"value":"France","key":"CountryName"},{"value":"Occitanie","key":"StateName"},{"value":"Haute-Garonne","key":"CountyName"}]},"MapReference":{"ReferenceId":"57991429","Spot":0.76,"SideOfStreet":"right","CountryId":"20000001","StateId":"20050212","CountyId":"20094636","CityId":"20095101","AddressId":"320814884","RoadLinkId":"50346327"}}},{"Relevance":1.0,"Distance":51.8,"MatchLevel":"houseNumber","MatchQuality":{"Country":1.0,"State":1.0,"County":1.0,"City":1.0,"Street":[1.0],"HouseNumber":1.0,"PostalCode":1.0},"MatchType":"interpolated","Location":{"LocationId":"NT_M-MKBoOAVE2a9euCJ..5XA_xA","LocationType":"point","DisplayPosition":{"Latitude":43.54204,"Longitude":1.34771},"MapView":{"TopLeft":{"Latitude":43.5431642,"Longitude":1.3461592},"BottomRight":{"Latitude":43.5409158,"Longitude":1.3492608}},"Address":{"Label":"1 Rue des Lilas, 31270 Cugnaux, France","Country":"FRA","State":"Occitanie","County":"Haute-Garonne","City":"Cugnaux","Street":"Rue des Lilas","HouseNumber":"1","PostalCode":"31270","AdditionalData":[{"value":"France","key":"CountryName"},{"value":"Occitanie","key":"StateName"},{"value":"Haute-Garonne","key":"CountyName"}]},"MapReference":{"ReferenceId":"1164562478","Spot":0.92,"SideOfStreet":"right","CountryId":"20000001","StateId":"20050212","CountyId":"20094636","CityId":"20095101","AddressId":"379709548","RoadLinkId":"470854257"}}},{"Relevance":1.0,"Distance":53.7,"MatchLevel":"houseNumber","MatchQuality":{"Country":1.0,"State":1.0,"County":1.0,"City":1.0,"Street":[1.0],"HouseNumber":1.0,"PostalCode":1.0},"MatchType":"interpolated","Location":{"LocationId":"NT_M-MKBoOAVE2a9euCJ..5XA_0A","LocationType":"point","DisplayPosition":{"Latitude":43.5421,"Longitude":1.34764},"MapView":{"TopLeft":{"Latitude":43.5432242,"Longitude":1.3460892},"BottomRight":{"Latitude":43.5409758,"Longitude":1.3491908}},"Address":{"Label":"4 Rue des Lilas, 31270 Cugnaux, France","Country":"FRA","State":"Occitanie","County":"Haute-Garonne","City":"Cugnaux","Street":"Rue des Lilas","HouseNumber":"4","PostalCode":"31270","AdditionalData":[{"value":"France","key":"CountryName"},{"value":"Occitanie","key":"StateName"},{"value":"Haute-Garonne","key":"CountyName"}]},"MapReference":{"ReferenceId":"1164562479","Spot":0.27,"SideOfStreet":"left","CountryId":"20000001","StateId":"20050212","CountyId":"20094636","CityId":"20095101","AddressId":"379709547","RoadLinkId":"470854258"}}},{"Relevance":1.0,"Distance":56.8,"MatchLevel":"houseNumber","MatchQuality":{"Country":1.0,"State":1.0,"County":1.0,"City":1.0,"Street":[1.0],"HouseNumber":1.0,"PostalCode":1.0},"MatchType":"interpolated","Location":{"LocationId":"NT_Hbf5c5f59NZhqfpXOJcFyD_2cD","LocationType":"point","DisplayPosition":{"Latitude":43.54211,"Longitude":1.34747},"MapView":{"TopLeft":{"Latitude":43.5432342,"Longitude":1.3459192},"BottomRight":{"Latitude":43.5409858,"Longitude":1.3490208}},"Address":{"Label":"67 Avenue de Toulouse, 31270 Cugnaux, France","Country":"FRA","State":"Occitanie","County":"Haute-Garonne","City":"Cugnaux","Street":"Avenue de Toulouse","HouseNumber":"67","PostalCode":"31270","AdditionalData":[{"value":"France","key":"CountryName"},{"value":"Occitanie","key":"StateName"},{"value":"Haute-Garonne","key":"CountyName"}]},"MapReference":{"ReferenceId":"57991428","Spot":0.81,"SideOfStreet":"left","CountryId":"20000001","StateId":"20050212","CountyId":"20094636","CityId":"20095101","AddressId":"379659654","RoadLinkId":"51275286"}}},{"Relevance":1.0,"Distance":70.3,"MatchLevel":"houseNumber","MatchQuality":{"Country":1.0,"State":1.0,"County":1.0,"City":1.0,"Street":[1.0],"HouseNumber":1.0,"PostalCode":1.0},"MatchType":"interpolated","Location":{"LocationId":"NT_R6mTVFReH1V-pX-oPn8knC_yA","LocationType":"point","DisplayPosition":{"Latitude":43.54238,"Longitude":1.34859},"MapView":{"TopLeft":{"Latitude":43.5435042,"Longitude":1.3470392},"BottomRight":{"Latitude":43.5412558,"Longitude":1.3501408}},"Address":{"Label":"2 Rue des Hortensias, 31270 Cugnaux, France","Country":"FRA","State":"Occitanie","County":"Haute-Garonne","City":"Cugnaux","Street":"Rue des Hortensias","HouseNumber":"2","PostalCode":"31270","AdditionalData":[{"value":"France","key":"CountryName"},{"value":"Occitanie","key":"StateName"},{"value":"Haute-Garonne","key":"CountyName"}]},"MapReference":{"ReferenceId":"57991487","Spot":0.79,"SideOfStreet":"left","CountryId":"20000001","StateId":"20050212","CountyId":"20094636","CityId":"20095101","AddressId":"320992301","RoadLinkId":"51381626"}}},{"Relevance":1.0,"Distance":71.4,"MatchLevel":"houseNumber","MatchQuality":{"Country":1.0,"State":1.0,"County":1.0,"City":1.0,"Street":[1.0],"HouseNumber":1.0,"PostalCode":1.0},"MatchType":"interpolated","Location":{"LocationId":"NT_Hbf5c5f59NZhqfpXOJcFyD_3UD","LocationType":"point","DisplayPosition":{"Latitude":43.5431,"Longitude":1.34826},"MapView":{"TopLeft":{"Latitude":43.5442242,"Longitude":1.3467091},"BottomRight":{"Latitude":43.5419758,"Longitude":1.3498109}},"Address":{"Label":"75 Avenue de Toulouse, 31270 Cugnaux, France","Country":"FRA","State":"Occitanie","County":"Haute-Garonne","City":"Cugnaux","Street":"Avenue de Toulouse","HouseNumber":"75","PostalCode":"31270","AdditionalData":[{"value":"France","key":"CountryName"},{"value":"Occitanie","key":"StateName"},{"value":"Haute-Garonne","key":"CountyName"}]},"MapReference":{"ReferenceId":"833127141","Spot":0.14,"SideOfStreet":"left","CountryId":"20000001","StateId":"20050212","CountyId":"20094636","CityId":"20095101","AddressId":"379673328","RoadLinkId":"216395104"}}}]}]}}