{"Response":{"MetaInfo":{"Timestamp":"2020-03-28T09:47:20.860+0000","NextPageInformation":"2"},"View":[{"_type":"SearchResultsViewType","ViewId":0,"Result":[{"Relevance":1.0,"Distance":0.0,"Direction":0.0,"MatchLevel":"district","MatchQuality":{"Country":1.0,"State":1.0,"County":1.0,"City":1.0,"District":1.0,"PostalCode":1.0},"Location":{"LocationId":"NT_GsHL0OgompKjaHfIjWZKJC","LocationType":"point","DisplayPosition":{"Latitude":43.5547008,"Longitude":-5.7336753},"MapView":{"TopLeft":{"Latitude":43.56873,"Longitude":-5.75319},"BottomRight":{"Latitude":43.54175,"Longitude":-5.71597}},"Address":{"Label":"Reguero, Carreño, Principado de Asturias, España","Country":"ESP","State":"Principado de Asturias","County":"Asturias","City":"Carreño","District":"Reguero","PostalCode":"33430","AdditionalData":[{"value":"España","key":"CountryName"},{"value":"Principado de Asturias","key":"StateName"},{"value":"Asturias","key":"CountyName"}]},"MapReference":{"ReferenceId":"82405324","SideOfStreet":"neither","CountryId":"20215059","StateId":"20226808","CountyId":"20226809","CityId":"20326190"}}},{"Relevance":1.0,"Distance":16.8,"MatchLevel":"street","MatchQuality":{"Country":1.0,"State":1.0,"County":1.0,"City":1.0,"Street":[1.0],"PostalCode":1.0},"Location":{"LocationId":"NT_TkubzrHO3CK1zC1xDjpGfB_l_758801243_R","LocationType":"point","DisplayPosition":{"Latitude":43.5546447,"Longitude":-5.733869},"MapView":{"TopLeft":{"Latitude":43.55502,"Longitude":-5.73394},"BottomRight":{"Latitude":43.55375,"Longitude":-5.73361}},"Address":{"Label":"Barrio Empalme, 33430 Carreño (Asturias), España","Country":"ESP","State":"Principado de Asturias","County":"Asturias","City":"Carreño","Street":"Barrio Empalme","PostalCode":"33430","AdditionalData":[{"value":"España","key":"CountryName"},{"value":"Principado de Asturias","key":"StateName"},{"value":"Asturias","key":"CountyName"}]},"MapReference":{"ReferenceId":"758801243","Spot":0.71,"SideOfStreet":"right","CountryId":"20215059","StateId":"20226808","CountyId":"20226809","CityId":"20326190"}}},{"Relevance":1.0,"Distance":22.9,"MatchLevel":"street","MatchQuality":{"Country":1.0,"State":1.0,"County":1.0,"City":1.0,"Street":[1.0],"PostalCode":1.0},"Location":{"LocationId":"NT_52ANzrb9XlbUBk7OYHwowD_l_570262147_L","LocationType":"point","DisplayPosition":{"Latitude":43.5548969,"Longitude":-5.7335881},"MapView":{"TopLeft":{"Latitude":43.55502,"Longitude":-5.73391},"BottomRight":{"Latitude":43.5547,"Longitude":-5.73322}},"Address":{"Label":"AS-239a, 33430 Carreño (Asturias), España","Country":"ESP","State":"Principado de Asturias","County":"Asturias","City":"Carreño","Street":"AS-239a","PostalCode":"33430","AdditionalData":[{"value":"España","key":"CountryName"},{"value":"Principado de Asturias","key":"StateName"},{"value":"Asturias","key":"CountyName"}]},"MapReference":{"ReferenceId":"570262147","Spot":0.55,"SideOfStreet":"left","CountryId":"20215059","StateId":"20226808","CountyId":"20226809","CityId":"20326190"}}},{"Relevance":1.0,"Distance":36.7,"MatchLevel":"street","MatchQuality":{"Country":1.0,"State":1.0,"County":1.0,"City":1.0,"Street":[1.0],"PostalCode":1.0},"Location":{"LocationId":"NT_52ANzrb9XlbUBk7OYHwowD_l_958069755_L","LocationType":"point","DisplayPosition":{"Latitude":43.5547,"Longitude":-5.73322},"MapView":{"TopLeft":{"Latitude":43.5547,"Longitude":-5.73322},"BottomRight":{"Latitude":43.55418,"Longitude":-5.73273}},"Address":{"Label":"AS-239a, 33430 Carreño (Asturias), España","Country":"ESP","State":"Principado de Asturias","County":"Asturias","City":"Carreño","Street":"AS-239a","PostalCode":"33430","AdditionalData":[{"value":"España","key":"CountryName"},{"value":"Principado de Asturias","key":"StateName"},{"value":"Asturias","key":"CountyName"}]},"MapReference":{"ReferenceId":"958069755","Spot":1.0,"SideOfStreet":"left","CountryId":"20215059","StateId":"20226808","CountyId":"20226809","CityId":"20326190"}}},{"Relevance":1.0,"Distance":40.2,"MatchLevel":"street","MatchQuality":{"Country":1.0,"State":1.0,"County":1.0,"City":1.0,"Street":[1.0],"PostalCode":1.0},"Location":{"LocationId":"NT_iLuRtIt79nJ0JgUKvajUTB_l_82405324_L","LocationType":"point","DisplayPosition":{"Latitude":43.55502,"Longitude":-5.73391},"MapView":{"TopLeft":{"Latitude":43.55554,"Longitude":-5.73518},"BottomRight":{"Latitude":43.55502,"Longitude":-5.73391}},"Address":{"Label":"AS-239a, 33430 Carreño (Asturias), España","Country":"ESP","State":"Principado de Asturias","County":"Asturias","City":"Carreño","Street":"AS-239a","PostalCode":"33430","AdditionalData":[{"value":"España","key":"CountryName"},{"value":"Principado de Asturias","key":"StateName"},{"value":"Asturias","key":"CountyName"}]},"MapReference":{"ReferenceId":"82405324","Spot":0.0,"SideOfStreet":"left","CountryId":"20215059","StateId":"20226808","CountyId":"20226809","CityId":"20326190"}}},{"Relevance":1.0,"Distance":61.0,"MatchLevel":"street","MatchQuality":{"Country":1.0,"State":1.0,"County":1.0,"City":1.0,"Street":[1.0],"PostalCode":1.0},"Location":{"LocationId":"NT_4MPMOsabanH2WHcF79rlJB_l_958349521_R","LocationType":"point","DisplayPosition":{"Latitude":43.55428,"Longitude":-5.73416},"MapView":{"TopLeft":{"Latitude":43.55486,"Longitude":-5.73556},"BottomRight":{"Latitude":43.55428,"Longitude":-5.73416}},"Address":{"Label":"AS-19, 33430 Carreño (Asturias), España","Country":"ESP","State":"Principado de Asturias","County":"Asturias","City":"Carreño","Street":"AS-19","PostalCode":"33430","AdditionalData":[{"value":"España","key":"CountryName"},{"value":"Principado de Asturias","key":"StateName"},{"value":"Asturias","key":"CountyName"}]},"MapReference":{"ReferenceId":"958349521","Spot":0.0,"SideOfStreet":"right","CountryId":"20215059","StateId":"20226808","CountyId":"20226809","CityId":"20326190"}}},{"Relevance":1.0,"Distance":63.5,"MatchLevel":"street","MatchQuality":{"Country":1.0,"State":1.0,"County":1.0,"City":1.0,"Street":[1.0],"PostalCode":1.0},"Location":{"LocationId":"NT_4MPMOsabanH2WHcF79rlJB_l_958349520_R","LocationType":"point","DisplayPosition":{"Latitude":43.5542022,"Longitude":-5.7340588},"MapView":{"TopLeft":{"Latitude":43.55428,"Longitude":-5.73416},"BottomRight":{"Latitude":43.55375,"Longitude":-5.73361}},"Address":{"Label":"AS-19, 33430 Carreño (Asturias), España","Country":"ESP","State":"Principado de Asturias","County":"Asturias","City":"Carreño","Street":"AS-19","PostalCode":"33430","AdditionalData":[{"value":"España","key":"CountryName"},{"value":"Principado de Asturias","key":"StateName"},{"value":"Asturias","key":"CountyName"}]},"MapReference":{"ReferenceId":"958349520","Spot":0.83,"SideOfStreet":"right","CountryId":"20215059","StateId":"20226808","CountyId":"20226809","CityId":"20326190"}}},{"Relevance":1.0,"Distance":95.7,"MatchLevel":"street","MatchQuality":{"Country":1.0,"State":1.0,"County":1.0,"City":1.0,"Street":[1.0],"PostalCode":1.0},"Location":{"LocationId":"NT_52ANzrb9XlbUBk7OYHwowD_l_958069754_L","LocationType":"point","DisplayPosition":{"Latitude":43.55418,"Longitude":-5.73273},"MapView":{"TopLeft":{"Latitude":43.55418,"Longitude":-5.73273},"BottomRight":{"Latitude":43.55385,"Longitude":-5.73238}},"Address":{"Label":"AS-239a, 33430 Carreño (Asturias), España","Country":"ESP","State":"Principado de Asturias","County":"Asturias","City":"Carreño","Street":"AS-239a","PostalCode":"33430","AdditionalData":[{"value":"España","key":"CountryName"},{"value":"Principado de Asturias","key":"StateName"},{"value":"Asturias","key":"CountyName"}]},"MapReference":{"ReferenceId":"958069754","Spot":1.0,"SideOfStreet":"left","CountryId":"20215059","StateId":"20226808","CountyId":"20226809","CityId":"20326190"}}},{"Relevance":1.0,"Distance":95.7,"MatchLevel":"street","MatchQuality":{"Country":1.0,"State":1.0,"County":1.0,"City":1.0,"PostalCode":1.0},"Location":{"LocationId":"NT_t2JgvrERaBUjg1INeyJMgB_l_1132835300_L","LocationType":"point","DisplayPosition":{"Latitude":43.55418,"Longitude":-5.73273},"MapView":{"TopLeft":{"Latitude":43.55424,"Longitude":-5.73273},"BottomRight":{"Latitude":43.55408,"Longitude":-5.73156}},"Address":{"Label":"33492 Carreño (Asturias), España","Country":"ESP","State":"Principado de Asturias","County":"Asturias","City":"Carreño","PostalCode":"33492","AdditionalData":[{"value":"España","key":"CountryName"},{"value":"Principado de Asturias","key":"StateName"},{"value":"Asturias","key":"CountyName"}]},"MapReference":{"ReferenceId":"1132835300","Spot":0.0,"SideOfStreet":"left","CountryId":"20215059","StateId":"20226808","CountyId":"20226809","CityId":"20326190"}}},{"Relevance":1.0,"Distance":105.9,"MatchLevel":"street","MatchQuality":{"Country":1.0,"State":1.0,"County":1.0,"City":1.0,"Street":[1.0],"PostalCode":1.0},"Location":{"LocationId":"NT_4MPMOsabanH2WHcF79rlJB_l_758801244_R","LocationType":"point","DisplayPosition":{"Latitude":43.55375,"Longitude":-5.73361},"MapView":{"TopLeft":{"Latitude":43.55375,"Longitude":-5.73361},"BottomRight":{"Latitude":43.55346,"Longitude":-5.73336}},"Address":{"Label":"AS-19, 33430 Carreño (Asturias), España","Country":"ESP","State":"Principado de Asturias","County":"Asturias","City":"Carreño","Street":"AS-19","PostalCode":"33430","AdditionalData":[{"value":"España","key":"CountryName"},{"value":"Principado de Asturias","key":"StateName"},{"value":"Asturias","key":"CountyName"}]},"MapReference":{"ReferenceId":"758801244","Spot":1.0,"SideOfStreet":"right","CountryId":"20215059","StateId":"20226808","CountyId":"20226809","CityId":"20326190"}}}]}]}}