{"Response":{"MetaInfo":{"Timestamp":"2020-03-28T09:44:35.735+0000","NextPageInformation":"2"},"View":[{"_type":"SearchResultsViewType","ViewId":0,"Result":[{"Relevance":1.0,"Distance":0.0,"Direction":0.0,"MatchLevel":"district","MatchQuality":{"Country":1.0,"State":1.0,"County":1.0,"City":1.0,"District":1.0,"PostalCode":1.0},"Location":{"LocationId":"NT_F39FNzmLPt7j9N8fVZIWlC","LocationType":"point","DisplayPosition":{"Latitude":43.5357878,"Longitude":-5.642958},"MapView":{"TopLeft":{"Latitude":43.54072,"Longitude":-5.64767},"BottomRight":{"Latitude":43.53368,"Longitude":-5.63432}},"Address":{"Label":"El Bibio - Parque, Gijón, Principado de Asturias, España","Country":"ESP","State":"Principado de Asturias","County":"Asturias","City":"Gijón","District":"El Bibio - Parque","PostalCode":"33203","AdditionalData":[{"value":"España","key":"CountryName"},{"value":"Principado de Asturias","key":"StateName"},{"value":"Asturias","key":"CountyName"}]},"MapReference":{"ReferenceId":"910486554","SideOfStreet":"neither","CountryId":"20215059","StateId":"20226808","CountyId":"20226809","CityId":"20326316"}}},{"Relevance":1.0,"Distance":28.2,"MatchLevel":"houseNumber","MatchQuality":{"Country":1.0,"State":1.0,"County":1.0,"City":1.0,"District":1.0,"Street":[1.0],"HouseNumber":1.0,"PostalCode":1.0},"MatchType":"interpolated","Location":{"LocationId":"NT_f3MiLDLD8oViDCEUfkZaeA_zYD","LocationType":"point","DisplayPosition":{"Latitude":43.53615,"Longitude":-5.64281},"MapView":{"TopLeft":{"Latitude":43.5372742,"Longitude":-5.6443607},"BottomRight":{"Latitude":43.5350258,"Longitude":-5.6412593}},"Address":{"Label":"Avenida Torcuato Fernández Miranda, 36, 33203 Gijón (Asturias), España","Country":"ESP","State":"Principado de Asturias","County":"Asturias","City":"Gijón","District":"El Bibio - Parque","Street":"Avenida Torcuato Fernández Miranda","HouseNumber":"36","PostalCode":"33203","AdditionalData":[{"value":"España","key":"CountryName"},{"value":"Principado de Asturias","key":"StateName"},{"value":"Asturias","key":"CountyName"}]},"MapReference":{"ReferenceId":"910489175","Spot":0.83,"SideOfStreet":"left","CountryId":"20215059","StateId":"20226808","CountyId":"20226809","CityId":"20326316","AddressId":"352020637","RoadLinkId":"270010513"}}},{"Relevance":1.0,"Distance":42.2,"MatchLevel":"landmark","MatchQuality":{"Country":1.0,"State":1.0,"County":1.0,"City":1.0,"PostalCode":1.0,"Name":1.0},"Location":{"LocationId":"NT_7H2a07GatRcI6KxsDi-OtD","LocationType":"park","Name":"Parque Isabel La Católica","DisplayPosition":{"Latitude":43.53764,"Longitude":-5.64302},"MapView":{"TopLeft":{"Latitude":43.5399,"Longitude":-5.64651},"BottomRight":{"Latitude":43.53538,"Longitude":-5.63845}},"Address":{"Label":"33206 Gijón (Asturias), España","Country":"ESP","State":"Principado de Asturias","County":"Asturias","City":"Gijón","PostalCode":"33206","AdditionalData":[{"value":"España","key":"CountryName"},{"value":"Principado de Asturias","key":"StateName"},{"value":"Asturias","key":"CountyName"}]},"MapReference":{"CountryId":"20215059","StateId":"20226808","CountyId":"20226809","CityId":"20326316","PlaceId":"64761127"}}},{"Relevance":1.0,"Distance":55.9,"MatchLevel":"street","MatchQuality":{"Country":1.0,"State":1.0,"County":1.0,"City":1.0,"District":1.0,"PostalCode":1.0},"Location":{"LocationId":"NT_Jl30B4xeCH.fGi1TJl-RXA_l_910574649_L","LocationType":"point","DisplayPosition":{"Latitude":43.53533,"Longitude":-5.64267},"MapView":{"TopLeft":{"Latitude":43.53533,"Longitude":-5.64279},"BottomRight":{"Latitude":43.5351,"Longitude":-5.64267}},"Address":{"Label":"33203 Gijón (Asturias), España","Country":"ESP","State":"Principado de Asturias","County":"Asturias","City":"Gijón","District":"El Bibio - Parque","PostalCode":"33203","AdditionalData":[{"value":"España","key":"CountryName"},{"value":"Principado de Asturias","key":"StateName"},{"value":"Asturias","key":"CountyName"}]},"MapReference":{"ReferenceId":"910574649","Spot":1.0,"SideOfStreet":"left","CountryId":"20215059","StateId":"20226808","CountyId":"20226809","CityId":"20326316"}}},{"Relevance":1.0,"Distance":56.7,"MatchLevel":"houseNumber","MatchQuality":{"Country":1.0,"State":1.0,"County":1.0,"City":1.0,"District":1.0,"Street":[1.0],"HouseNumber":1.0,"PostalCode":1.0},"MatchType":"interpolated","Location":{"LocationId":"NT_dpEPeRuohMRqMX5KB.JbUD_xETN","LocationType":"point","DisplayPosition":{"Latitude":43.53521,"Longitude":-5.64309},"MapView":{"TopLeft":{"Latitude":43.5363342,"Longitude":-5.6446407},"BottomRight":{"Latitude":43.5340858,"Longitude":-5.6415393}},"Address":{"Label":"Calle Ezcurdia, 115, 33203 Gijón (Asturias), España","Country":"ESP","State":"Principado de Asturias","County":"Asturias","City":"Gijón","District":"El Bibio - Parque","Street":"Calle Ezcurdia","HouseNumber":"115","PostalCode":"33203","AdditionalData":[{"value":"España","key":"CountryName"},{"value":"Principado de Asturias","key":"StateName"},{"value":"Asturias","key":"CountyName"}]},"MapReference":{"ReferenceId":"880680164","Spot":0.0,"SideOfStreet":"right","CountryId":"20215059","StateId":"20226808","CountyId":"20226809","CityId":"20326316","AddressId":"351973798","RoadLinkId":"249357458"}}},{"Relevance":1.0,"Distance":65.1,"MatchLevel":"street","MatchQuality":{"Country":1.0,"State":1.0,"County":1.0,"City":1.0,"District":1.0,"PostalCode":1.0},"Location":{"LocationId":"NT_Jl30B4xeCH.fGi1TJl-RXA_l_910574640_L","LocationType":"point","DisplayPosition":{"Latitude":43.53521,"Longitude":-5.64309},"MapView":{"TopLeft":{"Latitude":43.53521,"Longitude":-5.64319},"BottomRight":{"Latitude":43.53498,"Longitude":-5.64309}},"Address":{"Label":"33203 Gijón (Asturias), España","Country":"ESP","State":"Principado de Asturias","County":"Asturias","City":"Gijón","District":"El Bibio - Parque","PostalCode":"33203","AdditionalData":[{"value":"España","key":"CountryName"},{"value":"Principado de Asturias","key":"StateName"},{"value":"Asturias","key":"CountyName"}]},"MapReference":{"ReferenceId":"910574640","Spot":1.0,"SideOfStreet":"left","CountryId":"20215059","StateId":"20226808","CountyId":"20226809","CityId":"20326316"}}},{"Relevance":1.0,"Distance":65.6,"MatchLevel":"houseNumber","MatchQuality":{"Country":1.0,"State":1.0,"County":1.0,"City":1.0,"District":1.0,"Street":[1.0],"HouseNumber":1.0,"PostalCode":1.0},"MatchType":"interpolated","Location":{"LocationId":"NT_f3MiLDLD8oViDCEUfkZaeA_yYD","LocationType":"point","DisplayPosition":{"Latitude":43.53636,"Longitude":-5.64328},"MapView":{"TopLeft":{"Latitude":43.5374842,"Longitude":-5.6448307},"BottomRight":{"Latitude":43.5352358,"Longitude":-5.6417293}},"Address":{"Label":"Avenida Torcuato Fernández Miranda, 26, 33203 Gijón (Asturias), España","Country":"ESP","State":"Principado de Asturias","County":"Asturias","City":"Gijón","District":"El Bibio - Parque","Street":"Avenida Torcuato Fernández Miranda","HouseNumber":"26","PostalCode":"33203","AdditionalData":[{"value":"España","key":"CountryName"},{"value":"Principado de Asturias","key":"StateName"},{"value":"Asturias","key":"CountyName"}]},"MapReference":{"ReferenceId":"850269925","Spot":0.52,"SideOfStreet":"left","CountryId":"20215059","StateId":"20226808","CountyId":"20226809","CityId":"20326316","AddressId":"788902759","RoadLinkId":"229784266"}}},{"Relevance":1.0,"Distance":66.2,"MatchLevel":"houseNumber","MatchQuality":{"Country":1.0,"State":1.0,"County":1.0,"City":1.0,"District":1.0,"Street":[1.0],"HouseNumber":1.0,"PostalCode":1.0},"MatchType":"interpolated","Location":{"LocationId":"NT_f3MiLDLD8oViDCEUfkZaeA_zA","LocationType":"point","DisplayPosition":{"Latitude":43.53638,"Longitude":-5.64287},"MapView":{"TopLeft":{"Latitude":43.5375042,"Longitude":-5.6444207},"BottomRight":{"Latitude":43.5352558,"Longitude":-5.6413193}},"Address":{"Label":"Avenida Torcuato Fernández Miranda, 3, 33203 Gijón (Asturias), España","Country":"ESP","State":"Principado de Asturias","County":"Asturias","City":"Gijón","District":"El Bibio - Parque","Street":"Avenida Torcuato Fernández Miranda","HouseNumber":"3","PostalCode":"33203","AdditionalData":[{"value":"España","key":"CountryName"},{"value":"Principado de Asturias","key":"StateName"},{"value":"Asturias","key":"CountyName"}]},"MapReference":{"ReferenceId":"850269926","Spot":1.0,"SideOfStreet":"left","CountryId":"20215059","StateId":"20226808","CountyId":"20226809","CityId":"20326316","AddressId":"789006874","RoadLinkId":"229784267"}}},{"Relevance":1.0,"Distance":68.5,"MatchLevel":"houseNumber","MatchQuality":{"Country":1.0,"State":1.0,"County":1.0,"City":1.0,"District":1.0,"Street":[1.0],"HouseNumber":1.0,"PostalCode":1.0},"MatchType":"interpolated","Location":{"LocationId":"NT_dpEPeRuohMRqMX5KB.JbUD_l_910574635_R_xEzN","LocationType":"point","DisplayPosition":{"Latitude":43.5350759,"Longitude":-5.6427098},"MapView":{"TopLeft":{"Latitude":43.5362001,"Longitude":-5.6442604},"BottomRight":{"Latitude":43.5339518,"Longitude":-5.6411591}},"Address":{"Label":"Calle Ezcurdia, 117, 33203 Gijón (Asturias), España","Country":"ESP","State":"Principado de Asturias","County":"Asturias","City":"Gijón","District":"El Bibio - Parque","Street":"Calle Ezcurdia","HouseNumber":"117","PostalCode":"33203","AdditionalData":[{"value":"España","key":"CountryName"},{"value":"Principado de Asturias","key":"StateName"},{"value":"Asturias","key":"CountyName"}]},"MapReference":{"ReferenceId":"910574635","Spot":0.55,"SideOfStreet":"right","CountryId":"20215059","StateId":"20226808","CountyId":"20226809","CityId":"20326316"}}},{"Relevance":1.0,"Distance":68.8,"MatchLevel":"houseNumber","MatchQuality":{"Country":1.0,"State":1.0,"County":1.0,"City":1.0,"District":1.0,"Street":[1.0],"HouseNumber":1.0,"PostalCode":1.0},"MatchType":"interpolated","Location":{"LocationId":"NT_dXHO37xQ21evjTYZczea1A_xID","LocationType":"point","DisplayPosition":{"Latitude":43.53613,"Longitude":-5.64382},"MapView":{"TopLeft":{"Latitude":43.5372542,"Longitude":-5.6453707},"BottomRight":{"Latitude":43.5350058,"Longitude":-5.6422693}},"Address":{"Label":"Calle Pintor Carreño Miranda, 12, 33203 Gijón (Asturias), España","Country":"ESP","State":"Principado de Asturias","County":"Asturias","City":"Gijón","District":"El Bibio - Parque","Street":"Calle Pintor Carreño Miranda","HouseNumber":"12","PostalCode":"33203","AdditionalData":[{"value":"España","key":"CountryName"},{"value":"Principado de Asturias","key":"StateName"},{"value":"Asturias","key":"CountyName"}]},"MapReference":{"ReferenceId":"1272371885","Spot":0.55,"SideOfStreet":"right","CountryId":"20215059","StateId":"20226808","CountyId":"20226809","CityId":"20326316","AddressId":"769033297","RoadLinkId":"599693530"}}}]}]}}