{"Response":{"MetaInfo":{"Timestamp":"2020-03-28T10:43:54.679+0000","NextPageInformation":"2"},"View":[{"_type":"SearchResultsViewType","ViewId":0,"Result":[{"Relevance":1.0,"Distance":0.0,"Direction":0.0,"MatchLevel":"district","MatchQuality":{"Country":1.0,"State":1.0,"County":1.0,"City":1.0,"District":1.0,"PostalCode":1.0},"Location":{"LocationId":"NT_3vRtwI.ALy8TH0GKgj592A","LocationType":"point","DisplayPosition":{"Latitude":43.5650595,"Longitude":10.5912273},"MapView":{"TopLeft":{"Latitude":43.57324,"Longitude":10.5885},"BottomRight":{"Latitude":43.56253,"Longitude":10.59874}},"Address":{"Label":"Lari, Casciana Terme Lari, Toscana, Italia","Country":"ITA","State":"Toscana","County":"PI","City":"Casciana Terme Lari","District":"Lari","PostalCode":"56035","AdditionalData":[{"value":"Italia","key":"CountryName"},{"value":"Toscana","key":"StateName"},{"value":"Pisa","key":"CountyName"}]},"MapReference":{"ReferenceId":"549908476","SideOfStreet":"neither","CountryId":"20110484","StateId":"20123528","CountyId":"20128251","CityId":"20128318","DistrictId":"20128320"}}},{"Relevance":1.0,"Distance":10.8,"MatchLevel":"houseNumber","MatchQuality":{"Country":1.0,"State":1.0,"County":1.0,"City":1.0,"District":1.0,"Street":[1.0],"HouseNumber":1.0,"PostalCode":1.0},"MatchType":"interpolated","Location":{"LocationId":"NT_ytg3vUF8Q0ROwTqWlFxq.D_xED","LocationType":"point","DisplayPosition":{"Latitude":43.56499,"Longitude":10.5911},"MapView":{"TopLeft":{"Latitude":43.5661142,"Longitude":10.5895486},"BottomRight":{"Latitude":43.5638658,"Longitude":10.5926514}},"Address":{"Label":"Via 25 Luglio, 11, 56035 Casciana Terme Lari PI, Italia","Country":"ITA","State":"Toscana","County":"PI","City":"Casciana Terme Lari","District":"Lari","Street":"Via 25 Luglio","HouseNumber":"11","PostalCode":"56035","AdditionalData":[{"value":"Italia","key":"CountryName"},{"value":"Toscana","key":"StateName"},{"value":"Pisa","key":"CountyName"}]},"MapReference":{"ReferenceId":"840825546","Spot":0.53,"SideOfStreet":"right","CountryId":"20110484","StateId":"20123528","CountyId":"20128251","CityId":"20128318","DistrictId":"20128320","AddressId":"246877485","RoadLinkId":"222784845"}}},{"Relevance":1.0,"Distance":12.2,"MatchLevel":"street","MatchQuality":{"Country":1.0,"State":1.0,"County":1.0,"City":1.0,"District":1.0,"Street":[1.0],"PostalCode":1.0},"Location":{"LocationId":"NT_ytg3vUF8Q0ROwTqWlFxq.D_l_550587367_R","LocationType":"point","DisplayPosition":{"Latitude":43.56496,"Longitude":10.59129},"MapView":{"TopLeft":{"Latitude":43.56505,"Longitude":10.59129},"BottomRight":{"Latitude":43.56414,"Longitude":10.59251}},"Address":{"Label":"Via 25 Luglio, 56035 Casciana Terme Lari PI, Italia","Country":"ITA","State":"Toscana","County":"PI","City":"Casciana Terme Lari","District":"Lari","Street":"Via 25 Luglio","PostalCode":"56035","AdditionalData":[{"value":"Italia","key":"CountryName"},{"value":"Toscana","key":"StateName"},{"value":"Pisa","key":"CountyName"}]},"MapReference":{"ReferenceId":"550587367","Spot":1.0,"SideOfStreet":"right","CountryId":"20110484","StateId":"20123528","CountyId":"20128251","CityId":"20128318","DistrictId":"20128320"}}},{"Relevance":1.0,"Distance":12.3,"MatchLevel":"street","MatchQuality":{"Country":1.0,"State":1.0,"County":1.0,"City":1.0,"District":1.0,"Street":[1.0],"PostalCode":1.0},"Location":{"LocationId":"NT_ytg3vUF8Q0ROwTqWlFxq.D_l_550587366_L","LocationType":"point","DisplayPosition":{"Latitude":43.5649575,"Longitude":10.5912856},"MapView":{"TopLeft":{"Latitude":43.56496,"Longitude":10.59099},"BottomRight":{"Latitude":43.56484,"Longitude":10.59129}},"Address":{"Label":"Piazzale Madre Vincenza Frangioni, 56035 Casciana Terme Lari PI, Italia","Country":"ITA","State":"Toscana","County":"PI","City":"Casciana Terme Lari","District":"Lari","Street":"Piazzale Madre Vincenza Frangioni","PostalCode":"56035","AdditionalData":[{"value":"Italia","key":"CountryName"},{"value":"Toscana","key":"StateName"},{"value":"Pisa","key":"CountyName"}]},"MapReference":{"ReferenceId":"550587366","Spot":0.98,"SideOfStreet":"left","CountryId":"20110484","StateId":"20123528","CountyId":"20128251","CityId":"20128318","DistrictId":"20128320"}}},{"Relevance":1.0,"Distance":17.3,"MatchLevel":"houseNumber","MatchQuality":{"Country":1.0,"State":1.0,"County":1.0,"City":1.0,"District":1.0,"Street":[1.0],"HouseNumber":1.0,"PostalCode":1.0},"MatchType":"interpolated","Location":{"LocationId":"NT_ytg3vUF8Q0ROwTqWlFxq.D_5A","LocationType":"point","DisplayPosition":{"Latitude":43.56521,"Longitude":10.59128},"MapView":{"TopLeft":{"Latitude":43.5663342,"Longitude":10.5897286},"BottomRight":{"Latitude":43.5640858,"Longitude":10.5928314}},"Address":{"Label":"Via 25 Luglio, 9, 56035 Casciana Terme Lari PI, Italia","Country":"ITA","State":"Toscana","County":"PI","City":"Casciana Terme Lari","District":"Lari","Street":"Via 25 Luglio","HouseNumber":"9","PostalCode":"56035","AdditionalData":[{"value":"Italia","key":"CountryName"},{"value":"Toscana","key":"StateName"},{"value":"Pisa","key":"CountyName"}]},"MapReference":{"ReferenceId":"840825547","Spot":0.26,"SideOfStreet":"right","CountryId":"20110484","StateId":"20123528","CountyId":"20128251","CityId":"20128318","DistrictId":"20128320","AddressId":"247445356","RoadLinkId":"222784846"}}},{"Relevance":1.0,"Distance":33.3,"MatchLevel":"houseNumber","MatchQuality":{"Country":1.0,"State":1.0,"County":1.0,"City":1.0,"District":1.0,"Street":[1.0],"HouseNumber":1.0,"PostalCode":1.0},"MatchType":"interpolated","Location":{"LocationId":"NT_b7aJSZ6mS6CNULTMtDTDdC_zA","LocationType":"point","DisplayPosition":{"Latitude":43.56531,"Longitude":10.59096},"MapView":{"TopLeft":{"Latitude":43.5664342,"Longitude":10.5894086},"BottomRight":{"Latitude":43.5641858,"Longitude":10.5925114}},"Address":{"Label":"Via Santa Caterina, 3, 56035 Casciana Terme Lari PI, Italia","Country":"ITA","State":"Toscana","County":"PI","City":"Casciana Terme Lari","District":"Lari","Street":"Via Santa Caterina","HouseNumber":"3","PostalCode":"56035","AdditionalData":[{"value":"Italia","key":"CountryName"},{"value":"Toscana","key":"StateName"},{"value":"Pisa","key":"CountyName"}]},"MapReference":{"ReferenceId":"549909344","Spot":0.61,"SideOfStreet":"right","CountryId":"20110484","StateId":"20123528","CountyId":"20128251","CityId":"20128318","DistrictId":"20128320","AddressId":"247082120","RoadLinkId":"56373153"}}},{"Relevance":1.0,"Distance":47.5,"MatchLevel":"houseNumber","MatchQuality":{"Country":1.0,"State":1.0,"County":1.0,"City":1.0,"District":1.0,"Street":[1.0],"HouseNumber":1.0,"PostalCode":1.0},"MatchType":"interpolated","Location":{"LocationId":"NT_6sUhVf9wicivyFqwQ3F7iD_2A","LocationType":"point","DisplayPosition":{"Latitude":43.5655,"Longitude":10.59142},"MapView":{"TopLeft":{"Latitude":43.5666242,"Longitude":10.5898686},"BottomRight":{"Latitude":43.5643758,"Longitude":10.5929714}},"Address":{"Label":"Via Sotto Gli Orti, 6, 56035 Casciana Terme Lari PI, Italia","Country":"ITA","State":"Toscana","County":"PI","City":"Casciana Terme Lari","District":"Lari","Street":"Via Sotto Gli Orti","HouseNumber":"6","PostalCode":"56035","AdditionalData":[{"value":"Italia","key":"CountryName"},{"value":"Toscana","key":"StateName"},{"value":"Pisa","key":"CountyName"}]},"MapReference":{"ReferenceId":"549908528","Spot":0.59,"SideOfStreet":"left","CountryId":"20110484","StateId":"20123528","CountyId":"20128251","CityId":"20128318","DistrictId":"20128320","AddressId":"246854201","RoadLinkId":"56808268"}}},{"Relevance":1.0,"Distance":51.8,"MatchLevel":"houseNumber","MatchQuality":{"Country":1.0,"State":1.0,"County":1.0,"City":1.0,"District":1.0,"Street":[1.0],"HouseNumber":1.0,"PostalCode":1.0},"MatchType":"interpolated","Location":{"LocationId":"NT_L0RbIHE2OnOv9PACPp89MA_l_550587364_R_xID","LocationType":"point","DisplayPosition":{"Latitude":43.5646796,"Longitude":10.5908543},"MapView":{"TopLeft":{"Latitude":43.5658037,"Longitude":10.5893029},"BottomRight":{"Latitude":43.5635554,"Longitude":10.5924058}},"Address":{"Label":"Via 25 Luglio, 12, 56035 Casciana Terme Lari PI, Italia","Country":"ITA","State":"Toscana","County":"PI","City":"Casciana Terme Lari","District":"Lari","Street":"Via 25 Luglio","HouseNumber":"12","PostalCode":"56035","AdditionalData":[{"value":"Italia","key":"CountryName"},{"value":"Toscana","key":"StateName"},{"value":"Pisa","key":"CountyName"}]},"MapReference":{"ReferenceId":"550587364","Spot":0.54,"SideOfStreet":"right","CountryId":"20110484","StateId":"20123528","CountyId":"20128251","CityId":"20128318","DistrictId":"20128320"}}},{"Relevance":1.0,"Distance":57.4,"MatchLevel":"street","MatchQuality":{"Country":1.0,"State":1.0,"County":1.0,"City":1.0,"District":1.0,"Street":[1.0],"PostalCode":1.0},"Location":{"LocationId":"NT_Obj.cL15RzHI06atjfvufA_l_840916868_L","LocationType":"point","DisplayPosition":{"Latitude":43.56557,"Longitude":10.59133},"MapView":{"TopLeft":{"Latitude":43.56591,"Longitude":10.59103},"BottomRight":{"Latitude":43.56557,"Longitude":10.59133}},"Address":{"Label":"Strada Provinciale Perignano Lari Casciana, 56035 Casciana Terme Lari PI, Italia","Country":"ITA","State":"Toscana","County":"PI","City":"Casciana Terme Lari","District":"Lari","Street":"Strada Provinciale Perignano Lari Casciana","PostalCode":"56035","AdditionalData":[{"value":"Italia","key":"CountryName"},{"value":"Toscana","key":"StateName"},{"value":"Pisa","key":"CountyName"}]},"MapReference":{"ReferenceId":"840916868","Spot":0.0,"SideOfStreet":"left","CountryId":"20110484","StateId":"20123528","CountyId":"20128251","CityId":"20128318","DistrictId":"20128320"}}},{"Relevance":1.0,"Distance":64.6,"MatchLevel":"houseNumber","MatchQuality":{"Country":1.0,"State":1.0,"County":1.0,"City":1.0,"District":1.0,"Street":[1.0],"HouseNumber":1.0,"PostalCode":1.0},"MatchType":"interpolated","Location":{"LocationId":"NT_7ad1RULthTlh8mWIqjXxpA_2A","LocationType":"point","DisplayPosition":{"Latitude":43.56476,"Longitude":10.59037},"MapView":{"TopLeft":{"Latitude":43.5658842,"Longitude":10.5888186},"BottomRight":{"Latitude":43.5636358,"Longitude":10.5919214}},"Address":{"Label":"Viale della Rimembranza, 6, 56035 Casciana Terme Lari PI, Italia","Country":"ITA","State":"Toscana","County":"PI","City":"Casciana Terme Lari","District":"Lari","Street":"Viale della Rimembranza","HouseNumber":"6","PostalCode":"56035","AdditionalData":[{"value":"Italia","key":"CountryName"},{"value":"Toscana","key":"StateName"},{"value":"Pisa","key":"CountyName"}]},"MapReference":{"ReferenceId":"841082492","Spot":0.9,"SideOfStreet":"right","CountryId":"20110484","StateId":"20123528","CountyId":"20128251","CityId":"20128318","DistrictId":"20128320","AddressId":"247211553","RoadLinkId":"223013214"}}}]}]}}