{"Response":{"MetaInfo":{"Timestamp":"2020-03-28T11:39:38.624+0000","NextPageInformation":"2"},"View":[{"_type":"SearchResultsViewType","ViewId":0,"Result":[{"Relevance":1.0,"Distance":0.0,"Direction":0.0,"MatchLevel":"district","MatchQuality":{"Country":1.0,"County":1.0,"City":1.0,"District":1.0,"PostalCode":1.0},"Location":{"LocationId":"NT_VNGdvJ.qcvrKQbXu-25FiC","LocationType":"point","DisplayPosition":{"Latitude":43.5702421,"Longitude":27.8284889},"MapView":{"TopLeft":{"Latitude":43.59769,"Longitude":27.76421},"BottomRight":{"Latitude":43.5428,"Longitude":27.86605}},"Address":{"Label":"Добрич, България","Country":"BGR","County":"Добрич","City":"Добрич","District":"Добрич","PostalCode":"9300","AdditionalData":[{"value":"България","key":"CountryName"},{"value":"Добрич","key":"CountyName"}]},"MapReference":{"ReferenceId":"810063509","SideOfStreet":"neither","CountryId":"20656214","CountyId":"20664297","CityId":"23719347","DistrictId":"23720888"}}},{"Relevance":1.0,"Distance":8.2,"MatchLevel":"houseNumber","MatchQuality":{"Country":1.0,"County":1.0,"City":1.0,"District":1.0,"Street":[1.0],"HouseNumber":1.0,"PostalCode":1.0},"MatchType":"interpolated","Location":{"LocationId":"NT_RiRxkvt5XtM2C9.imf8GNA_yED","LocationType":"point","DisplayPosition":{"Latitude":43.57029,"Longitude":27.8287},"MapView":{"TopLeft":{"Latitude":43.5714142,"Longitude":27.8271484},"BottomRight":{"Latitude":43.5691658,"Longitude":27.8302516}},"Address":{"Label":"Булевард 25-ти септември 21, 9300 Добрич, България","Country":"BGR","County":"Добрич","City":"Добрич","District":"Добрич","Street":"Булевард 25-ти септември","HouseNumber":"21","PostalCode":"9300","AdditionalData":[{"value":"България","key":"CountryName"},{"value":"Добрич","key":"CountyName"}]},"MapReference":{"ReferenceId":"809949504","Spot":0.46,"SideOfStreet":"left","CountryId":"20656214","CountyId":"20664297","CityId":"23719347","DistrictId":"23720888","AddressId":"344175216","RoadLinkId":"197051466"}}},{"Relevance":1.0,"Distance":17.7,"MatchLevel":"houseNumber","MatchQuality":{"Country":1.0,"County":1.0,"City":1.0,"District":1.0,"Street":[1.0],"HouseNumber":1.0,"PostalCode":1.0},"MatchType":"interpolated","Location":{"LocationId":"NT_vXXBGYYF7SWUNRDzl7ddPB_1A","LocationType":"point","DisplayPosition":{"Latitude":43.57028,"Longitude":27.82792},"MapView":{"TopLeft":{"Latitude":43.5714042,"Longitude":27.8263684},"BottomRight":{"Latitude":43.5691558,"Longitude":27.8294716}},"Address":{"Label":"Улица Марин Дринов 5, 9300 Добрич, България","Country":"BGR","County":"Добрич","City":"Добрич","District":"Добрич","Street":"Улица Марин Дринов","HouseNumber":"5","PostalCode":"9300","AdditionalData":[{"value":"България","key":"CountryName"},{"value":"Добрич","key":"CountyName"}]},"MapReference":{"ReferenceId":"809989427","Spot":1.0,"SideOfStreet":"right","CountryId":"20656214","CountyId":"20664297","CityId":"23719347","DistrictId":"23720888","AddressId":"296786522","RoadLinkId":"197146575"}}},{"Relevance":1.0,"Distance":24.3,"MatchLevel":"houseNumber","MatchQuality":{"Country":1.0,"County":1.0,"City":1.0,"District":1.0,"Street":[1.0],"HouseNumber":1.0,"PostalCode":1.0},"MatchType":"interpolated","Location":{"LocationId":"NT_RiRxkvt5XtM2C9.imf8GNA_l_809841164_R_1ID","LocationType":"point","DisplayPosition":{"Latitude":43.5703499,"Longitude":27.8287517},"MapView":{"TopLeft":{"Latitude":43.5714741,"Longitude":27.8272001},"BottomRight":{"Latitude":43.5692258,"Longitude":27.8303032}},"Address":{"Label":"Булевард 25-ти септември 52, 9300 Добрич, България","Country":"BGR","County":"Добрич","City":"Добрич","District":"Добрич","Street":"Булевард 25-ти септември","HouseNumber":"52","PostalCode":"9300","AdditionalData":[{"value":"България","key":"CountryName"},{"value":"Добрич","key":"CountyName"}]},"MapReference":{"ReferenceId":"809841164","Spot":0.51,"SideOfStreet":"right","CountryId":"20656214","CountyId":"20664297","CityId":"23719347","DistrictId":"23720888"}}},{"Relevance":1.0,"Distance":30.3,"MatchLevel":"street","MatchQuality":{"Country":1.0,"County":1.0,"City":1.0,"District":1.0,"PostalCode":1.0},"Location":{"LocationId":"NT_aUxyzGFITat6O2qcVtsrtD_l_809953570_R","LocationType":"point","DisplayPosition":{"Latitude":43.57036,"Longitude":27.82815},"MapView":{"TopLeft":{"Latitude":43.57036,"Longitude":27.82792},"BottomRight":{"Latitude":43.57028,"Longitude":27.82815}},"Address":{"Label":"9300 Добрич, България","Country":"BGR","County":"Добрич","City":"Добрич","District":"Добрич","PostalCode":"9300","AdditionalData":[{"value":"България","key":"CountryName"},{"value":"Добрич","key":"CountyName"}]},"MapReference":{"ReferenceId":"809953570","Spot":1.0,"SideOfStreet":"right","CountryId":"20656214","CountyId":"20664297","CityId":"23719347","DistrictId":"23720888"}}},{"Relevance":1.0,"Distance":44.7,"MatchLevel":"street","MatchQuality":{"Country":1.0,"County":1.0,"City":1.0,"District":1.0,"Street":[1.0],"PostalCode":1.0},"Location":{"LocationId":"NT_83eG9woA-h4LKoLLseWZzA_l_809849124_L","LocationType":"point","DisplayPosition":{"Latitude":43.56998,"Longitude":27.82891},"MapView":{"TopLeft":{"Latitude":43.57001,"Longitude":27.82891},"BottomRight":{"Latitude":43.56998,"Longitude":27.82898}},"Address":{"Label":"Площад Свобода, 9300 Добрич, България","Country":"BGR","County":"Добрич","City":"Добрич","District":"Добрич","Street":"Площад Свобода","PostalCode":"9300","AdditionalData":[{"value":"България","key":"CountryName"},{"value":"Добрич","key":"CountyName"}]},"MapReference":{"ReferenceId":"809849124","Spot":0.0,"SideOfStreet":"left","CountryId":"20656214","CountyId":"20664297","CityId":"23719347","DistrictId":"23720888"}}},{"Relevance":1.0,"Distance":44.7,"MatchLevel":"street","MatchQuality":{"Country":1.0,"County":1.0,"City":1.0,"District":1.0,"Street":[1.0],"PostalCode":1.0},"Location":{"LocationId":"NT_83eG9woA-h4LKoLLseWZzA_l_809973072_L","LocationType":"point","DisplayPosition":{"Latitude":43.56998,"Longitude":27.82891},"MapView":{"TopLeft":{"Latitude":43.56998,"Longitude":27.82891},"BottomRight":{"Latitude":43.56973,"Longitude":27.82908}},"Address":{"Label":"Площад Свобода, 9300 Добрич, България","Country":"BGR","County":"Добрич","City":"Добрич","District":"Добрич","Street":"Площад Свобода","PostalCode":"9300","AdditionalData":[{"value":"България","key":"CountryName"},{"value":"Добрич","key":"CountyName"}]},"MapReference":{"ReferenceId":"809973072","Spot":1.0,"SideOfStreet":"left","CountryId":"20656214","CountyId":"20664297","CityId":"23719347","DistrictId":"23720888"}}},{"Relevance":1.0,"Distance":46.0,"MatchLevel":"street","MatchQuality":{"Country":1.0,"County":1.0,"City":1.0,"District":1.0,"PostalCode":1.0},"Location":{"LocationId":"NT_aUxyzGFITat6O2qcVtsrtD_l_909643950_R","LocationType":"point","DisplayPosition":{"Latitude":43.57028,"Longitude":27.82792},"MapView":{"TopLeft":{"Latitude":43.57042,"Longitude":27.82742},"BottomRight":{"Latitude":43.57028,"Longitude":27.82792}},"Address":{"Label":"9300 Добрич, България","Country":"BGR","County":"Добрич","City":"Добрич","District":"Добрич","PostalCode":"9300","AdditionalData":[{"value":"България","key":"CountryName"},{"value":"Добрич","key":"CountyName"}]},"MapReference":{"ReferenceId":"909643950","Spot":0.0,"SideOfStreet":"right","CountryId":"20656214","CountyId":"20664297","CityId":"23719347","DistrictId":"23720888"}}},{"Relevance":1.0,"Distance":46.5,"MatchLevel":"street","MatchQuality":{"Country":1.0,"County":1.0,"City":1.0,"District":1.0,"Street":[1.0],"PostalCode":1.0},"Location":{"LocationId":"NT_RiRxkvt5XtM2C9.imf8GNA_l_809934435_R","LocationType":"point","DisplayPosition":{"Latitude":43.57066,"Longitude":27.82846},"MapView":{"TopLeft":{"Latitude":43.57069,"Longitude":27.82846},"BottomRight":{"Latitude":43.57066,"Longitude":27.82854}},"Address":{"Label":"Булевард 25-ти септември, 9300 Добрич, България","Country":"BGR","County":"Добрич","City":"Добрич","District":"Добрич","Street":"Булевард 25-ти септември","PostalCode":"9300","AdditionalData":[{"value":"България","key":"CountryName"},{"value":"Добрич","key":"CountyName"}]},"MapReference":{"ReferenceId":"809934435","Spot":0.0,"SideOfStreet":"right","CountryId":"20656214","CountyId":"20664297","CityId":"23719347","DistrictId":"23720888"}}},{"Relevance":1.0,"Distance":46.5,"MatchLevel":"street","MatchQuality":{"Country":1.0,"County":1.0,"City":1.0,"District":1.0,"Street":[1.0],"PostalCode":1.0},"Location":{"LocationId":"NT_RiRxkvt5XtM2C9.imf8GNA_l_809858873_L","LocationType":"point","DisplayPosition":{"Latitude":43.57066,"Longitude":27.82846},"MapView":{"TopLeft":{"Latitude":43.57093,"Longitude":27.82826},"BottomRight":{"Latitude":43.57066,"Longitude":27.82846}},"Address":{"Label":"Булевард 25-ти септември, 9300 Добрич, България","Country":"BGR","County":"Добрич","City":"Добрич","District":"Добрич","Street":"Булевард 25-ти септември","PostalCode":"9300","AdditionalData":[{"value":"България","key":"CountryName"},{"value":"Добрич","key":"CountyName"}]},"MapReference":{"ReferenceId":"809858873","Spot":0.0,"SideOfStreet":"left","CountryId":"20656214","CountyId":"20664297","CityId":"23719347","DistrictId":"23720888"}}}]}]}}