{"Response":{"MetaInfo":{"Timestamp":"2020-03-28T09:44:45.665+0000","NextPageInformation":"2"},"View":[{"_type":"SearchResultsViewType","ViewId":0,"Result":[{"Relevance":1.0,"Distance":0.0,"Direction":0.0,"MatchLevel":"district","MatchQuality":{"Country":1.0,"State":1.0,"County":1.0,"City":1.0,"District":1.0,"PostalCode":1.0},"Location":{"LocationId":"NT_G3YHnruxNMpS5DlVw2h3KD","LocationType":"point","DisplayPosition":{"Latitude":43.519565,"Longitude":-5.6660345},"MapView":{"TopLeft":{"Latitude":43.52389,"Longitude":-5.67498},"BottomRight":{"Latitude":43.51146,"Longitude":-5.64996}},"Address":{"Label":"Contrueces, Gijón, Principado de Asturias, España","Country":"ESP","State":"Principado de Asturias","County":"Asturias","City":"Gijón","District":"Contrueces","PostalCode":"33209","AdditionalData":[{"value":"España","key":"CountryName"},{"value":"Principado de Asturias","key":"StateName"},{"value":"Asturias","key":"CountyName"}]},"MapReference":{"ReferenceId":"914877891","SideOfStreet":"neither","CountryId":"20215059","StateId":"20226808","CountyId":"20226809","CityId":"20326316"}}},{"Relevance":1.0,"Distance":24.9,"MatchLevel":"street","MatchQuality":{"Country":1.0,"State":1.0,"County":1.0,"City":1.0,"District":1.0,"Street":[1.0],"PostalCode":1.0},"Location":{"LocationId":"NT_rZKv-Orfjwud2HC2HAQegA_l_1063879170_L","LocationType":"point","DisplayPosition":{"Latitude":43.519663,"Longitude":-5.6657569},"MapView":{"TopLeft":{"Latitude":43.52021,"Longitude":-5.66595},"BottomRight":{"Latitude":43.51953,"Longitude":-5.66571}},"Address":{"Label":"Calle Río Sella, 33210 Gijón (Asturias), España","Country":"ESP","State":"Principado de Asturias","County":"Asturias","City":"Gijón","District":"Contrueces","Street":"Calle Río Sella","PostalCode":"33210","AdditionalData":[{"value":"España","key":"CountryName"},{"value":"Principado de Asturias","key":"StateName"},{"value":"Asturias","key":"CountyName"}]},"MapReference":{"ReferenceId":"1063879170","Spot":0.2,"SideOfStreet":"left","CountryId":"20215059","StateId":"20226808","CountyId":"20226809","CityId":"20326316"}}},{"Relevance":1.0,"Distance":47.2,"MatchLevel":"houseNumber","MatchQuality":{"Country":1.0,"State":1.0,"County":1.0,"City":1.0,"District":1.0,"Street":[1.0],"HouseNumber":1.0,"PostalCode":1.0},"MatchType":"interpolated","Location":{"LocationId":"NT_9pJnJcUHicMxL.irpR4YPD_yED","LocationType":"point","DisplayPosition":{"Latitude":43.51958,"Longitude":-5.66545},"MapView":{"TopLeft":{"Latitude":43.5207042,"Longitude":-5.6670003},"BottomRight":{"Latitude":43.5184558,"Longitude":-5.6638997}},"Address":{"Label":"Calle Río Cares, 21, 33210 Gijón (Asturias), España","Country":"ESP","State":"Principado de Asturias","County":"Asturias","City":"Gijón","District":"Contrueces","Street":"Calle Río Cares","HouseNumber":"21","PostalCode":"33210","AdditionalData":[{"value":"España","key":"CountryName"},{"value":"Principado de Asturias","key":"StateName"},{"value":"Asturias","key":"CountyName"}]},"MapReference":{"ReferenceId":"1063879169","Spot":0.54,"SideOfStreet":"right","CountryId":"20215059","StateId":"20226808","CountyId":"20226809","CityId":"20326316","AddressId":"352010050","RoadLinkId":"386008172"}}},{"Relevance":1.0,"Distance":55.9,"MatchLevel":"street","MatchQuality":{"Country":1.0,"State":1.0,"County":1.0,"City":1.0,"District":1.0,"Street":[1.0],"PostalCode":1.0},"Location":{"LocationId":"NT_rZKv-Orfjwud2HC2HAQegA_l_1063879173_R","LocationType":"point","DisplayPosition":{"Latitude":43.51945,"Longitude":-5.66671},"MapView":{"TopLeft":{"Latitude":43.52002,"Longitude":-5.66694},"BottomRight":{"Latitude":43.51945,"Longitude":-5.66671}},"Address":{"Label":"Calle Río Sella, 33210 Gijón (Asturias), España","Country":"ESP","State":"Principado de Asturias","County":"Asturias","City":"Gijón","District":"Contrueces","Street":"Calle Río Sella","PostalCode":"33210","AdditionalData":[{"value":"España","key":"CountryName"},{"value":"Principado de Asturias","key":"StateName"},{"value":"Asturias","key":"CountyName"}]},"MapReference":{"ReferenceId":"1063879173","Spot":0.0,"SideOfStreet":"right","CountryId":"20215059","StateId":"20226808","CountyId":"20226809","CityId":"20326316"}}},{"Relevance":1.0,"Distance":68.2,"MatchLevel":"houseNumber","MatchQuality":{"Country":1.0,"State":1.0,"County":1.0,"City":1.0,"District":1.0,"Street":[1.0],"HouseNumber":1.0,"PostalCode":1.0},"MatchType":"interpolated","Location":{"LocationId":"NT_GEmOI9rFKe9z65GbwEvOlB_xAD","LocationType":"point","DisplayPosition":{"Latitude":43.51874,"Longitude":-5.66562},"MapView":{"TopLeft":{"Latitude":43.5198642,"Longitude":-5.6671702},"BottomRight":{"Latitude":43.5176158,"Longitude":-5.6640698}},"Address":{"Label":"Ronda Exterior, 10, 33209 Gijón (Asturias), España","Country":"ESP","State":"Principado de Asturias","County":"Asturias","City":"Gijón","District":"Contrueces","Street":"Ronda Exterior","HouseNumber":"10","PostalCode":"33209","AdditionalData":[{"value":"España","key":"CountryName"},{"value":"Principado de Asturias","key":"StateName"},{"value":"Asturias","key":"CountyName"}]},"MapReference":{"ReferenceId":"1063878495","Spot":0.21,"SideOfStreet":"left","CountryId":"20215059","StateId":"20226808","CountyId":"20226809","CityId":"20326316","AddressId":"776469648","RoadLinkId":"386007498"}}},{"Relevance":1.0,"Distance":68.6,"MatchLevel":"houseNumber","MatchQuality":{"Country":1.0,"State":1.0,"County":1.0,"City":1.0,"District":1.0,"Street":[1.0],"HouseNumber":1.0,"PostalCode":1.0},"MatchType":"interpolated","Location":{"LocationId":"NT_hOTanLdoobaFRowS-Y-6uD_xkD","LocationType":"point","DisplayPosition":{"Latitude":43.51995,"Longitude":-5.66537},"MapView":{"TopLeft":{"Latitude":43.5210742,"Longitude":-5.6669203},"BottomRight":{"Latitude":43.5188258,"Longitude":-5.6638197}},"Address":{"Label":"Calle Río Narcea, 19, 33210 Gijón (Asturias), España","Country":"ESP","State":"Principado de Asturias","County":"Asturias","City":"Gijón","District":"Contrueces","Street":"Calle Río Narcea","HouseNumber":"19","PostalCode":"33210","AdditionalData":[{"value":"España","key":"CountryName"},{"value":"Principado de Asturias","key":"StateName"},{"value":"Asturias","key":"CountyName"}]},"MapReference":{"ReferenceId":"82131652","Spot":0.5,"SideOfStreet":"right","CountryId":"20215059","StateId":"20226808","CountyId":"20226809","CityId":"20326316","AddressId":"351979624","RoadLinkId":"67886130"}}},{"Relevance":1.0,"Distance":68.9,"MatchLevel":"houseNumber","MatchQuality":{"Country":1.0,"State":1.0,"County":1.0,"City":1.0,"District":1.0,"Street":[1.0],"HouseNumber":1.0,"PostalCode":1.0},"MatchType":"interpolated","Location":{"LocationId":"NT_9pJnJcUHicMxL.irpR4YPD_0A","LocationType":"point","DisplayPosition":{"Latitude":43.51929,"Longitude":-5.6668},"MapView":{"TopLeft":{"Latitude":43.5204142,"Longitude":-5.6683502},"BottomRight":{"Latitude":43.5181658,"Longitude":-5.6652498}},"Address":{"Label":"Calle Río Cares, 4, 33210 Gijón (Asturias), España","Country":"ESP","State":"Principado de Asturias","County":"Asturias","City":"Gijón","District":"Contrueces","Street":"Calle Río Cares","HouseNumber":"4","PostalCode":"33210","AdditionalData":[{"value":"España","key":"CountryName"},{"value":"Principado de Asturias","key":"StateName"},{"value":"Asturias","key":"CountyName"}]},"MapReference":{"ReferenceId":"1063879168","Spot":0.45,"SideOfStreet":"left","CountryId":"20215059","StateId":"20226808","CountyId":"20226809","CityId":"20326316","AddressId":"352010044","RoadLinkId":"386008171"}}},{"Relevance":1.0,"Distance":68.9,"MatchLevel":"houseNumber","MatchQuality":{"Country":1.0,"State":1.0,"County":1.0,"City":1.0,"District":1.0,"Street":[1.0],"HouseNumber":1.0,"PostalCode":1.0},"MatchType":"interpolated","Location":{"LocationId":"NT_GEmOI9rFKe9z65GbwEvOlB_xED","LocationType":"point","DisplayPosition":{"Latitude":43.51869,"Longitude":-5.66582},"MapView":{"TopLeft":{"Latitude":43.5198142,"Longitude":-5.6673702},"BottomRight":{"Latitude":43.5175658,"Longitude":-5.6642698}},"Address":{"Label":"Ronda Exterior, 11, 33209 Gijón (Asturias), España","Country":"ESP","State":"Principado de Asturias","County":"Asturias","City":"Gijón","District":"Contrueces","Street":"Ronda Exterior","HouseNumber":"11","PostalCode":"33209","AdditionalData":[{"value":"España","key":"CountryName"},{"value":"Principado de Asturias","key":"StateName"},{"value":"Asturias","key":"CountyName"}]},"MapReference":{"ReferenceId":"1063878474","Spot":0.38,"SideOfStreet":"left","CountryId":"20215059","StateId":"20226808","CountyId":"20226809","CityId":"20326316","AddressId":"776469647","RoadLinkId":"386007477"}}},{"Relevance":1.0,"Distance":72.0,"MatchLevel":"street","MatchQuality":{"Country":1.0,"State":1.0,"County":1.0,"City":1.0,"District":1.0,"Street":[1.0],"PostalCode":1.0},"Location":{"LocationId":"NT_rZKv-Orfjwud2HC2HAQegA_l_1063879167_R","LocationType":"point","DisplayPosition":{"Latitude":43.52021,"Longitude":-5.66595},"MapView":{"TopLeft":{"Latitude":43.52027,"Longitude":-5.66595},"BottomRight":{"Latitude":43.52021,"Longitude":-5.6655}},"Address":{"Label":"Calle Río Sella, 33210 Gijón (Asturias), España","Country":"ESP","State":"Principado de Asturias","County":"Asturias","City":"Gijón","District":"Contrueces","Street":"Calle Río Sella","PostalCode":"33210","AdditionalData":[{"value":"España","key":"CountryName"},{"value":"Principado de Asturias","key":"StateName"},{"value":"Asturias","key":"CountyName"}]},"MapReference":{"ReferenceId":"1063879167","Spot":0.0,"SideOfStreet":"right","CountryId":"20215059","StateId":"20226808","CountyId":"20226809","CityId":"20326316"}}},{"Relevance":1.0,"Distance":74.5,"MatchLevel":"houseNumber","MatchQuality":{"Country":1.0,"State":1.0,"County":1.0,"City":1.0,"District":1.0,"Street":[1.0],"HouseNumber":1.0,"PostalCode":1.0},"MatchType":"interpolated","Location":{"LocationId":"NT_rZKv-Orfjwud2HC2HAQegA_yA","LocationType":"point","DisplayPosition":{"Latitude":43.52006,"Longitude":-5.6668},"MapView":{"TopLeft":{"Latitude":43.5211842,"Longitude":-5.6683503},"BottomRight":{"Latitude":43.5189358,"Longitude":-5.6652497}},"Address":{"Label":"Calle Río Sella, 2, 33210 Gijón (Asturias), España","Country":"ESP","State":"Principado de Asturias","County":"Asturias","City":"Gijón","District":"Contrueces","Street":"Calle Río Sella","HouseNumber":"2","PostalCode":"33210","AdditionalData":[{"value":"España","key":"CountryName"},{"value":"Principado de Asturias","key":"StateName"},{"value":"Asturias","key":"CountyName"}]},"MapReference":{"ReferenceId":"1063879172","Spot":0.14,"SideOfStreet":"right","CountryId":"20215059","StateId":"20226808","CountyId":"20226809","CityId":"20326316","AddressId":"352010731","RoadLinkId":"386008174"}}}]}]}}