{"Response":{"MetaInfo":{"Timestamp":"2020-03-28T10:26:17.907+0000","NextPageInformation":"2"},"View":[{"_type":"SearchResultsViewType","ViewId":0,"Result":[{"Relevance":1.0,"Distance":0.0,"Direction":0.0,"MatchLevel":"city","MatchQuality":{"Country":1.0,"State":1.0,"County":1.0,"City":1.0,"PostalCode":1.0},"Location":{"LocationId":"NT_DCBUYWfhPt4Tcmt6s0La9A","LocationType":"point","DisplayPosition":{"Latitude":43.5673807,"Longitude":-7.2538983},"MapView":{"TopLeft":{"Latitude":43.6447,"Longitude":-7.40205},"BottomRight":{"Latitude":43.5204,"Longitude":-7.24469}},"Address":{"Label":"Foz, Galicia, España","Country":"ESP","State":"Galicia","County":"Lugo","City":"Foz","PostalCode":"27780","AdditionalData":[{"value":"España","key":"CountryName"},{"value":"Galicia","key":"StateName"},{"value":"Lugo","key":"CountyName"}]},"MapReference":{"ReferenceId":"82229133","SideOfStreet":"neither","CountryId":"20215059","StateId":"20226791","CountyId":"20226793","CityId":"20322213"}}},{"Relevance":1.0,"Distance":21.1,"MatchLevel":"houseNumber","MatchQuality":{"Country":1.0,"State":1.0,"County":1.0,"City":1.0,"Street":[1.0],"HouseNumber":1.0,"PostalCode":1.0},"MatchType":"interpolated","Location":{"LocationId":"NT_kYSZa0s583vUZTcT21zDMB_yA","LocationType":"point","DisplayPosition":{"Latitude":43.56757,"Longitude":-7.25388},"MapView":{"TopLeft":{"Latitude":43.5686942,"Longitude":-7.2554315},"BottomRight":{"Latitude":43.5664458,"Longitude":-7.2523285}},"Address":{"Label":"Rúa Ribeira, 2, 27780 Foz (Lugo), España","Country":"ESP","State":"Galicia","County":"Lugo","City":"Foz","Street":"Rúa Ribeira","HouseNumber":"2","PostalCode":"27780","AdditionalData":[{"value":"España","key":"CountryName"},{"value":"Galicia","key":"StateName"},{"value":"Lugo","key":"CountyName"}]},"MapReference":{"ReferenceId":"570248691","Spot":0.97,"SideOfStreet":"right","CountryId":"20215059","StateId":"20226791","CountyId":"20226793","CityId":"20322213","AddressId":"351083499","RoadLinkId":"67826386"}}},{"Relevance":1.0,"Distance":23.7,"MatchLevel":"street","MatchQuality":{"Country":1.0,"State":1.0,"County":1.0,"City":1.0,"Street":[1.0],"PostalCode":1.0},"Location":{"LocationId":"NT_rCXzVecQBAXdj06Rip.DnA_l_570248708_R","LocationType":"point","DisplayPosition":{"Latitude":43.56759,"Longitude":-7.25384},"MapView":{"TopLeft":{"Latitude":43.56778,"Longitude":-7.25384},"BottomRight":{"Latitude":43.56759,"Longitude":-7.25227}},"Address":{"Label":"Paseo de Turpide, 27780 Foz (Lugo), España","Country":"ESP","State":"Galicia","County":"Lugo","City":"Foz","Street":"Paseo de Turpide","PostalCode":"27780","AdditionalData":[{"value":"España","key":"CountryName"},{"value":"Galicia","key":"StateName"},{"value":"Lugo","key":"CountyName"}]},"MapReference":{"ReferenceId":"570248708","Spot":0.0,"SideOfStreet":"right","CountryId":"20215059","StateId":"20226791","CountyId":"20226793","CityId":"20322213"}}},{"Relevance":1.0,"Distance":42.2,"MatchLevel":"houseNumber","MatchQuality":{"Country":1.0,"State":1.0,"County":1.0,"City":1.0,"Street":[1.0],"HouseNumber":1.0,"PostalCode":1.0},"MatchType":"interpolated","Location":{"LocationId":"NT_kYSZa0s583vUZTcT21zDMB_0A","LocationType":"point","DisplayPosition":{"Latitude":43.56775,"Longitude":-7.25378},"MapView":{"TopLeft":{"Latitude":43.5688742,"Longitude":-7.2553315},"BottomRight":{"Latitude":43.5666258,"Longitude":-7.2522285}},"Address":{"Label":"Rúa Ribeira, 4, 27780 Foz (Lugo), España","Country":"ESP","State":"Galicia","County":"Lugo","City":"Foz","Street":"Rúa Ribeira","HouseNumber":"4","PostalCode":"27780","AdditionalData":[{"value":"España","key":"CountryName"},{"value":"Galicia","key":"StateName"},{"value":"Lugo","key":"CountyName"}]},"MapReference":{"ReferenceId":"570248692","Spot":0.39,"SideOfStreet":"right","CountryId":"20215059","StateId":"20226791","CountyId":"20226793","CityId":"20322213","AddressId":"351116387","RoadLinkId":"69113088"}}},{"Relevance":1.0,"Distance":43.4,"MatchLevel":"houseNumber","MatchQuality":{"Country":1.0,"State":1.0,"County":1.0,"City":1.0,"Street":[1.0],"HouseNumber":1.0,"PostalCode":1.0},"MatchType":"interpolated","Location":{"LocationId":"NT_IoXJk164y9ggYfcCV0lH6A_ygD","LocationType":"point","DisplayPosition":{"Latitude":43.56776,"Longitude":-7.25417},"MapView":{"TopLeft":{"Latitude":43.5688842,"Longitude":-7.2557215},"BottomRight":{"Latitude":43.5666358,"Longitude":-7.2526185}},"Address":{"Label":"Rúa Constitución, 28, 27780 Foz (Lugo), España","Country":"ESP","State":"Galicia","County":"Lugo","City":"Foz","Street":"Rúa Constitución","HouseNumber":"28","PostalCode":"27780","AdditionalData":[{"value":"España","key":"CountryName"},{"value":"Galicia","key":"StateName"},{"value":"Lugo","key":"CountyName"}]},"MapReference":{"ReferenceId":"570248665","Spot":0.68,"SideOfStreet":"right","CountryId":"20215059","StateId":"20226791","CountyId":"20226793","CityId":"20322213","AddressId":"364750071","RoadLinkId":"69067029"}}},{"Relevance":1.0,"Distance":70.9,"MatchLevel":"street","MatchQuality":{"Country":1.0,"State":1.0,"County":1.0,"City":1.0,"Street":[1.0],"PostalCode":1.0},"Location":{"LocationId":"NT_vNzfqKQNhnhlpXdZx-6WQD_l_1248092736_R","LocationType":"point","DisplayPosition":{"Latitude":43.568,"Longitude":-7.25369},"MapView":{"TopLeft":{"Latitude":43.56807,"Longitude":-7.25369},"BottomRight":{"Latitude":43.568,"Longitude":-7.2536}},"Address":{"Label":"Praza Rosalía de Castro, 27780 Foz (Lugo), España","Country":"ESP","State":"Galicia","County":"Lugo","City":"Foz","Street":"Praza Rosalía de Castro","PostalCode":"27780","AdditionalData":[{"value":"España","key":"CountryName"},{"value":"Galicia","key":"StateName"},{"value":"Lugo","key":"CountyName"}]},"MapReference":{"ReferenceId":"1248092736","Spot":0.0,"SideOfStreet":"right","CountryId":"20215059","StateId":"20226791","CountyId":"20226793","CityId":"20322213"}}},{"Relevance":1.0,"Distance":71.6,"MatchLevel":"houseNumber","MatchQuality":{"Country":1.0,"State":1.0,"County":1.0,"City":1.0,"Street":[1.0],"HouseNumber":1.0,"PostalCode":1.0},"MatchType":"interpolated","Location":{"LocationId":"NT_T10XxMybTRhLT7dHvQcn0D_xMD","LocationType":"point","DisplayPosition":{"Latitude":43.56802,"Longitude":-7.25379},"MapView":{"TopLeft":{"Latitude":43.5691442,"Longitude":-7.2553415},"BottomRight":{"Latitude":43.5668958,"Longitude":-7.2522385}},"Address":{"Label":"Lugar Cofradía de Pescadores, 13, 27780 Foz (Lugo), España","Country":"ESP","State":"Galicia","County":"Lugo","City":"Foz","Street":"Lugar Cofradía de Pescadores","HouseNumber":"13","PostalCode":"27780","AdditionalData":[{"value":"España","key":"CountryName"},{"value":"Galicia","key":"StateName"},{"value":"Lugo","key":"CountyName"}]},"MapReference":{"ReferenceId":"562543317","Spot":0.11,"SideOfStreet":"right","CountryId":"20215059","StateId":"20226791","CountyId":"20226793","CityId":"20322213","AddressId":"351040820","RoadLinkId":"69182154"}}},{"Relevance":1.0,"Distance":80.9,"MatchLevel":"houseNumber","MatchQuality":{"Country":1.0,"State":1.0,"County":1.0,"City":1.0,"Street":[1.0],"HouseNumber":1.0,"PostalCode":1.0},"MatchType":"interpolated","Location":{"LocationId":"NT_Ur8oIxnsJ7QicVWlJ3KAPA_yA","LocationType":"point","DisplayPosition":{"Latitude":43.56809,"Longitude":-7.25358},"MapView":{"TopLeft":{"Latitude":43.5692142,"Longitude":-7.2551315},"BottomRight":{"Latitude":43.5669658,"Longitude":-7.2520285}},"Address":{"Label":"Rúa do Mar, 2, 27780 Foz (Lugo), España","Country":"ESP","State":"Galicia","County":"Lugo","City":"Foz","Street":"Rúa do Mar","HouseNumber":"2","PostalCode":"27780","AdditionalData":[{"value":"España","key":"CountryName"},{"value":"Galicia","key":"StateName"},{"value":"Lugo","key":"CountyName"}]},"MapReference":{"ReferenceId":"1248092737","Spot":0.14,"SideOfStreet":"right","CountryId":"20215059","StateId":"20226791","CountyId":"20226793","CityId":"20322213","AddressId":"417071592","RoadLinkId":"570000167"}}},{"Relevance":1.0,"Distance":83.3,"MatchLevel":"houseNumber","MatchQuality":{"Country":1.0,"State":1.0,"County":1.0,"City":1.0,"Street":[1.0],"HouseNumber":1.0,"PostalCode":1.0},"MatchType":"interpolated","Location":{"LocationId":"NT_9asKovBPNZbHHfBAMHqbcD_yA","LocationType":"point","DisplayPosition":{"Latitude":43.56813,"Longitude":-7.25372},"MapView":{"TopLeft":{"Latitude":43.5692542,"Longitude":-7.2552715},"BottomRight":{"Latitude":43.5670058,"Longitude":-7.2521685}},"Address":{"Label":"Rúa Rego de Castiñeira, 2, 27780 Foz (Lugo), España","Country":"ESP","State":"Galicia","County":"Lugo","City":"Foz","Street":"Rúa Rego de Castiñeira","HouseNumber":"2","PostalCode":"27780","AdditionalData":[{"value":"España","key":"CountryName"},{"value":"Galicia","key":"StateName"},{"value":"Lugo","key":"CountyName"}]},"MapReference":{"ReferenceId":"1248092738","Spot":0.24,"SideOfStreet":"left","CountryId":"20215059","StateId":"20226791","CountyId":"20226793","CityId":"20322213","AddressId":"798175724","RoadLinkId":"570000170"}}},{"Relevance":1.0,"Distance":96.9,"MatchLevel":"houseNumber","MatchQuality":{"Country":1.0,"State":1.0,"County":1.0,"City":1.0,"Street":[1.0],"HouseNumber":1.0,"PostalCode":1.0},"MatchType":"interpolated","Location":{"LocationId":"NT_DWRZ0CBKWq0mA45rmDVfBD_xYD","LocationType":"point","DisplayPosition":{"Latitude":43.56802,"Longitude":-7.25477},"MapView":{"TopLeft":{"Latitude":43.5691442,"Longitude":-7.2563215},"BottomRight":{"Latitude":43.5668958,"Longitude":-7.2532185}},"Address":{"Label":"Rúa do Porto, 16, 27780 Foz (Lugo), España","Country":"ESP","State":"Galicia","County":"Lugo","City":"Foz","Street":"Rúa do Porto","HouseNumber":"16","PostalCode":"27780","AdditionalData":[{"value":"España","key":"CountryName"},{"value":"Galicia","key":"StateName"},{"value":"Lugo","key":"CountyName"}]},"MapReference":{"ReferenceId":"562543321","Spot":0.68,"SideOfStreet":"right","CountryId":"20215059","StateId":"20226791","CountyId":"20226793","CityId":"20322213","AddressId":"364743530","RoadLinkId":"68543584"}}}]}]}}