{"Response":{"MetaInfo":{"Timestamp":"2020-03-28T11:53:38.777+0000","NextPageInformation":"2"},"View":[{"_type":"SearchResultsViewType","ViewId":0,"Result":[{"Relevance":1.0,"Distance":0.0,"Direction":0.0,"MatchLevel":"city","MatchQuality":{"Country":1.0,"State":1.0,"County":1.0,"City":1.0,"PostalCode":1.0},"Location":{"LocationId":"NT_0EMXpB05BCQbVV7d-QwQ8C","LocationType":"point","DisplayPosition":{"Latitude":43.6448431,"Longitude":7.0493369},"MapView":{"TopLeft":{"Latitude":43.65196,"Longitude":6.98793},"BottomRight":{"Latitude":43.60147,"Longitude":7.0702}},"Address":{"Label":"Valbonne, Provence-Alpes-Côte d'Azur, France","Country":"FRA","State":"Provence-Alpes-Côte d'Azur","County":"Alpes-Maritimes","City":"Valbonne","PostalCode":"06560","AdditionalData":[{"value":"France","key":"CountryName"},{"value":"Provence-Alpes-Côte d'Azur","key":"StateName"},{"value":"Alpes-Maritimes","key":"CountyName"}]},"MapReference":{"ReferenceId":"1204705104","SideOfStreet":"neither","CountryId":"20000001","StateId":"20000193","CountyId":"20000194","CityId":"20000358"}}},{"Relevance":1.0,"Distance":9.1,"MatchLevel":"houseNumber","MatchQuality":{"Country":1.0,"State":1.0,"County":1.0,"City":1.0,"Street":[1.0],"HouseNumber":1.0,"PostalCode":1.0},"MatchType":"interpolated","Location":{"LocationId":"NT_fwxjSd95zC882yVmFOyPEC_l_537878694_R_3gD","LocationType":"point","DisplayPosition":{"Latitude":43.6450288,"Longitude":7.0493659},"MapView":{"TopLeft":{"Latitude":43.6461529,"Longitude":7.0478124},"BottomRight":{"Latitude":43.6439046,"Longitude":7.0509194}},"Address":{"Label":"78 Chemin du Darbousson, 06560 Valbonne, France","Country":"FRA","State":"Provence-Alpes-Côte d'Azur","County":"Alpes-Maritimes","City":"Valbonne","Street":"Chemin du Darbousson","HouseNumber":"78","PostalCode":"06560","AdditionalData":[{"value":"France","key":"CountryName"},{"value":"Provence-Alpes-Côte d'Azur","key":"StateName"},{"value":"Alpes-Maritimes","key":"CountyName"}]},"MapReference":{"ReferenceId":"537878694","Spot":0.36,"SideOfStreet":"right","CountryId":"20000001","StateId":"20000193","CountyId":"20000194","CityId":"20000358"}}},{"Relevance":1.0,"Distance":20.4,"MatchLevel":"houseNumber","MatchQuality":{"Country":1.0,"State":1.0,"County":1.0,"City":1.0,"Street":[1.0],"HouseNumber":1.0,"PostalCode":1.0},"MatchType":"interpolated","Location":{"LocationId":"NT_fwxjSd95zC882yVmFOyPEC_yQD","LocationType":"point","DisplayPosition":{"Latitude":43.64461,"Longitude":7.04907},"MapView":{"TopLeft":{"Latitude":43.6457342,"Longitude":7.0475165},"BottomRight":{"Latitude":43.6434858,"Longitude":7.0506235}},"Address":{"Label":"24 Chemin du Darbousson, 06560 Valbonne, France","Country":"FRA","State":"Provence-Alpes-Côte d'Azur","County":"Alpes-Maritimes","City":"Valbonne","Street":"Chemin du Darbousson","HouseNumber":"24","PostalCode":"06560","AdditionalData":[{"value":"France","key":"CountryName"},{"value":"Provence-Alpes-Côte d'Azur","key":"StateName"},{"value":"Alpes-Maritimes","key":"CountyName"}]},"MapReference":{"ReferenceId":"1223911585","Spot":0.0,"SideOfStreet":"right","CountryId":"20000001","StateId":"20000193","CountyId":"20000194","CityId":"20000358","AddressId":"319277395","RoadLinkId":"541983142"}}},{"Relevance":1.0,"Distance":29.4,"MatchLevel":"houseNumber","MatchQuality":{"Country":1.0,"State":1.0,"County":1.0,"City":1.0,"Street":[1.0],"HouseNumber":1.0,"PostalCode":1.0},"MatchType":"interpolated","Location":{"LocationId":"NT_fwxjSd95zC882yVmFOyPEC_xYD","LocationType":"point","DisplayPosition":{"Latitude":43.64459,"Longitude":7.04909},"MapView":{"TopLeft":{"Latitude":43.6457142,"Longitude":7.0475365},"BottomRight":{"Latitude":43.6434658,"Longitude":7.0506435}},"Address":{"Label":"16 Chemin du Darbousson, 06560 Valbonne, France","Country":"FRA","State":"Provence-Alpes-Côte d'Azur","County":"Alpes-Maritimes","City":"Valbonne","Street":"Chemin du Darbousson","HouseNumber":"16","PostalCode":"06560","AdditionalData":[{"value":"France","key":"CountryName"},{"value":"Provence-Alpes-Côte d'Azur","key":"StateName"},{"value":"Alpes-Maritimes","key":"CountyName"}]},"MapReference":{"ReferenceId":"1223911584","Spot":0.89,"SideOfStreet":"right","CountryId":"20000001","StateId":"20000193","CountyId":"20000194","CityId":"20000358","AddressId":"573333511","RoadLinkId":"541983141"}}},{"Relevance":1.0,"Distance":41.6,"MatchLevel":"street","MatchQuality":{"Country":1.0,"State":1.0,"County":1.0,"City":1.0,"PostalCode":1.0},"Location":{"LocationId":"NT_oiwqIgoR7IXU8huVXUavhD_l_58357540_R","LocationType":"point","DisplayPosition":{"Latitude":43.64447,"Longitude":7.04937},"MapView":{"TopLeft":{"Latitude":43.64447,"Longitude":7.04927},"BottomRight":{"Latitude":43.64437,"Longitude":7.04964}},"Address":{"Label":"06560 Valbonne, France","Country":"FRA","State":"Provence-Alpes-Côte d'Azur","County":"Alpes-Maritimes","City":"Valbonne","PostalCode":"06560","AdditionalData":[{"value":"France","key":"CountryName"},{"value":"Provence-Alpes-Côte d'Azur","key":"StateName"},{"value":"Alpes-Maritimes","key":"CountyName"}]},"MapReference":{"ReferenceId":"58357540","Spot":0.75,"SideOfStreet":"right","CountryId":"20000001","StateId":"20000193","CountyId":"20000194","CityId":"20000358"}}},{"Relevance":1.0,"Distance":44.0,"MatchLevel":"street","MatchQuality":{"Country":1.0,"State":1.0,"County":1.0,"City":1.0,"PostalCode":1.0},"Location":{"LocationId":"NT_oiwqIgoR7IXU8huVXUavhD_l_537878953_L","LocationType":"point","DisplayPosition":{"Latitude":43.64445,"Longitude":7.04927},"MapView":{"TopLeft":{"Latitude":43.64445,"Longitude":7.04918},"BottomRight":{"Latitude":43.64439,"Longitude":7.04927}},"Address":{"Label":"06560 Valbonne, France","Country":"FRA","State":"Provence-Alpes-Côte d'Azur","County":"Alpes-Maritimes","City":"Valbonne","PostalCode":"06560","AdditionalData":[{"value":"France","key":"CountryName"},{"value":"Provence-Alpes-Côte d'Azur","key":"StateName"},{"value":"Alpes-Maritimes","key":"CountyName"}]},"MapReference":{"ReferenceId":"537878953","Spot":1.0,"SideOfStreet":"left","CountryId":"20000001","StateId":"20000193","CountyId":"20000194","CityId":"20000358"}}},{"Relevance":1.0,"Distance":51.9,"MatchLevel":"street","MatchQuality":{"Country":1.0,"State":1.0,"County":1.0,"City":1.0,"PostalCode":1.0},"Location":{"LocationId":"NT_oiwqIgoR7IXU8huVXUavhD_l_537878952_L","LocationType":"point","DisplayPosition":{"Latitude":43.64439,"Longitude":7.04918},"MapView":{"TopLeft":{"Latitude":43.64439,"Longitude":7.04915},"BottomRight":{"Latitude":43.64422,"Longitude":7.04918}},"Address":{"Label":"06560 Valbonne, France","Country":"FRA","State":"Provence-Alpes-Côte d'Azur","County":"Alpes-Maritimes","City":"Valbonne","PostalCode":"06560","AdditionalData":[{"value":"France","key":"CountryName"},{"value":"Provence-Alpes-Côte d'Azur","key":"StateName"},{"value":"Alpes-Maritimes","key":"CountyName"}]},"MapReference":{"ReferenceId":"537878952","Spot":1.0,"SideOfStreet":"left","CountryId":"20000001","StateId":"20000193","CountyId":"20000194","CityId":"20000358"}}},{"Relevance":1.0,"Distance":52.2,"MatchLevel":"houseNumber","MatchQuality":{"Country":1.0,"State":1.0,"County":1.0,"City":1.0,"Street":[1.0],"HouseNumber":1.0,"PostalCode":1.0},"MatchType":"interpolated","Location":{"LocationId":"NT_ReikoE16gV0dF6AL9TGTRA_l_1224205467_L_yMDOxA","LocationType":"point","DisplayPosition":{"Latitude":43.6443271,"Longitude":7.0489765},"MapView":{"TopLeft":{"Latitude":43.6454512,"Longitude":7.0474231},"BottomRight":{"Latitude":43.6432029,"Longitude":7.05053}},"Address":{"Label":"2381 Route de Biot, 06560 Valbonne, France","Country":"FRA","State":"Provence-Alpes-Côte d'Azur","County":"Alpes-Maritimes","City":"Valbonne","Street":"Route de Biot","HouseNumber":"2381","PostalCode":"06560","AdditionalData":[{"value":"France","key":"CountryName"},{"value":"Provence-Alpes-Côte d'Azur","key":"StateName"},{"value":"Alpes-Maritimes","key":"CountyName"}]},"MapReference":{"ReferenceId":"1224205467","Spot":0.78,"SideOfStreet":"left","CountryId":"20000001","StateId":"20000193","CountyId":"20000194","CityId":"20000358"}}},{"Relevance":1.0,"Distance":58.0,"MatchLevel":"street","MatchQuality":{"Country":1.0,"State":1.0,"County":1.0,"City":1.0,"PostalCode":1.0},"Location":{"LocationId":"NT_oiwqIgoR7IXU8huVXUavhD_l_58357539_L","LocationType":"point","DisplayPosition":{"Latitude":43.64437,"Longitude":7.04964},"MapView":{"TopLeft":{"Latitude":43.64437,"Longitude":7.04963},"BottomRight":{"Latitude":43.6442,"Longitude":7.04966}},"Address":{"Label":"06560 Valbonne, France","Country":"FRA","State":"Provence-Alpes-Côte d'Azur","County":"Alpes-Maritimes","City":"Valbonne","PostalCode":"06560","AdditionalData":[{"value":"France","key":"CountryName"},{"value":"Provence-Alpes-Côte d'Azur","key":"StateName"},{"value":"Alpes-Maritimes","key":"CountyName"}]},"MapReference":{"ReferenceId":"58357539","Spot":1.0,"SideOfStreet":"left","CountryId":"20000001","StateId":"20000193","CountyId":"20000194","CityId":"20000358"}}},{"Relevance":1.0,"Distance":64.1,"MatchLevel":"houseNumber","MatchQuality":{"Country":1.0,"State":1.0,"County":1.0,"City":1.0,"Street":[1.0],"HouseNumber":1.0,"PostalCode":1.0},"MatchType":"interpolated","Location":{"LocationId":"NT_fwxjSd95zC882yVmFOyPEC_4QD","LocationType":"point","DisplayPosition":{"Latitude":43.64517,"Longitude":7.04866},"MapView":{"TopLeft":{"Latitude":43.6462942,"Longitude":7.0471065},"BottomRight":{"Latitude":43.6440458,"Longitude":7.0502135}},"Address":{"Label":"84 Chemin du Darbousson, 06560 Valbonne, France","Country":"FRA","State":"Provence-Alpes-Côte d'Azur","County":"Alpes-Maritimes","City":"Valbonne","Street":"Chemin du Darbousson","HouseNumber":"84","PostalCode":"06560","AdditionalData":[{"value":"France","key":"CountryName"},{"value":"Provence-Alpes-Côte d'Azur","key":"StateName"},{"value":"Alpes-Maritimes","key":"CountyName"}]},"MapReference":{"ReferenceId":"537878947","Spot":0.1,"SideOfStreet":"right","CountryId":"20000001","StateId":"20000193","CountyId":"20000194","CityId":"20000358","AddressId":"627261257","RoadLinkId":"45197548"}}}]}]}}