{"Response":{"MetaInfo":{"Timestamp":"2020-03-28T09:48:33.837+0000","NextPageInformation":"2"},"View":[{"_type":"SearchResultsViewType","ViewId":0,"Result":[{"Relevance":1.0,"Distance":0.0,"Direction":0.0,"MatchLevel":"city","MatchQuality":{"Country":1.0,"State":1.0,"County":1.0,"City":1.0,"PostalCode":1.0},"Location":{"LocationId":"NT_d9-IVoq-MtBGscVFOtbooA","LocationType":"point","DisplayPosition":{"Latitude":43.6982571,"Longitude":5.7346711},"MapView":{"TopLeft":{"Latitude":43.72447,"Longitude":5.68227},"BottomRight":{"Latitude":43.64983,"Longitude":5.81354}},"Address":{"Label":"Saint-Paul-lès-Durance, Provence-Alpes-Côte d'Azur, France","Country":"FRA","State":"Provence-Alpes-Côte d'Azur","County":"Bouches-du-Rhône","City":"Saint-Paul-lès-Durance","PostalCode":"13115","AdditionalData":[{"value":"France","key":"CountryName"},{"value":"Provence-Alpes-Côte d'Azur","key":"StateName"},{"value":"Bouches-du-Rhône","key":"CountyName"}]},"MapReference":{"ReferenceId":"58066287","SideOfStreet":"neither","CountryId":"20000001","StateId":"20000193","CountyId":"20048302","CityId":"20048649"}}},{"Relevance":1.0,"Distance":6.3,"MatchLevel":"street","MatchQuality":{"Country":1.0,"State":1.0,"County":1.0,"City":1.0,"Street":[1.0],"PostalCode":1.0},"Location":{"LocationId":"NT_D-krXAA87GQtHKMaVs5SgD_l_1171896624_L","LocationType":"point","DisplayPosition":{"Latitude":43.698201,"Longitude":5.7346608},"MapView":{"TopLeft":{"Latitude":43.6983,"Longitude":5.73372},"BottomRight":{"Latitude":43.69732,"Longitude":5.73539}},"Address":{"Label":"Chemin de la Grande Bastide, 13115 Saint-Paul-lès-Durance, France","Country":"FRA","State":"Provence-Alpes-Côte d'Azur","County":"Bouches-du-Rhône","City":"Saint-Paul-lès-Durance","Street":"Chemin de la Grande Bastide","PostalCode":"13115","AdditionalData":[{"value":"France","key":"CountryName"},{"value":"Provence-Alpes-Côte d'Azur","key":"StateName"},{"value":"Bouches-du-Rhône","key":"CountyName"}]},"MapReference":{"ReferenceId":"1171896624","Spot":0.62,"SideOfStreet":"left","CountryId":"20000001","StateId":"20000193","CountyId":"20048302","CityId":"20048649"}}},{"Relevance":1.0,"Distance":69.8,"MatchLevel":"street","MatchQuality":{"Country":1.0,"State":1.0,"County":1.0,"City":1.0,"Street":[1.0],"PostalCode":1.0},"Location":{"LocationId":"NT_83-byCwc9rar9SJh8WFEqA_l_941423055_R","LocationType":"point","DisplayPosition":{"Latitude":43.6988479,"Longitude":5.7343757},"MapView":{"TopLeft":{"Latitude":43.69938,"Longitude":5.73314},"BottomRight":{"Latitude":43.69785,"Longitude":5.73607}},"Address":{"Label":"D952, 13115 Saint-Paul-lès-Durance, France","Country":"FRA","State":"Provence-Alpes-Côte d'Azur","County":"Bouches-du-Rhône","City":"Saint-Paul-lès-Durance","Street":"D952","PostalCode":"13115","AdditionalData":[{"value":"France","key":"CountryName"},{"value":"Provence-Alpes-Côte d'Azur","key":"StateName"},{"value":"Bouches-du-Rhône","key":"CountyName"}]},"MapReference":{"ReferenceId":"941423055","Spot":0.47,"SideOfStreet":"right","CountryId":"20000001","StateId":"20000193","CountyId":"20048302","CityId":"20048649"}}},{"Relevance":1.0,"Distance":91.5,"MatchLevel":"landmark","MatchQuality":{"Country":1.0,"State":1.0,"County":1.0,"Name":1.0},"Location":{"LocationId":"NT_kwQkKv3S64fM0z-52vSmKA","LocationType":"canalWaterChannel","Name":"Canal de l'EDF","DisplayPosition":{"Latitude":43.70151,"Longitude":5.74039},"MapView":{"TopLeft":{"Latitude":43.71727,"Longitude":5.68078},"BottomRight":{"Latitude":43.68575,"Longitude":5.74588}},"Address":{"Label":"France","Country":"FRA","State":"Provence-Alpes-Côte d'Azur","County":"Bouches-du-Rhône","AdditionalData":[{"value":"France","key":"CountryName"},{"value":"Provence-Alpes-Côte d'Azur","key":"StateName"},{"value":"Bouches-du-Rhône","key":"CountyName"}]},"MapReference":{"CountryId":"20000001","StateId":"20000193","CountyId":"20048302","PlaceId":"1453322896"}}},{"Relevance":1.0,"Distance":93.7,"MatchLevel":"street","MatchQuality":{"Country":1.0,"State":1.0,"County":1.0,"City":1.0,"PostalCode":1.0},"Location":{"LocationId":"NT_e2YzVbEGFb7-yPLRbMR5gD_l_1171896625_L","LocationType":"point","DisplayPosition":{"Latitude":43.6974443,"Longitude":5.7349793},"MapView":{"TopLeft":{"Latitude":43.6976,"Longitude":5.73357},"BottomRight":{"Latitude":43.69691,"Longitude":5.73539}},"Address":{"Label":"13115 Saint-Paul-lès-Durance, France","Country":"FRA","State":"Provence-Alpes-Côte d'Azur","County":"Bouches-du-Rhône","City":"Saint-Paul-lès-Durance","PostalCode":"13115","AdditionalData":[{"value":"France","key":"CountryName"},{"value":"Provence-Alpes-Côte d'Azur","key":"StateName"},{"value":"Bouches-du-Rhône","key":"CountyName"}]},"MapReference":{"ReferenceId":"1171896625","Spot":0.77,"SideOfStreet":"left","CountryId":"20000001","StateId":"20000193","CountyId":"20048302","CityId":"20048649"}}},{"Relevance":1.0,"Distance":129.2,"MatchLevel":"street","MatchQuality":{"Country":1.0,"State":1.0,"County":1.0,"City":1.0,"PostalCode":1.0},"Location":{"LocationId":"NT_e2YzVbEGFb7-yPLRbMR5gD_l_69196635_R","LocationType":"point","DisplayPosition":{"Latitude":43.69732,"Longitude":5.73372},"MapView":{"TopLeft":{"Latitude":43.69743,"Longitude":5.73311},"BottomRight":{"Latitude":43.69732,"Longitude":5.73372}},"Address":{"Label":"13115 Saint-Paul-lès-Durance, France","Country":"FRA","State":"Provence-Alpes-Côte d'Azur","County":"Bouches-du-Rhône","City":"Saint-Paul-lès-Durance","PostalCode":"13115","AdditionalData":[{"value":"France","key":"CountryName"},{"value":"Provence-Alpes-Côte d'Azur","key":"StateName"},{"value":"Bouches-du-Rhône","key":"CountyName"}]},"MapReference":{"ReferenceId":"69196635","Spot":0.0,"SideOfStreet":"right","CountryId":"20000001","StateId":"20000193","CountyId":"20048302","CityId":"20048649"}}},{"Relevance":1.0,"Distance":129.2,"MatchLevel":"street","MatchQuality":{"Country":1.0,"State":1.0,"County":1.0,"City":1.0,"PostalCode":1.0},"Location":{"LocationId":"NT_e2YzVbEGFb7-yPLRbMR5gD_l_1171896623_R","LocationType":"point","DisplayPosition":{"Latitude":43.69732,"Longitude":5.73372},"MapView":{"TopLeft":{"Latitude":43.69732,"Longitude":5.73357},"BottomRight":{"Latitude":43.69691,"Longitude":5.73372}},"Address":{"Label":"13115 Saint-Paul-lès-Durance, France","Country":"FRA","State":"Provence-Alpes-Côte d'Azur","County":"Bouches-du-Rhône","City":"Saint-Paul-lès-Durance","PostalCode":"13115","AdditionalData":[{"value":"France","key":"CountryName"},{"value":"Provence-Alpes-Côte d'Azur","key":"StateName"},{"value":"Bouches-du-Rhône","key":"CountyName"}]},"MapReference":{"ReferenceId":"1171896623","Spot":1.0,"SideOfStreet":"right","CountryId":"20000001","StateId":"20000193","CountyId":"20048302","CityId":"20048649"}}},{"Relevance":1.0,"Distance":131.1,"MatchLevel":"street","MatchQuality":{"Country":1.0,"State":1.0,"County":1.0,"City":1.0,"Street":[1.0],"PostalCode":1.0},"Location":{"LocationId":"NT_83-byCwc9rar9SJh8WFEqA_l_941423054_R","LocationType":"point","DisplayPosition":{"Latitude":43.69785,"Longitude":5.73314},"MapView":{"TopLeft":{"Latitude":43.69785,"Longitude":5.73305},"BottomRight":{"Latitude":43.69775,"Longitude":5.73314}},"Address":{"Label":"D952, 13115 Saint-Paul-lès-Durance, France","Country":"FRA","State":"Provence-Alpes-Côte d'Azur","County":"Bouches-du-Rhône","City":"Saint-Paul-lès-Durance","Street":"D952","PostalCode":"13115","AdditionalData":[{"value":"France","key":"CountryName"},{"value":"Provence-Alpes-Côte d'Azur","key":"StateName"},{"value":"Bouches-du-Rhône","key":"CountyName"}]},"MapReference":{"ReferenceId":"941423054","Spot":1.0,"SideOfStreet":"right","CountryId":"20000001","StateId":"20000193","CountyId":"20048302","CityId":"20048649"}}},{"Relevance":1.0,"Distance":141.9,"MatchLevel":"street","MatchQuality":{"Country":1.0,"State":1.0,"County":1.0,"City":1.0,"PostalCode":1.0},"Location":{"LocationId":"NT_e2YzVbEGFb7-yPLRbMR5gD_l_69196632_R","LocationType":"point","DisplayPosition":{"Latitude":43.69769,"Longitude":5.73309},"MapView":{"TopLeft":{"Latitude":43.69775,"Longitude":5.73305},"BottomRight":{"Latitude":43.69743,"Longitude":5.73311}},"Address":{"Label":"13115 Saint-Paul-lès-Durance, France","Country":"FRA","State":"Provence-Alpes-Côte d'Azur","County":"Bouches-du-Rhône","City":"Saint-Paul-lès-Durance","PostalCode":"13115","AdditionalData":[{"value":"France","key":"CountryName"},{"value":"Provence-Alpes-Côte d'Azur","key":"StateName"},{"value":"Bouches-du-Rhône","key":"CountyName"}]},"MapReference":{"ReferenceId":"69196632","Spot":0.8,"SideOfStreet":"right","CountryId":"20000001","StateId":"20000193","CountyId":"20048302","CityId":"20048649"}}},{"Relevance":1.0,"Distance":142.0,"MatchLevel":"street","MatchQuality":{"Country":1.0,"State":1.0,"County":1.0,"City":1.0,"Street":[1.0],"PostalCode":1.0},"Location":{"LocationId":"NT_83-byCwc9rar9SJh8WFEqA_l_69196630_R","LocationType":"point","DisplayPosition":{"Latitude":43.69775,"Longitude":5.73305},"MapView":{"TopLeft":{"Latitude":43.69775,"Longitude":5.73276},"BottomRight":{"Latitude":43.69746,"Longitude":5.73305}},"Address":{"Label":"D952, 13115 Saint-Paul-lès-Durance, France","Country":"FRA","State":"Provence-Alpes-Côte d'Azur","County":"Bouches-du-Rhône","City":"Saint-Paul-lès-Durance","Street":"D952","PostalCode":"13115","AdditionalData":[{"value":"France","key":"CountryName"},{"value":"Provence-Alpes-Côte d'Azur","key":"StateName"},{"value":"Bouches-du-Rhône","key":"CountyName"}]},"MapReference":{"ReferenceId":"69196630","Spot":1.0,"SideOfStreet":"right","CountryId":"20000001","StateId":"20000193","CountyId":"20048302","CityId":"20048649"}}}]}]}}