{"Response":{"MetaInfo":{"Timestamp":"2020-03-28T11:47:26.603+0000","NextPageInformation":"2"},"View":[{"_type":"SearchResultsViewType","ViewId":0,"Result":[{"Relevance":1.0,"Distance":0.0,"Direction":0.0,"MatchLevel":"city","MatchQuality":{"Country":1.0,"State":1.0,"County":1.0,"City":1.0,"PostalCode":1.0},"Location":{"LocationId":"NT_oVK6UjhEmVKLGXGO.JvXOD","LocationType":"point","DisplayPosition":{"Latitude":43.6432989,"Longitude":1.5232589},"MapView":{"TopLeft":{"Latitude":43.65459,"Longitude":1.50477},"BottomRight":{"Latitude":43.63258,"Longitude":1.56186}},"Address":{"Label":"Montrabé, Occitanie, France","Country":"FRA","State":"Occitanie","County":"Haute-Garonne","City":"Montrabé","PostalCode":"31850","AdditionalData":[{"value":"France","key":"CountryName"},{"value":"Occitanie","key":"StateName"},{"value":"Haute-Garonne","key":"CountyName"}]},"MapReference":{"ReferenceId":"537540641","SideOfStreet":"neither","CountryId":"20000001","StateId":"20050212","CountyId":"20094636","CityId":"20095786"}}},{"Relevance":1.0,"Distance":8.8,"MatchLevel":"houseNumber","MatchQuality":{"Country":1.0,"State":1.0,"County":1.0,"City":1.0,"Street":[1.0],"HouseNumber":1.0,"PostalCode":1.0},"MatchType":"interpolated","Location":{"LocationId":"NT_4QLFbuV4ShE0gVDUs4re1C_yA","LocationType":"point","DisplayPosition":{"Latitude":43.64331,"Longitude":1.52301},"MapView":{"TopLeft":{"Latitude":43.6444342,"Longitude":1.5214566},"BottomRight":{"Latitude":43.6421858,"Longitude":1.5245634}},"Address":{"Label":"2 Allée du Logis Vieux, 31850 Montrabé, France","Country":"FRA","State":"Occitanie","County":"Haute-Garonne","City":"Montrabé","Street":"Allée du Logis Vieux","HouseNumber":"2","PostalCode":"31850","AdditionalData":[{"value":"France","key":"CountryName"},{"value":"Occitanie","key":"StateName"},{"value":"Haute-Garonne","key":"CountyName"}]},"MapReference":{"ReferenceId":"57972411","Spot":0.87,"SideOfStreet":"right","CountryId":"20000001","StateId":"20050212","CountyId":"20094636","CityId":"20095786","AddressId":"320941903","RoadLinkId":"50800378"}}},{"Relevance":1.0,"Distance":16.8,"MatchLevel":"houseNumber","MatchQuality":{"Country":1.0,"State":1.0,"County":1.0,"City":1.0,"Street":[1.0],"HouseNumber":1.0,"PostalCode":1.0},"MatchType":"interpolated","Location":{"LocationId":"NT_4QLFbuV4ShE0gVDUs4re1C_0A","LocationType":"point","DisplayPosition":{"Latitude":43.64348,"Longitude":1.52307},"MapView":{"TopLeft":{"Latitude":43.6446042,"Longitude":1.5215165},"BottomRight":{"Latitude":43.6423558,"Longitude":1.5246235}},"Address":{"Label":"4 Allée du Logis Vieux, 31850 Montrabé, France","Country":"FRA","State":"Occitanie","County":"Haute-Garonne","City":"Montrabé","Street":"Allée du Logis Vieux","HouseNumber":"4","PostalCode":"31850","AdditionalData":[{"value":"France","key":"CountryName"},{"value":"Occitanie","key":"StateName"},{"value":"Haute-Garonne","key":"CountyName"}]},"MapReference":{"ReferenceId":"57972407","Spot":0.54,"SideOfStreet":"right","CountryId":"20000001","StateId":"20050212","CountyId":"20094636","CityId":"20095786","AddressId":"571763063","RoadLinkId":"50523269"}}},{"Relevance":1.0,"Distance":35.3,"MatchLevel":"houseNumber","MatchQuality":{"Country":1.0,"State":1.0,"County":1.0,"City":1.0,"Street":[1.0],"HouseNumber":1.0,"PostalCode":1.0},"MatchType":"interpolated","Location":{"LocationId":"NT_mntXk6O5Z59E-IeyIT4CZD_yMD","LocationType":"point","DisplayPosition":{"Latitude":43.64361,"Longitude":1.52303},"MapView":{"TopLeft":{"Latitude":43.6447342,"Longitude":1.5214765},"BottomRight":{"Latitude":43.6424858,"Longitude":1.5245835}},"Address":{"Label":"23 Place Commerciale, 31850 Montrabé, France","Country":"FRA","State":"Occitanie","County":"Haute-Garonne","City":"Montrabé","Street":"Place Commerciale","HouseNumber":"23","PostalCode":"31850","AdditionalData":[{"value":"France","key":"CountryName"},{"value":"Occitanie","key":"StateName"},{"value":"Haute-Garonne","key":"CountyName"}]},"MapReference":{"ReferenceId":"57972406","Spot":0.11,"SideOfStreet":"left","CountryId":"20000001","StateId":"20050212","CountyId":"20094636","CityId":"20095786","AddressId":"782182079","RoadLinkId":"237732853"}}},{"Relevance":1.0,"Distance":36.8,"MatchLevel":"houseNumber","MatchQuality":{"Country":1.0,"State":1.0,"County":1.0,"City":1.0,"Street":[1.0],"HouseNumber":1.0,"PostalCode":1.0},"MatchType":"interpolated","Location":{"LocationId":"NT_JzYug.DAR0CGx7t92JUPkC_l_537540641_L_1gD","LocationType":"point","DisplayPosition":{"Latitude":43.6430162,"Longitude":1.5234978},"MapView":{"TopLeft":{"Latitude":43.6441403,"Longitude":1.5219443},"BottomRight":{"Latitude":43.641892,"Longitude":1.5250512}},"Address":{"Label":"58 Route de Lavaur, 31850 Montrabé, France","Country":"FRA","State":"Occitanie","County":"Haute-Garonne","City":"Montrabé","Street":"Route de Lavaur","HouseNumber":"58","PostalCode":"31850","AdditionalData":[{"value":"France","key":"CountryName"},{"value":"Occitanie","key":"StateName"},{"value":"Haute-Garonne","key":"CountyName"}]},"MapReference":{"ReferenceId":"537540641","Spot":0.51,"SideOfStreet":"left","CountryId":"20000001","StateId":"20050212","CountyId":"20094636","CityId":"20095786"}}},{"Relevance":1.0,"Distance":37.1,"MatchLevel":"houseNumber","MatchQuality":{"Country":1.0,"State":1.0,"County":1.0,"City":1.0,"Street":[1.0],"HouseNumber":1.0,"PostalCode":1.0},"MatchType":"interpolated","Location":{"LocationId":"NT_JzYug.DAR0CGx7t92JUPkC_1gD","LocationType":"point","DisplayPosition":{"Latitude":43.64312,"Longitude":1.52287},"MapView":{"TopLeft":{"Latitude":43.6442442,"Longitude":1.5213166},"BottomRight":{"Latitude":43.6419958,"Longitude":1.5244234}},"Address":{"Label":"58 Route de Lavaur, 31850 Montrabé, France","Country":"FRA","State":"Occitanie","County":"Haute-Garonne","City":"Montrabé","Street":"Route de Lavaur","HouseNumber":"58","PostalCode":"31850","AdditionalData":[{"value":"France","key":"CountryName"},{"value":"Occitanie","key":"StateName"},{"value":"Haute-Garonne","key":"CountyName"}]},"MapReference":{"ReferenceId":"537540655","Spot":0.23,"SideOfStreet":"left","CountryId":"20000001","StateId":"20050212","CountyId":"20094636","CityId":"20095786","AddressId":"320905534","RoadLinkId":"50777791"}}},{"Relevance":1.0,"Distance":47.7,"MatchLevel":"houseNumber","MatchQuality":{"Country":1.0,"State":1.0,"County":1.0,"City":1.0,"Street":[1.0],"HouseNumber":1.0,"PostalCode":1.0},"MatchType":"interpolated","Location":{"LocationId":"NT_4QLFbuV4ShE0gVDUs4re1C_2A","LocationType":"point","DisplayPosition":{"Latitude":43.64377,"Longitude":1.52319},"MapView":{"TopLeft":{"Latitude":43.6448942,"Longitude":1.5216365},"BottomRight":{"Latitude":43.6426458,"Longitude":1.5247435}},"Address":{"Label":"6 Allée du Logis Vieux, 31850 Montrabé, France","Country":"FRA","State":"Occitanie","County":"Haute-Garonne","City":"Montrabé","Street":"Allée du Logis Vieux","HouseNumber":"6","PostalCode":"31850","AdditionalData":[{"value":"France","key":"CountryName"},{"value":"Occitanie","key":"StateName"},{"value":"Haute-Garonne","key":"CountyName"}]},"MapReference":{"ReferenceId":"57972405","Spot":0.24,"SideOfStreet":"right","CountryId":"20000001","StateId":"20050212","CountyId":"20094636","CityId":"20095786","AddressId":"571763061","RoadLinkId":"50916044"}}},{"Relevance":1.0,"Distance":62.7,"MatchLevel":"houseNumber","MatchQuality":{"Country":1.0,"State":1.0,"County":1.0,"City":1.0,"Street":[1.0],"HouseNumber":1.0,"PostalCode":1.0},"MatchType":"interpolated","Location":{"LocationId":"NT_N9rO7z4D6sacx37VSMhEYB_l_1202224257_R_0MD","LocationType":"point","DisplayPosition":{"Latitude":43.64318,"Longitude":1.5224799},"MapView":{"TopLeft":{"Latitude":43.6443042,"Longitude":1.5209265},"BottomRight":{"Latitude":43.6420558,"Longitude":1.5240334}},"Address":{"Label":"43 Route de Lavaur, 31850 Montrabé, France","Country":"FRA","State":"Occitanie","County":"Haute-Garonne","City":"Montrabé","Street":"Route de Lavaur","HouseNumber":"43","PostalCode":"31850","AdditionalData":[{"value":"France","key":"CountryName"},{"value":"Occitanie","key":"StateName"},{"value":"Haute-Garonne","key":"CountyName"}]},"MapReference":{"ReferenceId":"1202224257","Spot":0.47,"SideOfStreet":"right","CountryId":"20000001","StateId":"20050212","CountyId":"20094636","CityId":"20095786"}}},{"Relevance":1.0,"Distance":78.5,"MatchLevel":"street","MatchQuality":{"Country":1.0,"State":1.0,"County":1.0,"City":1.0,"PostalCode":1.0},"Location":{"LocationId":"NT_KPQeaiHjRjduWvxyjUQ4dA_l_537540640_L","LocationType":"point","DisplayPosition":{"Latitude":43.64293,"Longitude":1.52409},"MapView":{"TopLeft":{"Latitude":43.64293,"Longitude":1.52409},"BottomRight":{"Latitude":43.64275,"Longitude":1.52441}},"Address":{"Label":"31850 Montrabé, France","Country":"FRA","State":"Occitanie","County":"Haute-Garonne","City":"Montrabé","PostalCode":"31850","AdditionalData":[{"value":"France","key":"CountryName"},{"value":"Occitanie","key":"StateName"},{"value":"Haute-Garonne","key":"CountyName"}]},"MapReference":{"ReferenceId":"537540640","Spot":1.0,"SideOfStreet":"left","CountryId":"20000001","StateId":"20050212","CountyId":"20094636","CityId":"20095786"}}},{"Relevance":1.0,"Distance":80.1,"MatchLevel":"street","MatchQuality":{"Country":1.0,"State":1.0,"County":1.0,"City":1.0,"PostalCode":1.0},"Location":{"LocationId":"NT_KPQeaiHjRjduWvxyjUQ4dA_l_537540657_R","LocationType":"point","DisplayPosition":{"Latitude":43.64322,"Longitude":1.52227},"MapView":{"TopLeft":{"Latitude":43.64322,"Longitude":1.52081},"BottomRight":{"Latitude":43.6415,"Longitude":1.52227}},"Address":{"Label":"31850 Montrabé, France","Country":"FRA","State":"Occitanie","County":"Haute-Garonne","City":"Montrabé","PostalCode":"31850","AdditionalData":[{"value":"France","key":"CountryName"},{"value":"Occitanie","key":"StateName"},{"value":"Haute-Garonne","key":"CountyName"}]},"MapReference":{"ReferenceId":"537540657","Spot":1.0,"SideOfStreet":"right","CountryId":"20000001","StateId":"20050212","CountyId":"20094636","CityId":"20095786"}}}]}]}}