{"Response":{"MetaInfo":{"Timestamp":"2020-03-28T11:12:44.095+0000","NextPageInformation":"2"},"View":[{"_type":"SearchResultsViewType","ViewId":0,"Result":[{"Relevance":1.0,"Distance":-39.2,"MatchLevel":"landmark","MatchQuality":{"Country":1.0,"State":1.0,"County":1.0,"City":1.0,"District":1.0,"Street":[1.0],"HouseNumber":1.0,"PostalCode":1.0,"Name":1.0},"Location":{"LocationId":"NT_UdolE7ECfU0eTkBsRGQsYB_p_uAHOeKhmX6rrzrteC4B3tC","LocationType":"hospital","Name":"CHRU de Montpellier","DisplayPosition":{"Latitude":43.63234,"Longitude":3.85178},"MapView":{"TopLeft":{"Latitude":43.6334642,"Longitude":3.8502268},"BottomRight":{"Latitude":43.6312158,"Longitude":3.8533332}},"Address":{"Label":"191 Avenue du Doyen Gaston Giraud, 34090 Montpellier, France","Country":"FRA","State":"Occitanie","County":"Hérault","City":"Montpellier","District":"Hôpitaux-Facultés","Street":"Avenue du Doyen Gaston Giraud","HouseNumber":"191","PostalCode":"34090","AdditionalData":[{"value":"France","key":"CountryName"},{"value":"Occitanie","key":"StateName"},{"value":"Hérault","key":"CountyName"}]},"MapReference":{"CountryId":"20000001","StateId":"20050212","CountyId":"20097832","CityId":"20098349","PlaceId":"51341305"}}},{"Relevance":1.0,"Distance":0.0,"Direction":0.0,"MatchLevel":"district","MatchQuality":{"Country":1.0,"State":1.0,"County":1.0,"City":1.0,"District":1.0,"PostalCode":1.0},"Location":{"LocationId":"NT_HM3c.WoCZzPX3NF7dnCjUD","LocationType":"point","DisplayPosition":{"Latitude":43.6288087,"Longitude":3.8506566},"MapView":{"TopLeft":{"Latitude":43.65041,"Longitude":3.82276},"BottomRight":{"Latitude":43.6207,"Longitude":3.87375}},"Address":{"Label":"Hôpitaux-Facultés, Montpellier, Occitanie, France","Country":"FRA","State":"Occitanie","County":"Hérault","City":"Montpellier","District":"Hôpitaux-Facultés","PostalCode":"34090","AdditionalData":[{"value":"France","key":"CountryName"},{"value":"Occitanie","key":"StateName"},{"value":"Hérault","key":"CountyName"}]},"MapReference":{"ReferenceId":"590859989","SideOfStreet":"neither","CountryId":"20000001","StateId":"20050212","CountyId":"20097832","CityId":"20098349"}}},{"Relevance":1.0,"Distance":47.8,"MatchLevel":"houseNumber","MatchQuality":{"Country":1.0,"State":1.0,"County":1.0,"City":1.0,"District":1.0,"Street":[1.0],"HouseNumber":1.0,"PostalCode":1.0},"MatchType":"interpolated","Location":{"LocationId":"NT_egLQTZmAd4rT2pqo0HE3JD_zcTM","LocationType":"point","DisplayPosition":{"Latitude":43.62911,"Longitude":3.85108},"MapView":{"TopLeft":{"Latitude":43.6302342,"Longitude":3.8495269},"BottomRight":{"Latitude":43.6279858,"Longitude":3.8526331}},"Address":{"Label":"371 Avenue du Doyen Gaston Giraud, 34090 Montpellier, France","Country":"FRA","State":"Occitanie","County":"Hérault","City":"Montpellier","District":"Hôpitaux-Facultés","Street":"Avenue du Doyen Gaston Giraud","HouseNumber":"371","PostalCode":"34090","AdditionalData":[{"value":"France","key":"CountryName"},{"value":"Occitanie","key":"StateName"},{"value":"Hérault","key":"CountyName"}]},"MapReference":{"ReferenceId":"943265440","Spot":0.0,"SideOfStreet":"right","CountryId":"20000001","StateId":"20050212","CountyId":"20097832","CityId":"20098349","AddressId":"371169707","RoadLinkId":"292893409"}}},{"Relevance":1.0,"Distance":71.3,"MatchLevel":"houseNumber","MatchQuality":{"Country":1.0,"State":1.0,"County":1.0,"City":1.0,"District":1.0,"Street":[1.0],"HouseNumber":1.0,"PostalCode":1.0},"MatchType":"interpolated","Location":{"LocationId":"NT_tZNozISIN8SzvP7xyfuV0D_zcTM","LocationType":"point","DisplayPosition":{"Latitude":43.62942,"Longitude":3.85039},"MapView":{"TopLeft":{"Latitude":43.6305442,"Longitude":3.8488369},"BottomRight":{"Latitude":43.6282958,"Longitude":3.8519431}},"Address":{"Label":"371 Rue du Muscadet, 34090 Montpellier, France","Country":"FRA","State":"Occitanie","County":"Hérault","City":"Montpellier","District":"Hôpitaux-Facultés","Street":"Rue du Muscadet","HouseNumber":"371","PostalCode":"34090","AdditionalData":[{"value":"France","key":"CountryName"},{"value":"Occitanie","key":"StateName"},{"value":"Hérault","key":"CountyName"}]},"MapReference":{"ReferenceId":"1228635468","Spot":0.86,"SideOfStreet":"left","CountryId":"20000001","StateId":"20050212","CountyId":"20097832","CityId":"20098349","AddressId":"605652638","RoadLinkId":"547622672"}}},{"Relevance":1.0,"Distance":73.0,"MatchLevel":"street","MatchQuality":{"Country":1.0,"State":1.0,"County":1.0,"City":1.0,"District":1.0,"PostalCode":1.0},"Location":{"LocationId":"NT_i5WdD5Gl0jS7AfRWKqnVpB_l_1229306578_L","LocationType":"point","DisplayPosition":{"Latitude":43.62825,"Longitude":3.85018},"MapView":{"TopLeft":{"Latitude":43.62825,"Longitude":3.84986},"BottomRight":{"Latitude":43.62799,"Longitude":3.85028}},"Address":{"Label":"34090 Montpellier, France","Country":"FRA","State":"Occitanie","County":"Hérault","City":"Montpellier","District":"Hôpitaux-Facultés","PostalCode":"34090","AdditionalData":[{"value":"France","key":"CountryName"},{"value":"Occitanie","key":"StateName"},{"value":"Hérault","key":"CountyName"}]},"MapReference":{"ReferenceId":"1229306578","Spot":0.76,"SideOfStreet":"left","CountryId":"20000001","StateId":"20050212","CountyId":"20097832","CityId":"20098349"}}},{"Relevance":1.0,"Distance":73.6,"MatchLevel":"street","MatchQuality":{"Country":1.0,"State":1.0,"County":1.0,"City":1.0,"District":1.0,"PostalCode":1.0},"Location":{"LocationId":"NT_i5WdD5Gl0jS7AfRWKqnVpB_l_57956220_L","LocationType":"point","DisplayPosition":{"Latitude":43.6281598,"Longitude":3.8508395},"MapView":{"TopLeft":{"Latitude":43.62836,"Longitude":3.85045},"BottomRight":{"Latitude":43.62805,"Longitude":3.85155}},"Address":{"Label":"34090 Montpellier, France","Country":"FRA","State":"Occitanie","County":"Hérault","City":"Montpellier","District":"Hôpitaux-Facultés","PostalCode":"34090","AdditionalData":[{"value":"France","key":"CountryName"},{"value":"Occitanie","key":"StateName"},{"value":"Hérault","key":"CountyName"}]},"MapReference":{"ReferenceId":"57956220","Spot":0.35,"SideOfStreet":"left","CountryId":"20000001","StateId":"20050212","CountyId":"20097832","CityId":"20098349"}}},{"Relevance":1.0,"Distance":75.7,"MatchLevel":"street","MatchQuality":{"Country":1.0,"State":1.0,"County":1.0,"City":1.0,"District":1.0,"PostalCode":1.0},"Location":{"LocationId":"NT_i5WdD5Gl0jS7AfRWKqnVpB_l_1228642262_L","LocationType":"point","DisplayPosition":{"Latitude":43.62816,"Longitude":3.85037},"MapView":{"TopLeft":{"Latitude":43.62816,"Longitude":3.85028},"BottomRight":{"Latitude":43.62812,"Longitude":3.85037}},"Address":{"Label":"34090 Montpellier, France","Country":"FRA","State":"Occitanie","County":"Hérault","City":"Montpellier","District":"Hôpitaux-Facultés","PostalCode":"34090","AdditionalData":[{"value":"France","key":"CountryName"},{"value":"Occitanie","key":"StateName"},{"value":"Hérault","key":"CountyName"}]},"MapReference":{"ReferenceId":"1228642262","Spot":1.0,"SideOfStreet":"left","CountryId":"20000001","StateId":"20050212","CountyId":"20097832","CityId":"20098349"}}},{"Relevance":1.0,"Distance":77.1,"MatchLevel":"houseNumber","MatchQuality":{"Country":1.0,"State":1.0,"County":1.0,"City":1.0,"District":1.0,"Street":[1.0],"HouseNumber":1.0,"PostalCode":1.0},"MatchType":"interpolated","Location":{"LocationId":"NT_tZNozISIN8SzvP7xyfuV0D_l_1228635467_L_yIzM","LocationType":"point","DisplayPosition":{"Latitude":43.6281443,"Longitude":3.8503814},"MapView":{"TopLeft":{"Latitude":43.6292684,"Longitude":3.8488284},"BottomRight":{"Latitude":43.6270201,"Longitude":3.8519345}},"Address":{"Label":"223 Rue du Muscadet, 34090 Montpellier, France","Country":"FRA","State":"Occitanie","County":"Hérault","City":"Montpellier","District":"Hôpitaux-Facultés","Street":"Rue du Muscadet","HouseNumber":"223","PostalCode":"34090","AdditionalData":[{"value":"France","key":"CountryName"},{"value":"Occitanie","key":"StateName"},{"value":"Hérault","key":"CountyName"}]},"MapReference":{"ReferenceId":"1228635467","Spot":0.86,"SideOfStreet":"left","CountryId":"20000001","StateId":"20050212","CountyId":"20097832","CityId":"20098349"}}},{"Relevance":1.0,"Distance":82.4,"MatchLevel":"street","MatchQuality":{"Country":1.0,"State":1.0,"County":1.0,"City":1.0,"District":1.0,"PostalCode":1.0},"Location":{"LocationId":"NT_i5WdD5Gl0jS7AfRWKqnVpB_l_1225736539_R","LocationType":"point","DisplayPosition":{"Latitude":43.62812,"Longitude":3.85028},"MapView":{"TopLeft":{"Latitude":43.62812,"Longitude":3.85028},"BottomRight":{"Latitude":43.628,"Longitude":3.85038}},"Address":{"Label":"34090 Montpellier, France","Country":"FRA","State":"Occitanie","County":"Hérault","City":"Montpellier","District":"Hôpitaux-Facultés","PostalCode":"34090","AdditionalData":[{"value":"France","key":"CountryName"},{"value":"Occitanie","key":"StateName"},{"value":"Hérault","key":"CountyName"}]},"MapReference":{"ReferenceId":"1225736539","Spot":1.0,"SideOfStreet":"right","CountryId":"20000001","StateId":"20050212","CountyId":"20097832","CityId":"20098349"}}},{"Relevance":1.0,"Distance":82.4,"MatchLevel":"street","MatchQuality":{"Country":1.0,"State":1.0,"County":1.0,"City":1.0,"District":1.0,"PostalCode":1.0},"Location":{"LocationId":"NT_i5WdD5Gl0jS7AfRWKqnVpB_l_1228642233_L","LocationType":"point","DisplayPosition":{"Latitude":43.62812,"Longitude":3.85028},"MapView":{"TopLeft":{"Latitude":43.62812,"Longitude":3.85024},"BottomRight":{"Latitude":43.62811,"Longitude":3.85028}},"Address":{"Label":"34090 Montpellier, France","Country":"FRA","State":"Occitanie","County":"Hérault","City":"Montpellier","District":"Hôpitaux-Facultés","PostalCode":"34090","AdditionalData":[{"value":"France","key":"CountryName"},{"value":"Occitanie","key":"StateName"},{"value":"Hérault","key":"CountyName"}]},"MapReference":{"ReferenceId":"1228642233","Spot":1.0,"SideOfStreet":"left","CountryId":"20000001","StateId":"20050212","CountyId":"20097832","CityId":"20098349"}}}]}]}}