{"Response":{"MetaInfo":{"Timestamp":"2020-03-28T11:08:44.200+0000","NextPageInformation":"2"},"View":[{"_type":"SearchResultsViewType","ViewId":0,"Result":[{"Relevance":1.0,"Distance":0.0,"Direction":0.0,"MatchLevel":"city","MatchQuality":{"Country":1.0,"State":1.0,"County":1.0,"City":1.0,"PostalCode":1.0},"Location":{"LocationId":"NT_p3h-AcJ9PE6LsxJPClx1OD","LocationType":"point","DisplayPosition":{"Latitude":43.6238284,"Longitude":3.9081884},"MapView":{"TopLeft":{"Latitude":43.65595,"Longitude":3.88569},"BottomRight":{"Latitude":43.61841,"Longitude":3.93672}},"Address":{"Label":"Castelnau-le-Lez, Occitanie, France","Country":"FRA","State":"Occitanie","County":"Hérault","City":"Castelnau-le-Lez","PostalCode":"34170","AdditionalData":[{"value":"France","key":"CountryName"},{"value":"Occitanie","key":"StateName"},{"value":"Hérault","key":"CountyName"}]},"MapReference":{"ReferenceId":"958332152","SideOfStreet":"neither","CountryId":"20000001","StateId":"20050212","CountyId":"20097832","CityId":"20097999"}}},{"Relevance":1.0,"Distance":3.2,"MatchLevel":"street","MatchQuality":{"Country":1.0,"State":1.0,"County":1.0,"City":1.0,"Street":[1.0],"PostalCode":1.0},"Location":{"LocationId":"NT_Mqbw.G4xH5ck86tCnXwhnC_l_1116050942_L","LocationType":"point","DisplayPosition":{"Latitude":43.623805,"Longitude":3.908165},"MapView":{"TopLeft":{"Latitude":43.62389,"Longitude":3.90808},"BottomRight":{"Latitude":43.62378,"Longitude":3.90819}},"Address":{"Label":"Avenue Georges Frêche, 34170 Castelnau-le-Lez, France","Country":"FRA","State":"Occitanie","County":"Hérault","City":"Castelnau-le-Lez","Street":"Avenue Georges Frêche","PostalCode":"34170","AdditionalData":[{"value":"France","key":"CountryName"},{"value":"Occitanie","key":"StateName"},{"value":"Hérault","key":"CountyName"}]},"MapReference":{"ReferenceId":"1116050942","Spot":0.23,"SideOfStreet":"neither","CountryId":"20000001","StateId":"20050212","CountyId":"20097832","CityId":"20097999"}}},{"Relevance":1.0,"Distance":5.4,"MatchLevel":"street","MatchQuality":{"Country":1.0,"State":1.0,"County":1.0,"City":1.0,"Street":[1.0],"PostalCode":1.0},"Location":{"LocationId":"NT_vh40Qi4qJ9WYy58cbVsJ6D_l_57954836_L","LocationType":"point","DisplayPosition":{"Latitude":43.62378,"Longitude":3.90819},"MapView":{"TopLeft":{"Latitude":43.62378,"Longitude":3.90784},"BottomRight":{"Latitude":43.62361,"Longitude":3.90819}},"Address":{"Label":"Avenue de la Volhe, 34170 Castelnau-le-Lez, France","Country":"FRA","State":"Occitanie","County":"Hérault","City":"Castelnau-le-Lez","Street":"Avenue de la Volhe","PostalCode":"34170","AdditionalData":[{"value":"France","key":"CountryName"},{"value":"Occitanie","key":"StateName"},{"value":"Hérault","key":"CountyName"}]},"MapReference":{"ReferenceId":"57954836","Spot":1.0,"SideOfStreet":"left","CountryId":"20000001","StateId":"20050212","CountyId":"20097832","CityId":"20097999"}}},{"Relevance":1.0,"Distance":19.9,"MatchLevel":"houseNumber","MatchQuality":{"Country":1.0,"State":1.0,"County":1.0,"City":1.0,"Street":[1.0],"HouseNumber":1.0,"PostalCode":1.0},"MatchType":"interpolated","Location":{"LocationId":"NT_Mqbw.G4xH5ck86tCnXwhnC_3gDM","LocationType":"point","DisplayPosition":{"Latitude":43.62396,"Longitude":3.90802},"MapView":{"TopLeft":{"Latitude":43.6250842,"Longitude":3.9064671},"BottomRight":{"Latitude":43.6228358,"Longitude":3.9095729}},"Address":{"Label":"780 Avenue Georges Frêche, 34170 Castelnau-le-Lez, France","Country":"FRA","State":"Occitanie","County":"Hérault","City":"Castelnau-le-Lez","Street":"Avenue Georges Frêche","HouseNumber":"780","PostalCode":"34170","AdditionalData":[{"value":"France","key":"CountryName"},{"value":"Occitanie","key":"StateName"},{"value":"Hérault","key":"CountyName"}]},"MapReference":{"ReferenceId":"1116050943","Spot":0.36,"SideOfStreet":"left","CountryId":"20000001","StateId":"20050212","CountyId":"20097832","CityId":"20097999","AddressId":"379440426","RoadLinkId":"426151376"}}},{"Relevance":1.0,"Distance":23.8,"MatchLevel":"houseNumber","MatchQuality":{"Country":1.0,"State":1.0,"County":1.0,"City":1.0,"Street":[1.0],"HouseNumber":1.0,"PostalCode":1.0},"MatchType":"interpolated","Location":{"LocationId":"NT_Mqbw.G4xH5ck86tCnXwhnC_4QTN","LocationType":"point","DisplayPosition":{"Latitude":43.62364,"Longitude":3.90833},"MapView":{"TopLeft":{"Latitude":43.6247642,"Longitude":3.9067771},"BottomRight":{"Latitude":43.6225158,"Longitude":3.9098829}},"Address":{"Label":"845 Avenue Georges Frêche, 34170 Castelnau-le-Lez, France","Country":"FRA","State":"Occitanie","County":"Hérault","City":"Castelnau-le-Lez","Street":"Avenue Georges Frêche","HouseNumber":"845","PostalCode":"34170","AdditionalData":[{"value":"France","key":"CountryName"},{"value":"Occitanie","key":"StateName"},{"value":"Hérault","key":"CountyName"}]},"MapReference":{"ReferenceId":"57954841","Spot":0.52,"SideOfStreet":"right","CountryId":"20000001","StateId":"20050212","CountyId":"20097832","CityId":"20097999","AddressId":"571219210","RoadLinkId":"51085853"}}},{"Relevance":1.0,"Distance":35.5,"MatchLevel":"street","MatchQuality":{"Country":1.0,"State":1.0,"County":1.0,"City":1.0,"Street":[1.0],"PostalCode":1.0},"Location":{"LocationId":"NT_Mqbw.G4xH5ck86tCnXwhnC_l_1199938269_R","LocationType":"point","DisplayPosition":{"Latitude":43.62407,"Longitude":3.9079},"MapView":{"TopLeft":{"Latitude":43.62416,"Longitude":3.90781},"BottomRight":{"Latitude":43.62407,"Longitude":3.9079}},"Address":{"Label":"Avenue Georges Frêche, 34170 Castelnau-le-Lez, France","Country":"FRA","State":"Occitanie","County":"Hérault","City":"Castelnau-le-Lez","Street":"Avenue Georges Frêche","PostalCode":"34170","AdditionalData":[{"value":"France","key":"CountryName"},{"value":"Occitanie","key":"StateName"},{"value":"Hérault","key":"CountyName"}]},"MapReference":{"ReferenceId":"1199938269","Spot":0.0,"SideOfStreet":"right","CountryId":"20000001","StateId":"20050212","CountyId":"20097832","CityId":"20097999"}}},{"Relevance":1.0,"Distance":41.6,"MatchLevel":"houseNumber","MatchQuality":{"Country":1.0,"State":1.0,"County":1.0,"City":1.0,"Street":[1.0],"HouseNumber":1.0,"PostalCode":1.0},"MatchType":"interpolated","Location":{"LocationId":"NT_sT5AlHGGvAo5F-5OSFy-OC_yYD","LocationType":"point","DisplayPosition":{"Latitude":43.62345,"Longitude":3.908},"MapView":{"TopLeft":{"Latitude":43.6245742,"Longitude":3.9064471},"BottomRight":{"Latitude":43.6223258,"Longitude":3.9095529}},"Address":{"Label":"26 Rue des Bastides, 34170 Castelnau-le-Lez, France","Country":"FRA","State":"Occitanie","County":"Hérault","City":"Castelnau-le-Lez","Street":"Rue des Bastides","HouseNumber":"26","PostalCode":"34170","AdditionalData":[{"value":"France","key":"CountryName"},{"value":"Occitanie","key":"StateName"},{"value":"Hérault","key":"CountyName"}]},"MapReference":{"ReferenceId":"57954867","Spot":0.88,"SideOfStreet":"right","CountryId":"20000001","StateId":"20050212","CountyId":"20097832","CityId":"20097999","AddressId":"317225608","RoadLinkId":"50501295"}}},{"Relevance":1.0,"Distance":63.9,"MatchLevel":"houseNumber","MatchQuality":{"Country":1.0,"State":1.0,"County":1.0,"City":1.0,"Street":[1.0],"HouseNumber":1.0,"PostalCode":1.0},"MatchType":"interpolated","Location":{"LocationId":"NT_Mqbw.G4xH5ck86tCnXwhnC_l_1199938270_R_3ETN","LocationType":"point","DisplayPosition":{"Latitude":43.6242791,"Longitude":3.9076961},"MapView":{"TopLeft":{"Latitude":43.6254032,"Longitude":3.9061431},"BottomRight":{"Latitude":43.6231549,"Longitude":3.909249}},"Address":{"Label":"715 Avenue Georges Frêche, 34170 Castelnau-le-Lez, France","Country":"FRA","State":"Occitanie","County":"Hérault","City":"Castelnau-le-Lez","Street":"Avenue Georges Frêche","HouseNumber":"715","PostalCode":"34170","AdditionalData":[{"value":"France","key":"CountryName"},{"value":"Occitanie","key":"StateName"},{"value":"Hérault","key":"CountyName"}]},"MapReference":{"ReferenceId":"1199938270","Spot":0.52,"SideOfStreet":"right","CountryId":"20000001","StateId":"20050212","CountyId":"20097832","CityId":"20097999"}}},{"Relevance":1.0,"Distance":69.0,"MatchLevel":"houseNumber","MatchQuality":{"Country":1.0,"State":1.0,"County":1.0,"City":1.0,"Street":[1.0],"HouseNumber":1.0,"PostalCode":1.0},"MatchType":"interpolated","Location":{"LocationId":"NT_vh40Qi4qJ9WYy58cbVsJ6D_xQD","LocationType":"point","DisplayPosition":{"Latitude":43.62344,"Longitude":3.90752},"MapView":{"TopLeft":{"Latitude":43.6245642,"Longitude":3.9059671},"BottomRight":{"Latitude":43.6223158,"Longitude":3.9090729}},"Address":{"Label":"14 Avenue de la Volhe, 34170 Castelnau-le-Lez, France","Country":"FRA","State":"Occitanie","County":"Hérault","City":"Castelnau-le-Lez","Street":"Avenue de la Volhe","HouseNumber":"14","PostalCode":"34170","AdditionalData":[{"value":"France","key":"CountryName"},{"value":"Occitanie","key":"StateName"},{"value":"Hérault","key":"CountyName"}]},"MapReference":{"ReferenceId":"57954847","Spot":0.63,"SideOfStreet":"left","CountryId":"20000001","StateId":"20050212","CountyId":"20097832","CityId":"20097999","AddressId":"317095639","RoadLinkId":"50680900"}}},{"Relevance":1.0,"Distance":88.3,"MatchLevel":"houseNumber","MatchQuality":{"Country":1.0,"State":1.0,"County":1.0,"City":1.0,"Street":[1.0],"HouseNumber":1.0,"PostalCode":1.0},"MatchType":"interpolated","Location":{"LocationId":"NT_Mqbw.G4xH5ck86tCnXwhnC_3ETN","LocationType":"point","DisplayPosition":{"Latitude":43.62316,"Longitude":3.90878},"MapView":{"TopLeft":{"Latitude":43.6242842,"Longitude":3.9072271},"BottomRight":{"Latitude":43.6220358,"Longitude":3.9103329}},"Address":{"Label":"715 Avenue Georges Frêche, 34170 Castelnau-le-Lez, France","Country":"FRA","State":"Occitanie","County":"Hérault","City":"Castelnau-le-Lez","Street":"Avenue Georges Frêche","HouseNumber":"715","PostalCode":"34170","AdditionalData":[{"value":"France","key":"CountryName"},{"value":"Occitanie","key":"StateName"},{"value":"Hérault","key":"CountyName"}]},"MapReference":{"ReferenceId":"1116084673","Spot":0.32,"SideOfStreet":"right","CountryId":"20000001","StateId":"20050212","CountyId":"20097832","CityId":"20097999","AddressId":"590505433","RoadLinkId":"426217197"}}}]}]}}