{"Response":{"MetaInfo":{"Timestamp":"2020-03-28T10:29:41.968+0000","NextPageInformation":"2"},"View":[{"_type":"SearchResultsViewType","ViewId":0,"Result":[{"Relevance":1.0,"Distance":0.0,"Direction":0.0,"MatchLevel":"city","MatchQuality":{"Country":1.0,"State":1.0,"County":1.0,"City":1.0,"PostalCode":1.0},"Location":{"LocationId":"NT_raRrfmF50DIO4uxZs601XA","LocationType":"point","DisplayPosition":{"Latitude":43.638997,"Longitude":4.8116597},"MapView":{"TopLeft":{"Latitude":43.72039,"Longitude":4.74905},"BottomRight":{"Latitude":43.49435,"Longitude":4.98861}},"Address":{"Label":"Saint-Martin-de-Crau, Provence-Alpes-Côte d'Azur, France","Country":"FRA","State":"Provence-Alpes-Côte d'Azur","County":"Bouches-du-Rhône","City":"Saint-Martin-de-Crau","PostalCode":"13310","AdditionalData":[{"value":"France","key":"CountryName"},{"value":"Provence-Alpes-Côte d'Azur","key":"StateName"},{"value":"Bouches-du-Rhône","key":"CountyName"}]},"MapReference":{"ReferenceId":"996353535","SideOfStreet":"neither","CountryId":"20000001","StateId":"20000193","CountyId":"20048302","CityId":"20048641"}}},{"Relevance":1.0,"Distance":18.6,"MatchLevel":"houseNumber","MatchQuality":{"Country":1.0,"State":1.0,"County":1.0,"City":1.0,"Street":[1.0],"HouseNumber":1.0,"PostalCode":1.0},"MatchType":"interpolated","Location":{"LocationId":"NT_BBYN7DxZQADSO1ewQPoO6D_yIE","LocationType":"point","DisplayPosition":{"Latitude":43.6388,"Longitude":4.81177},"MapView":{"TopLeft":{"Latitude":43.6399242,"Longitude":4.8102167},"BottomRight":{"Latitude":43.6376758,"Longitude":4.8133233}},"Address":{"Label":"2B Avenue César Bernaudon, 13310 Saint-Martin-de-Crau, France","Country":"FRA","State":"Provence-Alpes-Côte d'Azur","County":"Bouches-du-Rhône","City":"Saint-Martin-de-Crau","Street":"Avenue César Bernaudon","HouseNumber":"2B","PostalCode":"13310","AdditionalData":[{"value":"France","key":"CountryName"},{"value":"Provence-Alpes-Côte d'Azur","key":"StateName"},{"value":"Bouches-du-Rhône","key":"CountyName"}]},"MapReference":{"ReferenceId":"996141698","Spot":0.93,"SideOfStreet":"left","CountryId":"20000001","StateId":"20000193","CountyId":"20048302","CityId":"20048641","AddressId":"595045015","RoadLinkId":"323844159"}}},{"Relevance":1.0,"Distance":23.3,"MatchLevel":"street","MatchQuality":{"Country":1.0,"State":1.0,"County":1.0,"City":1.0,"Street":[1.0],"PostalCode":1.0},"Location":{"LocationId":"NT_HOEu9fnce9l-KHvJ-EGWgB_l_1199851466_L","LocationType":"point","DisplayPosition":{"Latitude":43.63881,"Longitude":4.81179},"MapView":{"TopLeft":{"Latitude":43.63889,"Longitude":4.81179},"BottomRight":{"Latitude":43.63881,"Longitude":4.81199}},"Address":{"Label":"Avenue César Bernaudon, 13310 Saint-Martin-de-Crau, France","Country":"FRA","State":"Provence-Alpes-Côte d'Azur","County":"Bouches-du-Rhône","City":"Saint-Martin-de-Crau","Street":"Avenue César Bernaudon","PostalCode":"13310","AdditionalData":[{"value":"France","key":"CountryName"},{"value":"Provence-Alpes-Côte d'Azur","key":"StateName"},{"value":"Bouches-du-Rhône","key":"CountyName"}]},"MapReference":{"ReferenceId":"1199851466","Spot":0.0,"SideOfStreet":"left","CountryId":"20000001","StateId":"20000193","CountyId":"20048302","CityId":"20048641"}}},{"Relevance":1.0,"Distance":26.1,"MatchLevel":"houseNumber","MatchQuality":{"Country":1.0,"State":1.0,"County":1.0,"City":1.0,"Street":[1.0],"HouseNumber":1.0,"PostalCode":1.0},"MatchType":"interpolated","Location":{"LocationId":"NT_BBYN7DxZQADSO1ewQPoO6D_xA","LocationType":"point","DisplayPosition":{"Latitude":43.63889,"Longitude":4.81199},"MapView":{"TopLeft":{"Latitude":43.6400142,"Longitude":4.8104367},"BottomRight":{"Latitude":43.6377658,"Longitude":4.8135433}},"Address":{"Label":"1 Avenue César Bernaudon, 13310 Saint-Martin-de-Crau, France","Country":"FRA","State":"Provence-Alpes-Côte d'Azur","County":"Bouches-du-Rhône","City":"Saint-Martin-de-Crau","Street":"Avenue César Bernaudon","HouseNumber":"1","PostalCode":"13310","AdditionalData":[{"value":"France","key":"CountryName"},{"value":"Provence-Alpes-Côte d'Azur","key":"StateName"},{"value":"Bouches-du-Rhône","key":"CountyName"}]},"MapReference":{"ReferenceId":"1199851467","Spot":0.0,"SideOfStreet":"left","CountryId":"20000001","StateId":"20000193","CountyId":"20048302","CityId":"20048641","AddressId":"345366083","RoadLinkId":"511964158"}}},{"Relevance":1.0,"Distance":30.8,"MatchLevel":"street","MatchQuality":{"Country":1.0,"State":1.0,"County":1.0,"City":1.0,"Street":[1.0],"PostalCode":1.0},"Location":{"LocationId":"NT_ddDJKl8GOFAT9XVojvaTdC_l_1036482186_R","LocationType":"point","DisplayPosition":{"Latitude":43.6387942,"Longitude":4.811399},"MapView":{"TopLeft":{"Latitude":43.6394,"Longitude":4.81114},"BottomRight":{"Latitude":43.63869,"Longitude":4.81148}},"Address":{"Label":"Chemin Georges Borel, 13310 Saint-Martin-de-Crau, France","Country":"FRA","State":"Provence-Alpes-Côte d'Azur","County":"Bouches-du-Rhône","City":"Saint-Martin-de-Crau","Street":"Chemin Georges Borel","PostalCode":"13310","AdditionalData":[{"value":"France","key":"CountryName"},{"value":"Provence-Alpes-Côte d'Azur","key":"StateName"},{"value":"Bouches-du-Rhône","key":"CountyName"}]},"MapReference":{"ReferenceId":"1036482186","Spot":0.17,"SideOfStreet":"right","CountryId":"20000001","StateId":"20000193","CountyId":"20048302","CityId":"20048641"}}},{"Relevance":1.0,"Distance":36.6,"MatchLevel":"houseNumber","MatchQuality":{"Country":1.0,"State":1.0,"County":1.0,"City":1.0,"Street":[1.0],"HouseNumber":1.0,"PostalCode":1.0},"MatchType":"interpolated","Location":{"LocationId":"NT_BBYN7DxZQADSO1ewQPoO6D_0A","LocationType":"point","DisplayPosition":{"Latitude":43.63867,"Longitude":4.81142},"MapView":{"TopLeft":{"Latitude":43.6397942,"Longitude":4.8098667},"BottomRight":{"Latitude":43.6375458,"Longitude":4.8129733}},"Address":{"Label":"4 Avenue César Bernaudon, 13310 Saint-Martin-de-Crau, France","Country":"FRA","State":"Provence-Alpes-Côte d'Azur","County":"Bouches-du-Rhône","City":"Saint-Martin-de-Crau","Street":"Avenue César Bernaudon","HouseNumber":"4","PostalCode":"13310","AdditionalData":[{"value":"France","key":"CountryName"},{"value":"Provence-Alpes-Côte d'Azur","key":"StateName"},{"value":"Bouches-du-Rhône","key":"CountyName"}]},"MapReference":{"ReferenceId":"69171828","Spot":0.84,"SideOfStreet":"left","CountryId":"20000001","StateId":"20000193","CountyId":"20048302","CityId":"20048641","AddressId":"345404238","RoadLinkId":"46235463"}}},{"Relevance":1.0,"Distance":39.0,"MatchLevel":"street","MatchQuality":{"Country":1.0,"State":1.0,"County":1.0,"City":1.0,"Street":[1.0],"PostalCode":1.0},"Location":{"LocationId":"NT_HOEu9fnce9l-KHvJ-EGWgB_l_996353531_L","LocationType":"point","DisplayPosition":{"Latitude":43.63895,"Longitude":4.81214},"MapView":{"TopLeft":{"Latitude":43.639,"Longitude":4.81214},"BottomRight":{"Latitude":43.63895,"Longitude":4.81226}},"Address":{"Label":"Avenue César Bernaudon, 13310 Saint-Martin-de-Crau, France","Country":"FRA","State":"Provence-Alpes-Côte d'Azur","County":"Bouches-du-Rhône","City":"Saint-Martin-de-Crau","Street":"Avenue César Bernaudon","PostalCode":"13310","AdditionalData":[{"value":"France","key":"CountryName"},{"value":"Provence-Alpes-Côte d'Azur","key":"StateName"},{"value":"Bouches-du-Rhône","key":"CountyName"}]},"MapReference":{"ReferenceId":"996353531","Spot":0.0,"SideOfStreet":"left","CountryId":"20000001","StateId":"20000193","CountyId":"20048302","CityId":"20048641"}}},{"Relevance":1.0,"Distance":39.3,"MatchLevel":"houseNumber","MatchQuality":{"Country":1.0,"State":1.0,"County":1.0,"City":1.0,"Street":[1.0],"HouseNumber":1.0,"PostalCode":1.0},"MatchType":"interpolated","Location":{"LocationId":"NT_4X9iWzLtKbGG6RJeEm1vxA_yED","LocationType":"point","DisplayPosition":{"Latitude":43.63948,"Longitude":4.8116},"MapView":{"TopLeft":{"Latitude":43.6406042,"Longitude":4.8100467},"BottomRight":{"Latitude":43.6383558,"Longitude":4.8131533}},"Address":{"Label":"21 Rue Pastourelle, 13310 Saint-Martin-de-Crau, France","Country":"FRA","State":"Provence-Alpes-Côte d'Azur","County":"Bouches-du-Rhône","City":"Saint-Martin-de-Crau","Street":"Rue Pastourelle","HouseNumber":"21","PostalCode":"13310","AdditionalData":[{"value":"France","key":"CountryName"},{"value":"Provence-Alpes-Côte d'Azur","key":"StateName"},{"value":"Bouches-du-Rhône","key":"CountyName"}]},"MapReference":{"ReferenceId":"1036482185","Spot":0.82,"SideOfStreet":"right","CountryId":"20000001","StateId":"20000193","CountyId":"20048302","CityId":"20048641","AddressId":"345420945","RoadLinkId":"358346028"}}},{"Relevance":1.0,"Distance":48.3,"MatchLevel":"street","MatchQuality":{"Country":1.0,"State":1.0,"County":1.0,"City":1.0,"Street":[1.0],"PostalCode":1.0},"Location":{"LocationId":"NT_IJpRn1tWdYtE3DLUJZFInB_l_557194794_L","LocationType":"point","DisplayPosition":{"Latitude":43.639,"Longitude":4.81226},"MapView":{"TopLeft":{"Latitude":43.639,"Longitude":4.81226},"BottomRight":{"Latitude":43.63874,"Longitude":4.81244}},"Address":{"Label":"Rue du Prélude, 13310 Saint-Martin-de-Crau, France","Country":"FRA","State":"Provence-Alpes-Côte d'Azur","County":"Bouches-du-Rhône","City":"Saint-Martin-de-Crau","Street":"Rue du Prélude","PostalCode":"13310","AdditionalData":[{"value":"France","key":"CountryName"},{"value":"Provence-Alpes-Côte d'Azur","key":"StateName"},{"value":"Bouches-du-Rhône","key":"CountyName"}]},"MapReference":{"ReferenceId":"557194794","Spot":1.0,"SideOfStreet":"left","CountryId":"20000001","StateId":"20000193","CountyId":"20048302","CityId":"20048641"}}},{"Relevance":1.0,"Distance":54.0,"MatchLevel":"houseNumber","MatchQuality":{"Country":1.0,"State":1.0,"County":1.0,"City":1.0,"Street":[1.0],"HouseNumber":1.0,"PostalCode":1.0},"MatchType":"interpolated","Location":{"LocationId":"NT_4X9iWzLtKbGG6RJeEm1vxA_xcD","LocationType":"point","DisplayPosition":{"Latitude":43.6395,"Longitude":4.81172},"MapView":{"TopLeft":{"Latitude":43.6406242,"Longitude":4.8101667},"BottomRight":{"Latitude":43.6383758,"Longitude":4.8132733}},"Address":{"Label":"17 Rue Pastourelle, 13310 Saint-Martin-de-Crau, France","Country":"FRA","State":"Provence-Alpes-Côte d'Azur","County":"Bouches-du-Rhône","City":"Saint-Martin-de-Crau","Street":"Rue Pastourelle","HouseNumber":"17","PostalCode":"13310","AdditionalData":[{"value":"France","key":"CountryName"},{"value":"Provence-Alpes-Côte d'Azur","key":"StateName"},{"value":"Bouches-du-Rhône","key":"CountyName"}]},"MapReference":{"ReferenceId":"557191137","Spot":0.02,"SideOfStreet":"right","CountryId":"20000001","StateId":"20000193","CountyId":"20048302","CityId":"20048641","AddressId":"345415295","RoadLinkId":"45708390"}}}]}]}}