{"Response":{"MetaInfo":{"Timestamp":"2020-03-28T11:50:03.224+0000","NextPageInformation":"2"},"View":[{"_type":"SearchResultsViewType","ViewId":0,"Result":[{"Relevance":1.0,"Distance":0.0,"Direction":0.0,"MatchLevel":"city","MatchQuality":{"Country":1.0,"State":1.0,"County":1.0,"City":1.0,"PostalCode":1.0},"Location":{"LocationId":"NT_HrU.Yn8ysEL8xgkoX9.b7A","LocationType":"point","DisplayPosition":{"Latitude":43.630319,"Longitude":5.152016},"MapView":{"TopLeft":{"Latitude":43.65882,"Longitude":5.12717},"BottomRight":{"Latitude":43.6011,"Longitude":5.19823}},"Address":{"Label":"Pélissanne, Provence-Alpes-Côte d'Azur, France","Country":"FRA","State":"Provence-Alpes-Côte d'Azur","County":"Bouches-du-Rhône","City":"Pélissanne","PostalCode":"13330","AdditionalData":[{"value":"France","key":"CountryName"},{"value":"Provence-Alpes-Côte d'Azur","key":"StateName"},{"value":"Bouches-du-Rhône","key":"CountyName"}]},"MapReference":{"ReferenceId":"567936422","SideOfStreet":"neither","CountryId":"20000001","StateId":"20000193","CountyId":"20048302","CityId":"20048550"}}},{"Relevance":1.0,"Distance":4.4,"MatchLevel":"houseNumber","MatchQuality":{"Country":1.0,"State":1.0,"County":1.0,"City":1.0,"Street":[1.0],"HouseNumber":1.0,"PostalCode":1.0},"MatchType":"interpolated","Location":{"LocationId":"NT_jfsM6.3URu5JGIHkYKzRNA_zED","LocationType":"point","DisplayPosition":{"Latitude":43.63035,"Longitude":5.15205},"MapView":{"TopLeft":{"Latitude":43.6314742,"Longitude":5.1504969},"BottomRight":{"Latitude":43.6292258,"Longitude":5.1536031}},"Address":{"Label":"31 Rue Carnot, 13330 Pélissanne, France","Country":"FRA","State":"Provence-Alpes-Côte d'Azur","County":"Bouches-du-Rhône","City":"Pélissanne","Street":"Rue Carnot","HouseNumber":"31","PostalCode":"13330","AdditionalData":[{"value":"France","key":"CountryName"},{"value":"Provence-Alpes-Côte d'Azur","key":"StateName"},{"value":"Bouches-du-Rhône","key":"CountyName"}]},"MapReference":{"ReferenceId":"1200615874","Spot":1.0,"SideOfStreet":"left","CountryId":"20000001","StateId":"20000193","CountyId":"20048302","CityId":"20048550","AddressId":"319391033","RoadLinkId":"512972724"}}},{"Relevance":1.0,"Distance":8.6,"MatchLevel":"houseNumber","MatchQuality":{"Country":1.0,"State":1.0,"County":1.0,"City":1.0,"Street":[1.0],"HouseNumber":1.0,"PostalCode":1.0},"MatchType":"interpolated","Location":{"LocationId":"NT_jfsM6.3URu5JGIHkYKzRNA_1QD","LocationType":"point","DisplayPosition":{"Latitude":43.63033,"Longitude":5.1519},"MapView":{"TopLeft":{"Latitude":43.6314542,"Longitude":5.1503469},"BottomRight":{"Latitude":43.6292058,"Longitude":5.1534531}},"Address":{"Label":"54 Rue Carnot, 13330 Pélissanne, France","Country":"FRA","State":"Provence-Alpes-Côte d'Azur","County":"Bouches-du-Rhône","City":"Pélissanne","Street":"Rue Carnot","HouseNumber":"54","PostalCode":"13330","AdditionalData":[{"value":"France","key":"CountryName"},{"value":"Provence-Alpes-Côte d'Azur","key":"StateName"},{"value":"Bouches-du-Rhône","key":"CountyName"}]},"MapReference":{"ReferenceId":"760281090","Spot":0.68,"SideOfStreet":"right","CountryId":"20000001","StateId":"20000193","CountyId":"20048302","CityId":"20048550","AddressId":"319312546","RoadLinkId":"154595898"}}},{"Relevance":1.0,"Distance":13.6,"MatchLevel":"houseNumber","MatchQuality":{"Country":1.0,"State":1.0,"County":1.0,"City":1.0,"Street":[1.0],"HouseNumber":1.0,"PostalCode":1.0},"MatchType":"interpolated","Location":{"LocationId":"NT_mVR3zuMXdeeJeGI5GSguSB_yA","LocationType":"point","DisplayPosition":{"Latitude":43.63043,"Longitude":5.15192},"MapView":{"TopLeft":{"Latitude":43.6315542,"Longitude":5.1503669},"BottomRight":{"Latitude":43.6293058,"Longitude":5.1534731}},"Address":{"Label":"2 Rue Eugène Pelletan, 13330 Pélissanne, France","Country":"FRA","State":"Provence-Alpes-Côte d'Azur","County":"Bouches-du-Rhône","City":"Pélissanne","Street":"Rue Eugène Pelletan","HouseNumber":"2","PostalCode":"13330","AdditionalData":[{"value":"France","key":"CountryName"},{"value":"Provence-Alpes-Côte d'Azur","key":"StateName"},{"value":"Bouches-du-Rhône","key":"CountyName"}]},"MapReference":{"ReferenceId":"567935712","Spot":0.23,"SideOfStreet":"right","CountryId":"20000001","StateId":"20000193","CountyId":"20048302","CityId":"20048550","AddressId":"573530595","RoadLinkId":"45438249"}}},{"Relevance":1.0,"Distance":18.9,"MatchLevel":"houseNumber","MatchQuality":{"Country":1.0,"State":1.0,"County":1.0,"City":1.0,"Street":[1.0],"HouseNumber":1.0,"PostalCode":1.0},"MatchType":"interpolated","Location":{"LocationId":"NT_jfsM6.3URu5JGIHkYKzRNA_1gD","LocationType":"point","DisplayPosition":{"Latitude":43.63037,"Longitude":5.15224},"MapView":{"TopLeft":{"Latitude":43.6314942,"Longitude":5.1506869},"BottomRight":{"Latitude":43.6292458,"Longitude":5.1537931}},"Address":{"Label":"58 Rue Carnot, 13330 Pélissanne, France","Country":"FRA","State":"Provence-Alpes-Côte d'Azur","County":"Bouches-du-Rhône","City":"Pélissanne","Street":"Rue Carnot","HouseNumber":"58","PostalCode":"13330","AdditionalData":[{"value":"France","key":"CountryName"},{"value":"Provence-Alpes-Côte d'Azur","key":"StateName"},{"value":"Bouches-du-Rhône","key":"CountyName"}]},"MapReference":{"ReferenceId":"1200615875","Spot":0.16,"SideOfStreet":"right","CountryId":"20000001","StateId":"20000193","CountyId":"20048302","CityId":"20048550","AddressId":"319391023","RoadLinkId":"512972725"}}},{"Relevance":1.0,"Distance":28.7,"MatchLevel":"houseNumber","MatchQuality":{"Country":1.0,"State":1.0,"County":1.0,"City":1.0,"Street":[1.0],"HouseNumber":1.0,"PostalCode":1.0},"MatchType":"interpolated","Location":{"LocationId":"NT_jfsM6.3URu5JGIHkYKzRNA_1AjQ","LocationType":"point","DisplayPosition":{"Latitude":43.63033,"Longitude":5.15166},"MapView":{"TopLeft":{"Latitude":43.6314542,"Longitude":5.1501069},"BottomRight":{"Latitude":43.6292058,"Longitude":5.1532131}},"Address":{"Label":"50B Rue Carnot, 13330 Pélissanne, France","Country":"FRA","State":"Provence-Alpes-Côte d'Azur","County":"Bouches-du-Rhône","City":"Pélissanne","Street":"Rue Carnot","HouseNumber":"50B","PostalCode":"13330","AdditionalData":[{"value":"France","key":"CountryName"},{"value":"Provence-Alpes-Côte d'Azur","key":"StateName"},{"value":"Bouches-du-Rhône","key":"CountyName"}]},"MapReference":{"ReferenceId":"1200615880","Spot":0.15,"SideOfStreet":"left","CountryId":"20000001","StateId":"20000193","CountyId":"20048302","CityId":"20048550","AddressId":"627267900","RoadLinkId":"512972736"}}},{"Relevance":1.0,"Distance":44.6,"MatchLevel":"houseNumber","MatchQuality":{"Country":1.0,"State":1.0,"County":1.0,"City":1.0,"Street":[1.0],"HouseNumber":1.0,"PostalCode":1.0},"MatchType":"interpolated","Location":{"LocationId":"NT_wB8D4m806SqOear.KYVBBA_2A","LocationType":"point","DisplayPosition":{"Latitude":43.63075,"Longitude":5.15198},"MapView":{"TopLeft":{"Latitude":43.6318742,"Longitude":5.1504269},"BottomRight":{"Latitude":43.6296258,"Longitude":5.1535331}},"Address":{"Label":"6 Impasse Tivoli, 13330 Pélissanne, France","Country":"FRA","State":"Provence-Alpes-Côte d'Azur","County":"Bouches-du-Rhône","City":"Pélissanne","Street":"Impasse Tivoli","HouseNumber":"6","PostalCode":"13330","AdditionalData":[{"value":"France","key":"CountryName"},{"value":"Provence-Alpes-Côte d'Azur","key":"StateName"},{"value":"Bouches-du-Rhône","key":"CountyName"}]},"MapReference":{"ReferenceId":"567935701","Spot":0.29,"SideOfStreet":"right","CountryId":"20000001","StateId":"20000193","CountyId":"20048302","CityId":"20048550","AddressId":"319084714","RoadLinkId":"45163078"}}},{"Relevance":1.0,"Distance":53.9,"MatchLevel":"houseNumber","MatchQuality":{"Country":1.0,"State":1.0,"County":1.0,"City":1.0,"Street":[1.0],"HouseNumber":1.0,"PostalCode":1.0},"MatchType":"interpolated","Location":{"LocationId":"NT_mVR3zuMXdeeJeGI5GSguSB_xAD","LocationType":"point","DisplayPosition":{"Latitude":43.63078,"Longitude":5.15181},"MapView":{"TopLeft":{"Latitude":43.6319042,"Longitude":5.1502569},"BottomRight":{"Latitude":43.6296558,"Longitude":5.1533631}},"Address":{"Label":"10 Rue Eugène Pelletan, 13330 Pélissanne, France","Country":"FRA","State":"Provence-Alpes-Côte d'Azur","County":"Bouches-du-Rhône","City":"Pélissanne","Street":"Rue Eugène Pelletan","HouseNumber":"10","PostalCode":"13330","AdditionalData":[{"value":"France","key":"CountryName"},{"value":"Provence-Alpes-Côte d'Azur","key":"StateName"},{"value":"Bouches-du-Rhône","key":"CountyName"}]},"MapReference":{"ReferenceId":"736268655","Spot":0.16,"SideOfStreet":"right","CountryId":"20000001","StateId":"20000193","CountyId":"20048302","CityId":"20048550","AddressId":"345376079","RoadLinkId":"135951877"}}},{"Relevance":1.0,"Distance":80.3,"MatchLevel":"street","MatchQuality":{"Country":1.0,"State":1.0,"County":1.0,"City":1.0,"Street":[1.0],"PostalCode":1.0},"Location":{"LocationId":"NT_IZLIQjZVm3l16-cyPdGkyA_l_736268635_L","LocationType":"point","DisplayPosition":{"Latitude":43.630811,"Longitude":5.1527456},"MapView":{"TopLeft":{"Latitude":43.63119,"Longitude":5.15249},"BottomRight":{"Latitude":43.63073,"Longitude":5.15331}},"Address":{"Label":"Place Roux de Brignoles, 13330 Pélissanne, France","Country":"FRA","State":"Provence-Alpes-Côte d'Azur","County":"Bouches-du-Rhône","City":"Pélissanne","Street":"Place Roux de Brignoles","PostalCode":"13330","AdditionalData":[{"value":"France","key":"CountryName"},{"value":"Provence-Alpes-Côte d'Azur","key":"StateName"},{"value":"Bouches-du-Rhône","key":"CountyName"}]},"MapReference":{"ReferenceId":"736268635","Spot":0.57,"SideOfStreet":"left","CountryId":"20000001","StateId":"20000193","CountyId":"20048302","CityId":"20048550"}}},{"Relevance":1.0,"Distance":87.9,"MatchLevel":"houseNumber","MatchQuality":{"Country":1.0,"State":1.0,"County":1.0,"City":1.0,"Street":[1.0],"HouseNumber":1.0,"PostalCode":1.0},"MatchType":"interpolated","Location":{"LocationId":"NT_mVR3zuMXdeeJeGI5GSguSB_xYD","LocationType":"point","DisplayPosition":{"Latitude":43.63108,"Longitude":5.15172},"MapView":{"TopLeft":{"Latitude":43.6322042,"Longitude":5.1501669},"BottomRight":{"Latitude":43.6299558,"Longitude":5.1532731}},"Address":{"Label":"16 Rue Eugène Pelletan, 13330 Pélissanne, France","Country":"FRA","State":"Provence-Alpes-Côte d'Azur","County":"Bouches-du-Rhône","City":"Pélissanne","Street":"Rue Eugène Pelletan","HouseNumber":"16","PostalCode":"13330","AdditionalData":[{"value":"France","key":"CountryName"},{"value":"Provence-Alpes-Côte d'Azur","key":"StateName"},{"value":"Bouches-du-Rhône","key":"CountyName"}]},"MapReference":{"ReferenceId":"736268654","Spot":0.08,"SideOfStreet":"right","CountryId":"20000001","StateId":"20000193","CountyId":"20048302","CityId":"20048550","AddressId":"319365033","RoadLinkId":"135951875"}}}]}]}}