{"Response":{"MetaInfo":{"Timestamp":"2020-03-28T11:49:52.685+0000","NextPageInformation":"2"},"View":[{"_type":"SearchResultsViewType","ViewId":0,"Result":[{"Relevance":1.0,"Distance":0.0,"Direction":0.0,"MatchLevel":"city","MatchQuality":{"Country":1.0,"State":1.0,"County":1.0,"City":1.0,"PostalCode":1.0},"Location":{"LocationId":"NT_r2ymBGbjP1MTS.aJtw135A","LocationType":"point","DisplayPosition":{"Latitude":43.6619832,"Longitude":0.5990016},"MapView":{"TopLeft":{"Latitude":43.70766,"Longitude":0.48607},"BottomRight":{"Latitude":43.61762,"Longitude":0.64752}},"Address":{"Label":"Auch, Occitanie, France","Country":"FRA","State":"Occitanie","County":"Gers","City":"Auch","PostalCode":"32000","AdditionalData":[{"value":"France","key":"CountryName"},{"value":"Occitanie","key":"StateName"},{"value":"Gers","key":"CountyName"}]},"MapReference":{"ReferenceId":"542303795","SideOfStreet":"neither","CountryId":"20000001","StateId":"20050212","CountyId":"20096397","CityId":"20096430"}}},{"Relevance":1.0,"Distance":7.2,"MatchLevel":"street","MatchQuality":{"Country":1.0,"State":1.0,"County":1.0,"City":1.0,"Street":[1.0],"PostalCode":1.0},"Location":{"LocationId":"NT_QnT5KGKLY9X6-vu8vVvK-C_l_708757910_R","LocationType":"point","DisplayPosition":{"Latitude":43.6620464,"Longitude":0.5990185},"MapView":{"TopLeft":{"Latitude":43.66207,"Longitude":0.59876},"BottomRight":{"Latitude":43.66189,"Longitude":0.59938}},"Address":{"Label":"Allée Jeanne Daguzan, 32000 Auch, France","Country":"FRA","State":"Occitanie","County":"Gers","City":"Auch","Street":"Allée Jeanne Daguzan","PostalCode":"32000","AdditionalData":[{"value":"France","key":"CountryName"},{"value":"Occitanie","key":"StateName"},{"value":"Gers","key":"CountyName"}]},"MapReference":{"ReferenceId":"708757910","Spot":0.5,"SideOfStreet":"right","CountryId":"20000001","StateId":"20050212","CountyId":"20096397","CityId":"20096430"}}},{"Relevance":1.0,"Distance":21.1,"MatchLevel":"houseNumber","MatchQuality":{"Country":1.0,"State":1.0,"County":1.0,"City":1.0,"Street":[1.0],"HouseNumber":1.0,"PostalCode":1.0},"MatchType":"interpolated","Location":{"LocationId":"NT_QnT5KGKLY9X6-vu8vVvK-C_yA","LocationType":"point","DisplayPosition":{"Latitude":43.6618,"Longitude":0.59907},"MapView":{"TopLeft":{"Latitude":43.6629242,"Longitude":0.5975161},"BottomRight":{"Latitude":43.6606758,"Longitude":0.6006239}},"Address":{"Label":"2 Allée Jeanne Daguzan, 32000 Auch, France","Country":"FRA","State":"Occitanie","County":"Gers","City":"Auch","Street":"Allée Jeanne Daguzan","HouseNumber":"2","PostalCode":"32000","AdditionalData":[{"value":"France","key":"CountryName"},{"value":"Occitanie","key":"StateName"},{"value":"Gers","key":"CountyName"}]},"MapReference":{"ReferenceId":"708757908","Spot":0.4,"SideOfStreet":"left","CountryId":"20000001","StateId":"20050212","CountyId":"20096397","CityId":"20096430","AddressId":"320855272","RoadLinkId":"114037925"}}},{"Relevance":1.0,"Distance":22.0,"MatchLevel":"street","MatchQuality":{"Country":1.0,"State":1.0,"County":1.0,"City":1.0,"PostalCode":1.0},"Location":{"LocationId":"NT_INL01vNymuakcnsEuQKm6B_l_1115050301_L","LocationType":"point","DisplayPosition":{"Latitude":43.66189,"Longitude":0.59876},"MapView":{"TopLeft":{"Latitude":43.66195,"Longitude":0.59752},"BottomRight":{"Latitude":43.66157,"Longitude":0.59876}},"Address":{"Label":"32000 Auch, France","Country":"FRA","State":"Occitanie","County":"Gers","City":"Auch","PostalCode":"32000","AdditionalData":[{"value":"France","key":"CountryName"},{"value":"Occitanie","key":"StateName"},{"value":"Gers","key":"CountyName"}]},"MapReference":{"ReferenceId":"1115050301","Spot":1.0,"SideOfStreet":"left","CountryId":"20000001","StateId":"20050212","CountyId":"20096397","CityId":"20096430"}}},{"Relevance":1.0,"Distance":30.9,"MatchLevel":"street","MatchQuality":{"Country":1.0,"State":1.0,"County":1.0,"City":1.0,"Street":[1.0],"PostalCode":1.0},"Location":{"LocationId":"NT_QnT5KGKLY9X6-vu8vVvK-C_l_708757909_L","LocationType":"point","DisplayPosition":{"Latitude":43.6618252,"Longitude":0.5993176},"MapView":{"TopLeft":{"Latitude":43.66195,"Longitude":0.59928},"BottomRight":{"Latitude":43.66175,"Longitude":0.59938}},"Address":{"Label":"Allée Jeanne Daguzan, 32000 Auch, France","Country":"FRA","State":"Occitanie","County":"Gers","City":"Auch","Street":"Allée Jeanne Daguzan","PostalCode":"32000","AdditionalData":[{"value":"France","key":"CountryName"},{"value":"Occitanie","key":"StateName"},{"value":"Gers","key":"CountyName"}]},"MapReference":{"ReferenceId":"708757909","Spot":0.38,"SideOfStreet":"left","CountryId":"20000001","StateId":"20050212","CountyId":"20096397","CityId":"20096430"}}},{"Relevance":1.0,"Distance":44.5,"MatchLevel":"houseNumber","MatchQuality":{"Country":1.0,"State":1.0,"County":1.0,"City":1.0,"Street":[1.0],"HouseNumber":1.0,"PostalCode":1.0},"MatchType":"interpolated","Location":{"LocationId":"NT_VQG12JJV6v-uOBBkTXS23A_l_1113981558_L_yEzM","LocationType":"point","DisplayPosition":{"Latitude":43.6615883,"Longitude":0.5994989},"MapView":{"TopLeft":{"Latitude":43.6627124,"Longitude":0.5979449},"BottomRight":{"Latitude":43.6604641,"Longitude":0.6010528}},"Address":{"Label":"213 Route d'Agen, 32000 Auch, France","Country":"FRA","State":"Occitanie","County":"Gers","City":"Auch","Street":"Route d'Agen","HouseNumber":"213","PostalCode":"32000","AdditionalData":[{"value":"France","key":"CountryName"},{"value":"Occitanie","key":"StateName"},{"value":"Gers","key":"CountyName"}]},"MapReference":{"ReferenceId":"1113981558","Spot":0.51,"SideOfStreet":"left","CountryId":"20000001","StateId":"20050212","CountyId":"20096397","CityId":"20096430"}}},{"Relevance":1.0,"Distance":47.2,"MatchLevel":"houseNumber","MatchQuality":{"Country":1.0,"State":1.0,"County":1.0,"City":1.0,"Street":[1.0],"HouseNumber":1.0,"PostalCode":1.0},"MatchType":"interpolated","Location":{"LocationId":"NT_AYEDwEp0jNklfwpDZhZ0uD_yIzM","LocationType":"point","DisplayPosition":{"Latitude":43.66177,"Longitude":0.59958},"MapView":{"TopLeft":{"Latitude":43.6628942,"Longitude":0.5980261},"BottomRight":{"Latitude":43.6606458,"Longitude":0.6011339}},"Address":{"Label":"223 Route d'Agen, 32000 Auch, France","Country":"FRA","State":"Occitanie","County":"Gers","City":"Auch","Street":"Route d'Agen","HouseNumber":"223","PostalCode":"32000","AdditionalData":[{"value":"France","key":"CountryName"},{"value":"Occitanie","key":"StateName"},{"value":"Gers","key":"CountyName"}]},"MapReference":{"ReferenceId":"1110206601","Spot":0.0,"SideOfStreet":"left","CountryId":"20000001","StateId":"20050212","CountyId":"20096397","CityId":"20096430","AddressId":"320815655","RoadLinkId":"420745937"}}},{"Relevance":1.0,"Distance":47.5,"MatchLevel":"houseNumber","MatchQuality":{"Country":1.0,"State":1.0,"County":1.0,"City":1.0,"Street":[1.0],"HouseNumber":1.0,"PostalCode":1.0},"MatchType":"interpolated","Location":{"LocationId":"NT_QnT5KGKLY9X6-vu8vVvK-C_l_766847721_R_yA","LocationType":"point","DisplayPosition":{"Latitude":43.6616512,"Longitude":0.5986307},"MapView":{"TopLeft":{"Latitude":43.6627754,"Longitude":0.5970768},"BottomRight":{"Latitude":43.6605271,"Longitude":0.6001846}},"Address":{"Label":"2 Allée Jeanne Daguzan, 32000 Auch, France","Country":"FRA","State":"Occitanie","County":"Gers","City":"Auch","Street":"Allée Jeanne Daguzan","HouseNumber":"2","PostalCode":"32000","AdditionalData":[{"value":"France","key":"CountryName"},{"value":"Occitanie","key":"StateName"},{"value":"Gers","key":"CountyName"}]},"MapReference":{"ReferenceId":"766847721","Spot":0.49,"SideOfStreet":"right","CountryId":"20000001","StateId":"20050212","CountyId":"20096397","CityId":"20096430"}}},{"Relevance":1.0,"Distance":55.0,"MatchLevel":"street","MatchQuality":{"Country":1.0,"State":1.0,"County":1.0,"City":1.0,"PostalCode":1.0},"Location":{"LocationId":"NT_INL01vNymuakcnsEuQKm6B_l_724670931_R","LocationType":"point","DisplayPosition":{"Latitude":43.6623952,"Longitude":0.5986239},"MapView":{"TopLeft":{"Latitude":43.66241,"Longitude":0.59807},"BottomRight":{"Latitude":43.66204,"Longitude":0.59864}},"Address":{"Label":"32000 Auch, France","Country":"FRA","State":"Occitanie","County":"Gers","City":"Auch","PostalCode":"32000","AdditionalData":[{"value":"France","key":"CountryName"},{"value":"Occitanie","key":"StateName"},{"value":"Gers","key":"CountyName"}]},"MapReference":{"ReferenceId":"724670931","Spot":0.97,"SideOfStreet":"right","CountryId":"20000001","StateId":"20050212","CountyId":"20096397","CityId":"20096430"}}},{"Relevance":1.0,"Distance":55.3,"MatchLevel":"houseNumber","MatchQuality":{"Country":1.0,"State":1.0,"County":1.0,"City":1.0,"Street":[1.0],"HouseNumber":1.0,"PostalCode":1.0},"MatchType":"interpolated","Location":{"LocationId":"NT_VQG12JJV6v-uOBBkTXS23A_l_1110206602_R_xQDO","LocationType":"point","DisplayPosition":{"Latitude":43.6622701,"Longitude":0.5995633},"MapView":{"TopLeft":{"Latitude":43.6633942,"Longitude":0.5980094},"BottomRight":{"Latitude":43.6611459,"Longitude":0.6011173}},"Address":{"Label":"148 Route d'Agen, 32000 Auch, France","Country":"FRA","State":"Occitanie","County":"Gers","City":"Auch","Street":"Route d'Agen","HouseNumber":"148","PostalCode":"32000","AdditionalData":[{"value":"France","key":"CountryName"},{"value":"Occitanie","key":"StateName"},{"value":"Gers","key":"CountyName"}]},"MapReference":{"ReferenceId":"1110206602","Spot":0.53,"SideOfStreet":"right","CountryId":"20000001","StateId":"20050212","CountyId":"20096397","CityId":"20096430"}}}]}]}}