{"Response":{"MetaInfo":{"Timestamp":"2020-03-28T11:47:06.715+0000","NextPageInformation":"2"},"View":[{"_type":"SearchResultsViewType","ViewId":0,"Result":[{"Relevance":1.0,"Distance":0.0,"Direction":0.0,"MatchLevel":"district","MatchQuality":{"Country":1.0,"State":1.0,"County":1.0,"City":1.0,"District":1.0,"PostalCode":1.0},"Location":{"LocationId":"NT_h6yMwI9lR8VYwlQTd5IDDA","LocationType":"point","DisplayPosition":{"Latitude":43.6150108,"Longitude":1.4749212},"MapView":{"TopLeft":{"Latitude":43.62834,"Longitude":1.45409},"BottomRight":{"Latitude":43.60059,"Longitude":1.48571}},"Address":{"Label":"Jolimont-Soupetard-Bonhoure, Toulouse, Occitanie, France","Country":"FRA","State":"Occitanie","County":"Haute-Garonne","City":"Toulouse","District":"Jolimont-Soupetard-Bonhoure","PostalCode":"31500","AdditionalData":[{"value":"France","key":"CountryName"},{"value":"Occitanie","key":"StateName"},{"value":"Haute-Garonne","key":"CountyName"}]},"MapReference":{"ReferenceId":"57982856","SideOfStreet":"neither","CountryId":"20000001","StateId":"20050212","CountyId":"20094636","CityId":"20096280"}}},{"Relevance":1.0,"Distance":9.0,"MatchLevel":"houseNumber","MatchQuality":{"Country":1.0,"State":1.0,"County":1.0,"City":1.0,"District":1.0,"Street":[1.0],"HouseNumber":1.0,"PostalCode":1.0},"MatchType":"interpolated","Location":{"LocationId":"NT_ix60zt9PcIjmAu5t59nWRC_5QD","LocationType":"point","DisplayPosition":{"Latitude":43.61492,"Longitude":1.4749},"MapView":{"TopLeft":{"Latitude":43.6160442,"Longitude":1.4733473},"BottomRight":{"Latitude":43.6137958,"Longitude":1.4764527}},"Address":{"Label":"94 Rue Louis Plana, 31500 Toulouse, France","Country":"FRA","State":"Occitanie","County":"Haute-Garonne","City":"Toulouse","District":"Jolimont-Soupetard-Bonhoure","Street":"Rue Louis Plana","HouseNumber":"94","PostalCode":"31500","AdditionalData":[{"value":"France","key":"CountryName"},{"value":"Occitanie","key":"StateName"},{"value":"Haute-Garonne","key":"CountyName"}]},"MapReference":{"ReferenceId":"832796335","Spot":0.8,"SideOfStreet":"right","CountryId":"20000001","StateId":"20050212","CountyId":"20094636","CityId":"20096280","AddressId":"320804650","RoadLinkId":"215986492"}}},{"Relevance":1.0,"Distance":18.3,"MatchLevel":"houseNumber","MatchQuality":{"Country":1.0,"State":1.0,"County":1.0,"City":1.0,"District":1.0,"Street":[1.0],"HouseNumber":1.0,"PostalCode":1.0},"MatchType":"interpolated","Location":{"LocationId":"NT_ix60zt9PcIjmAu5t59nWRC_5YD","LocationType":"point","DisplayPosition":{"Latitude":43.61508,"Longitude":1.4747},"MapView":{"TopLeft":{"Latitude":43.6162042,"Longitude":1.4731473},"BottomRight":{"Latitude":43.6139558,"Longitude":1.4762527}},"Address":{"Label":"96 Rue Louis Plana, 31500 Toulouse, France","Country":"FRA","State":"Occitanie","County":"Haute-Garonne","City":"Toulouse","District":"Jolimont-Soupetard-Bonhoure","Street":"Rue Louis Plana","HouseNumber":"96","PostalCode":"31500","AdditionalData":[{"value":"France","key":"CountryName"},{"value":"Occitanie","key":"StateName"},{"value":"Haute-Garonne","key":"CountyName"}]},"MapReference":{"ReferenceId":"832796336","Spot":0.1,"SideOfStreet":"right","CountryId":"20000001","StateId":"20050212","CountyId":"20094636","CityId":"20096280","AddressId":"320824274","RoadLinkId":"215986493"}}},{"Relevance":1.0,"Distance":76.4,"MatchLevel":"houseNumber","MatchQuality":{"Country":1.0,"State":1.0,"County":1.0,"City":1.0,"District":1.0,"Street":[1.0],"HouseNumber":1.0,"PostalCode":1.0},"MatchType":"interpolated","Location":{"LocationId":"NT_ix60zt9PcIjmAu5t59nWRC_4QD","LocationType":"point","DisplayPosition":{"Latitude":43.61445,"Longitude":1.47547},"MapView":{"TopLeft":{"Latitude":43.6155742,"Longitude":1.4739173},"BottomRight":{"Latitude":43.6133258,"Longitude":1.4770227}},"Address":{"Label":"84 Rue Louis Plana, 31500 Toulouse, France","Country":"FRA","State":"Occitanie","County":"Haute-Garonne","City":"Toulouse","District":"Jolimont-Soupetard-Bonhoure","Street":"Rue Louis Plana","HouseNumber":"84","PostalCode":"31500","AdditionalData":[{"value":"France","key":"CountryName"},{"value":"Occitanie","key":"StateName"},{"value":"Haute-Garonne","key":"CountyName"}]},"MapReference":{"ReferenceId":"834311029","Spot":0.88,"SideOfStreet":"right","CountryId":"20000001","StateId":"20050212","CountyId":"20094636","CityId":"20096280","AddressId":"571753350","RoadLinkId":"217517072"}}},{"Relevance":1.0,"Distance":88.3,"MatchLevel":"houseNumber","MatchQuality":{"Country":1.0,"State":1.0,"County":1.0,"City":1.0,"District":1.0,"Street":[1.0],"HouseNumber":1.0,"PostalCode":1.0},"MatchType":"interpolated","Location":{"LocationId":"NT_7a6LQj.TAfRayggxkFPvlB_2MD","LocationType":"point","DisplayPosition":{"Latitude":43.61419,"Longitude":1.4747},"MapView":{"TopLeft":{"Latitude":43.6153142,"Longitude":1.4731473},"BottomRight":{"Latitude":43.6130658,"Longitude":1.4762527}},"Address":{"Label":"63 Chemin de Hérédia, 31500 Toulouse, France","Country":"FRA","State":"Occitanie","County":"Haute-Garonne","City":"Toulouse","District":"Jolimont-Soupetard-Bonhoure","Street":"Chemin de Hérédia","HouseNumber":"63","PostalCode":"31500","AdditionalData":[{"value":"France","key":"CountryName"},{"value":"Occitanie","key":"StateName"},{"value":"Haute-Garonne","key":"CountyName"}]},"MapReference":{"ReferenceId":"57982546","Spot":0.1,"SideOfStreet":"left","CountryId":"20000001","StateId":"20050212","CountyId":"20094636","CityId":"20096280","AddressId":"320927482","RoadLinkId":"51275787"}}},{"Relevance":1.0,"Distance":90.9,"MatchLevel":"houseNumber","MatchQuality":{"Country":1.0,"State":1.0,"County":1.0,"City":1.0,"District":1.0,"Street":[1.0],"HouseNumber":1.0,"PostalCode":1.0},"MatchType":"interpolated","Location":{"LocationId":"NT_7a6LQj.TAfRayggxkFPvlB_l_57982553_L_2MD","LocationType":"point","DisplayPosition":{"Latitude":43.6141274,"Longitude":1.4745314},"MapView":{"TopLeft":{"Latitude":43.6152515,"Longitude":1.4729787},"BottomRight":{"Latitude":43.6130032,"Longitude":1.4760841}},"Address":{"Label":"63 Chemin de Hérédia, 31500 Toulouse, France","Country":"FRA","State":"Occitanie","County":"Haute-Garonne","City":"Toulouse","District":"Jolimont-Soupetard-Bonhoure","Street":"Chemin de Hérédia","HouseNumber":"63","PostalCode":"31500","AdditionalData":[{"value":"France","key":"CountryName"},{"value":"Occitanie","key":"StateName"},{"value":"Haute-Garonne","key":"CountyName"}]},"MapReference":{"ReferenceId":"57982553","Spot":0.53,"SideOfStreet":"left","CountryId":"20000001","StateId":"20050212","CountyId":"20094636","CityId":"20096280"}}},{"Relevance":1.0,"Distance":95.7,"MatchLevel":"houseNumber","MatchQuality":{"Country":1.0,"State":1.0,"County":1.0,"City":1.0,"District":1.0,"Street":[1.0],"HouseNumber":1.0,"PostalCode":1.0},"MatchType":"interpolated","Location":{"LocationId":"NT_RgjVqzDMmeinOkYfCdCukD_zcD","LocationType":"point","DisplayPosition":{"Latitude":43.61427,"Longitude":1.4742},"MapView":{"TopLeft":{"Latitude":43.6153942,"Longitude":1.4726473},"BottomRight":{"Latitude":43.6131458,"Longitude":1.4757527}},"Address":{"Label":"37 Rue Léon Say, 31500 Toulouse, France","Country":"FRA","State":"Occitanie","County":"Haute-Garonne","City":"Toulouse","District":"Jolimont-Soupetard-Bonhoure","Street":"Rue Léon Say","HouseNumber":"37","PostalCode":"31500","AdditionalData":[{"value":"France","key":"CountryName"},{"value":"Occitanie","key":"StateName"},{"value":"Haute-Garonne","key":"CountyName"}]},"MapReference":{"ReferenceId":"57982554","Spot":0.18,"SideOfStreet":"right","CountryId":"20000001","StateId":"20050212","CountyId":"20094636","CityId":"20096280","AddressId":"590608216","RoadLinkId":"51239383"}}},{"Relevance":1.0,"Distance":100.5,"MatchLevel":"houseNumber","MatchQuality":{"Country":1.0,"State":1.0,"County":1.0,"City":1.0,"District":1.0,"Street":[1.0],"HouseNumber":1.0,"PostalCode":1.0},"MatchType":"interpolated","Location":{"LocationId":"NT_EPAycqv5ZBTs8Qv8ioit4D_4A","LocationType":"point","DisplayPosition":{"Latitude":43.61553,"Longitude":1.47387},"MapView":{"TopLeft":{"Latitude":43.6166542,"Longitude":1.4723173},"BottomRight":{"Latitude":43.6144058,"Longitude":1.4754227}},"Address":{"Label":"8 Rue des Orangers, 31500 Toulouse, France","Country":"FRA","State":"Occitanie","County":"Haute-Garonne","City":"Toulouse","District":"Jolimont-Soupetard-Bonhoure","Street":"Rue des Orangers","HouseNumber":"8","PostalCode":"31500","AdditionalData":[{"value":"France","key":"CountryName"},{"value":"Occitanie","key":"StateName"},{"value":"Haute-Garonne","key":"CountyName"}]},"MapReference":{"ReferenceId":"57982437","Spot":0.82,"SideOfStreet":"right","CountryId":"20000001","StateId":"20050212","CountyId":"20094636","CityId":"20096280","AddressId":"320955041","RoadLinkId":"50499408"}}},{"Relevance":1.0,"Distance":108.3,"MatchLevel":"houseNumber","MatchQuality":{"Country":1.0,"State":1.0,"County":1.0,"City":1.0,"District":1.0,"Street":[1.0],"HouseNumber":1.0,"PostalCode":1.0},"MatchType":"interpolated","Location":{"LocationId":"NT_ix60zt9PcIjmAu5t59nWRC_xAjN","LocationType":"point","DisplayPosition":{"Latitude":43.61568,"Longitude":1.47395},"MapView":{"TopLeft":{"Latitude":43.6168042,"Longitude":1.4723973},"BottomRight":{"Latitude":43.6145558,"Longitude":1.4755027}},"Address":{"Label":"106 Rue Louis Plana, 31500 Toulouse, France","Country":"FRA","State":"Occitanie","County":"Haute-Garonne","City":"Toulouse","District":"Jolimont-Soupetard-Bonhoure","Street":"Rue Louis Plana","HouseNumber":"106","PostalCode":"31500","AdditionalData":[{"value":"France","key":"CountryName"},{"value":"Occitanie","key":"StateName"},{"value":"Haute-Garonne","key":"CountyName"}]},"MapReference":{"ReferenceId":"940976166","Spot":0.2,"SideOfStreet":"right","CountryId":"20000001","StateId":"20050212","CountyId":"20094636","CityId":"20096280","AddressId":"321060188","RoadLinkId":"291025652"}}},{"Relevance":1.0,"Distance":137.5,"MatchLevel":"houseNumber","MatchQuality":{"Country":1.0,"State":1.0,"County":1.0,"City":1.0,"District":1.0,"Street":[1.0],"HouseNumber":1.0,"PostalCode":1.0},"MatchType":"interpolated","Location":{"LocationId":"NT_ix60zt9PcIjmAu5t59nWRC_3YD","LocationType":"point","DisplayPosition":{"Latitude":43.61404,"Longitude":1.47598},"MapView":{"TopLeft":{"Latitude":43.6151642,"Longitude":1.4744273},"BottomRight":{"Latitude":43.6129158,"Longitude":1.4775327}},"Address":{"Label":"76 Rue Louis Plana, 31500 Toulouse, France","Country":"FRA","State":"Occitanie","County":"Haute-Garonne","City":"Toulouse","District":"Jolimont-Soupetard-Bonhoure","Street":"Rue Louis Plana","HouseNumber":"76","PostalCode":"31500","AdditionalData":[{"value":"France","key":"CountryName"},{"value":"Occitanie","key":"StateName"},{"value":"Haute-Garonne","key":"CountyName"}]},"MapReference":{"ReferenceId":"834311028","Spot":0.22,"SideOfStreet":"right","CountryId":"20000001","StateId":"20050212","CountyId":"20094636","CityId":"20096280","AddressId":"320851878","RoadLinkId":"217517071"}}}]}]}}