{"Response":{"MetaInfo":{"Timestamp":"2020-03-28T11:26:30.250+0000","NextPageInformation":"2"},"View":[{"_type":"SearchResultsViewType","ViewId":0,"Result":[{"Relevance":1.0,"Distance":0.0,"Direction":0.0,"MatchLevel":"city","MatchQuality":{"Country":1.0,"State":1.0,"County":1.0,"City":1.0,"PostalCode":1.0},"Location":{"LocationId":"NT_55qaPo283hXGNq2XlvjeGA","LocationType":"point","DisplayPosition":{"Latitude":43.6810976,"Longitude":10.8616325},"MapView":{"TopLeft":{"Latitude":43.71942,"Longitude":10.76268},"BottomRight":{"Latitude":43.61415,"Longitude":10.93407}},"Address":{"Label":"San Miniato, Toscana, Italia","Country":"ITA","State":"Toscana","County":"PI","City":"San Miniato","PostalCode":"56028","AdditionalData":[{"value":"Italia","key":"CountryName"},{"value":"Toscana","key":"StateName"},{"value":"Pisa","key":"CountyName"}]},"MapReference":{"ReferenceId":"550441432","SideOfStreet":"neither","CountryId":"20110484","StateId":"20123528","CountyId":"20128251","CityId":"20128388"}}},{"Relevance":1.0,"Distance":11.0,"MatchLevel":"houseNumber","MatchQuality":{"Country":1.0,"State":1.0,"County":1.0,"City":1.0,"Street":[1.0],"HouseNumber":1.0,"PostalCode":1.0},"MatchType":"interpolated","Location":{"LocationId":"NT_PO4J3JQyBMYx6JXpOYO6dC_xA","LocationType":"point","DisplayPosition":{"Latitude":43.68112,"Longitude":10.8619},"MapView":{"TopLeft":{"Latitude":43.6822442,"Longitude":10.8603456},"BottomRight":{"Latitude":43.6799958,"Longitude":10.8634544}},"Address":{"Label":"Via Calenzano, 1, 56028 San Miniato PI, Italia","Country":"ITA","State":"Toscana","County":"PI","City":"San Miniato","Street":"Via Calenzano","HouseNumber":"1","PostalCode":"56028","AdditionalData":[{"value":"Italia","key":"CountryName"},{"value":"Toscana","key":"StateName"},{"value":"Pisa","key":"CountyName"}]},"MapReference":{"ReferenceId":"550441397","Spot":1.0,"SideOfStreet":"right","CountryId":"20110484","StateId":"20123528","CountyId":"20128251","CityId":"20128388","AddressId":"247505501","RoadLinkId":"55961558"}}},{"Relevance":1.0,"Distance":13.8,"MatchLevel":"street","MatchQuality":{"Country":1.0,"State":1.0,"County":1.0,"City":1.0,"Street":[1.0],"PostalCode":1.0},"Location":{"LocationId":"NT_Ypj5V6JDcHNvF3bL89zf3A_l_550441396_L","LocationType":"point","DisplayPosition":{"Latitude":43.68107,"Longitude":10.8618},"MapView":{"TopLeft":{"Latitude":43.68112,"Longitude":10.8618},"BottomRight":{"Latitude":43.68033,"Longitude":10.86225}},"Address":{"Label":"Via Francesco Ferrucci, 56028 San Miniato PI, Italia","Country":"ITA","State":"Toscana","County":"PI","City":"San Miniato","Street":"Via Francesco Ferrucci","PostalCode":"56028","AdditionalData":[{"value":"Italia","key":"CountryName"},{"value":"Toscana","key":"StateName"},{"value":"Pisa","key":"CountyName"}]},"MapReference":{"ReferenceId":"550441396","Spot":0.88,"SideOfStreet":"left","CountryId":"20110484","StateId":"20123528","CountyId":"20128251","CityId":"20128388"}}},{"Relevance":1.0,"Distance":41.2,"MatchLevel":"houseNumber","MatchQuality":{"Country":1.0,"State":1.0,"County":1.0,"City":1.0,"Street":[1.0],"HouseNumber":1.0,"PostalCode":1.0},"MatchType":"interpolated","Location":{"LocationId":"NT_c.TUNpTgW.TLbby4Bvgl9B_3A","LocationType":"point","DisplayPosition":{"Latitude":43.68083,"Longitude":10.86115},"MapView":{"TopLeft":{"Latitude":43.6819542,"Longitude":10.8595956},"BottomRight":{"Latitude":43.6797058,"Longitude":10.8627044}},"Address":{"Label":"Piazza 10 Settembre, 7, 56028 San Miniato PI, Italia","Country":"ITA","State":"Toscana","County":"PI","City":"San Miniato","Street":"Piazza 10 Settembre","HouseNumber":"7","PostalCode":"56028","AdditionalData":[{"value":"Italia","key":"CountryName"},{"value":"Toscana","key":"StateName"},{"value":"Pisa","key":"CountyName"}]},"MapReference":{"ReferenceId":"549880350","Spot":0.71,"SideOfStreet":"right","CountryId":"20110484","StateId":"20123528","CountyId":"20128251","CityId":"20128388","AddressId":"247160626","RoadLinkId":"56689133"}}},{"Relevance":1.0,"Distance":45.9,"MatchLevel":"street","MatchQuality":{"Country":1.0,"State":1.0,"County":1.0,"City":1.0,"Street":[1.0],"PostalCode":1.0},"Location":{"LocationId":"NT_s-tcMiOcZ.At4YhoM4QB2A_l_549880362_L","LocationType":"point","DisplayPosition":{"Latitude":43.6810692,"Longitude":10.8622015},"MapView":{"TopLeft":{"Latitude":43.68179,"Longitude":10.86204},"BottomRight":{"Latitude":43.68064,"Longitude":10.86238}},"Address":{"Label":"Via Pancole, 56028 San Miniato PI, Italia","Country":"ITA","State":"Toscana","County":"PI","City":"San Miniato","Street":"Via Pancole","PostalCode":"56028","AdditionalData":[{"value":"Italia","key":"CountryName"},{"value":"Toscana","key":"StateName"},{"value":"Pisa","key":"CountyName"}]},"MapReference":{"ReferenceId":"549880362","Spot":0.39,"SideOfStreet":"left","CountryId":"20110484","StateId":"20123528","CountyId":"20128251","CityId":"20128388"}}},{"Relevance":1.0,"Distance":63.9,"MatchLevel":"houseNumber","MatchQuality":{"Country":1.0,"State":1.0,"County":1.0,"City":1.0,"Street":[1.0],"HouseNumber":1.0,"PostalCode":1.0},"MatchType":"interpolated","Location":{"LocationId":"NT_Ypj5V6JDcHNvF3bL89zf3A_1A","LocationType":"point","DisplayPosition":{"Latitude":43.6805,"Longitude":10.8614},"MapView":{"TopLeft":{"Latitude":43.6816242,"Longitude":10.8598456},"BottomRight":{"Latitude":43.6793758,"Longitude":10.8629544}},"Address":{"Label":"Via Francesco Ferrucci, 5, 56028 San Miniato PI, Italia","Country":"ITA","State":"Toscana","County":"PI","City":"San Miniato","Street":"Via Francesco Ferrucci","HouseNumber":"5","PostalCode":"56028","AdditionalData":[{"value":"Italia","key":"CountryName"},{"value":"Toscana","key":"StateName"},{"value":"Pisa","key":"CountyName"}]},"MapReference":{"ReferenceId":"549877272","Spot":0.7,"SideOfStreet":"right","CountryId":"20110484","StateId":"20123528","CountyId":"20128251","CityId":"20128388","AddressId":"247322271","RoadLinkId":"56838892"}}},{"Relevance":1.0,"Distance":76.7,"MatchLevel":"houseNumber","MatchQuality":{"Country":1.0,"State":1.0,"County":1.0,"City":1.0,"Street":[1.0],"HouseNumber":1.0,"PostalCode":1.0},"MatchType":"interpolated","Location":{"LocationId":"NT_c.TUNpTgW.TLbby4Bvgl9B_2A","LocationType":"point","DisplayPosition":{"Latitude":43.68082,"Longitude":10.86076},"MapView":{"TopLeft":{"Latitude":43.6819442,"Longitude":10.8592056},"BottomRight":{"Latitude":43.6796958,"Longitude":10.8623144}},"Address":{"Label":"Piazza 10 Settembre, 6, 56028 San Miniato PI, Italia","Country":"ITA","State":"Toscana","County":"PI","City":"San Miniato","Street":"Piazza 10 Settembre","HouseNumber":"6","PostalCode":"56028","AdditionalData":[{"value":"Italia","key":"CountryName"},{"value":"Toscana","key":"StateName"},{"value":"Pisa","key":"CountyName"}]},"MapReference":{"ReferenceId":"549880351","Spot":0.61,"SideOfStreet":"left","CountryId":"20110484","StateId":"20123528","CountyId":"20128251","CityId":"20128388","AddressId":"247498334","RoadLinkId":"57070169"}}},{"Relevance":1.0,"Distance":78.1,"MatchLevel":"street","MatchQuality":{"Country":1.0,"State":1.0,"County":1.0,"City":1.0,"Street":[1.0],"PostalCode":1.0},"Location":{"LocationId":"NT_PO4J3JQyBMYx6JXpOYO6dC_l_549877269_L","LocationType":"point","DisplayPosition":{"Latitude":43.68064,"Longitude":10.86237},"MapView":{"TopLeft":{"Latitude":43.68064,"Longitude":10.86237},"BottomRight":{"Latitude":43.67998,"Longitude":10.86255}},"Address":{"Label":"Via Calenzano, 56028 San Miniato PI, Italia","Country":"ITA","State":"Toscana","County":"PI","City":"San Miniato","Street":"Via Calenzano","PostalCode":"56028","AdditionalData":[{"value":"Italia","key":"CountryName"},{"value":"Toscana","key":"StateName"},{"value":"Pisa","key":"CountyName"}]},"MapReference":{"ReferenceId":"549877269","Spot":1.0,"SideOfStreet":"left","CountryId":"20110484","StateId":"20123528","CountyId":"20128251","CityId":"20128388"}}},{"Relevance":1.0,"Distance":85.6,"MatchLevel":"houseNumber","MatchQuality":{"Country":1.0,"State":1.0,"County":1.0,"City":1.0,"Street":[1.0],"HouseNumber":1.0,"PostalCode":1.0},"MatchType":"interpolated","Location":{"LocationId":"NT_c.TUNpTgW.TLbby4Bvgl9B_xQD","LocationType":"point","DisplayPosition":{"Latitude":43.6806,"Longitude":10.86082},"MapView":{"TopLeft":{"Latitude":43.6817242,"Longitude":10.8592656},"BottomRight":{"Latitude":43.6794758,"Longitude":10.8623744}},"Address":{"Label":"Piazza 10 Settembre, 14, 56028 San Miniato PI, Italia","Country":"ITA","State":"Toscana","County":"PI","City":"San Miniato","Street":"Piazza 10 Settembre","HouseNumber":"14","PostalCode":"56028","AdditionalData":[{"value":"Italia","key":"CountryName"},{"value":"Toscana","key":"StateName"},{"value":"Pisa","key":"CountyName"}]},"MapReference":{"ReferenceId":"55565093","Spot":0.39,"SideOfStreet":"left","CountryId":"20110484","StateId":"20123528","CountyId":"20128251","CityId":"20128388","AddressId":"247367571","RoadLinkId":"56004213"}}},{"Relevance":1.0,"Distance":95.8,"MatchLevel":"houseNumber","MatchQuality":{"Country":1.0,"State":1.0,"County":1.0,"City":1.0,"Street":[1.0],"HouseNumber":1.0,"PostalCode":1.0},"MatchType":"interpolated","Location":{"LocationId":"NT_Ypj5V6JDcHNvF3bL89zf3A_yID","LocationType":"point","DisplayPosition":{"Latitude":43.68026,"Longitude":10.86191},"MapView":{"TopLeft":{"Latitude":43.6813842,"Longitude":10.8603556},"BottomRight":{"Latitude":43.6791358,"Longitude":10.8634644}},"Address":{"Label":"Via Francesco Ferrucci, 22, 56028 San Miniato PI, Italia","Country":"ITA","State":"Toscana","County":"PI","City":"San Miniato","Street":"Via Francesco Ferrucci","HouseNumber":"22","PostalCode":"56028","AdditionalData":[{"value":"Italia","key":"CountryName"},{"value":"Toscana","key":"StateName"},{"value":"Pisa","key":"CountyName"}]},"MapReference":{"ReferenceId":"549877271","Spot":0.03,"SideOfStreet":"right","CountryId":"20110484","StateId":"20123528","CountyId":"20128251","CityId":"20128388","AddressId":"247480157","RoadLinkId":"56462769"}}}]}]}}