{"Response":{"MetaInfo":{"Timestamp":"2020-03-28T10:28:57.860+0000","NextPageInformation":"2"},"View":[{"_type":"SearchResultsViewType","ViewId":0,"Result":[{"Relevance":1.0,"Distance":0.0,"Direction":0.0,"MatchLevel":"district","MatchQuality":{"Country":1.0,"State":1.0,"County":1.0,"City":1.0,"District":1.0,"PostalCode":1.0},"Location":{"LocationId":"NT_onptbA8CdXUJJs5mn5-ukB","LocationType":"point","DisplayPosition":{"Latitude":43.645867,"Longitude":1.526235},"MapView":{"TopLeft":{"Latitude":43.65882,"Longitude":1.50778},"BottomRight":{"Latitude":43.63184,"Longitude":1.54506}},"Address":{"Label":"La Rivière, Montrabé, Occitanie, France","Country":"FRA","State":"Occitanie","County":"Haute-Garonne","City":"Montrabé","District":"La Rivière","PostalCode":"31850","AdditionalData":[{"value":"France","key":"CountryName"},{"value":"Occitanie","key":"StateName"},{"value":"Haute-Garonne","key":"CountyName"}]},"MapReference":{"ReferenceId":"537540629","SideOfStreet":"neither","CountryId":"20000001","StateId":"20050212","CountyId":"20094636","CityId":"20095786"}}},{"Relevance":1.0,"Distance":16.5,"MatchLevel":"houseNumber","MatchQuality":{"Country":1.0,"State":1.0,"County":1.0,"City":1.0,"Street":[1.0],"HouseNumber":1.0,"PostalCode":1.0},"MatchType":"interpolated","Location":{"LocationId":"NT_GG9MwjYoKpG64h50-9tbHB_yA","LocationType":"point","DisplayPosition":{"Latitude":43.64558,"Longitude":1.52623},"MapView":{"TopLeft":{"Latitude":43.6467042,"Longitude":1.5246765},"BottomRight":{"Latitude":43.6444558,"Longitude":1.5277835}},"Address":{"Label":"2 Rue de la Gimone, 31850 Montrabé, France","Country":"FRA","State":"Occitanie","County":"Haute-Garonne","City":"Montrabé","Street":"Rue de la Gimone","HouseNumber":"2","PostalCode":"31850","AdditionalData":[{"value":"France","key":"CountryName"},{"value":"Occitanie","key":"StateName"},{"value":"Haute-Garonne","key":"CountyName"}]},"MapReference":{"ReferenceId":"537540632","Spot":0.76,"SideOfStreet":"right","CountryId":"20000001","StateId":"20050212","CountyId":"20094636","CityId":"20095786","AddressId":"571708654","RoadLinkId":"50583412"}}},{"Relevance":1.0,"Distance":28.5,"MatchLevel":"street","MatchQuality":{"Country":1.0,"State":1.0,"County":1.0,"City":1.0,"Street":[1.0],"PostalCode":1.0},"Location":{"LocationId":"NT_EN7pKqHD6cw7VnQOAMuaFC_l_58003047_L","LocationType":"point","DisplayPosition":{"Latitude":43.6457628,"Longitude":1.5265585},"MapView":{"TopLeft":{"Latitude":43.64673,"Longitude":1.52649},"BottomRight":{"Latitude":43.64555,"Longitude":1.52687}},"Address":{"Label":"Allée du Stade, 31850 Montrabé, France","Country":"FRA","State":"Occitanie","County":"Haute-Garonne","City":"Montrabé","Street":"Allée du Stade","PostalCode":"31850","AdditionalData":[{"value":"France","key":"CountryName"},{"value":"Occitanie","key":"StateName"},{"value":"Haute-Garonne","key":"CountyName"}]},"MapReference":{"ReferenceId":"58003047","Spot":0.18,"SideOfStreet":"left","CountryId":"20000001","StateId":"20050212","CountyId":"20094636","CityId":"20095786"}}},{"Relevance":1.0,"Distance":30.3,"MatchLevel":"houseNumber","MatchQuality":{"Country":1.0,"State":1.0,"County":1.0,"City":1.0,"Street":[1.0],"HouseNumber":1.0,"PostalCode":1.0},"MatchType":"interpolated","Location":{"LocationId":"NT_BB7xpZpqTlx04CZIPcvrDA_0A","LocationType":"point","DisplayPosition":{"Latitude":43.64618,"Longitude":1.5258},"MapView":{"TopLeft":{"Latitude":43.6473042,"Longitude":1.5242465},"BottomRight":{"Latitude":43.6450558,"Longitude":1.5273535}},"Address":{"Label":"4 Rue de la Seillonne, 31850 Montrabé, France","Country":"FRA","State":"Occitanie","County":"Haute-Garonne","City":"Montrabé","Street":"Rue de la Seillonne","HouseNumber":"4","PostalCode":"31850","AdditionalData":[{"value":"France","key":"CountryName"},{"value":"Occitanie","key":"StateName"},{"value":"Haute-Garonne","key":"CountyName"}]},"MapReference":{"ReferenceId":"57972362","Spot":0.94,"SideOfStreet":"right","CountryId":"20000001","StateId":"20050212","CountyId":"20094636","CityId":"20095786","AddressId":"321057128","RoadLinkId":"51133860"}}},{"Relevance":1.0,"Distance":31.5,"MatchLevel":"houseNumber","MatchQuality":{"Country":1.0,"State":1.0,"County":1.0,"City":1.0,"Street":[1.0],"HouseNumber":1.0,"PostalCode":1.0},"MatchType":"interpolated","Location":{"LocationId":"NT_GG9MwjYoKpG64h50-9tbHB_0A","LocationType":"point","DisplayPosition":{"Latitude":43.64565,"Longitude":1.52591},"MapView":{"TopLeft":{"Latitude":43.6467742,"Longitude":1.5243565},"BottomRight":{"Latitude":43.6445258,"Longitude":1.5274635}},"Address":{"Label":"4 Rue de la Gimone, 31850 Montrabé, France","Country":"FRA","State":"Occitanie","County":"Haute-Garonne","City":"Montrabé","Street":"Rue de la Gimone","HouseNumber":"4","PostalCode":"31850","AdditionalData":[{"value":"France","key":"CountryName"},{"value":"Occitanie","key":"StateName"},{"value":"Haute-Garonne","key":"CountyName"}]},"MapReference":{"ReferenceId":"537540633","Spot":0.32,"SideOfStreet":"right","CountryId":"20000001","StateId":"20050212","CountyId":"20094636","CityId":"20095786","AddressId":"379684290","RoadLinkId":"50585914"}}},{"Relevance":1.0,"Distance":31.6,"MatchLevel":"street","MatchQuality":{"Country":1.0,"State":1.0,"County":1.0,"City":1.0,"Street":[1.0],"PostalCode":1.0},"Location":{"LocationId":"NT_AjkRQWymDcT3dFGvdlbc.C_l_585020663_L","LocationType":"point","DisplayPosition":{"Latitude":43.64559,"Longitude":1.52615},"MapView":{"TopLeft":{"Latitude":43.64559,"Longitude":1.52611},"BottomRight":{"Latitude":43.64552,"Longitude":1.52615}},"Address":{"Label":"Place du 19 Mars 1962, 31850 Montrabé, France","Country":"FRA","State":"Occitanie","County":"Haute-Garonne","City":"Montrabé","Street":"Place du 19 Mars 1962","PostalCode":"31850","AdditionalData":[{"value":"France","key":"CountryName"},{"value":"Occitanie","key":"StateName"},{"value":"Haute-Garonne","key":"CountyName"}]},"MapReference":{"ReferenceId":"585020663","Spot":1.0,"SideOfStreet":"left","CountryId":"20000001","StateId":"20050212","CountyId":"20094636","CityId":"20095786"}}},{"Relevance":1.0,"Distance":36.7,"MatchLevel":"houseNumber","MatchQuality":{"Country":1.0,"State":1.0,"County":1.0,"City":1.0,"Street":[1.0],"HouseNumber":1.0,"PostalCode":1.0},"MatchType":"interpolated","Location":{"LocationId":"NT_6oZjaNjzvAk-8LfdmQSZvA_3A","LocationType":"point","DisplayPosition":{"Latitude":43.64628,"Longitude":1.52601},"MapView":{"TopLeft":{"Latitude":43.6474042,"Longitude":1.5244565},"BottomRight":{"Latitude":43.6451558,"Longitude":1.5275635}},"Address":{"Label":"7 Place de la Save, 31850 Montrabé, France","Country":"FRA","State":"Occitanie","County":"Haute-Garonne","City":"Montrabé","Street":"Place de la Save","HouseNumber":"7","PostalCode":"31850","AdditionalData":[{"value":"France","key":"CountryName"},{"value":"Occitanie","key":"StateName"},{"value":"Haute-Garonne","key":"CountyName"}]},"MapReference":{"ReferenceId":"57972353","Spot":0.3,"SideOfStreet":"right","CountryId":"20000001","StateId":"20050212","CountyId":"20094636","CityId":"20095786","AddressId":"320952538","RoadLinkId":"51095395"}}},{"Relevance":1.0,"Distance":39.9,"MatchLevel":"street","MatchQuality":{"Country":1.0,"State":1.0,"County":1.0,"City":1.0,"Street":[1.0],"PostalCode":1.0},"Location":{"LocationId":"NT_AjkRQWymDcT3dFGvdlbc.C_l_585020662_L","LocationType":"point","DisplayPosition":{"Latitude":43.64552,"Longitude":1.52611},"MapView":{"TopLeft":{"Latitude":43.64552,"Longitude":1.52597},"BottomRight":{"Latitude":43.64517,"Longitude":1.52611}},"Address":{"Label":"Place du 19 Mars 1962, 31850 Montrabé, France","Country":"FRA","State":"Occitanie","County":"Haute-Garonne","City":"Montrabé","Street":"Place du 19 Mars 1962","PostalCode":"31850","AdditionalData":[{"value":"France","key":"CountryName"},{"value":"Occitanie","key":"StateName"},{"value":"Haute-Garonne","key":"CountyName"}]},"MapReference":{"ReferenceId":"585020662","Spot":1.0,"SideOfStreet":"left","CountryId":"20000001","StateId":"20050212","CountyId":"20094636","CityId":"20095786"}}},{"Relevance":1.0,"Distance":40.2,"MatchLevel":"street","MatchQuality":{"Country":1.0,"State":1.0,"County":1.0,"City":1.0,"Street":[1.0],"PostalCode":1.0},"Location":{"LocationId":"NT_AjkRQWymDcT3dFGvdlbc.C_l_537540636_R","LocationType":"point","DisplayPosition":{"Latitude":43.6455132,"Longitude":1.5261339},"MapView":{"TopLeft":{"Latitude":43.64552,"Longitude":1.52611},"BottomRight":{"Latitude":43.64527,"Longitude":1.52626}},"Address":{"Label":"Place du 19 Mars 1962, 31850 Montrabé, France","Country":"FRA","State":"Occitanie","County":"Haute-Garonne","City":"Montrabé","Street":"Place du 19 Mars 1962","PostalCode":"31850","AdditionalData":[{"value":"France","key":"CountryName"},{"value":"Occitanie","key":"StateName"},{"value":"Haute-Garonne","key":"CountyName"}]},"MapReference":{"ReferenceId":"537540636","Spot":0.93,"SideOfStreet":"right","CountryId":"20000001","StateId":"20050212","CountyId":"20094636","CityId":"20095786"}}},{"Relevance":1.0,"Distance":40.8,"MatchLevel":"street","MatchQuality":{"Country":1.0,"State":1.0,"County":1.0,"City":1.0,"Street":[1.0],"PostalCode":1.0},"Location":{"LocationId":"NT_EN7pKqHD6cw7VnQOAMuaFC_l_537540629_L","LocationType":"point","DisplayPosition":{"Latitude":43.64555,"Longitude":1.52649},"MapView":{"TopLeft":{"Latitude":43.64555,"Longitude":1.52635},"BottomRight":{"Latitude":43.64511,"Longitude":1.52649}},"Address":{"Label":"Allée du Stade, 31850 Montrabé, France","Country":"FRA","State":"Occitanie","County":"Haute-Garonne","City":"Montrabé","Street":"Allée du Stade","PostalCode":"31850","AdditionalData":[{"value":"France","key":"CountryName"},{"value":"Occitanie","key":"StateName"},{"value":"Haute-Garonne","key":"CountyName"}]},"MapReference":{"ReferenceId":"537540629","Spot":1.0,"SideOfStreet":"left","CountryId":"20000001","StateId":"20050212","CountyId":"20094636","CityId":"20095786"}}}]}]}}