{"Response":{"MetaInfo":{"Timestamp":"2020-03-28T11:08:37.304+0000","NextPageInformation":"2"},"View":[{"_type":"SearchResultsViewType","ViewId":0,"Result":[{"Relevance":1.0,"Distance":-134.2,"MatchLevel":"landmark","MatchQuality":{"Country":1.0,"State":1.0,"County":1.0,"Name":1.0},"Location":{"LocationId":"NT_mtn37Es0xjqfoSfLPZNRHB","LocationType":"industrialComplex","Name":"Euromédecine","DisplayPosition":{"Latitude":43.64277,"Longitude":3.83495},"MapView":{"TopLeft":{"Latitude":43.65063,"Longitude":3.82276},"BottomRight":{"Latitude":43.63491,"Longitude":3.84535}},"Address":{"Label":"France","Country":"FRA","State":"Occitanie","County":"Hérault","AdditionalData":[{"value":"France","key":"CountryName"},{"value":"Occitanie","key":"StateName"},{"value":"Hérault","key":"CountyName"}]},"MapReference":{"CountryId":"20000001","StateId":"20050212","CountyId":"20097832","PlaceId":"554738442"}}},{"Relevance":1.0,"Distance":0.0,"Direction":0.0,"MatchLevel":"district","MatchQuality":{"Country":1.0,"State":1.0,"County":1.0,"City":1.0,"District":1.0,"PostalCode":1.0},"Location":{"LocationId":"NT_HM3c.WoCZzPX3NF7dnCjUD","LocationType":"point","DisplayPosition":{"Latitude":43.6436019,"Longitude":3.8325108},"MapView":{"TopLeft":{"Latitude":43.65041,"Longitude":3.82276},"BottomRight":{"Latitude":43.6207,"Longitude":3.87375}},"Address":{"Label":"Hôpitaux-Facultés, Montpellier, Occitanie, France","Country":"FRA","State":"Occitanie","County":"Hérault","City":"Montpellier","District":"Hôpitaux-Facultés","PostalCode":"34090","AdditionalData":[{"value":"France","key":"CountryName"},{"value":"Occitanie","key":"StateName"},{"value":"Hérault","key":"CountyName"}]},"MapReference":{"ReferenceId":"590859989","SideOfStreet":"neither","CountryId":"20000001","StateId":"20050212","CountyId":"20097832","CityId":"20098349"}}},{"Relevance":1.0,"Distance":4.9,"MatchLevel":"houseNumber","MatchQuality":{"Country":1.0,"State":1.0,"County":1.0,"City":1.0,"District":1.0,"Street":[1.0],"HouseNumber":1.0,"PostalCode":1.0},"MatchType":"interpolated","Location":{"LocationId":"NT_DYs.qSpkDfT7et1rq.NSJD_yYzM","LocationType":"point","DisplayPosition":{"Latitude":43.64337,"Longitude":3.83339},"MapView":{"TopLeft":{"Latitude":43.6444942,"Longitude":3.8318366},"BottomRight":{"Latitude":43.6422458,"Longitude":3.8349434}},"Address":{"Label":"263 Rue du Caducée, 34090 Montpellier, France","Country":"FRA","State":"Occitanie","County":"Hérault","City":"Montpellier","District":"Hôpitaux-Facultés","Street":"Rue du Caducée","HouseNumber":"263","PostalCode":"34090","AdditionalData":[{"value":"France","key":"CountryName"},{"value":"Occitanie","key":"StateName"},{"value":"Hérault","key":"CountyName"}]},"MapReference":{"ReferenceId":"82372864","Spot":0.51,"SideOfStreet":"left","CountryId":"20000001","StateId":"20050212","CountyId":"20097832","CityId":"20098349","AddressId":"317030041","RoadLinkId":"51195837"}}},{"Relevance":1.0,"Distance":6.0,"MatchLevel":"street","MatchQuality":{"Country":1.0,"State":1.0,"County":1.0,"City":1.0,"District":1.0,"Street":[1.0],"PostalCode":1.0},"Location":{"LocationId":"NT_DYs.qSpkDfT7et1rq.NSJD_l_549027651_L","LocationType":"point","DisplayPosition":{"Latitude":43.643656,"Longitude":3.8325142},"MapView":{"TopLeft":{"Latitude":43.64397,"Longitude":3.83115},"BottomRight":{"Latitude":43.64365,"Longitude":3.83268}},"Address":{"Label":"Rue du Caducée, 34090 Montpellier, France","Country":"FRA","State":"Occitanie","County":"Hérault","City":"Montpellier","District":"Hôpitaux-Facultés","Street":"Rue du Caducée","PostalCode":"34090","AdditionalData":[{"value":"France","key":"CountryName"},{"value":"Occitanie","key":"StateName"},{"value":"Hérault","key":"CountyName"}]},"MapReference":{"ReferenceId":"549027651","Spot":0.11,"SideOfStreet":"left","CountryId":"20000001","StateId":"20050212","CountyId":"20097832","CityId":"20098349"}}},{"Relevance":1.0,"Distance":116.9,"MatchLevel":"street","MatchQuality":{"Country":1.0,"State":1.0,"County":1.0,"City":1.0,"District":1.0,"PostalCode":1.0},"Location":{"LocationId":"NT_i5WdD5Gl0jS7AfRWKqnVpB_l_811214543_R","LocationType":"point","DisplayPosition":{"Latitude":43.64397,"Longitude":3.83115},"MapView":{"TopLeft":{"Latitude":43.64397,"Longitude":3.83098},"BottomRight":{"Latitude":43.64387,"Longitude":3.83115}},"Address":{"Label":"34090 Montpellier, France","Country":"FRA","State":"Occitanie","County":"Hérault","City":"Montpellier","District":"Hôpitaux-Facultés","PostalCode":"34090","AdditionalData":[{"value":"France","key":"CountryName"},{"value":"Occitanie","key":"StateName"},{"value":"Hérault","key":"CountyName"}]},"MapReference":{"ReferenceId":"811214543","Spot":1.0,"SideOfStreet":"right","CountryId":"20000001","StateId":"20050212","CountyId":"20097832","CityId":"20098349"}}},{"Relevance":1.0,"Distance":116.9,"MatchLevel":"street","MatchQuality":{"Country":1.0,"State":1.0,"County":1.0,"City":1.0,"PostalCode":1.0},"Location":{"LocationId":"NT_i5WdD5Gl0jS7AfRWKqnVpB_l_811214546_R","LocationType":"point","DisplayPosition":{"Latitude":43.64397,"Longitude":3.83115},"MapView":{"TopLeft":{"Latitude":43.64407,"Longitude":3.83101},"BottomRight":{"Latitude":43.64397,"Longitude":3.83115}},"Address":{"Label":"34790 Grabels, France","Country":"FRA","State":"Occitanie","County":"Hérault","City":"Grabels","PostalCode":"34790","AdditionalData":[{"value":"France","key":"CountryName"},{"value":"Occitanie","key":"StateName"},{"value":"Hérault","key":"CountyName"}]},"MapReference":{"ReferenceId":"811214546","Spot":0.0,"SideOfStreet":"right","CountryId":"20000001","StateId":"20050212","CountyId":"20097832","CityId":"20098177"}}},{"Relevance":1.0,"Distance":126.7,"MatchLevel":"street","MatchQuality":{"Country":1.0,"State":1.0,"County":1.0,"City":1.0,"District":1.0,"Street":[1.0],"PostalCode":1.0},"Location":{"LocationId":"NT_1mNfPQgDWPk4meDc3fyXWA_l_585030210_R","LocationType":"point","DisplayPosition":{"Latitude":43.64387,"Longitude":3.83098},"MapView":{"TopLeft":{"Latitude":43.64387,"Longitude":3.8299},"BottomRight":{"Latitude":43.64198,"Longitude":3.83098}},"Address":{"Label":"Rue de la Valsière, 34090 Montpellier, France","Country":"FRA","State":"Occitanie","County":"Hérault","City":"Montpellier","District":"Hôpitaux-Facultés","Street":"Rue de la Valsière","PostalCode":"34090","AdditionalData":[{"value":"France","key":"CountryName"},{"value":"Occitanie","key":"StateName"},{"value":"Hérault","key":"CountyName"}]},"MapReference":{"ReferenceId":"585030210","Spot":1.0,"SideOfStreet":"right","CountryId":"20000001","StateId":"20050212","CountyId":"20097832","CityId":"20098349"}}},{"Relevance":1.0,"Distance":126.7,"MatchLevel":"street","MatchQuality":{"Country":1.0,"State":1.0,"County":1.0,"City":1.0,"District":1.0,"PostalCode":1.0},"Location":{"LocationId":"NT_TRDXnNu4Yx8Wj5ct6fMYID_l_811214544_R","LocationType":"point","DisplayPosition":{"Latitude":43.64387,"Longitude":3.83098},"MapView":{"TopLeft":{"Latitude":43.644,"Longitude":3.83087},"BottomRight":{"Latitude":43.64387,"Longitude":3.83098}},"Address":{"Label":"34090 Montpellier, France","Country":"FRA","State":"Occitanie","County":"Hérault","City":"Montpellier","District":"Hôpitaux-Facultés","PostalCode":"34090","AdditionalData":[{"value":"France","key":"CountryName"},{"value":"Occitanie","key":"StateName"},{"value":"Hérault","key":"CountyName"}]},"MapReference":{"ReferenceId":"811214544","Spot":0.0,"SideOfStreet":"right","CountryId":"20000001","StateId":"20050212","CountyId":"20097832","CityId":"20098349"}}},{"Relevance":1.0,"Distance":131.5,"MatchLevel":"street","MatchQuality":{"Country":1.0,"State":1.0,"County":1.0,"City":1.0,"District":1.0,"PostalCode":1.0},"Location":{"LocationId":"NT_TRDXnNu4Yx8Wj5ct6fMYID_l_811214547_R","LocationType":"point","DisplayPosition":{"Latitude":43.64407,"Longitude":3.83101},"MapView":{"TopLeft":{"Latitude":43.64407,"Longitude":3.83098},"BottomRight":{"Latitude":43.64407,"Longitude":3.83101}},"Address":{"Label":"34090 Montpellier, France","Country":"FRA","State":"Occitanie","County":"Hérault","City":"Montpellier","District":"Hôpitaux-Facultés","PostalCode":"34090","AdditionalData":[{"value":"France","key":"CountryName"},{"value":"Occitanie","key":"StateName"},{"value":"Hérault","key":"CountyName"}]},"MapReference":{"ReferenceId":"811214547","Spot":1.0,"SideOfStreet":"right","CountryId":"20000001","StateId":"20050212","CountyId":"20097832","CityId":"20098349"}}},{"Relevance":1.0,"Distance":133.7,"MatchLevel":"street","MatchQuality":{"Country":1.0,"State":1.0,"County":1.0,"City":1.0,"District":1.0,"PostalCode":1.0},"Location":{"LocationId":"NT_TRDXnNu4Yx8Wj5ct6fMYID_l_811214545_R","LocationType":"point","DisplayPosition":{"Latitude":43.64407,"Longitude":3.83098},"MapView":{"TopLeft":{"Latitude":43.64407,"Longitude":3.83088},"BottomRight":{"Latitude":43.644,"Longitude":3.83098}},"Address":{"Label":"34090 Montpellier, France","Country":"FRA","State":"Occitanie","County":"Hérault","City":"Montpellier","District":"Hôpitaux-Facultés","PostalCode":"34090","AdditionalData":[{"value":"France","key":"CountryName"},{"value":"Occitanie","key":"StateName"},{"value":"Hérault","key":"CountyName"}]},"MapReference":{"ReferenceId":"811214545","Spot":1.0,"SideOfStreet":"right","CountryId":"20000001","StateId":"20050212","CountyId":"20097832","CityId":"20098349"}}}]}]}}