{"Response":{"MetaInfo":{"Timestamp":"2020-03-28T11:08:29.739+0000","NextPageInformation":"2"},"View":[{"_type":"SearchResultsViewType","ViewId":0,"Result":[{"Relevance":1.0,"Distance":0.0,"Direction":0.0,"MatchLevel":"city","MatchQuality":{"Country":1.0,"State":1.0,"County":1.0,"City":1.0,"PostalCode":1.0},"Location":{"LocationId":"NT_HxLqojV6iO5dr-ssfq6veA","LocationType":"point","DisplayPosition":{"Latitude":43.760972,"Longitude":0.2967636},"MapView":{"TopLeft":{"Latitude":43.81364,"Longitude":0.20502},"BottomRight":{"Latitude":43.7188,"Longitude":0.37491}},"Address":{"Label":"Vic-Fezensac, Occitanie, France","Country":"FRA","State":"Occitanie","County":"Gers","City":"Vic-Fezensac","PostalCode":"32190","AdditionalData":[{"value":"France","key":"CountryName"},{"value":"Occitanie","key":"StateName"},{"value":"Gers","key":"CountyName"}]},"MapReference":{"ReferenceId":"814075710","SideOfStreet":"neither","CountryId":"20000001","StateId":"20050212","CountyId":"20096397","CityId":"20097763"}}},{"Relevance":1.0,"Distance":3.6,"MatchLevel":"street","MatchQuality":{"Country":1.0,"State":1.0,"County":1.0,"City":1.0,"Street":[1.0],"PostalCode":1.0},"Location":{"LocationId":"NT_RrzweRHWxSlFWosJfMcq7B_l_1253757961_R","LocationType":"point","DisplayPosition":{"Latitude":43.7609889,"Longitude":0.296726},"MapView":{"TopLeft":{"Latitude":43.76172,"Longitude":0.29665},"BottomRight":{"Latitude":43.76082,"Longitude":0.29759}},"Address":{"Label":"Camin de las Posderas, 32190 Vic-Fezensac, France","Country":"FRA","State":"Occitanie","County":"Gers","City":"Vic-Fezensac","Street":"Camin de las Posderas","PostalCode":"32190","AdditionalData":[{"value":"France","key":"CountryName"},{"value":"Occitanie","key":"StateName"},{"value":"Gers","key":"CountyName"}]},"MapReference":{"ReferenceId":"1253757961","Spot":0.14,"SideOfStreet":"right","CountryId":"20000001","StateId":"20050212","CountyId":"20096397","CityId":"20097763"}}},{"Relevance":1.0,"Distance":18.8,"MatchLevel":"street","MatchQuality":{"Country":1.0,"State":1.0,"County":1.0,"City":1.0,"PostalCode":1.0},"Location":{"LocationId":"NT_jngUvSw1wjiwycH62CfDeC_l_1253757962_R","LocationType":"point","DisplayPosition":{"Latitude":43.7608044,"Longitude":0.2967317},"MapView":{"TopLeft":{"Latitude":43.76082,"Longitude":0.29665},"BottomRight":{"Latitude":43.76017,"Longitude":0.29839}},"Address":{"Label":"32190 Vic-Fezensac, France","Country":"FRA","State":"Occitanie","County":"Gers","City":"Vic-Fezensac","PostalCode":"32190","AdditionalData":[{"value":"France","key":"CountryName"},{"value":"Occitanie","key":"StateName"},{"value":"Gers","key":"CountyName"}]},"MapReference":{"ReferenceId":"1253757962","Spot":0.96,"SideOfStreet":"right","CountryId":"20000001","StateId":"20050212","CountyId":"20096397","CityId":"20097763"}}},{"Relevance":1.0,"Distance":19.2,"MatchLevel":"street","MatchQuality":{"Country":1.0,"State":1.0,"County":1.0,"City":1.0,"Street":[1.0],"PostalCode":1.0},"Location":{"LocationId":"NT_RrzweRHWxSlFWosJfMcq7B_l_1253757963_R","LocationType":"point","DisplayPosition":{"Latitude":43.76082,"Longitude":0.29665},"MapView":{"TopLeft":{"Latitude":43.76082,"Longitude":0.29654},"BottomRight":{"Latitude":43.76053,"Longitude":0.29665}},"Address":{"Label":"Camin de las Posderas, 32190 Vic-Fezensac, France","Country":"FRA","State":"Occitanie","County":"Gers","City":"Vic-Fezensac","Street":"Camin de las Posderas","PostalCode":"32190","AdditionalData":[{"value":"France","key":"CountryName"},{"value":"Occitanie","key":"StateName"},{"value":"Gers","key":"CountyName"}]},"MapReference":{"ReferenceId":"1253757963","Spot":1.0,"SideOfStreet":"right","CountryId":"20000001","StateId":"20050212","CountyId":"20096397","CityId":"20097763"}}},{"Relevance":1.0,"Distance":52.3,"MatchLevel":"street","MatchQuality":{"Country":1.0,"State":1.0,"County":1.0,"City":1.0,"Street":[1.0],"PostalCode":1.0},"Location":{"LocationId":"NT_RrzweRHWxSlFWosJfMcq7B_l_1253757965_R","LocationType":"point","DisplayPosition":{"Latitude":43.76053,"Longitude":0.29654},"MapView":{"TopLeft":{"Latitude":43.76053,"Longitude":0.29627},"BottomRight":{"Latitude":43.75991,"Longitude":0.29654}},"Address":{"Label":"Camin de las Posderas, 32190 Vic-Fezensac, France","Country":"FRA","State":"Occitanie","County":"Gers","City":"Vic-Fezensac","Street":"Camin de las Posderas","PostalCode":"32190","AdditionalData":[{"value":"France","key":"CountryName"},{"value":"Occitanie","key":"StateName"},{"value":"Gers","key":"CountyName"}]},"MapReference":{"ReferenceId":"1253757965","Spot":1.0,"SideOfStreet":"right","CountryId":"20000001","StateId":"20050212","CountyId":"20096397","CityId":"20097763"}}},{"Relevance":1.0,"Distance":52.3,"MatchLevel":"street","MatchQuality":{"Country":1.0,"State":1.0,"County":1.0,"City":1.0,"PostalCode":1.0},"Location":{"LocationId":"NT_jngUvSw1wjiwycH62CfDeC_l_1253757967_L","LocationType":"point","DisplayPosition":{"Latitude":43.76053,"Longitude":0.29654},"MapView":{"TopLeft":{"Latitude":43.76056,"Longitude":0.29616},"BottomRight":{"Latitude":43.76029,"Longitude":0.29654}},"Address":{"Label":"32190 Vic-Fezensac, France","Country":"FRA","State":"Occitanie","County":"Gers","City":"Vic-Fezensac","PostalCode":"32190","AdditionalData":[{"value":"France","key":"CountryName"},{"value":"Occitanie","key":"StateName"},{"value":"Gers","key":"CountyName"}]},"MapReference":{"ReferenceId":"1253757967","Spot":1.0,"SideOfStreet":"left","CountryId":"20000001","StateId":"20050212","CountyId":"20096397","CityId":"20097763"}}},{"Relevance":1.0,"Distance":90.0,"MatchLevel":"street","MatchQuality":{"Country":1.0,"State":1.0,"County":1.0,"City":1.0,"PostalCode":1.0},"Location":{"LocationId":"NT_jngUvSw1wjiwycH62CfDeC_l_1253759225_R","LocationType":"point","DisplayPosition":{"Latitude":43.76029,"Longitude":0.29616},"MapView":{"TopLeft":{"Latitude":43.76029,"Longitude":0.29608},"BottomRight":{"Latitude":43.75991,"Longitude":0.29627}},"Address":{"Label":"32190 Vic-Fezensac, France","Country":"FRA","State":"Occitanie","County":"Gers","City":"Vic-Fezensac","PostalCode":"32190","AdditionalData":[{"value":"France","key":"CountryName"},{"value":"Occitanie","key":"StateName"},{"value":"Gers","key":"CountyName"}]},"MapReference":{"ReferenceId":"1253759225","Spot":1.0,"SideOfStreet":"right","CountryId":"20000001","StateId":"20050212","CountyId":"20096397","CityId":"20097763"}}},{"Relevance":1.0,"Distance":101.8,"MatchLevel":"street","MatchQuality":{"Country":1.0,"State":1.0,"County":1.0,"City":1.0,"PostalCode":1.0},"Location":{"LocationId":"NT_jngUvSw1wjiwycH62CfDeC_l_1021974956_L","LocationType":"point","DisplayPosition":{"Latitude":43.76178,"Longitude":0.29736},"MapView":{"TopLeft":{"Latitude":43.76178,"Longitude":0.29736},"BottomRight":{"Latitude":43.76172,"Longitude":0.29759}},"Address":{"Label":"32190 Vic-Fezensac, France","Country":"FRA","State":"Occitanie","County":"Gers","City":"Vic-Fezensac","PostalCode":"32190","AdditionalData":[{"value":"France","key":"CountryName"},{"value":"Occitanie","key":"StateName"},{"value":"Gers","key":"CountyName"}]},"MapReference":{"ReferenceId":"1021974956","Spot":1.0,"SideOfStreet":"left","CountryId":"20000001","StateId":"20050212","CountyId":"20096397","CityId":"20097763"}}},{"Relevance":1.0,"Distance":102.7,"MatchLevel":"street","MatchQuality":{"Country":1.0,"State":1.0,"County":1.0,"City":1.0,"PostalCode":1.0},"Location":{"LocationId":"NT_jngUvSw1wjiwycH62CfDeC_l_585000388_L","LocationType":"point","DisplayPosition":{"Latitude":43.76185,"Longitude":0.29716},"MapView":{"TopLeft":{"Latitude":43.76221,"Longitude":0.29659},"BottomRight":{"Latitude":43.76178,"Longitude":0.29736}},"Address":{"Label":"32190 Vic-Fezensac, France","Country":"FRA","State":"Occitanie","County":"Gers","City":"Vic-Fezensac","PostalCode":"32190","AdditionalData":[{"value":"France","key":"CountryName"},{"value":"Occitanie","key":"StateName"},{"value":"Gers","key":"CountyName"}]},"MapReference":{"ReferenceId":"585000388","Spot":0.24,"SideOfStreet":"left","CountryId":"20000001","StateId":"20050212","CountyId":"20096397","CityId":"20097763"}}},{"Relevance":1.0,"Distance":106.4,"MatchLevel":"street","MatchQuality":{"Country":1.0,"State":1.0,"County":1.0,"City":1.0,"PostalCode":1.0},"Location":{"LocationId":"NT_jngUvSw1wjiwycH62CfDeC_l_1021974955_L","LocationType":"point","DisplayPosition":{"Latitude":43.76172,"Longitude":0.29759},"MapView":{"TopLeft":{"Latitude":43.76172,"Longitude":0.29759},"BottomRight":{"Latitude":43.76158,"Longitude":0.29856}},"Address":{"Label":"32190 Vic-Fezensac, France","Country":"FRA","State":"Occitanie","County":"Gers","City":"Vic-Fezensac","PostalCode":"32190","AdditionalData":[{"value":"France","key":"CountryName"},{"value":"Occitanie","key":"StateName"},{"value":"Gers","key":"CountyName"}]},"MapReference":{"ReferenceId":"1021974955","Spot":1.0,"SideOfStreet":"left","CountryId":"20000001","StateId":"20050212","CountyId":"20096397","CityId":"20097763"}}}]}]}}