{"Response":{"MetaInfo":{"Timestamp":"2020-03-28T09:44:26.220+0000","NextPageInformation":"2"},"View":[{"_type":"SearchResultsViewType","ViewId":0,"Result":[{"Relevance":1.0,"Distance":0.0,"Direction":0.0,"MatchLevel":"city","MatchQuality":{"Country":1.0,"State":1.0,"County":1.0,"City":1.0,"PostalCode":1.0},"Location":{"LocationId":"NT_iz3VjSfLmoRm3339sCU-3B","LocationType":"point","DisplayPosition":{"Latitude":43.7338435,"Longitude":-7.6767919},"MapView":{"TopLeft":{"Latitude":43.76164,"Longitude":-7.73486},"BottomRight":{"Latitude":43.60947,"Longitude":-7.60612}},"Address":{"Label":"O Vicedo, Galicia, España","Country":"ESP","State":"Galicia","County":"Lugo","City":"O Vicedo","PostalCode":"27860","AdditionalData":[{"value":"España","key":"CountryName"},{"value":"Galicia","key":"StateName"},{"value":"Lugo","key":"CountyName"}]},"MapReference":{"ReferenceId":"82229122","SideOfStreet":"neither","CountryId":"20215059","StateId":"20226791","CountyId":"20226793","CityId":"20322224"}}},{"Relevance":1.0,"Distance":31.4,"MatchLevel":"houseNumber","MatchQuality":{"Country":1.0,"State":1.0,"County":1.0,"City":1.0,"Street":[1.0],"HouseNumber":1.0,"PostalCode":1.0},"MatchType":"interpolated","Location":{"LocationId":"NT_yZLE7p1LMKflwdwgVDwSLC_l_560625582_R_xA","LocationType":"point","DisplayPosition":{"Latitude":43.7334729,"Longitude":-7.6766775},"MapView":{"TopLeft":{"Latitude":43.734597,"Longitude":-7.6782332},"BottomRight":{"Latitude":43.7323487,"Longitude":-7.6751217}},"Address":{"Label":"Rúa Edclano Pérez, 1, 27860 O Vicedo (Lugo), España","Country":"ESP","State":"Galicia","County":"Lugo","City":"O Vicedo","Street":"Rúa Edclano Pérez","HouseNumber":"1","PostalCode":"27860","AdditionalData":[{"value":"España","key":"CountryName"},{"value":"Galicia","key":"StateName"},{"value":"Lugo","key":"CountyName"}]},"MapReference":{"ReferenceId":"560625582","Spot":0.54,"SideOfStreet":"right","CountryId":"20215059","StateId":"20226791","CountyId":"20226793","CityId":"20322224"}}},{"Relevance":1.0,"Distance":48.5,"MatchLevel":"houseNumber","MatchQuality":{"Country":1.0,"State":1.0,"County":1.0,"City":1.0,"Street":[1.0],"HouseNumber":1.0,"PostalCode":1.0},"MatchType":"interpolated","Location":{"LocationId":"NT_XHhGElPrs5-P487YD7c4kB_l_82182178_L_yA","LocationType":"point","DisplayPosition":{"Latitude":43.7336667,"Longitude":-7.6762406},"MapView":{"TopLeft":{"Latitude":43.7347909,"Longitude":-7.6777964},"BottomRight":{"Latitude":43.7325426,"Longitude":-7.6746848}},"Address":{"Label":"Rúa Vías y Obras, 2, 27860 O Vicedo (Lugo), España","Country":"ESP","State":"Galicia","County":"Lugo","City":"O Vicedo","Street":"Rúa Vías y Obras","HouseNumber":"2","PostalCode":"27860","AdditionalData":[{"value":"España","key":"CountryName"},{"value":"Galicia","key":"StateName"},{"value":"Lugo","key":"CountyName"}]},"MapReference":{"ReferenceId":"82182178","Spot":0.7,"SideOfStreet":"left","CountryId":"20215059","StateId":"20226791","CountyId":"20226793","CityId":"20322224"}}},{"Relevance":1.0,"Distance":71.2,"MatchLevel":"houseNumber","MatchQuality":{"Country":1.0,"State":1.0,"County":1.0,"City":1.0,"Street":[1.0],"HouseNumber":1.0,"PostalCode":1.0},"MatchType":"interpolated","Location":{"LocationId":"NT_yZLE7p1LMKflwdwgVDwSLC_l_560625581_R_xA","LocationType":"point","DisplayPosition":{"Latitude":43.7333188,"Longitude":-7.6761182},"MapView":{"TopLeft":{"Latitude":43.734443,"Longitude":-7.677674},"BottomRight":{"Latitude":43.7321947,"Longitude":-7.6745624}},"Address":{"Label":"Rúa Edclano Pérez, 1, 27860 O Vicedo (Lugo), España","Country":"ESP","State":"Galicia","County":"Lugo","City":"O Vicedo","Street":"Rúa Edclano Pérez","HouseNumber":"1","PostalCode":"27860","AdditionalData":[{"value":"España","key":"CountryName"},{"value":"Galicia","key":"StateName"},{"value":"Lugo","key":"CountyName"}]},"MapReference":{"ReferenceId":"560625581","Spot":0.76,"SideOfStreet":"right","CountryId":"20215059","StateId":"20226791","CountyId":"20226793","CityId":"20322224"}}},{"Relevance":1.0,"Distance":125.1,"MatchLevel":"houseNumber","MatchQuality":{"Country":1.0,"State":1.0,"County":1.0,"City":1.0,"Street":[1.0],"HouseNumber":1.0,"PostalCode":1.0},"MatchType":"interpolated","Location":{"LocationId":"NT_XHhGElPrs5-P487YD7c4kB_l_560623807_L_5A","LocationType":"point","DisplayPosition":{"Latitude":43.7329423,"Longitude":-7.6777315},"MapView":{"TopLeft":{"Latitude":43.7340664,"Longitude":-7.6792872},"BottomRight":{"Latitude":43.7318181,"Longitude":-7.6761757}},"Address":{"Label":"Rúa Vías y Obras, 9, 27860 O Vicedo (Lugo), España","Country":"ESP","State":"Galicia","County":"Lugo","City":"O Vicedo","Street":"Rúa Vías y Obras","HouseNumber":"9","PostalCode":"27860","AdditionalData":[{"value":"España","key":"CountryName"},{"value":"Galicia","key":"StateName"},{"value":"Lugo","key":"CountyName"}]},"MapReference":{"ReferenceId":"560623807","Spot":0.46,"SideOfStreet":"left","CountryId":"20215059","StateId":"20226791","CountyId":"20226793","CityId":"20322224"}}},{"Relevance":1.0,"Distance":142.6,"MatchLevel":"street","MatchQuality":{"Country":1.0,"State":1.0,"County":1.0,"City":1.0,"PostalCode":1.0},"Location":{"LocationId":"NT_IvTjBOswS8KrNjqjk0AWkC_l_570270300_L","LocationType":"point","DisplayPosition":{"Latitude":43.73364,"Longitude":-7.67504},"MapView":{"TopLeft":{"Latitude":43.73364,"Longitude":-7.67504},"BottomRight":{"Latitude":43.7332,"Longitude":-7.67493}},"Address":{"Label":"27860 O Vicedo (Lugo), España","Country":"ESP","State":"Galicia","County":"Lugo","City":"O Vicedo","PostalCode":"27860","AdditionalData":[{"value":"España","key":"CountryName"},{"value":"Galicia","key":"StateName"},{"value":"Lugo","key":"CountyName"}]},"MapReference":{"ReferenceId":"570270300","Spot":1.0,"SideOfStreet":"left","CountryId":"20215059","StateId":"20226791","CountyId":"20226793","CityId":"20322224"}}},{"Relevance":1.0,"Distance":165.8,"MatchLevel":"street","MatchQuality":{"Country":1.0,"State":1.0,"County":1.0,"City":1.0,"Street":[1.0],"PostalCode":1.0},"Location":{"LocationId":"NT_XHhGElPrs5-P487YD7c4kB_l_82182183_L","LocationType":"point","DisplayPosition":{"Latitude":43.7332,"Longitude":-7.67493},"MapView":{"TopLeft":{"Latitude":43.7332,"Longitude":-7.67493},"BottomRight":{"Latitude":43.73282,"Longitude":-7.67456}},"Address":{"Label":"Rúa Vías y Obras, 27860 O Vicedo (Lugo), España","Country":"ESP","State":"Galicia","County":"Lugo","City":"O Vicedo","Street":"Rúa Vías y Obras","PostalCode":"27860","AdditionalData":[{"value":"España","key":"CountryName"},{"value":"Galicia","key":"StateName"},{"value":"Lugo","key":"CountyName"}]},"MapReference":{"ReferenceId":"82182183","Spot":1.0,"SideOfStreet":"left","CountryId":"20215059","StateId":"20226791","CountyId":"20226793","CityId":"20322224"}}},{"Relevance":1.0,"Distance":200.9,"MatchLevel":"street","MatchQuality":{"Country":1.0,"State":1.0,"County":1.0,"City":1.0,"Street":[1.0],"PostalCode":1.0},"Location":{"LocationId":"NT_chsBFCuFhS79LGlxQkE2FB_l_732167519_L","LocationType":"point","DisplayPosition":{"Latitude":43.73215,"Longitude":-7.67592},"MapView":{"TopLeft":{"Latitude":43.7322,"Longitude":-7.67627},"BottomRight":{"Latitude":43.73192,"Longitude":-7.6758}},"Address":{"Label":"Rúa Travesía da Mariña, 27860 O Vicedo (Lugo), España","Country":"ESP","State":"Galicia","County":"Lugo","City":"O Vicedo","Street":"Rúa Travesía da Mariña","PostalCode":"27860","AdditionalData":[{"value":"España","key":"CountryName"},{"value":"Galicia","key":"StateName"},{"value":"Lugo","key":"CountyName"}]},"MapReference":{"ReferenceId":"732167519","Spot":0.76,"SideOfStreet":"left","CountryId":"20215059","StateId":"20226791","CountyId":"20226793","CityId":"20322224"}}},{"Relevance":1.0,"Distance":208.0,"MatchLevel":"houseNumber","MatchQuality":{"Country":1.0,"State":1.0,"County":1.0,"City":1.0,"Street":[1.0],"HouseNumber":1.0,"PostalCode":1.0},"MatchType":"interpolated","Location":{"LocationId":"NT_YaWxOPxzEQsictwjoCM5fD_zA","LocationType":"point","DisplayPosition":{"Latitude":43.73202,"Longitude":-7.67737},"MapView":{"TopLeft":{"Latitude":43.7331442,"Longitude":-7.6789257},"BottomRight":{"Latitude":43.7308958,"Longitude":-7.6758143}},"Address":{"Label":"Barrio Fomento, 3, 27860 O Vicedo (Lugo), España","Country":"ESP","State":"Galicia","County":"Lugo","City":"O Vicedo","Street":"Barrio Fomento","HouseNumber":"3","PostalCode":"27860","AdditionalData":[{"value":"España","key":"CountryName"},{"value":"Galicia","key":"StateName"},{"value":"Lugo","key":"CountyName"}]},"MapReference":{"ReferenceId":"560625733","Spot":0.59,"SideOfStreet":"left","CountryId":"20215059","StateId":"20226791","CountyId":"20226793","CityId":"20322224","AddressId":"351138395","RoadLinkId":"68361871"}}},{"Relevance":1.0,"Distance":208.8,"MatchLevel":"houseNumber","MatchQuality":{"Country":1.0,"State":1.0,"County":1.0,"City":1.0,"Street":[1.0],"HouseNumber":1.0,"PostalCode":1.0},"MatchType":"interpolated","Location":{"LocationId":"NT_-BJ93Qr8qKeku0zzZHlQnA_xIDO","LocationType":"point","DisplayPosition":{"Latitude":43.73243,"Longitude":-7.675},"MapView":{"TopLeft":{"Latitude":43.7335542,"Longitude":-7.6765558},"BottomRight":{"Latitude":43.7313058,"Longitude":-7.6734442}},"Address":{"Label":"Rúa Travesía da Mariña, 128, 27860 O Vicedo (Lugo), España","Country":"ESP","State":"Galicia","County":"Lugo","City":"O Vicedo","Street":"Rúa Travesía da Mariña","HouseNumber":"128","PostalCode":"27860","AdditionalData":[{"value":"España","key":"CountryName"},{"value":"Galicia","key":"StateName"},{"value":"Lugo","key":"CountyName"}]},"MapReference":{"ReferenceId":"732167520","Spot":0.57,"SideOfStreet":"left","CountryId":"20215059","StateId":"20226791","CountyId":"20226793","CityId":"20322224","AddressId":"778482610","RoadLinkId":"134343853"}}}]}]}}