{"Response":{"MetaInfo":{"Timestamp":"2020-03-28T11:53:48.773+0000","NextPageInformation":"2"},"View":[{"_type":"SearchResultsViewType","ViewId":0,"Result":[{"Relevance":1.0,"Distance":-9293.1,"MatchLevel":"landmark","MatchQuality":{"Country":1.0,"State":1.0,"Name":1.0},"Location":{"LocationId":"NT_jz6mLDtgM35oveX.VtnKfD","LocationType":"park","Name":"P.N.R. du Luberon","DisplayPosition":{"Latitude":43.84961,"Longitude":5.23299},"MapView":{"TopLeft":{"Latitude":44.04049,"Longitude":4.9738},"BottomRight":{"Latitude":43.65872,"Longitude":5.91683}},"Address":{"Label":"France","Country":"FRA","State":"Provence-Alpes-Côte d'Azur","AdditionalData":[{"value":"France","key":"CountryName"},{"value":"Provence-Alpes-Côte d'Azur","key":"StateName"}]},"MapReference":{"CountryId":"20000001","StateId":"20000193","PlaceId":"1509655263"}}},{"Relevance":1.0,"Distance":0.0,"Direction":0.0,"MatchLevel":"city","MatchQuality":{"Country":1.0,"State":1.0,"County":1.0,"City":1.0,"PostalCode":1.0},"Location":{"LocationId":"NT_cY0vrBDXtQMKeEKauh8rkA","LocationType":"point","DisplayPosition":{"Latitude":43.822594,"Longitude":5.3056551},"MapView":{"TopLeft":{"Latitude":43.88262,"Longitude":5.26754},"BottomRight":{"Latitude":43.78297,"Longitude":5.36665}},"Address":{"Label":"Bonnieux, Provence-Alpes-Côte d'Azur, France","Country":"FRA","State":"Provence-Alpes-Côte d'Azur","County":"Vaucluse","City":"Bonnieux","PostalCode":"84480","AdditionalData":[{"value":"France","key":"CountryName"},{"value":"Provence-Alpes-Côte d'Azur","key":"StateName"},{"value":"Vaucluse","key":"CountyName"}]},"MapReference":{"ReferenceId":"546098593","SideOfStreet":"neither","CountryId":"20000001","StateId":"20000193","CountyId":"20056024","CityId":"20056085"}}},{"Relevance":1.0,"Distance":4.5,"MatchLevel":"houseNumber","MatchQuality":{"Country":1.0,"State":1.0,"County":1.0,"City":1.0,"Street":[1.0],"HouseNumber":1.0,"PostalCode":1.0},"MatchType":"interpolated","Location":{"LocationId":"NT_pemUY9MIZn-C6auhokywCD_xA","LocationType":"point","DisplayPosition":{"Latitude":43.82267,"Longitude":5.30567},"MapView":{"TopLeft":{"Latitude":43.8237942,"Longitude":5.3041119},"BottomRight":{"Latitude":43.8215458,"Longitude":5.3072281}},"Address":{"Label":"1 Rue Raspail, 84480 Bonnieux, France","Country":"FRA","State":"Provence-Alpes-Côte d'Azur","County":"Vaucluse","City":"Bonnieux","Street":"Rue Raspail","HouseNumber":"1","PostalCode":"84480","AdditionalData":[{"value":"France","key":"CountryName"},{"value":"Provence-Alpes-Côte d'Azur","key":"StateName"},{"value":"Vaucluse","key":"CountyName"}]},"MapReference":{"ReferenceId":"546098838","Spot":0.86,"SideOfStreet":"right","CountryId":"20000001","StateId":"20000193","CountyId":"20056024","CityId":"20056085","AddressId":"345383610","RoadLinkId":"45571335"}}},{"Relevance":1.0,"Distance":9.3,"MatchLevel":"street","MatchQuality":{"Country":1.0,"State":1.0,"County":1.0,"City":1.0,"Street":[1.0],"PostalCode":1.0},"Location":{"LocationId":"NT_W0OIomZCDmvAIh8qL7786B_l_546098852_L","LocationType":"point","DisplayPosition":{"Latitude":43.8226214,"Longitude":5.3057647},"MapView":{"TopLeft":{"Latitude":43.82268,"Longitude":5.30576},"BottomRight":{"Latitude":43.82252,"Longitude":5.3058}},"Address":{"Label":"D3, 84480 Bonnieux, France","Country":"FRA","State":"Provence-Alpes-Côte d'Azur","County":"Vaucluse","City":"Bonnieux","Street":"D3","PostalCode":"84480","AdditionalData":[{"value":"France","key":"CountryName"},{"value":"Provence-Alpes-Côte d'Azur","key":"StateName"},{"value":"Vaucluse","key":"CountyName"}]},"MapReference":{"ReferenceId":"546098852","Spot":0.64,"SideOfStreet":"left","CountryId":"20000001","StateId":"20000193","CountyId":"20056024","CityId":"20056085"}}},{"Relevance":1.0,"Distance":12.7,"MatchLevel":"houseNumber","MatchQuality":{"Country":1.0,"State":1.0,"County":1.0,"City":1.0,"Street":[1.0],"HouseNumber":1.0,"PostalCode":1.0},"MatchType":"interpolated","Location":{"LocationId":"NT_hV6vVzXqjuSgXJJilt9IeB_xA","LocationType":"point","DisplayPosition":{"Latitude":43.82268,"Longitude":5.30576},"MapView":{"TopLeft":{"Latitude":43.8238042,"Longitude":5.3042019},"BottomRight":{"Latitude":43.8215558,"Longitude":5.3073181}},"Address":{"Label":"1 Place du 4 Septembre, 84480 Bonnieux, France","Country":"FRA","State":"Provence-Alpes-Côte d'Azur","County":"Vaucluse","City":"Bonnieux","Street":"Place du 4 Septembre","HouseNumber":"1","PostalCode":"84480","AdditionalData":[{"value":"France","key":"CountryName"},{"value":"Provence-Alpes-Côte d'Azur","key":"StateName"},{"value":"Vaucluse","key":"CountyName"}]},"MapReference":{"ReferenceId":"546098851","Spot":0.0,"SideOfStreet":"left","CountryId":"20000001","StateId":"20000193","CountyId":"20056024","CityId":"20056085","AddressId":"319111752","RoadLinkId":"134677686"}}},{"Relevance":1.0,"Distance":25.8,"MatchLevel":"houseNumber","MatchQuality":{"Country":1.0,"State":1.0,"County":1.0,"City":1.0,"Street":[1.0],"HouseNumber":1.0,"PostalCode":1.0},"MatchType":"interpolated","Location":{"LocationId":"NT_hV6vVzXqjuSgXJJilt9IeB_5IE","LocationType":"point","DisplayPosition":{"Latitude":43.82264,"Longitude":5.30597},"MapView":{"TopLeft":{"Latitude":43.8237642,"Longitude":5.3044119},"BottomRight":{"Latitude":43.8215158,"Longitude":5.3075281}},"Address":{"Label":"9B Place du 4 Septembre, 84480 Bonnieux, France","Country":"FRA","State":"Provence-Alpes-Côte d'Azur","County":"Vaucluse","City":"Bonnieux","Street":"Place du 4 Septembre","HouseNumber":"9B","PostalCode":"84480","AdditionalData":[{"value":"France","key":"CountryName"},{"value":"Provence-Alpes-Côte d'Azur","key":"StateName"},{"value":"Vaucluse","key":"CountyName"}]},"MapReference":{"ReferenceId":"546098836","Spot":0.56,"SideOfStreet":"right","CountryId":"20000001","StateId":"20000193","CountyId":"20056024","CityId":"20056085","AddressId":"573290375","RoadLinkId":"290427146"}}},{"Relevance":1.0,"Distance":31.2,"MatchLevel":"houseNumber","MatchQuality":{"Country":1.0,"State":1.0,"County":1.0,"City":1.0,"Street":[1.0],"HouseNumber":1.0,"PostalCode":1.0},"MatchType":"interpolated","Location":{"LocationId":"NT_pemUY9MIZn-C6auhokywCD_3A","LocationType":"point","DisplayPosition":{"Latitude":43.82248,"Longitude":5.30515},"MapView":{"TopLeft":{"Latitude":43.8236042,"Longitude":5.3035919},"BottomRight":{"Latitude":43.8213558,"Longitude":5.3067081}},"Address":{"Label":"7 Rue Raspail, 84480 Bonnieux, France","Country":"FRA","State":"Provence-Alpes-Côte d'Azur","County":"Vaucluse","City":"Bonnieux","Street":"Rue Raspail","HouseNumber":"7","PostalCode":"84480","AdditionalData":[{"value":"France","key":"CountryName"},{"value":"Provence-Alpes-Côte d'Azur","key":"StateName"},{"value":"Vaucluse","key":"CountyName"}]},"MapReference":{"ReferenceId":"546098837","Spot":0.98,"SideOfStreet":"right","CountryId":"20000001","StateId":"20000193","CountyId":"20056024","CityId":"20056085","AddressId":"379852457","RoadLinkId":"45338687"}}},{"Relevance":1.0,"Distance":32.5,"MatchLevel":"houseNumber","MatchQuality":{"Country":1.0,"State":1.0,"County":1.0,"City":1.0,"Street":[1.0],"HouseNumber":1.0,"PostalCode":1.0},"MatchType":"interpolated","Location":{"LocationId":"NT_iZ8uBWe0oKl8kPND8E69VD_yID","LocationType":"point","DisplayPosition":{"Latitude":43.8228,"Longitude":5.30592},"MapView":{"TopLeft":{"Latitude":43.8239242,"Longitude":5.3043619},"BottomRight":{"Latitude":43.8216758,"Longitude":5.3074781}},"Address":{"Label":"22 Rue Victor Hugo, 84480 Bonnieux, France","Country":"FRA","State":"Provence-Alpes-Côte d'Azur","County":"Vaucluse","City":"Bonnieux","Street":"Rue Victor Hugo","HouseNumber":"22","PostalCode":"84480","AdditionalData":[{"value":"France","key":"CountryName"},{"value":"Provence-Alpes-Côte d'Azur","key":"StateName"},{"value":"Vaucluse","key":"CountyName"}]},"MapReference":{"ReferenceId":"816432584","Spot":0.08,"SideOfStreet":"left","CountryId":"20000001","StateId":"20000193","CountyId":"20056024","CityId":"20056085","AddressId":"379861094","RoadLinkId":"203849696"}}},{"Relevance":1.0,"Distance":40.0,"MatchLevel":"street","MatchQuality":{"Country":1.0,"State":1.0,"County":1.0,"City":1.0,"PostalCode":1.0},"Location":{"LocationId":"NT_LHYuwur.b07qJRN1dLtk7B_l_546098839_R","LocationType":"point","DisplayPosition":{"Latitude":43.82251,"Longitude":5.30517},"MapView":{"TopLeft":{"Latitude":43.82254,"Longitude":5.30451},"BottomRight":{"Latitude":43.82249,"Longitude":5.30517}},"Address":{"Label":"84480 Bonnieux, France","Country":"FRA","State":"Provence-Alpes-Côte d'Azur","County":"Vaucluse","City":"Bonnieux","PostalCode":"84480","AdditionalData":[{"value":"France","key":"CountryName"},{"value":"Provence-Alpes-Côte d'Azur","key":"StateName"},{"value":"Vaucluse","key":"CountyName"}]},"MapReference":{"ReferenceId":"546098839","Spot":0.0,"SideOfStreet":"right","CountryId":"20000001","StateId":"20000193","CountyId":"20056024","CityId":"20056085"}}},{"Relevance":1.0,"Distance":41.1,"MatchLevel":"houseNumber","MatchQuality":{"Country":1.0,"State":1.0,"County":1.0,"City":1.0,"Street":[1.0],"HouseNumber":1.0,"PostalCode":1.0},"MatchType":"interpolated","Location":{"LocationId":"NT_hV6vVzXqjuSgXJJilt9IeB_0A","LocationType":"point","DisplayPosition":{"Latitude":43.82253,"Longitude":5.30616},"MapView":{"TopLeft":{"Latitude":43.8236542,"Longitude":5.3046019},"BottomRight":{"Latitude":43.8214058,"Longitude":5.3077181}},"Address":{"Label":"4 Place du 4 Septembre, 84480 Bonnieux, France","Country":"FRA","State":"Provence-Alpes-Côte d'Azur","County":"Vaucluse","City":"Bonnieux","Street":"Place du 4 Septembre","HouseNumber":"4","PostalCode":"84480","AdditionalData":[{"value":"France","key":"CountryName"},{"value":"Provence-Alpes-Côte d'Azur","key":"StateName"},{"value":"Vaucluse","key":"CountyName"}]},"MapReference":{"ReferenceId":"546098835","Spot":0.29,"SideOfStreet":"right","CountryId":"20000001","StateId":"20000193","CountyId":"20056024","CityId":"20056085","AddressId":"627249574","RoadLinkId":"45540835"}}}]}]}}