{"Response":{"MetaInfo":{"Timestamp":"2020-03-28T11:54:16.708+0000","NextPageInformation":"2"},"View":[{"_type":"SearchResultsViewType","ViewId":0,"Result":[{"Relevance":1.0,"Distance":-8395.8,"MatchLevel":"landmark","MatchQuality":{"Country":1.0,"State":1.0,"Name":1.0},"Location":{"LocationId":"NT_MBZbiWZQlmt5J-GTlCUQcC","LocationType":"park","Name":"P.N.R. du Verdon","DisplayPosition":{"Latitude":43.78882,"Longitude":6.22611},"MapView":{"TopLeft":{"Latitude":44.04129,"Longitude":5.75311},"BottomRight":{"Latitude":43.53635,"Longitude":6.71201}},"Address":{"Label":"France","Country":"FRA","State":"Provence-Alpes-Côte d'Azur","AdditionalData":[{"value":"France","key":"CountryName"},{"value":"Provence-Alpes-Côte d'Azur","key":"StateName"}]},"MapReference":{"CountryId":"20000001","StateId":"20000193","PlaceId":"1512264068"}}},{"Relevance":1.0,"Distance":0.0,"Direction":0.0,"MatchLevel":"city","MatchQuality":{"Country":1.0,"State":1.0,"County":1.0,"City":1.0,"PostalCode":1.0},"Location":{"LocationId":"NT_R-z-w7pJ8NIllp95Lh95zA","LocationType":"point","DisplayPosition":{"Latitude":43.844117,"Longitude":6.22102},"MapView":{"TopLeft":{"Latitude":43.89773,"Longitude":6.1623},"BottomRight":{"Latitude":43.77614,"Longitude":6.2958}},"Address":{"Label":"Moustiers-Sainte-Marie, Provence-Alpes-Côte d'Azur, France","Country":"FRA","State":"Provence-Alpes-Côte d'Azur","County":"Alpes-de-Haute-Provence","City":"Moustiers-Sainte-Marie","PostalCode":"04360","AdditionalData":[{"value":"France","key":"CountryName"},{"value":"Provence-Alpes-Côte d'Azur","key":"StateName"},{"value":"Alpes-de-Haute-Provence","key":"CountyName"}]},"MapReference":{"ReferenceId":"546065023","SideOfStreet":"neither","CountryId":"20000001","StateId":"20000193","CountyId":"20045798","CityId":"20046123"}}},{"Relevance":1.0,"Distance":20.9,"MatchLevel":"street","MatchQuality":{"Country":1.0,"State":1.0,"County":1.0,"City":1.0,"Street":[1.0],"PostalCode":1.0},"Location":{"LocationId":"NT_xFbj6Fy7Ue2o8bbBU1LSSA_l_1047701380_L","LocationType":"point","DisplayPosition":{"Latitude":43.8441355,"Longitude":6.2212789},"MapView":{"TopLeft":{"Latitude":43.84499,"Longitude":6.22123},"BottomRight":{"Latitude":43.84372,"Longitude":6.22151}},"Address":{"Label":"Avenue de Lérins, 04360 Moustiers-Sainte-Marie, France","Country":"FRA","State":"Provence-Alpes-Côte d'Azur","County":"Alpes-de-Haute-Provence","City":"Moustiers-Sainte-Marie","Street":"Avenue de Lérins","PostalCode":"04360","AdditionalData":[{"value":"France","key":"CountryName"},{"value":"Provence-Alpes-Côte d'Azur","key":"StateName"},{"value":"Alpes-de-Haute-Provence","key":"CountyName"}]},"MapReference":{"ReferenceId":"1047701380","Spot":0.36,"SideOfStreet":"left","CountryId":"20000001","StateId":"20000193","CountyId":"20045798","CityId":"20046123"}}},{"Relevance":1.0,"Distance":52.2,"MatchLevel":"street","MatchQuality":{"Country":1.0,"State":1.0,"County":1.0,"City":1.0,"PostalCode":1.0},"Location":{"LocationId":"NT_aD7aUQlmPhQJsvNbs-sm.D_l_546064994_R","LocationType":"point","DisplayPosition":{"Latitude":43.84366,"Longitude":6.22087},"MapView":{"TopLeft":{"Latitude":43.84366,"Longitude":6.22087},"BottomRight":{"Latitude":43.84286,"Longitude":6.22128}},"Address":{"Label":"04360 Moustiers-Sainte-Marie, France","Country":"FRA","State":"Provence-Alpes-Côte d'Azur","County":"Alpes-de-Haute-Provence","City":"Moustiers-Sainte-Marie","PostalCode":"04360","AdditionalData":[{"value":"France","key":"CountryName"},{"value":"Provence-Alpes-Côte d'Azur","key":"StateName"},{"value":"Alpes-de-Haute-Provence","key":"CountyName"}]},"MapReference":{"ReferenceId":"546064994","Spot":1.0,"SideOfStreet":"right","CountryId":"20000001","StateId":"20000193","CountyId":"20045798","CityId":"20046123"}}},{"Relevance":1.0,"Distance":52.8,"MatchLevel":"street","MatchQuality":{"Country":1.0,"State":1.0,"County":1.0,"City":1.0,"PostalCode":1.0},"Location":{"LocationId":"NT_aD7aUQlmPhQJsvNbs-sm.D_l_546065000_R","LocationType":"point","DisplayPosition":{"Latitude":43.84445,"Longitude":6.22055},"MapView":{"TopLeft":{"Latitude":43.84569,"Longitude":6.22042},"BottomRight":{"Latitude":43.84432,"Longitude":6.22122}},"Address":{"Label":"04360 Moustiers-Sainte-Marie, France","Country":"FRA","State":"Provence-Alpes-Côte d'Azur","County":"Alpes-de-Haute-Provence","City":"Moustiers-Sainte-Marie","PostalCode":"04360","AdditionalData":[{"value":"France","key":"CountryName"},{"value":"Provence-Alpes-Côte d'Azur","key":"StateName"},{"value":"Alpes-de-Haute-Provence","key":"CountyName"}]},"MapReference":{"ReferenceId":"546065000","Spot":0.1,"SideOfStreet":"right","CountryId":"20000001","StateId":"20000193","CountyId":"20045798","CityId":"20046123"}}},{"Relevance":1.0,"Distance":53.1,"MatchLevel":"street","MatchQuality":{"Country":1.0,"State":1.0,"County":1.0,"City":1.0,"PostalCode":1.0},"Location":{"LocationId":"NT_aD7aUQlmPhQJsvNbs-sm.D_l_1171812564_R","LocationType":"point","DisplayPosition":{"Latitude":43.84432,"Longitude":6.22042},"MapView":{"TopLeft":{"Latitude":43.84432,"Longitude":6.21961},"BottomRight":{"Latitude":43.84359,"Longitude":6.22042}},"Address":{"Label":"04360 Moustiers-Sainte-Marie, France","Country":"FRA","State":"Provence-Alpes-Côte d'Azur","County":"Alpes-de-Haute-Provence","City":"Moustiers-Sainte-Marie","PostalCode":"04360","AdditionalData":[{"value":"France","key":"CountryName"},{"value":"Provence-Alpes-Côte d'Azur","key":"StateName"},{"value":"Alpes-de-Haute-Provence","key":"CountyName"}]},"MapReference":{"ReferenceId":"1171812564","Spot":1.0,"SideOfStreet":"right","CountryId":"20000001","StateId":"20000193","CountyId":"20045798","CityId":"20046123"}}},{"Relevance":1.0,"Distance":59.1,"MatchLevel":"street","MatchQuality":{"Country":1.0,"State":1.0,"County":1.0,"City":1.0,"Street":[1.0],"PostalCode":1.0},"Location":{"LocationId":"NT_xFbj6Fy7Ue2o8bbBU1LSSA_l_1047701379_L","LocationType":"point","DisplayPosition":{"Latitude":43.84372,"Longitude":6.22151},"MapView":{"TopLeft":{"Latitude":43.84372,"Longitude":6.22151},"BottomRight":{"Latitude":43.84351,"Longitude":6.22158}},"Address":{"Label":"Avenue de Lérins, 04360 Moustiers-Sainte-Marie, France","Country":"FRA","State":"Provence-Alpes-Côte d'Azur","County":"Alpes-de-Haute-Provence","City":"Moustiers-Sainte-Marie","Street":"Avenue de Lérins","PostalCode":"04360","AdditionalData":[{"value":"France","key":"CountryName"},{"value":"Provence-Alpes-Côte d'Azur","key":"StateName"},{"value":"Alpes-de-Haute-Provence","key":"CountyName"}]},"MapReference":{"ReferenceId":"1047701379","Spot":1.0,"SideOfStreet":"left","CountryId":"20000001","StateId":"20000193","CountyId":"20045798","CityId":"20046123"}}},{"Relevance":1.0,"Distance":81.1,"MatchLevel":"street","MatchQuality":{"Country":1.0,"State":1.0,"County":1.0,"City":1.0,"Street":[1.0],"PostalCode":1.0},"Location":{"LocationId":"NT_xFbj6Fy7Ue2o8bbBU1LSSA_l_546064993_L","LocationType":"point","DisplayPosition":{"Latitude":43.84351,"Longitude":6.22158},"MapView":{"TopLeft":{"Latitude":43.84351,"Longitude":6.22128},"BottomRight":{"Latitude":43.84286,"Longitude":6.22159}},"Address":{"Label":"Avenue de Lérins, 04360 Moustiers-Sainte-Marie, France","Country":"FRA","State":"Provence-Alpes-Côte d'Azur","County":"Alpes-de-Haute-Provence","City":"Moustiers-Sainte-Marie","Street":"Avenue de Lérins","PostalCode":"04360","AdditionalData":[{"value":"France","key":"CountryName"},{"value":"Provence-Alpes-Côte d'Azur","key":"StateName"},{"value":"Alpes-de-Haute-Provence","key":"CountyName"}]},"MapReference":{"ReferenceId":"546064993","Spot":1.0,"SideOfStreet":"left","CountryId":"20000001","StateId":"20000193","CountyId":"20045798","CityId":"20046123"}}},{"Relevance":1.0,"Distance":81.1,"MatchLevel":"street","MatchQuality":{"Country":1.0,"State":1.0,"County":1.0,"City":1.0,"PostalCode":1.0},"Location":{"LocationId":"NT_aD7aUQlmPhQJsvNbs-sm.D_l_79438093_L","LocationType":"point","DisplayPosition":{"Latitude":43.84351,"Longitude":6.22158},"MapView":{"TopLeft":{"Latitude":43.84463,"Longitude":6.22158},"BottomRight":{"Latitude":43.84351,"Longitude":6.22218}},"Address":{"Label":"04360 Moustiers-Sainte-Marie, France","Country":"FRA","State":"Provence-Alpes-Côte d'Azur","County":"Alpes-de-Haute-Provence","City":"Moustiers-Sainte-Marie","PostalCode":"04360","AdditionalData":[{"value":"France","key":"CountryName"},{"value":"Provence-Alpes-Côte d'Azur","key":"StateName"},{"value":"Alpes-de-Haute-Provence","key":"CountyName"}]},"MapReference":{"ReferenceId":"79438093","Spot":0.0,"SideOfStreet":"left","CountryId":"20000001","StateId":"20000193","CountyId":"20045798","CityId":"20046123"}}},{"Relevance":1.0,"Distance":90.1,"MatchLevel":"street","MatchQuality":{"Country":1.0,"State":1.0,"County":1.0,"City":1.0,"PostalCode":1.0},"Location":{"LocationId":"NT_aD7aUQlmPhQJsvNbs-sm.D_l_546065007_R","LocationType":"point","DisplayPosition":{"Latitude":43.84463,"Longitude":6.22189},"MapView":{"TopLeft":{"Latitude":43.84561,"Longitude":6.22189},"BottomRight":{"Latitude":43.84421,"Longitude":6.22253}},"Address":{"Label":"04360 Moustiers-Sainte-Marie, France","Country":"FRA","State":"Provence-Alpes-Côte d'Azur","County":"Alpes-de-Haute-Provence","City":"Moustiers-Sainte-Marie","PostalCode":"04360","AdditionalData":[{"value":"France","key":"CountryName"},{"value":"Provence-Alpes-Côte d'Azur","key":"StateName"},{"value":"Alpes-de-Haute-Provence","key":"CountyName"}]},"MapReference":{"ReferenceId":"546065007","Spot":0.0,"SideOfStreet":"right","CountryId":"20000001","StateId":"20000193","CountyId":"20045798","CityId":"20046123"}}}]}]}}