{"Response":{"MetaInfo":{"Timestamp":"2020-03-28T11:09:54.934+0000","NextPageInformation":"2"},"View":[{"_type":"SearchResultsViewType","ViewId":0,"Result":[{"Relevance":1.0,"Distance":-1.6,"MatchLevel":"landmark","MatchQuality":{"Country":1.0,"State":1.0,"County":1.0,"City":1.0,"PostalCode":1.0,"Name":1.0},"Location":{"LocationId":"NT_l04gzsT2ocRqKcwrloPyEB_p_uwb8f0qREgjgCyWsq63BeB","LocationType":"hospital","Name":"CH Mont-de-Marsan","DisplayPosition":{"Latitude":43.89432,"Longitude":-0.48612},"MapView":{"TopLeft":{"Latitude":43.89481,"Longitude":-0.48784},"BottomRight":{"Latitude":43.89269,"Longitude":-0.48335}},"Address":{"Label":"40000 Mont-de-Marsan, France","Country":"FRA","State":"Nouvelle-Aquitaine","County":"Landes","City":"Mont-de-Marsan","PostalCode":"40000","AdditionalData":[{"value":"France","key":"CountryName"},{"value":"Nouvelle-Aquitaine","key":"StateName"},{"value":"Landes","key":"CountyName"}]},"MapReference":{"CountryId":"20000001","StateId":"20000383","CountyId":"20098861","CityId":"20099433","PlaceId":"553797887"}}},{"Relevance":1.0,"Distance":0.0,"Direction":0.0,"MatchLevel":"city","MatchQuality":{"Country":1.0,"State":1.0,"County":1.0,"City":1.0,"PostalCode":1.0},"Location":{"LocationId":"NT_LmGW-Gxebko8qBur6SyZIA","LocationType":"point","DisplayPosition":{"Latitude":43.8947398,"Longitude":-0.4878132},"MapView":{"TopLeft":{"Latitude":43.93158,"Longitude":-0.55543},"BottomRight":{"Latitude":43.85484,"Longitude":-0.44625}},"Address":{"Label":"Mont-de-Marsan, Nouvelle-Aquitaine, France","Country":"FRA","State":"Nouvelle-Aquitaine","County":"Landes","City":"Mont-de-Marsan","PostalCode":"40000","AdditionalData":[{"value":"France","key":"CountryName"},{"value":"Nouvelle-Aquitaine","key":"StateName"},{"value":"Landes","key":"CountyName"}]},"MapReference":{"ReferenceId":"781832411","SideOfStreet":"neither","CountryId":"20000001","StateId":"20000383","CountyId":"20098861","CityId":"20099433"}}},{"Relevance":1.0,"Distance":7.6,"MatchLevel":"houseNumber","MatchQuality":{"Country":1.0,"State":1.0,"County":1.0,"City":1.0,"Street":[1.0],"HouseNumber":1.0,"PostalCode":1.0},"MatchType":"interpolated","Location":{"LocationId":"NT_oAm0SvXq8GVlNwN.mqbADC_l_562440188_L_0UjN","LocationType":"point","DisplayPosition":{"Latitude":43.89481,"Longitude":-0.4878402},"MapView":{"TopLeft":{"Latitude":43.8959342,"Longitude":-0.4894002},"BottomRight":{"Latitude":43.8936859,"Longitude":-0.4862802}},"Address":{"Label":"456 Avenue Pierre de Coubertin, 40000 Mont-de-Marsan, France","Country":"FRA","State":"Nouvelle-Aquitaine","County":"Landes","City":"Mont-de-Marsan","Street":"Avenue Pierre de Coubertin","HouseNumber":"456","PostalCode":"40000","AdditionalData":[{"value":"France","key":"CountryName"},{"value":"Nouvelle-Aquitaine","key":"StateName"},{"value":"Landes","key":"CountyName"}]},"MapReference":{"ReferenceId":"562440188","Spot":0.0,"SideOfStreet":"left","CountryId":"20000001","StateId":"20000383","CountyId":"20098861","CityId":"20099433"}}},{"Relevance":1.0,"Distance":16.2,"MatchLevel":"houseNumber","MatchQuality":{"Country":1.0,"State":1.0,"County":1.0,"City":1.0,"Street":[1.0],"HouseNumber":1.0,"PostalCode":1.0},"MatchType":"interpolated","Location":{"LocationId":"NT_oAm0SvXq8GVlNwN.mqbADC_l_1073671087_L_0UDO","LocationType":"point","DisplayPosition":{"Latitude":43.894799,"Longitude":-0.4876283},"MapView":{"TopLeft":{"Latitude":43.8959232,"Longitude":-0.4891883},"BottomRight":{"Latitude":43.8936749,"Longitude":-0.4860683}},"Address":{"Label":"458 Avenue Pierre de Coubertin, 40000 Mont-de-Marsan, France","Country":"FRA","State":"Nouvelle-Aquitaine","County":"Landes","City":"Mont-de-Marsan","Street":"Avenue Pierre de Coubertin","HouseNumber":"458","PostalCode":"40000","AdditionalData":[{"value":"France","key":"CountryName"},{"value":"Nouvelle-Aquitaine","key":"StateName"},{"value":"Landes","key":"CountyName"}]},"MapReference":{"ReferenceId":"1073671087","Spot":0.83,"SideOfStreet":"left","CountryId":"20000001","StateId":"20000383","CountyId":"20098861","CityId":"20099433"}}},{"Relevance":1.0,"Distance":32.3,"MatchLevel":"houseNumber","MatchQuality":{"Country":1.0,"State":1.0,"County":1.0,"City":1.0,"Street":[1.0],"HouseNumber":1.0,"PostalCode":1.0},"MatchType":"interpolated","Location":{"LocationId":"NT_Ot6BYG56g2i7iT630-YLYA_xA","LocationType":"point","DisplayPosition":{"Latitude":43.89451,"Longitude":-0.48808},"MapView":{"TopLeft":{"Latitude":43.8956342,"Longitude":-0.48964},"BottomRight":{"Latitude":43.8933858,"Longitude":-0.48652}},"Address":{"Label":"1 Rue Pierre Rispal, 40000 Mont-de-Marsan, France","Country":"FRA","State":"Nouvelle-Aquitaine","County":"Landes","City":"Mont-de-Marsan","Street":"Rue Pierre Rispal","HouseNumber":"1","PostalCode":"40000","AdditionalData":[{"value":"France","key":"CountryName"},{"value":"Nouvelle-Aquitaine","key":"StateName"},{"value":"Landes","key":"CountyName"}]},"MapReference":{"ReferenceId":"562440223","Spot":0.77,"SideOfStreet":"right","CountryId":"20000001","StateId":"20000383","CountyId":"20098861","CityId":"20099433","AddressId":"318536237","RoadLinkId":"51277837"}}},{"Relevance":1.0,"Distance":33.0,"MatchLevel":"houseNumber","MatchQuality":{"Country":1.0,"State":1.0,"County":1.0,"City":1.0,"Street":[1.0],"HouseNumber":1.0,"PostalCode":1.0},"MatchType":"interpolated","Location":{"LocationId":"NT_oAm0SvXq8GVlNwN.mqbADC_0AjN","LocationType":"point","DisplayPosition":{"Latitude":43.89482,"Longitude":-0.48821},"MapView":{"TopLeft":{"Latitude":43.8959442,"Longitude":-0.48977},"BottomRight":{"Latitude":43.8936958,"Longitude":-0.48665}},"Address":{"Label":"406 Avenue Pierre de Coubertin, 40000 Mont-de-Marsan, France","Country":"FRA","State":"Nouvelle-Aquitaine","County":"Landes","City":"Mont-de-Marsan","Street":"Avenue Pierre de Coubertin","HouseNumber":"406","PostalCode":"40000","AdditionalData":[{"value":"France","key":"CountryName"},{"value":"Nouvelle-Aquitaine","key":"StateName"},{"value":"Landes","key":"CountyName"}]},"MapReference":{"ReferenceId":"562440189","Spot":0.24,"SideOfStreet":"left","CountryId":"20000001","StateId":"20000383","CountyId":"20098861","CityId":"20099433","AddressId":"318251604","RoadLinkId":"51280853"}}},{"Relevance":1.0,"Distance":39.3,"MatchLevel":"street","MatchQuality":{"Country":1.0,"State":1.0,"County":1.0,"City":1.0,"PostalCode":1.0},"Location":{"LocationId":"NT_uISmzr8-qIL6ydc8.3ieHC_l_1133611935_L","LocationType":"point","DisplayPosition":{"Latitude":43.89439,"Longitude":-0.48774},"MapView":{"TopLeft":{"Latitude":43.89439,"Longitude":-0.48774},"BottomRight":{"Latitude":43.8943,"Longitude":-0.48773}},"Address":{"Label":"40000 Mont-de-Marsan, France","Country":"FRA","State":"Nouvelle-Aquitaine","County":"Landes","City":"Mont-de-Marsan","PostalCode":"40000","AdditionalData":[{"value":"France","key":"CountryName"},{"value":"Nouvelle-Aquitaine","key":"StateName"},{"value":"Landes","key":"CountyName"}]},"MapReference":{"ReferenceId":"1133611935","Spot":1.0,"SideOfStreet":"left","CountryId":"20000001","StateId":"20000383","CountyId":"20098861","CityId":"20099433"}}},{"Relevance":1.0,"Distance":49.4,"MatchLevel":"street","MatchQuality":{"Country":1.0,"State":1.0,"County":1.0,"City":1.0,"PostalCode":1.0},"Location":{"LocationId":"NT_uISmzr8-qIL6ydc8.3ieHC_l_1133611405_L","LocationType":"point","DisplayPosition":{"Latitude":43.8943,"Longitude":-0.48773},"MapView":{"TopLeft":{"Latitude":43.89443,"Longitude":-0.48773},"BottomRight":{"Latitude":43.8943,"Longitude":-0.48741}},"Address":{"Label":"40000 Mont-de-Marsan, France","Country":"FRA","State":"Nouvelle-Aquitaine","County":"Landes","City":"Mont-de-Marsan","PostalCode":"40000","AdditionalData":[{"value":"France","key":"CountryName"},{"value":"Nouvelle-Aquitaine","key":"StateName"},{"value":"Landes","key":"CountyName"}]},"MapReference":{"ReferenceId":"1133611405","Spot":0.0,"SideOfStreet":"left","CountryId":"20000001","StateId":"20000383","CountyId":"20098861","CityId":"20099433"}}},{"Relevance":1.0,"Distance":49.4,"MatchLevel":"street","MatchQuality":{"Country":1.0,"State":1.0,"County":1.0,"City":1.0,"PostalCode":1.0},"Location":{"LocationId":"NT_uISmzr8-qIL6ydc8.3ieHC_l_1133610890_L","LocationType":"point","DisplayPosition":{"Latitude":43.8943,"Longitude":-0.48773},"MapView":{"TopLeft":{"Latitude":43.8943,"Longitude":-0.48773},"BottomRight":{"Latitude":43.89397,"Longitude":-0.48736}},"Address":{"Label":"40000 Mont-de-Marsan, France","Country":"FRA","State":"Nouvelle-Aquitaine","County":"Landes","City":"Mont-de-Marsan","PostalCode":"40000","AdditionalData":[{"value":"France","key":"CountryName"},{"value":"Nouvelle-Aquitaine","key":"StateName"},{"value":"Landes","key":"CountyName"}]},"MapReference":{"ReferenceId":"1133610890","Spot":1.0,"SideOfStreet":"left","CountryId":"20000001","StateId":"20000383","CountyId":"20098861","CityId":"20099433"}}},{"Relevance":1.0,"Distance":55.8,"MatchLevel":"street","MatchQuality":{"Country":1.0,"State":1.0,"County":1.0,"City":1.0,"PostalCode":1.0},"Location":{"LocationId":"NT_uISmzr8-qIL6ydc8.3ieHC_l_1136376001_R","LocationType":"point","DisplayPosition":{"Latitude":43.89461,"Longitude":-0.48714},"MapView":{"TopLeft":{"Latitude":43.89464,"Longitude":-0.48714},"BottomRight":{"Latitude":43.89449,"Longitude":-0.48685}},"Address":{"Label":"40000 Mont-de-Marsan, France","Country":"FRA","State":"Nouvelle-Aquitaine","County":"Landes","City":"Mont-de-Marsan","PostalCode":"40000","AdditionalData":[{"value":"France","key":"CountryName"},{"value":"Nouvelle-Aquitaine","key":"StateName"},{"value":"Landes","key":"CountyName"}]},"MapReference":{"ReferenceId":"1136376001","Spot":1.0,"SideOfStreet":"right","CountryId":"20000001","StateId":"20000383","CountyId":"20098861","CityId":"20099433"}}}]}]}}