{"Response":{"MetaInfo":{"Timestamp":"2020-03-28T11:13:30.755+0000","NextPageInformation":"2"},"View":[{"_type":"SearchResultsViewType","ViewId":0,"Result":[{"Relevance":1.0,"Distance":-5575.9,"MatchLevel":"landmark","MatchQuality":{"Country":1.0,"State":1.0,"Name":1.0},"Location":{"LocationId":"NT_MBZbiWZQlmt5J-GTlCUQcC","LocationType":"park","Name":"P.N.R. du Verdon","DisplayPosition":{"Latitude":43.78882,"Longitude":6.22611},"MapView":{"TopLeft":{"Latitude":44.04129,"Longitude":5.75311},"BottomRight":{"Latitude":43.53635,"Longitude":6.71201}},"Address":{"Label":"France","Country":"FRA","State":"Provence-Alpes-Côte d'Azur","AdditionalData":[{"value":"France","key":"CountryName"},{"value":"Provence-Alpes-Côte d'Azur","key":"StateName"}]},"MapReference":{"CountryId":"20000001","StateId":"20000193","PlaceId":"1512264068"}}},{"Relevance":1.0,"Distance":0.0,"Direction":0.0,"MatchLevel":"city","MatchQuality":{"Country":1.0,"State":1.0,"County":1.0,"City":1.0,"PostalCode":1.0},"Location":{"LocationId":"NT_cBx4GbTSuVPiTTmEYvVVmB","LocationType":"point","DisplayPosition":{"Latitude":43.818637,"Longitude":6.089774},"MapView":{"TopLeft":{"Latitude":43.87766,"Longitude":6.03494},"BottomRight":{"Latitude":43.79399,"Longitude":6.1336}},"Address":{"Label":"Riez, Provence-Alpes-Côte d'Azur, France","Country":"FRA","State":"Provence-Alpes-Côte d'Azur","County":"Alpes-de-Haute-Provence","City":"Riez","PostalCode":"04500","AdditionalData":[{"value":"France","key":"CountryName"},{"value":"Provence-Alpes-Côte d'Azur","key":"StateName"},{"value":"Alpes-de-Haute-Provence","key":"CountyName"}]},"MapReference":{"ReferenceId":"546072945","SideOfStreet":"neither","CountryId":"20000001","StateId":"20000193","CountyId":"20045798","CityId":"20046204"}}},{"Relevance":1.0,"Distance":9.5,"MatchLevel":"street","MatchQuality":{"Country":1.0,"State":1.0,"County":1.0,"City":1.0,"Street":[1.0],"PostalCode":1.0},"Location":{"LocationId":"NT_OdZwIBJ1suj3EqgmyK65oD_l_1047701374_R","LocationType":"point","DisplayPosition":{"Latitude":43.818564,"Longitude":6.0897118},"MapView":{"TopLeft":{"Latitude":43.81887,"Longitude":6.08936},"BottomRight":{"Latitude":43.81847,"Longitude":6.08992}},"Address":{"Label":"Place des Cordeliers, 04500 Riez, France","Country":"FRA","State":"Provence-Alpes-Côte d'Azur","County":"Alpes-de-Haute-Provence","City":"Riez","Street":"Place des Cordeliers","PostalCode":"04500","AdditionalData":[{"value":"France","key":"CountryName"},{"value":"Provence-Alpes-Côte d'Azur","key":"StateName"},{"value":"Alpes-de-Haute-Provence","key":"CountyName"}]},"MapReference":{"ReferenceId":"1047701374","Spot":0.33,"SideOfStreet":"right","CountryId":"20000001","StateId":"20000193","CountyId":"20045798","CityId":"20046204"}}},{"Relevance":1.0,"Distance":22.0,"MatchLevel":"street","MatchQuality":{"Country":1.0,"State":1.0,"County":1.0,"City":1.0,"Street":[1.0],"PostalCode":1.0},"Location":{"LocationId":"NT_5tlj2ly6xg0KjGGcJZID9B_l_1186520330_L","LocationType":"point","DisplayPosition":{"Latitude":43.81847,"Longitude":6.08992},"MapView":{"TopLeft":{"Latitude":43.81847,"Longitude":6.08955},"BottomRight":{"Latitude":43.81811,"Longitude":6.08992}},"Address":{"Label":"Chemin des Colonnes, 04500 Riez, France","Country":"FRA","State":"Provence-Alpes-Côte d'Azur","County":"Alpes-de-Haute-Provence","City":"Riez","Street":"Chemin des Colonnes","PostalCode":"04500","AdditionalData":[{"value":"France","key":"CountryName"},{"value":"Provence-Alpes-Côte d'Azur","key":"StateName"},{"value":"Alpes-de-Haute-Provence","key":"CountyName"}]},"MapReference":{"ReferenceId":"1186520330","Spot":1.0,"SideOfStreet":"left","CountryId":"20000001","StateId":"20000193","CountyId":"20045798","CityId":"20046204"}}},{"Relevance":1.0,"Distance":42.0,"MatchLevel":"street","MatchQuality":{"Country":1.0,"State":1.0,"County":1.0,"City":1.0,"Street":[1.0],"PostalCode":1.0},"Location":{"LocationId":"NT_I-Ob-i1Hkxj.GtTki4RcSD_l_1047701376_R","LocationType":"point","DisplayPosition":{"Latitude":43.8189901,"Longitude":6.0895882},"MapView":{"TopLeft":{"Latitude":43.81917,"Longitude":6.08936},"BottomRight":{"Latitude":43.81887,"Longitude":6.08993}},"Address":{"Label":"Les Jardins de l'Auvestre, 04500 Riez, France","Country":"FRA","State":"Provence-Alpes-Côte d'Azur","County":"Alpes-de-Haute-Provence","City":"Riez","Street":"Les Jardins de l'Auvestre","PostalCode":"04500","AdditionalData":[{"value":"France","key":"CountryName"},{"value":"Provence-Alpes-Côte d'Azur","key":"StateName"},{"value":"Alpes-de-Haute-Provence","key":"CountyName"}]},"MapReference":{"ReferenceId":"1047701376","Spot":0.4,"SideOfStreet":"right","CountryId":"20000001","StateId":"20000193","CountyId":"20045798","CityId":"20046204"}}},{"Relevance":1.0,"Distance":42.1,"MatchLevel":"houseNumber","MatchQuality":{"Country":1.0,"State":1.0,"County":1.0,"City":1.0,"Street":[1.0],"HouseNumber":1.0,"PostalCode":1.0},"MatchType":"interpolated","Location":{"LocationId":"NT_LQio7ZoEHTu6N7g-4yDbxB_3MTM2A","LocationType":"point","DisplayPosition":{"Latitude":43.81887,"Longitude":6.08936},"MapView":{"TopLeft":{"Latitude":43.8199942,"Longitude":6.087802},"BottomRight":{"Latitude":43.8177458,"Longitude":6.090918}},"Address":{"Label":"7316 Rue René Cassin, 04500 Riez, France","Country":"FRA","State":"Provence-Alpes-Côte d'Azur","County":"Alpes-de-Haute-Provence","City":"Riez","Street":"Rue René Cassin","HouseNumber":"7316","PostalCode":"04500","AdditionalData":[{"value":"France","key":"CountryName"},{"value":"Provence-Alpes-Côte d'Azur","key":"StateName"},{"value":"Alpes-de-Haute-Provence","key":"CountyName"}]},"MapReference":{"ReferenceId":"1047701375","Spot":0.0,"SideOfStreet":"right","CountryId":"20000001","StateId":"20000193","CountyId":"20045798","CityId":"20046204","AddressId":"319065942","RoadLinkId":"367854758"}}},{"Relevance":1.0,"Distance":45.9,"MatchLevel":"houseNumber","MatchQuality":{"Country":1.0,"State":1.0,"County":1.0,"City":1.0,"Street":[1.0],"HouseNumber":1.0,"PostalCode":1.0},"MatchType":"interpolated","Location":{"LocationId":"NT_5tlj2ly6xg0KjGGcJZID9B_3EDOzA","LocationType":"point","DisplayPosition":{"Latitude":43.81858,"Longitude":6.09034},"MapView":{"TopLeft":{"Latitude":43.8197042,"Longitude":6.088782},"BottomRight":{"Latitude":43.8174558,"Longitude":6.091898}},"Address":{"Label":"7183 Chemin des Colonnes, 04500 Riez, France","Country":"FRA","State":"Provence-Alpes-Côte d'Azur","County":"Alpes-de-Haute-Provence","City":"Riez","Street":"Chemin des Colonnes","HouseNumber":"7183","PostalCode":"04500","AdditionalData":[{"value":"France","key":"CountryName"},{"value":"Provence-Alpes-Côte d'Azur","key":"StateName"},{"value":"Alpes-de-Haute-Provence","key":"CountyName"}]},"MapReference":{"ReferenceId":"1247498116","Spot":0.65,"SideOfStreet":"right","CountryId":"20000001","StateId":"20000193","CountyId":"20045798","CityId":"20046204","AddressId":"376494096","RoadLinkId":"569295440"}}},{"Relevance":1.0,"Distance":55.4,"MatchLevel":"houseNumber","MatchQuality":{"Country":1.0,"State":1.0,"County":1.0,"City":1.0,"Street":[1.0],"HouseNumber":1.0,"PostalCode":1.0},"MatchType":"interpolated","Location":{"LocationId":"NT_Bn7wsuWjQOxsKttL68o1QA_3EDOzA","LocationType":"point","DisplayPosition":{"Latitude":43.81854,"Longitude":6.09062},"MapView":{"TopLeft":{"Latitude":43.8196642,"Longitude":6.089062},"BottomRight":{"Latitude":43.8174158,"Longitude":6.092178}},"Address":{"Label":"7183 Avenue de Verdun, 04500 Riez, France","Country":"FRA","State":"Provence-Alpes-Côte d'Azur","County":"Alpes-de-Haute-Provence","City":"Riez","Street":"Avenue de Verdun","HouseNumber":"7183","PostalCode":"04500","AdditionalData":[{"value":"France","key":"CountryName"},{"value":"Provence-Alpes-Côte d'Azur","key":"StateName"},{"value":"Alpes-de-Haute-Provence","key":"CountyName"}]},"MapReference":{"ReferenceId":"1075154911","Spot":0.59,"SideOfStreet":"left","CountryId":"20000001","StateId":"20000193","CountyId":"20045798","CityId":"20046204","AddressId":"319390252","RoadLinkId":"395357178"}}},{"Relevance":1.0,"Distance":61.3,"MatchLevel":"street","MatchQuality":{"Country":1.0,"State":1.0,"County":1.0,"City":1.0,"Street":[1.0],"PostalCode":1.0},"Location":{"LocationId":"NT_5tlj2ly6xg0KjGGcJZID9B_l_1186520329_L","LocationType":"point","DisplayPosition":{"Latitude":43.81811,"Longitude":6.08955},"MapView":{"TopLeft":{"Latitude":43.81811,"Longitude":6.08875},"BottomRight":{"Latitude":43.81727,"Longitude":6.08955}},"Address":{"Label":"Chemin des Colonnes, 04500 Riez, France","Country":"FRA","State":"Provence-Alpes-Côte d'Azur","County":"Alpes-de-Haute-Provence","City":"Riez","Street":"Chemin des Colonnes","PostalCode":"04500","AdditionalData":[{"value":"France","key":"CountryName"},{"value":"Provence-Alpes-Côte d'Azur","key":"StateName"},{"value":"Alpes-de-Haute-Provence","key":"CountyName"}]},"MapReference":{"ReferenceId":"1186520329","Spot":1.0,"SideOfStreet":"left","CountryId":"20000001","StateId":"20000193","CountyId":"20045798","CityId":"20046204"}}},{"Relevance":1.0,"Distance":64.0,"MatchLevel":"street","MatchQuality":{"Country":1.0,"State":1.0,"County":1.0,"City":1.0,"Street":[1.0],"PostalCode":1.0},"Location":{"LocationId":"NT_5BmsTcOKxmGLhK99AFWezD_l_1247498117_L","LocationType":"point","DisplayPosition":{"Latitude":43.8186,"Longitude":6.09057},"MapView":{"TopLeft":{"Latitude":43.8186,"Longitude":6.09057},"BottomRight":{"Latitude":43.81857,"Longitude":6.09061}},"Address":{"Label":"Chemin des Colonnes, 04500 Riez, France","Country":"FRA","State":"Provence-Alpes-Côte d'Azur","County":"Alpes-de-Haute-Provence","City":"Riez","Street":"Chemin des Colonnes","PostalCode":"04500","AdditionalData":[{"value":"France","key":"CountryName"},{"value":"Provence-Alpes-Côte d'Azur","key":"StateName"},{"value":"Alpes-de-Haute-Provence","key":"CountyName"}]},"MapReference":{"ReferenceId":"1247498117","Spot":1.0,"SideOfStreet":"left","CountryId":"20000001","StateId":"20000193","CountyId":"20045798","CityId":"20046204"}}}]}]}}