{"Response":{"MetaInfo":{"Timestamp":"2020-03-28T10:52:52.156+0000","NextPageInformation":"2"},"View":[{"_type":"SearchResultsViewType","ViewId":0,"Result":[{"Relevance":1.0,"Distance":-1.7,"MatchLevel":"landmark","MatchQuality":{"Country":1.0,"County":1.0,"City":1.0,"District":1.0,"Street":[1.0],"HouseNumber":1.0,"PostalCode":1.0,"Name":1.0},"Location":{"LocationId":"NT_ySNblsKUtJK9DNbhcQa4mA_p_.0u4jNcL5JYVLvNTGmGJhA","LocationType":"hospital","Name":"МБАЛ Св. Николай Чудотворец","DisplayPosition":{"Latitude":43.82756,"Longitude":23.23284},"MapView":{"TopLeft":{"Latitude":43.8286842,"Longitude":23.2312818},"BottomRight":{"Latitude":43.8264358,"Longitude":23.2343982}},"Address":{"Label":"Улица Каблешков 2, 3600 Лом, България","Country":"BGR","County":"Монтана","City":"Лом","District":"Лом","Street":"Улица Каблешков","HouseNumber":"2","PostalCode":"3600","AdditionalData":[{"value":"България","key":"CountryName"},{"value":"Монтана","key":"CountyName"}]},"MapReference":{"CountryId":"20656214","CountyId":"23719396","CityId":"23718469","DistrictId":"23718784","PlaceId":"1017934975"}}},{"Relevance":1.0,"Distance":0.0,"Direction":0.0,"MatchLevel":"district","MatchQuality":{"Country":1.0,"County":1.0,"City":1.0,"District":1.0,"PostalCode":1.0},"Location":{"LocationId":"NT_W-xMNuPxmYNZ26tdHaPTmB","LocationType":"point","DisplayPosition":{"Latitude":43.828061,"Longitude":23.2314199},"MapView":{"TopLeft":{"Latitude":43.84514,"Longitude":23.19117},"BottomRight":{"Latitude":43.77453,"Longitude":23.30294}},"Address":{"Label":"Лом, България","Country":"BGR","County":"Монтана","City":"Лом","District":"Лом","PostalCode":"3600","AdditionalData":[{"value":"България","key":"CountryName"},{"value":"Монтана","key":"CountyName"}]},"MapReference":{"ReferenceId":"1247727523","SideOfStreet":"neither","CountryId":"20656214","CountyId":"23719396","CityId":"23718469","DistrictId":"23718784"}}},{"Relevance":1.0,"Distance":12.4,"MatchLevel":"houseNumber","MatchQuality":{"Country":1.0,"County":1.0,"City":1.0,"District":1.0,"Street":[1.0],"HouseNumber":1.0,"PostalCode":1.0},"MatchType":"interpolated","Location":{"LocationId":"NT_hN2P-x1U.Qvtie6gEIrjdC_xgD","LocationType":"point","DisplayPosition":{"Latitude":43.82795,"Longitude":23.2314},"MapView":{"TopLeft":{"Latitude":43.8290742,"Longitude":23.2298418},"BottomRight":{"Latitude":43.8268258,"Longitude":23.2329582}},"Address":{"Label":"Улица Скопие 18, 3600 Лом, България","Country":"BGR","County":"Монтана","City":"Лом","District":"Лом","Street":"Улица Скопие","HouseNumber":"18","PostalCode":"3600","AdditionalData":[{"value":"България","key":"CountryName"},{"value":"Монтана","key":"CountyName"}]},"MapReference":{"ReferenceId":"815892742","Spot":0.91,"SideOfStreet":"left","CountryId":"20656214","CountyId":"23719396","CityId":"23718469","DistrictId":"23718784","AddressId":"344062157","RoadLinkId":"203267783"}}},{"Relevance":1.0,"Distance":20.5,"MatchLevel":"houseNumber","MatchQuality":{"Country":1.0,"County":1.0,"City":1.0,"District":1.0,"Street":[1.0],"HouseNumber":1.0,"PostalCode":1.0},"MatchType":"interpolated","Location":{"LocationId":"NT_hN2P-x1U.Qvtie6gEIrjdC_xED","LocationType":"point","DisplayPosition":{"Latitude":43.82818,"Longitude":23.23119},"MapView":{"TopLeft":{"Latitude":43.8293042,"Longitude":23.2296318},"BottomRight":{"Latitude":43.8270558,"Longitude":23.2327482}},"Address":{"Label":"Улица Скопие 11, 3600 Лом, България","Country":"BGR","County":"Монтана","City":"Лом","District":"Лом","Street":"Улица Скопие","HouseNumber":"11","PostalCode":"3600","AdditionalData":[{"value":"България","key":"CountryName"},{"value":"Монтана","key":"CountyName"}]},"MapReference":{"ReferenceId":"815892937","Spot":0.19,"SideOfStreet":"right","CountryId":"20656214","CountyId":"23719396","CityId":"23718469","DistrictId":"23718784","AddressId":"344148381","RoadLinkId":"203267968"}}},{"Relevance":1.0,"Distance":28.1,"MatchLevel":"houseNumber","MatchQuality":{"Country":1.0,"County":1.0,"City":1.0,"District":1.0,"Street":[1.0],"HouseNumber":1.0,"PostalCode":1.0},"MatchType":"interpolated","Location":{"LocationId":"NT_rrHfzQfIqQIJn9Td8g4khB_xAD","LocationType":"point","DisplayPosition":{"Latitude":43.82823,"Longitude":23.23168},"MapView":{"TopLeft":{"Latitude":43.8293542,"Longitude":23.2301217},"BottomRight":{"Latitude":43.8271058,"Longitude":23.2332383}},"Address":{"Label":"Улица Ст. Хаджийски 10, 3600 Лом, България","Country":"BGR","County":"Монтана","City":"Лом","District":"Лом","Street":"Улица Ст. Хаджийски","HouseNumber":"10","PostalCode":"3600","AdditionalData":[{"value":"България","key":"CountryName"},{"value":"Монтана","key":"CountyName"}]},"MapReference":{"ReferenceId":"809924866","Spot":0.66,"SideOfStreet":"left","CountryId":"20656214","CountyId":"23719396","CityId":"23718469","DistrictId":"23718784","AddressId":"344079877","RoadLinkId":"197183154"}}},{"Relevance":1.0,"Distance":46.9,"MatchLevel":"street","MatchQuality":{"Country":1.0,"County":1.0,"City":1.0,"District":1.0,"Street":[1.0],"PostalCode":1.0},"Location":{"LocationId":"NT_EGZIoOmohVC49HyQmhaUeC_l_809926529_L","LocationType":"point","DisplayPosition":{"Latitude":43.82833,"Longitude":23.23187},"MapView":{"TopLeft":{"Latitude":43.82833,"Longitude":23.23187},"BottomRight":{"Latitude":43.82807,"Longitude":23.23258}},"Address":{"Label":"Улица Каблешков, 3600 Лом, България","Country":"BGR","County":"Монтана","City":"Лом","District":"Лом","Street":"Улица Каблешков","PostalCode":"3600","AdditionalData":[{"value":"България","key":"CountryName"},{"value":"Монтана","key":"CountyName"}]},"MapReference":{"ReferenceId":"809926529","Spot":1.0,"SideOfStreet":"left","CountryId":"20656214","CountyId":"23719396","CityId":"23718469","DistrictId":"23718784"}}},{"Relevance":1.0,"Distance":54.3,"MatchLevel":"houseNumber","MatchQuality":{"Country":1.0,"County":1.0,"City":1.0,"District":1.0,"Street":[1.0],"HouseNumber":1.0,"PostalCode":1.0},"MatchType":"interpolated","Location":{"LocationId":"NT_rrHfzQfIqQIJn9Td8g4khB_2A","LocationType":"point","DisplayPosition":{"Latitude":43.82836,"Longitude":23.23192},"MapView":{"TopLeft":{"Latitude":43.8294842,"Longitude":23.2303617},"BottomRight":{"Latitude":43.8272358,"Longitude":23.2334783}},"Address":{"Label":"Улица Ст. Хаджийски 6, 3600 Лом, България","Country":"BGR","County":"Монтана","City":"Лом","District":"Лом","Street":"Улица Ст. Хаджийски","HouseNumber":"6","PostalCode":"3600","AdditionalData":[{"value":"България","key":"CountryName"},{"value":"Монтана","key":"CountyName"}]},"MapReference":{"ReferenceId":"809924863","Spot":0.05,"SideOfStreet":"left","CountryId":"20656214","CountyId":"23719396","CityId":"23718469","DistrictId":"23718784","AddressId":"344108263","RoadLinkId":"197183160"}}},{"Relevance":1.0,"Distance":57.0,"MatchLevel":"houseNumber","MatchQuality":{"Country":1.0,"County":1.0,"City":1.0,"District":1.0,"Street":[1.0],"HouseNumber":1.0,"PostalCode":1.0},"MatchType":"interpolated","Location":{"LocationId":"NT_Ue8E3m3Q41MnqN83CWJAqC_xcD","LocationType":"point","DisplayPosition":{"Latitude":43.82762,"Longitude":23.23075},"MapView":{"TopLeft":{"Latitude":43.8287442,"Longitude":23.2291918},"BottomRight":{"Latitude":43.8264958,"Longitude":23.2323082}},"Address":{"Label":"Улица Цар Шишман 17, 3600 Лом, България","Country":"BGR","County":"Монтана","City":"Лом","District":"Лом","Street":"Улица Цар Шишман","HouseNumber":"17","PostalCode":"3600","AdditionalData":[{"value":"България","key":"CountryName"},{"value":"Монтана","key":"CountyName"}]},"MapReference":{"ReferenceId":"815892712","Spot":0.93,"SideOfStreet":"right","CountryId":"20656214","CountyId":"23719396","CityId":"23718469","DistrictId":"23718784","AddressId":"344072683","RoadLinkId":"203267753"}}},{"Relevance":1.0,"Distance":60.6,"MatchLevel":"houseNumber","MatchQuality":{"Country":1.0,"County":1.0,"City":1.0,"District":1.0,"Street":[1.0],"HouseNumber":1.0,"PostalCode":1.0},"MatchType":"interpolated","Location":{"LocationId":"NT_rrHfzQfIqQIJn9Td8g4khB_xQD","LocationType":"point","DisplayPosition":{"Latitude":43.82775,"Longitude":23.2308},"MapView":{"TopLeft":{"Latitude":43.8288742,"Longitude":23.2292418},"BottomRight":{"Latitude":43.8266258,"Longitude":23.2323582}},"Address":{"Label":"Улица Ст. Хаджийски 14, 3600 Лом, България","Country":"BGR","County":"Монтана","City":"Лом","District":"Лом","Street":"Улица Ст. Хаджийски","HouseNumber":"14","PostalCode":"3600","AdditionalData":[{"value":"България","key":"CountryName"},{"value":"Монтана","key":"CountyName"}]},"MapReference":{"ReferenceId":"815887776","Spot":0.17,"SideOfStreet":"left","CountryId":"20656214","CountyId":"23719396","CityId":"23718469","DistrictId":"23718784","AddressId":"344085107","RoadLinkId":"203260928"}}},{"Relevance":1.0,"Distance":66.8,"MatchLevel":"houseNumber","MatchQuality":{"Country":1.0,"County":1.0,"City":1.0,"District":1.0,"Street":[1.0],"HouseNumber":1.0,"PostalCode":1.0},"MatchType":"interpolated","Location":{"LocationId":"NT_Ue8E3m3Q41MnqN83CWJAqC_xMD","LocationType":"point","DisplayPosition":{"Latitude":43.82806,"Longitude":23.23044},"MapView":{"TopLeft":{"Latitude":43.8291842,"Longitude":23.2288818},"BottomRight":{"Latitude":43.8269358,"Longitude":23.2319982}},"Address":{"Label":"Улица Цар Шишман 13, 3600 Лом, България","Country":"BGR","County":"Монтана","City":"Лом","District":"Лом","Street":"Улица Цар Шишман","HouseNumber":"13","PostalCode":"3600","AdditionalData":[{"value":"България","key":"CountryName"},{"value":"Монтана","key":"CountyName"}]},"MapReference":{"ReferenceId":"815892736","Spot":0.48,"SideOfStreet":"right","CountryId":"20656214","CountyId":"23719396","CityId":"23718469","DistrictId":"23718784","AddressId":"344091182","RoadLinkId":"203267777"}}}]}]}}