{"Response":{"MetaInfo":{"Timestamp":"2020-03-28T11:10:49.064+0000","NextPageInformation":"2"},"View":[{"_type":"SearchResultsViewType","ViewId":0,"Result":[{"Relevance":1.0,"Distance":0.0,"Direction":0.0,"MatchLevel":"city","MatchQuality":{"Country":1.0,"State":1.0,"County":1.0,"City":1.0,"PostalCode":1.0},"Location":{"LocationId":"NT_8E23wx79205cZSw1q1UeYA","LocationType":"point","DisplayPosition":{"Latitude":43.8317784,"Longitude":4.3468882},"MapView":{"TopLeft":{"Latitude":43.92287,"Longitude":4.23573},"BottomRight":{"Latitude":43.74139,"Longitude":4.45337}},"Address":{"Label":"Nîmes, Occitanie, France","Country":"FRA","State":"Occitanie","County":"Gard","City":"Nîmes","PostalCode":"30000","AdditionalData":[{"value":"France","key":"CountryName"},{"value":"Occitanie","key":"StateName"},{"value":"Gard","key":"CountyName"}]},"MapReference":{"ReferenceId":"58010512","SideOfStreet":"neither","CountryId":"20000001","StateId":"20050212","CountyId":"20050213","CityId":"20094135"}}},{"Relevance":1.0,"Distance":2.7,"MatchLevel":"houseNumber","MatchQuality":{"Country":1.0,"State":1.0,"County":1.0,"City":1.0,"Street":[1.0],"HouseNumber":1.0,"PostalCode":1.0},"MatchType":"interpolated","Location":{"LocationId":"NT_sdYrwj5m4UnX3iCO5F7tsB_l_979324914_R_yQTN","LocationType":"point","DisplayPosition":{"Latitude":43.8319331,"Longitude":4.3468435},"MapView":{"TopLeft":{"Latitude":43.8330572,"Longitude":4.3452852},"BottomRight":{"Latitude":43.8308089,"Longitude":4.3484019}},"Address":{"Label":"245 Avenue Kennedy, 30900 Nîmes, France","Country":"FRA","State":"Occitanie","County":"Gard","City":"Nîmes","Street":"Avenue Kennedy","HouseNumber":"245","PostalCode":"30900","AdditionalData":[{"value":"France","key":"CountryName"},{"value":"Occitanie","key":"StateName"},{"value":"Gard","key":"CountyName"}]},"MapReference":{"ReferenceId":"979324914","Spot":0.3,"SideOfStreet":"right","CountryId":"20000001","StateId":"20050212","CountyId":"20050213","CityId":"20094135"}}},{"Relevance":1.0,"Distance":18.8,"MatchLevel":"houseNumber","MatchQuality":{"Country":1.0,"State":1.0,"County":1.0,"City":1.0,"Street":[1.0],"HouseNumber":1.0,"PostalCode":1.0},"MatchType":"interpolated","Location":{"LocationId":"NT_S9OE65RbkiWsTzPIDiU3eA_yIzN","LocationType":"point","DisplayPosition":{"Latitude":43.8318,"Longitude":4.34664},"MapView":{"TopLeft":{"Latitude":43.8329242,"Longitude":4.3450817},"BottomRight":{"Latitude":43.8306758,"Longitude":4.3481983}},"Address":{"Label":"227 Chemin de Pissevin, 30900 Nîmes, France","Country":"FRA","State":"Occitanie","County":"Gard","City":"Nîmes","Street":"Chemin de Pissevin","HouseNumber":"227","PostalCode":"30900","AdditionalData":[{"value":"France","key":"CountryName"},{"value":"Occitanie","key":"StateName"},{"value":"Gard","key":"CountyName"}]},"MapReference":{"ReferenceId":"58014295","Spot":0.3,"SideOfStreet":"right","CountryId":"20000001","StateId":"20050212","CountyId":"20050213","CityId":"20094135","AddressId":"317052021","RoadLinkId":"50905020"}}},{"Relevance":1.0,"Distance":22.5,"MatchLevel":"houseNumber","MatchQuality":{"Country":1.0,"State":1.0,"County":1.0,"City":1.0,"Street":[1.0],"HouseNumber":1.0,"PostalCode":1.0},"MatchType":"interpolated","Location":{"LocationId":"NT_sdYrwj5m4UnX3iCO5F7tsB_yIDN","LocationType":"point","DisplayPosition":{"Latitude":43.83195,"Longitude":4.34674},"MapView":{"TopLeft":{"Latitude":43.8330742,"Longitude":4.3451817},"BottomRight":{"Latitude":43.8308258,"Longitude":4.3482983}},"Address":{"Label":"224 Avenue Kennedy, 30900 Nîmes, France","Country":"FRA","State":"Occitanie","County":"Gard","City":"Nîmes","Street":"Avenue Kennedy","HouseNumber":"224","PostalCode":"30900","AdditionalData":[{"value":"France","key":"CountryName"},{"value":"Occitanie","key":"StateName"},{"value":"Gard","key":"CountyName"}]},"MapReference":{"ReferenceId":"979324911","Spot":0.15,"SideOfStreet":"left","CountryId":"20000001","StateId":"20050212","CountyId":"20050213","CityId":"20094135","AddressId":"316915987","RoadLinkId":"312375350"}}},{"Relevance":1.0,"Distance":41.5,"MatchLevel":"houseNumber","MatchQuality":{"Country":1.0,"State":1.0,"County":1.0,"City":1.0,"Street":[1.0],"HouseNumber":1.0,"PostalCode":1.0},"MatchType":"interpolated","Location":{"LocationId":"NT_S9OE65RbkiWsTzPIDiU3eA_yQjN","LocationType":"point","DisplayPosition":{"Latitude":43.83203,"Longitude":4.34651},"MapView":{"TopLeft":{"Latitude":43.8331542,"Longitude":4.3449516},"BottomRight":{"Latitude":43.8309058,"Longitude":4.3480684}},"Address":{"Label":"246 Chemin de Pissevin, 30900 Nîmes, France","Country":"FRA","State":"Occitanie","County":"Gard","City":"Nîmes","Street":"Chemin de Pissevin","HouseNumber":"246","PostalCode":"30900","AdditionalData":[{"value":"France","key":"CountryName"},{"value":"Occitanie","key":"StateName"},{"value":"Gard","key":"CountyName"}]},"MapReference":{"ReferenceId":"979324912","Spot":0.44,"SideOfStreet":"right","CountryId":"20000001","StateId":"20050212","CountyId":"20050213","CityId":"20094135","AddressId":"379425135","RoadLinkId":"312375351"}}},{"Relevance":1.0,"Distance":47.2,"MatchLevel":"houseNumber","MatchQuality":{"Country":1.0,"State":1.0,"County":1.0,"City":1.0,"Street":[1.0],"HouseNumber":1.0,"PostalCode":1.0},"MatchType":"interpolated","Location":{"LocationId":"NT_sdYrwj5m4UnX3iCO5F7tsB_ygTN","LocationType":"point","DisplayPosition":{"Latitude":43.83185,"Longitude":4.34629},"MapView":{"TopLeft":{"Latitude":43.8329742,"Longitude":4.3447317},"BottomRight":{"Latitude":43.8307258,"Longitude":4.3478483}},"Address":{"Label":"285 Avenue Kennedy, 30900 Nîmes, France","Country":"FRA","State":"Occitanie","County":"Gard","City":"Nîmes","Street":"Avenue Kennedy","HouseNumber":"285","PostalCode":"30900","AdditionalData":[{"value":"France","key":"CountryName"},{"value":"Occitanie","key":"StateName"},{"value":"Gard","key":"CountyName"}]},"MapReference":{"ReferenceId":"979324913","Spot":0.97,"SideOfStreet":"right","CountryId":"20000001","StateId":"20050212","CountyId":"20050213","CityId":"20094135","AddressId":"571308464","RoadLinkId":"312375352"}}},{"Relevance":1.0,"Distance":49.4,"MatchLevel":"houseNumber","MatchQuality":{"Country":1.0,"State":1.0,"County":1.0,"City":1.0,"Street":[1.0],"HouseNumber":1.0,"PostalCode":1.0},"MatchType":"interpolated","Location":{"LocationId":"NT_sdYrwj5m4UnX3iCO5F7tsB_yQjN","LocationType":"point","DisplayPosition":{"Latitude":43.83191,"Longitude":4.3463},"MapView":{"TopLeft":{"Latitude":43.8330342,"Longitude":4.3447417},"BottomRight":{"Latitude":43.8307858,"Longitude":4.3478583}},"Address":{"Label":"246 Avenue Kennedy, 30900 Nîmes, France","Country":"FRA","State":"Occitanie","County":"Gard","City":"Nîmes","Street":"Avenue Kennedy","HouseNumber":"246","PostalCode":"30900","AdditionalData":[{"value":"France","key":"CountryName"},{"value":"Occitanie","key":"StateName"},{"value":"Gard","key":"CountyName"}]},"MapReference":{"ReferenceId":"979324910","Spot":0.94,"SideOfStreet":"left","CountryId":"20000001","StateId":"20050212","CountyId":"20050213","CityId":"20094135","AddressId":"316915991","RoadLinkId":"312375349"}}},{"Relevance":1.0,"Distance":52.7,"MatchLevel":"houseNumber","MatchQuality":{"Country":1.0,"State":1.0,"County":1.0,"City":1.0,"Street":[1.0],"HouseNumber":1.0,"PostalCode":1.0},"MatchType":"interpolated","Location":{"LocationId":"NT_y3o0UAKvpYR181vpd6Q42A_xA","LocationType":"point","DisplayPosition":{"Latitude":43.83163,"Longitude":4.34622},"MapView":{"TopLeft":{"Latitude":43.8327542,"Longitude":4.3446617},"BottomRight":{"Latitude":43.8305058,"Longitude":4.3477783}},"Address":{"Label":"1 Rue Armand Coussens, 30900 Nîmes, France","Country":"FRA","State":"Occitanie","County":"Gard","City":"Nîmes","Street":"Rue Armand Coussens","HouseNumber":"1","PostalCode":"30900","AdditionalData":[{"value":"France","key":"CountryName"},{"value":"Occitanie","key":"StateName"},{"value":"Gard","key":"CountyName"}]},"MapReference":{"ReferenceId":"590850013","Spot":0.81,"SideOfStreet":"right","CountryId":"20000001","StateId":"20050212","CountyId":"20050213","CityId":"20094135","AddressId":"571341164","RoadLinkId":"50584903"}}},{"Relevance":1.0,"Distance":74.9,"MatchLevel":"houseNumber","MatchQuality":{"Country":1.0,"State":1.0,"County":1.0,"City":1.0,"Street":[1.0],"HouseNumber":1.0,"PostalCode":1.0},"MatchType":"interpolated","Location":{"LocationId":"NT_y3o0UAKvpYR181vpd6Q42A_3A","LocationType":"point","DisplayPosition":{"Latitude":43.83118,"Longitude":4.34646},"MapView":{"TopLeft":{"Latitude":43.8323042,"Longitude":4.3449017},"BottomRight":{"Latitude":43.8300558,"Longitude":4.3480183}},"Address":{"Label":"7 Rue Armand Coussens, 30900 Nîmes, France","Country":"FRA","State":"Occitanie","County":"Gard","City":"Nîmes","Street":"Rue Armand Coussens","HouseNumber":"7","PostalCode":"30900","AdditionalData":[{"value":"France","key":"CountryName"},{"value":"Occitanie","key":"StateName"},{"value":"Gard","key":"CountyName"}]},"MapReference":{"ReferenceId":"590850014","Spot":0.22,"SideOfStreet":"right","CountryId":"20000001","StateId":"20050212","CountyId":"20050213","CityId":"20094135","AddressId":"682682016","RoadLinkId":"50879863"}}},{"Relevance":1.0,"Distance":80.7,"MatchLevel":"houseNumber","MatchQuality":{"Country":1.0,"State":1.0,"County":1.0,"City":1.0,"Street":[1.0],"HouseNumber":1.0,"PostalCode":1.0},"MatchType":"interpolated","Location":{"LocationId":"NT_S9OE65RbkiWsTzPIDiU3eA_xITN","LocationType":"point","DisplayPosition":{"Latitude":43.83199,"Longitude":4.34785},"MapView":{"TopLeft":{"Latitude":43.8331142,"Longitude":4.3462917},"BottomRight":{"Latitude":43.8308658,"Longitude":4.3494083}},"Address":{"Label":"125 Chemin de Pissevin, 30900 Nîmes, France","Country":"FRA","State":"Occitanie","County":"Gard","City":"Nîmes","Street":"Chemin de Pissevin","HouseNumber":"125","PostalCode":"30900","AdditionalData":[{"value":"France","key":"CountryName"},{"value":"Occitanie","key":"StateName"},{"value":"Gard","key":"CountyName"}]},"MapReference":{"ReferenceId":"58011131","Spot":0.75,"SideOfStreet":"right","CountryId":"20000001","StateId":"20050212","CountyId":"20050213","CityId":"20094135","AddressId":"316988318","RoadLinkId":"50625356"}}}]}]}}