{"Response":{"MetaInfo":{"Timestamp":"2020-03-28T11:48:49.554+0000","NextPageInformation":"2"},"View":[{"_type":"SearchResultsViewType","ViewId":0,"Result":[{"Relevance":1.0,"Distance":0.0,"Direction":0.0,"MatchLevel":"city","MatchQuality":{"Country":1.0,"State":1.0,"County":1.0,"City":1.0,"PostalCode":1.0},"Location":{"LocationId":"NT_FnIFgXAIcnIeH8Zr.hNsfC","LocationType":"point","DisplayPosition":{"Latitude":43.8593671,"Longitude":0.100938},"MapView":{"TopLeft":{"Latitude":43.9147,"Longitude":0.03092},"BottomRight":{"Latitude":43.80792,"Longitude":0.18085}},"Address":{"Label":"Eauze, Occitanie, France","Country":"FRA","State":"Occitanie","County":"Gers","City":"Eauze","PostalCode":"32800","AdditionalData":[{"value":"France","key":"CountryName"},{"value":"Occitanie","key":"StateName"},{"value":"Gers","key":"CountyName"}]},"MapReference":{"ReferenceId":"584040405","SideOfStreet":"neither","CountryId":"20000001","StateId":"20050212","CountyId":"20096397","CityId":"20096749"}}},{"Relevance":1.0,"Distance":2.3,"MatchLevel":"houseNumber","MatchQuality":{"Country":1.0,"State":1.0,"County":1.0,"City":1.0,"Street":[1.0],"HouseNumber":1.0,"PostalCode":1.0},"MatchType":"interpolated","Location":{"LocationId":"NT_zQbrxzkWnVDoGTssJe66hA_yMD","LocationType":"point","DisplayPosition":{"Latitude":43.85943,"Longitude":0.1009},"MapView":{"TopLeft":{"Latitude":43.8605542,"Longitude":0.0993409},"BottomRight":{"Latitude":43.8583058,"Longitude":0.1024591}},"Address":{"Label":"23 Place de la Liberté, 32800 Eauze, France","Country":"FRA","State":"Occitanie","County":"Gers","City":"Eauze","Street":"Place de la Liberté","HouseNumber":"23","PostalCode":"32800","AdditionalData":[{"value":"France","key":"CountryName"},{"value":"Occitanie","key":"StateName"},{"value":"Gers","key":"CountyName"}]},"MapReference":{"ReferenceId":"584040735","Spot":0.31,"SideOfStreet":"right","CountryId":"20000001","StateId":"20050212","CountyId":"20096397","CityId":"20096749","AddressId":"320929848","RoadLinkId":"50520972"}}},{"Relevance":1.0,"Distance":13.1,"MatchLevel":"houseNumber","MatchQuality":{"Country":1.0,"State":1.0,"County":1.0,"City":1.0,"Street":[1.0],"HouseNumber":1.0,"PostalCode":1.0},"MatchType":"interpolated","Location":{"LocationId":"NT_zQbrxzkWnVDoGTssJe66hA_xYD","LocationType":"point","DisplayPosition":{"Latitude":43.85948,"Longitude":0.10089},"MapView":{"TopLeft":{"Latitude":43.8606042,"Longitude":0.0993309},"BottomRight":{"Latitude":43.8583558,"Longitude":0.1024491}},"Address":{"Label":"16 Place de la Liberté, 32800 Eauze, France","Country":"FRA","State":"Occitanie","County":"Gers","City":"Eauze","Street":"Place de la Liberté","HouseNumber":"16","PostalCode":"32800","AdditionalData":[{"value":"France","key":"CountryName"},{"value":"Occitanie","key":"StateName"},{"value":"Gers","key":"CountyName"}]},"MapReference":{"ReferenceId":"813638982","Spot":0.3,"SideOfStreet":"left","CountryId":"20000001","StateId":"20050212","CountyId":"20096397","CityId":"20096749","AddressId":"321018125","RoadLinkId":"200914444"}}},{"Relevance":1.0,"Distance":33.0,"MatchLevel":"houseNumber","MatchQuality":{"Country":1.0,"State":1.0,"County":1.0,"City":1.0,"Street":[1.0],"HouseNumber":1.0,"PostalCode":1.0},"MatchType":"interpolated","Location":{"LocationId":"NT_UZgX5lCMzLk0SSXnqw9D.C_zA","LocationType":"point","DisplayPosition":{"Latitude":43.85925,"Longitude":0.10048},"MapView":{"TopLeft":{"Latitude":43.8603742,"Longitude":0.0989209},"BottomRight":{"Latitude":43.8581258,"Longitude":0.1020391}},"Address":{"Label":"3 Avenue des Pyrénées, 32800 Eauze, France","Country":"FRA","State":"Occitanie","County":"Gers","City":"Eauze","Street":"Avenue des Pyrénées","HouseNumber":"3","PostalCode":"32800","AdditionalData":[{"value":"France","key":"CountryName"},{"value":"Occitanie","key":"StateName"},{"value":"Gers","key":"CountyName"}]},"MapReference":{"ReferenceId":"584040523","Spot":0.5,"SideOfStreet":"right","CountryId":"20000001","StateId":"20050212","CountyId":"20096397","CityId":"20096749","AddressId":"379668897","RoadLinkId":"50587918"}}},{"Relevance":1.0,"Distance":33.7,"MatchLevel":"houseNumber","MatchQuality":{"Country":1.0,"State":1.0,"County":1.0,"City":1.0,"Street":[1.0],"HouseNumber":1.0,"PostalCode":1.0},"MatchType":"interpolated","Location":{"LocationId":"NT_NouqlhHA1bjG6KvQm70j.A_l_813638981_L_xgD","LocationType":"point","DisplayPosition":{"Latitude":43.859425,"Longitude":0.100525},"MapView":{"TopLeft":{"Latitude":43.8605492,"Longitude":0.0989659},"BottomRight":{"Latitude":43.8583008,"Longitude":0.1020841}},"Address":{"Label":"18 Boulevard Saint-Blancat, 32800 Eauze, France","Country":"FRA","State":"Occitanie","County":"Gers","City":"Eauze","Street":"Boulevard Saint-Blancat","HouseNumber":"18","PostalCode":"32800","AdditionalData":[{"value":"France","key":"CountryName"},{"value":"Occitanie","key":"StateName"},{"value":"Gers","key":"CountyName"}]},"MapReference":{"ReferenceId":"813638981","Spot":0.5,"SideOfStreet":"left","CountryId":"20000001","StateId":"20050212","CountyId":"20096397","CityId":"20096749"}}},{"Relevance":1.0,"Distance":34.2,"MatchLevel":"houseNumber","MatchQuality":{"Country":1.0,"State":1.0,"County":1.0,"City":1.0,"Street":[1.0],"HouseNumber":1.0,"PostalCode":1.0},"MatchType":"interpolated","Location":{"LocationId":"NT_UZgX5lCMzLk0SSXnqw9D.C_2ADNwA","LocationType":"point","DisplayPosition":{"Latitude":43.85906,"Longitude":0.10048},"MapView":{"TopLeft":{"Latitude":43.8601842,"Longitude":0.0989209},"BottomRight":{"Latitude":43.8579358,"Longitude":0.1020391}},"Address":{"Label":"6040 Avenue des Pyrénées, 32800 Eauze, France","Country":"FRA","State":"Occitanie","County":"Gers","City":"Eauze","Street":"Avenue des Pyrénées","HouseNumber":"6040","PostalCode":"32800","AdditionalData":[{"value":"France","key":"CountryName"},{"value":"Occitanie","key":"StateName"},{"value":"Gers","key":"CountyName"}]},"MapReference":{"ReferenceId":"584040524","Spot":0.92,"SideOfStreet":"right","CountryId":"20000001","StateId":"20050212","CountyId":"20096397","CityId":"20096749","AddressId":"320919178","RoadLinkId":"50473623"}}},{"Relevance":1.0,"Distance":37.2,"MatchLevel":"street","MatchQuality":{"Country":1.0,"State":1.0,"County":1.0,"City":1.0,"Street":[1.0],"PostalCode":1.0},"Location":{"LocationId":"NT_eKRwLRZkL-NII0xLH3QOiC_l_584040494_R","LocationType":"point","DisplayPosition":{"Latitude":43.85942,"Longitude":0.10048},"MapView":{"TopLeft":{"Latitude":43.85946,"Longitude":0.10048},"BottomRight":{"Latitude":43.85942,"Longitude":0.10048}},"Address":{"Label":"Rue Robert Daury, 32800 Eauze, France","Country":"FRA","State":"Occitanie","County":"Gers","City":"Eauze","Street":"Rue Robert Daury","PostalCode":"32800","AdditionalData":[{"value":"France","key":"CountryName"},{"value":"Occitanie","key":"StateName"},{"value":"Gers","key":"CountyName"}]},"MapReference":{"ReferenceId":"584040494","Spot":0.0,"SideOfStreet":"right","CountryId":"20000001","StateId":"20050212","CountyId":"20096397","CityId":"20096749"}}},{"Relevance":1.0,"Distance":41.2,"MatchLevel":"houseNumber","MatchQuality":{"Country":1.0,"State":1.0,"County":1.0,"City":1.0,"Street":[1.0],"HouseNumber":1.0,"PostalCode":1.0},"MatchType":"interpolated","Location":{"LocationId":"NT_NouqlhHA1bjG6KvQm70j.A_l_813627208_R_1A","LocationType":"point","DisplayPosition":{"Latitude":43.8594106,"Longitude":0.100419},"MapView":{"TopLeft":{"Latitude":43.8605348,"Longitude":0.0988599},"BottomRight":{"Latitude":43.8582865,"Longitude":0.1019781}},"Address":{"Label":"5 Boulevard Charles de Gaulle, 32800 Eauze, France","Country":"FRA","State":"Occitanie","County":"Gers","City":"Eauze","Street":"Boulevard Charles de Gaulle","HouseNumber":"5","PostalCode":"32800","AdditionalData":[{"value":"France","key":"CountryName"},{"value":"Occitanie","key":"StateName"},{"value":"Gers","key":"CountyName"}]},"MapReference":{"ReferenceId":"813627208","Spot":0.53,"SideOfStreet":"right","CountryId":"20000001","StateId":"20050212","CountyId":"20096397","CityId":"20096749"}}},{"Relevance":1.0,"Distance":52.9,"MatchLevel":"houseNumber","MatchQuality":{"Country":1.0,"State":1.0,"County":1.0,"City":1.0,"Street":[1.0],"HouseNumber":1.0,"PostalCode":1.0},"MatchType":"interpolated","Location":{"LocationId":"NT_nY4aheaAEOP4tz4NKDu0kB_xID","LocationType":"point","DisplayPosition":{"Latitude":43.85992,"Longitude":0.10111},"MapView":{"TopLeft":{"Latitude":43.8610442,"Longitude":0.0995509},"BottomRight":{"Latitude":43.8587958,"Longitude":0.1026691}},"Address":{"Label":"12 Rue des Pénitents, 32800 Eauze, France","Country":"FRA","State":"Occitanie","County":"Gers","City":"Eauze","Street":"Rue des Pénitents","HouseNumber":"12","PostalCode":"32800","AdditionalData":[{"value":"France","key":"CountryName"},{"value":"Occitanie","key":"StateName"},{"value":"Gers","key":"CountyName"}]},"MapReference":{"ReferenceId":"813627211","Spot":0.37,"SideOfStreet":"right","CountryId":"20000001","StateId":"20050212","CountyId":"20096397","CityId":"20096749","AddressId":"379701765","RoadLinkId":"200901357"}}},{"Relevance":1.0,"Distance":56.6,"MatchLevel":"houseNumber","MatchQuality":{"Country":1.0,"State":1.0,"County":1.0,"City":1.0,"Street":[1.0],"HouseNumber":1.0,"PostalCode":1.0},"MatchType":"interpolated","Location":{"LocationId":"NT_eKRwLRZkL-NII0xLH3QOiC_yED","LocationType":"point","DisplayPosition":{"Latitude":43.85975,"Longitude":0.10044},"MapView":{"TopLeft":{"Latitude":43.8608742,"Longitude":0.0988809},"BottomRight":{"Latitude":43.8586258,"Longitude":0.1019991}},"Address":{"Label":"21 Rue Robert Daury, 32800 Eauze, France","Country":"FRA","State":"Occitanie","County":"Gers","City":"Eauze","Street":"Rue Robert Daury","HouseNumber":"21","PostalCode":"32800","AdditionalData":[{"value":"France","key":"CountryName"},{"value":"Occitanie","key":"StateName"},{"value":"Gers","key":"CountyName"}]},"MapReference":{"ReferenceId":"584040495","Spot":0.91,"SideOfStreet":"right","CountryId":"20000001","StateId":"20050212","CountyId":"20096397","CityId":"20096749","AddressId":"320931768","RoadLinkId":"51421928"}}}]}]}}