{"Response":{"MetaInfo":{"Timestamp":"2020-03-28T11:07:33.727+0000","NextPageInformation":"2"},"View":[{"_type":"SearchResultsViewType","ViewId":0,"Result":[{"Relevance":1.0,"Distance":-10.7,"MatchLevel":"landmark","MatchQuality":{"Country":1.0,"State":1.0,"County":1.0,"City":1.0,"Street":[1.0],"PostalCode":1.0,"Name":1.0},"Location":{"LocationId":"NT_z4EpqeDIGNgeneGZLtwQmA_p_U652P3QQG3raXck6boVK1C","LocationType":"hospital","Name":"CHU de Nîmes","DisplayPosition":{"Latitude":43.82262,"Longitude":4.31883},"MapView":{"TopLeft":{"Latitude":43.82633,"Longitude":4.3164},"BottomRight":{"Latitude":43.82164,"Longitude":4.32555}},"Address":{"Label":"Place du Professeur Robert Debré, 30900 Nîmes, France","Country":"FRA","State":"Occitanie","County":"Gard","City":"Nîmes","Street":"Place du Professeur Robert Debré","PostalCode":"30900","AdditionalData":[{"value":"France","key":"CountryName"},{"value":"Occitanie","key":"StateName"},{"value":"Gard","key":"CountyName"}]},"MapReference":{"CountryId":"20000001","StateId":"20050212","CountyId":"20050213","CityId":"20094135","PlaceId":"553798328"}}},{"Relevance":1.0,"Distance":0.0,"Direction":0.0,"MatchLevel":"city","MatchQuality":{"Country":1.0,"State":1.0,"County":1.0,"City":1.0,"PostalCode":1.0},"Location":{"LocationId":"NT_8E23wx79205cZSw1q1UeYA","LocationType":"point","DisplayPosition":{"Latitude":43.8242207,"Longitude":4.3253869},"MapView":{"TopLeft":{"Latitude":43.92287,"Longitude":4.23573},"BottomRight":{"Latitude":43.74139,"Longitude":4.45337}},"Address":{"Label":"Nîmes, Occitanie, France","Country":"FRA","State":"Occitanie","County":"Gard","City":"Nîmes","PostalCode":"30000","AdditionalData":[{"value":"France","key":"CountryName"},{"value":"Occitanie","key":"StateName"},{"value":"Gard","key":"CountyName"}]},"MapReference":{"ReferenceId":"58010512","SideOfStreet":"neither","CountryId":"20000001","StateId":"20050212","CountyId":"20050213","CityId":"20094135"}}},{"Relevance":1.0,"Distance":6.1,"MatchLevel":"houseNumber","MatchQuality":{"Country":1.0,"State":1.0,"County":1.0,"City":1.0,"Street":[1.0],"HouseNumber":1.0,"PostalCode":1.0},"MatchType":"interpolated","Location":{"LocationId":"NT_ru4m1fov4wiCzKYYOp31BC_l_58012376_L_xMzM","LocationType":"point","DisplayPosition":{"Latitude":43.8242757,"Longitude":4.3253828},"MapView":{"TopLeft":{"Latitude":43.8253999,"Longitude":4.3238246},"BottomRight":{"Latitude":43.8231516,"Longitude":4.3269409}},"Address":{"Label":"133 Rue des Pensées, 30900 Nîmes, France","Country":"FRA","State":"Occitanie","County":"Gard","City":"Nîmes","Street":"Rue des Pensées","HouseNumber":"133","PostalCode":"30900","AdditionalData":[{"value":"France","key":"CountryName"},{"value":"Occitanie","key":"StateName"},{"value":"Gard","key":"CountyName"}]},"MapReference":{"ReferenceId":"58012376","Spot":0.57,"SideOfStreet":"left","CountryId":"20000001","StateId":"20050212","CountyId":"20050213","CityId":"20094135"}}},{"Relevance":1.0,"Distance":10.8,"MatchLevel":"houseNumber","MatchQuality":{"Country":1.0,"State":1.0,"County":1.0,"City":1.0,"Street":[1.0],"HouseNumber":1.0,"PostalCode":1.0},"MatchType":"interpolated","Location":{"LocationId":"NT_ru4m1fov4wiCzKYYOp31BC_l_590837234_L_xQzM","LocationType":"point","DisplayPosition":{"Latitude":43.82428,"Longitude":4.3252798},"MapView":{"TopLeft":{"Latitude":43.8254042,"Longitude":4.3237217},"BottomRight":{"Latitude":43.8231559,"Longitude":4.326838}},"Address":{"Label":"143 Rue des Pensées, 30900 Nîmes, France","Country":"FRA","State":"Occitanie","County":"Gard","City":"Nîmes","Street":"Rue des Pensées","HouseNumber":"143","PostalCode":"30900","AdditionalData":[{"value":"France","key":"CountryName"},{"value":"Occitanie","key":"StateName"},{"value":"Gard","key":"CountyName"}]},"MapReference":{"ReferenceId":"590837234","Spot":0.0,"SideOfStreet":"left","CountryId":"20000001","StateId":"20050212","CountyId":"20050213","CityId":"20094135"}}},{"Relevance":1.0,"Distance":13.8,"MatchLevel":"houseNumber","MatchQuality":{"Country":1.0,"State":1.0,"County":1.0,"City":1.0,"Street":[1.0],"HouseNumber":1.0,"PostalCode":1.0},"MatchType":"interpolated","Location":{"LocationId":"NT_pBk2emWNTzlJqmQmYZaBRD_l_590849482_L_xA","LocationType":"point","DisplayPosition":{"Latitude":43.8244011,"Longitude":4.3255396},"MapView":{"TopLeft":{"Latitude":43.8255253,"Longitude":4.3239815},"BottomRight":{"Latitude":43.823277,"Longitude":4.3270978}},"Address":{"Label":"1 Rue des Pensées, 30900 Nîmes, France","Country":"FRA","State":"Occitanie","County":"Gard","City":"Nîmes","Street":"Rue des Pensées","HouseNumber":"1","PostalCode":"30900","AdditionalData":[{"value":"France","key":"CountryName"},{"value":"Occitanie","key":"StateName"},{"value":"Gard","key":"CountyName"}]},"MapReference":{"ReferenceId":"590849482","Spot":0.06,"SideOfStreet":"left","CountryId":"20000001","StateId":"20050212","CountyId":"20050213","CityId":"20094135"}}},{"Relevance":1.0,"Distance":36.4,"MatchLevel":"houseNumber","MatchQuality":{"Country":1.0,"State":1.0,"County":1.0,"City":1.0,"Street":[1.0],"HouseNumber":1.0,"PostalCode":1.0},"MatchType":"interpolated","Location":{"LocationId":"NT_ru4m1fov4wiCzKYYOp31BC_xIzM","LocationType":"point","DisplayPosition":{"Latitude":43.82417,"Longitude":4.3259},"MapView":{"TopLeft":{"Latitude":43.8252942,"Longitude":4.3243419},"BottomRight":{"Latitude":43.8230458,"Longitude":4.3274581}},"Address":{"Label":"123 Rue du Professeur Robert Debré, 30900 Nîmes, France","Country":"FRA","State":"Occitanie","County":"Gard","City":"Nîmes","Street":"Rue du Professeur Robert Debré","HouseNumber":"123","PostalCode":"30900","AdditionalData":[{"value":"France","key":"CountryName"},{"value":"Occitanie","key":"StateName"},{"value":"Gard","key":"CountyName"}]},"MapReference":{"ReferenceId":"1272444518","Spot":0.67,"SideOfStreet":"left","CountryId":"20000001","StateId":"20050212","CountyId":"20050213","CityId":"20094135","AddressId":"316916070","RoadLinkId":"599785392"}}},{"Relevance":1.0,"Distance":50.5,"MatchLevel":"houseNumber","MatchQuality":{"Country":1.0,"State":1.0,"County":1.0,"City":1.0,"Street":[1.0],"HouseNumber":1.0,"PostalCode":1.0},"MatchType":"interpolated","Location":{"LocationId":"NT_ru4m1fov4wiCzKYYOp31BC_xcDN","LocationType":"point","DisplayPosition":{"Latitude":43.82431,"Longitude":4.32477},"MapView":{"TopLeft":{"Latitude":43.8254342,"Longitude":4.3232119},"BottomRight":{"Latitude":43.8231858,"Longitude":4.3263281}},"Address":{"Label":"174 Rue du Professeur Robert Debré, 30900 Nîmes, France","Country":"FRA","State":"Occitanie","County":"Gard","City":"Nîmes","Street":"Rue du Professeur Robert Debré","HouseNumber":"174","PostalCode":"30900","AdditionalData":[{"value":"France","key":"CountryName"},{"value":"Occitanie","key":"StateName"},{"value":"Gard","key":"CountyName"}]},"MapReference":{"ReferenceId":"590837235","Spot":0.45,"SideOfStreet":"left","CountryId":"20000001","StateId":"20050212","CountyId":"20050213","CityId":"20094135","AddressId":"317153043","RoadLinkId":"51438152"}}},{"Relevance":1.0,"Distance":80.7,"MatchLevel":"street","MatchQuality":{"Country":1.0,"State":1.0,"County":1.0,"City":1.0,"PostalCode":1.0},"Location":{"LocationId":"NT_Pl9YwASwAE6x388urbj0OD_l_590837232_R","LocationType":"point","DisplayPosition":{"Latitude":43.82432,"Longitude":4.32439},"MapView":{"TopLeft":{"Latitude":43.82464,"Longitude":4.32431},"BottomRight":{"Latitude":43.82432,"Longitude":4.32439}},"Address":{"Label":"30900 Nîmes, France","Country":"FRA","State":"Occitanie","County":"Gard","City":"Nîmes","PostalCode":"30900","AdditionalData":[{"value":"France","key":"CountryName"},{"value":"Occitanie","key":"StateName"},{"value":"Gard","key":"CountyName"}]},"MapReference":{"ReferenceId":"590837232","Spot":0.0,"SideOfStreet":"right","CountryId":"20000001","StateId":"20050212","CountyId":"20050213","CityId":"20094135"}}},{"Relevance":1.0,"Distance":98.2,"MatchLevel":"street","MatchQuality":{"Country":1.0,"State":1.0,"County":1.0,"City":1.0,"PostalCode":1.0},"Location":{"LocationId":"NT_Pl9YwASwAE6x388urbj0OD_l_590837409_L","LocationType":"point","DisplayPosition":{"Latitude":43.82464,"Longitude":4.32431},"MapView":{"TopLeft":{"Latitude":43.82479,"Longitude":4.32326},"BottomRight":{"Latitude":43.82464,"Longitude":4.32431}},"Address":{"Label":"30900 Nîmes, France","Country":"FRA","State":"Occitanie","County":"Gard","City":"Nîmes","PostalCode":"30900","AdditionalData":[{"value":"France","key":"CountryName"},{"value":"Occitanie","key":"StateName"},{"value":"Gard","key":"CountyName"}]},"MapReference":{"ReferenceId":"590837409","Spot":0.0,"SideOfStreet":"left","CountryId":"20000001","StateId":"20050212","CountyId":"20050213","CityId":"20094135"}}},{"Relevance":1.0,"Distance":98.2,"MatchLevel":"street","MatchQuality":{"Country":1.0,"State":1.0,"County":1.0,"City":1.0,"PostalCode":1.0},"Location":{"LocationId":"NT_Pl9YwASwAE6x388urbj0OD_l_590837407_R","LocationType":"point","DisplayPosition":{"Latitude":43.82464,"Longitude":4.32431},"MapView":{"TopLeft":{"Latitude":43.82615,"Longitude":4.32348},"BottomRight":{"Latitude":43.82464,"Longitude":4.32431}},"Address":{"Label":"30900 Nîmes, France","Country":"FRA","State":"Occitanie","County":"Gard","City":"Nîmes","PostalCode":"30900","AdditionalData":[{"value":"France","key":"CountryName"},{"value":"Occitanie","key":"StateName"},{"value":"Gard","key":"CountyName"}]},"MapReference":{"ReferenceId":"590837407","Spot":0.0,"SideOfStreet":"right","CountryId":"20000001","StateId":"20050212","CountyId":"20050213","CityId":"20094135"}}}]}]}}