{"Response":{"MetaInfo":{"Timestamp":"2020-03-28T11:08:07.406+0000","NextPageInformation":"2"},"View":[{"_type":"SearchResultsViewType","ViewId":0,"Result":[{"Relevance":1.0,"Distance":0.0,"Direction":0.0,"MatchLevel":"city","MatchQuality":{"Country":1.0,"State":1.0,"County":1.0,"City":1.0,"PostalCode":1.0},"Location":{"LocationId":"NT_5gn7o889m9RxpBYD2oFhTC","LocationType":"point","DisplayPosition":{"Latitude":43.9215495,"Longitude":4.8777974},"MapView":{"TopLeft":{"Latitude":43.99728,"Longitude":4.73902},"BottomRight":{"Latitude":43.88647,"Longitude":4.92709}},"Address":{"Label":"Avignon, Provence-Alpes-Côte d'Azur, France","Country":"FRA","State":"Provence-Alpes-Côte d'Azur","County":"Vaucluse","City":"Avignon","PostalCode":"84000","AdditionalData":[{"value":"France","key":"CountryName"},{"value":"Provence-Alpes-Côte d'Azur","key":"StateName"},{"value":"Vaucluse","key":"CountyName"}]},"MapReference":{"ReferenceId":"778571374","SideOfStreet":"neither","CountryId":"20000001","StateId":"20000193","CountyId":"20056024","CityId":"20056045"}}},{"Relevance":1.0,"Distance":3.4,"MatchLevel":"houseNumber","MatchQuality":{"Country":1.0,"State":1.0,"County":1.0,"City":1.0,"Street":[1.0],"HouseNumber":1.0,"PostalCode":1.0},"MatchType":"interpolated","Location":{"LocationId":"NT_SXneJ6fpZecii8DqIWXcwB_l_832376913_R_3QTM","LocationType":"point","DisplayPosition":{"Latitude":43.9215469,"Longitude":4.87762},"MapView":{"TopLeft":{"Latitude":43.922671,"Longitude":4.8760593},"BottomRight":{"Latitude":43.9204227,"Longitude":4.8791807}},"Address":{"Label":"741 Avenue des Magnanarelles, 84140 Avignon, France","Country":"FRA","State":"Provence-Alpes-Côte d'Azur","County":"Vaucluse","City":"Avignon","Street":"Avenue des Magnanarelles","HouseNumber":"741","PostalCode":"84140","AdditionalData":[{"value":"France","key":"CountryName"},{"value":"Provence-Alpes-Côte d'Azur","key":"StateName"},{"value":"Vaucluse","key":"CountyName"}]},"MapReference":{"ReferenceId":"832376913","Spot":0.83,"SideOfStreet":"right","CountryId":"20000001","StateId":"20000193","CountyId":"20056024","CityId":"20056045"}}},{"Relevance":1.0,"Distance":44.9,"MatchLevel":"houseNumber","MatchQuality":{"Country":1.0,"State":1.0,"County":1.0,"City":1.0,"District":1.0,"Street":[1.0],"HouseNumber":1.0,"PostalCode":1.0},"MatchType":"interpolated","Location":{"LocationId":"NT_srWsjAH6tmb2pxwQmdmk4B_l_1211300766_R_3UzM","LocationType":"point","DisplayPosition":{"Latitude":43.9219001,"Longitude":4.8775199},"MapView":{"TopLeft":{"Latitude":43.9230243,"Longitude":4.8759592},"BottomRight":{"Latitude":43.920776,"Longitude":4.8790806}},"Address":{"Label":"753 Avenue des Magnanarelles, 84140 Avignon, France","Country":"FRA","State":"Provence-Alpes-Côte d'Azur","County":"Vaucluse","City":"Avignon","District":"Montfavet","Street":"Avenue des Magnanarelles","HouseNumber":"753","PostalCode":"84140","AdditionalData":[{"value":"France","key":"CountryName"},{"value":"Provence-Alpes-Côte d'Azur","key":"StateName"},{"value":"Vaucluse","key":"CountyName"}]},"MapReference":{"ReferenceId":"1211300766","Spot":0.42,"SideOfStreet":"right","CountryId":"20000001","StateId":"20000193","CountyId":"20056024","CityId":"20056045","DistrictId":"20483942"}}},{"Relevance":1.0,"Distance":68.4,"MatchLevel":"street","MatchQuality":{"Country":1.0,"State":1.0,"County":1.0,"City":1.0,"District":1.0,"PostalCode":1.0},"Location":{"LocationId":"NT_aE3vtifHmINE5FuCC9XyHB_l_549681146_R","LocationType":"point","DisplayPosition":{"Latitude":43.92128,"Longitude":4.87703},"MapView":{"TopLeft":{"Latitude":43.92137,"Longitude":4.87654},"BottomRight":{"Latitude":43.92115,"Longitude":4.87706}},"Address":{"Label":"84140 Avignon, France","Country":"FRA","State":"Provence-Alpes-Côte d'Azur","County":"Vaucluse","City":"Avignon","District":"Montfavet","PostalCode":"84140","AdditionalData":[{"value":"France","key":"CountryName"},{"value":"Provence-Alpes-Côte d'Azur","key":"StateName"},{"value":"Vaucluse","key":"CountyName"}]},"MapReference":{"ReferenceId":"549681146","Spot":0.21,"SideOfStreet":"right","CountryId":"20000001","StateId":"20000193","CountyId":"20056024","CityId":"20056045","DistrictId":"20483942"}}},{"Relevance":1.0,"Distance":79.1,"MatchLevel":"houseNumber","MatchQuality":{"Country":1.0,"State":1.0,"County":1.0,"City":1.0,"District":1.0,"Street":[1.0],"HouseNumber":1.0,"PostalCode":1.0},"MatchType":"interpolated","Location":{"LocationId":"NT_srWsjAH6tmb2pxwQmdmk4B_l_1211300767_R_3gzN","LocationType":"point","DisplayPosition":{"Latitude":43.922191,"Longitude":4.8773696},"MapView":{"TopLeft":{"Latitude":43.9233152,"Longitude":4.8758088},"BottomRight":{"Latitude":43.9210669,"Longitude":4.8789303}},"Address":{"Label":"787 Avenue des Magnanarelles, 84140 Avignon, France","Country":"FRA","State":"Provence-Alpes-Côte d'Azur","County":"Vaucluse","City":"Avignon","District":"Montfavet","Street":"Avenue des Magnanarelles","HouseNumber":"787","PostalCode":"84140","AdditionalData":[{"value":"France","key":"CountryName"},{"value":"Provence-Alpes-Côte d'Azur","key":"StateName"},{"value":"Vaucluse","key":"CountyName"}]},"MapReference":{"ReferenceId":"1211300767","Spot":0.06,"SideOfStreet":"right","CountryId":"20000001","StateId":"20000193","CountyId":"20056024","CityId":"20056045","DistrictId":"20483942"}}},{"Relevance":1.0,"Distance":81.0,"MatchLevel":"street","MatchQuality":{"Country":1.0,"State":1.0,"County":1.0,"City":1.0,"District":1.0,"PostalCode":1.0},"Location":{"LocationId":"NT_aE3vtifHmINE5FuCC9XyHB_l_1062445547_R","LocationType":"point","DisplayPosition":{"Latitude":43.9222771,"Longitude":4.8777507},"MapView":{"TopLeft":{"Latitude":43.92234,"Longitude":4.87764},"BottomRight":{"Latitude":43.92227,"Longitude":4.87873}},"Address":{"Label":"84140 Avignon, France","Country":"FRA","State":"Provence-Alpes-Côte d'Azur","County":"Vaucluse","City":"Avignon","District":"Montfavet","PostalCode":"84140","AdditionalData":[{"value":"France","key":"CountryName"},{"value":"Provence-Alpes-Côte d'Azur","key":"StateName"},{"value":"Vaucluse","key":"CountyName"}]},"MapReference":{"ReferenceId":"1062445547","Spot":0.1,"SideOfStreet":"right","CountryId":"20000001","StateId":"20000193","CountyId":"20056024","CityId":"20056045","DistrictId":"20483942"}}},{"Relevance":1.0,"Distance":102.7,"MatchLevel":"street","MatchQuality":{"Country":1.0,"State":1.0,"County":1.0,"City":1.0,"District":1.0,"PostalCode":1.0},"Location":{"LocationId":"NT_aE3vtifHmINE5FuCC9XyHB_l_549681156_R","LocationType":"point","DisplayPosition":{"Latitude":43.92137,"Longitude":4.87654},"MapView":{"TopLeft":{"Latitude":43.92137,"Longitude":4.87652},"BottomRight":{"Latitude":43.92111,"Longitude":4.87654}},"Address":{"Label":"84140 Avignon, France","Country":"FRA","State":"Provence-Alpes-Côte d'Azur","County":"Vaucluse","City":"Avignon","District":"Montfavet","PostalCode":"84140","AdditionalData":[{"value":"France","key":"CountryName"},{"value":"Provence-Alpes-Côte d'Azur","key":"StateName"},{"value":"Vaucluse","key":"CountyName"}]},"MapReference":{"ReferenceId":"549681156","Spot":1.0,"SideOfStreet":"right","CountryId":"20000001","StateId":"20000193","CountyId":"20056024","CityId":"20056045","DistrictId":"20483942"}}},{"Relevance":1.0,"Distance":102.7,"MatchLevel":"street","MatchQuality":{"Country":1.0,"State":1.0,"County":1.0,"City":1.0,"District":1.0,"PostalCode":1.0},"Location":{"LocationId":"NT_aE3vtifHmINE5FuCC9XyHB_l_549681145_R","LocationType":"point","DisplayPosition":{"Latitude":43.92137,"Longitude":4.87654},"MapView":{"TopLeft":{"Latitude":43.92178,"Longitude":4.87532},"BottomRight":{"Latitude":43.92134,"Longitude":4.87654}},"Address":{"Label":"84140 Avignon, France","Country":"FRA","State":"Provence-Alpes-Côte d'Azur","County":"Vaucluse","City":"Avignon","District":"Montfavet","PostalCode":"84140","AdditionalData":[{"value":"France","key":"CountryName"},{"value":"Provence-Alpes-Côte d'Azur","key":"StateName"},{"value":"Vaucluse","key":"CountyName"}]},"MapReference":{"ReferenceId":"549681145","Spot":0.0,"SideOfStreet":"right","CountryId":"20000001","StateId":"20000193","CountyId":"20056024","CityId":"20056045","DistrictId":"20483942"}}},{"Relevance":1.0,"Distance":107.4,"MatchLevel":"street","MatchQuality":{"Country":1.0,"State":1.0,"County":1.0,"City":1.0,"District":1.0,"PostalCode":1.0},"Location":{"LocationId":"NT_aE3vtifHmINE5FuCC9XyHB_l_549681147_R","LocationType":"point","DisplayPosition":{"Latitude":43.92182,"Longitude":4.87651},"MapView":{"TopLeft":{"Latitude":43.92318,"Longitude":4.87533},"BottomRight":{"Latitude":43.92148,"Longitude":4.87654}},"Address":{"Label":"84140 Avignon, France","Country":"FRA","State":"Provence-Alpes-Côte d'Azur","County":"Vaucluse","City":"Avignon","District":"Montfavet","PostalCode":"84140","AdditionalData":[{"value":"France","key":"CountryName"},{"value":"Provence-Alpes-Côte d'Azur","key":"StateName"},{"value":"Vaucluse","key":"CountyName"}]},"MapReference":{"ReferenceId":"549681147","Spot":0.5,"SideOfStreet":"right","CountryId":"20000001","StateId":"20000193","CountyId":"20056024","CityId":"20056045","DistrictId":"20483942"}}},{"Relevance":1.0,"Distance":115.3,"MatchLevel":"street","MatchQuality":{"Country":1.0,"State":1.0,"County":1.0,"City":1.0,"District":1.0,"PostalCode":1.0},"Location":{"LocationId":"NT_aE3vtifHmINE5FuCC9XyHB_l_1062445546_L","LocationType":"point","DisplayPosition":{"Latitude":43.92234,"Longitude":4.87873},"MapView":{"TopLeft":{"Latitude":43.92313,"Longitude":4.87869},"BottomRight":{"Latitude":43.92234,"Longitude":4.879}},"Address":{"Label":"84140 Avignon, France","Country":"FRA","State":"Provence-Alpes-Côte d'Azur","County":"Vaucluse","City":"Avignon","District":"Montfavet","PostalCode":"84140","AdditionalData":[{"value":"France","key":"CountryName"},{"value":"Provence-Alpes-Côte d'Azur","key":"StateName"},{"value":"Vaucluse","key":"CountyName"}]},"MapReference":{"ReferenceId":"1062445546","Spot":0.0,"SideOfStreet":"left","CountryId":"20000001","StateId":"20000193","CountyId":"20056024","CityId":"20056045","DistrictId":"20483942"}}}]}]}}