{"Response":{"MetaInfo":{"Timestamp":"2020-03-28T11:53:50.480+0000","NextPageInformation":"2"},"View":[{"_type":"SearchResultsViewType","ViewId":0,"Result":[{"Relevance":1.0,"Distance":0.0,"Direction":0.0,"MatchLevel":"city","MatchQuality":{"Country":1.0,"State":1.0,"County":1.0,"City":1.0,"PostalCode":1.0},"Location":{"LocationId":"NT_8ZacrMdMLLPVHgDErDlxXA","LocationType":"point","DisplayPosition":{"Latitude":43.9286184,"Longitude":4.994955},"MapView":{"TopLeft":{"Latitude":43.96787,"Longitude":4.95097},"BottomRight":{"Latitude":43.87911,"Longitude":5.03693}},"Address":{"Label":"Le Thor, Provence-Alpes-Côte d'Azur, France","Country":"FRA","State":"Provence-Alpes-Côte d'Azur","County":"Vaucluse","City":"Le Thor","PostalCode":"84250","AdditionalData":[{"value":"France","key":"CountryName"},{"value":"Provence-Alpes-Côte d'Azur","key":"StateName"},{"value":"Vaucluse","key":"CountyName"}]},"MapReference":{"ReferenceId":"546105996","SideOfStreet":"neither","CountryId":"20000001","StateId":"20000193","CountyId":"20056024","CityId":"20056422"}}},{"Relevance":1.0,"Distance":3.5,"MatchLevel":"houseNumber","MatchQuality":{"Country":1.0,"State":1.0,"County":1.0,"City":1.0,"Street":[1.0],"HouseNumber":1.0,"PostalCode":1.0},"MatchType":"interpolated","Location":{"LocationId":"NT_FNeZJ3RshzrpZOkAyAa6ZB_zUD","LocationType":"point","DisplayPosition":{"Latitude":43.92848,"Longitude":4.99493},"MapView":{"TopLeft":{"Latitude":43.9296042,"Longitude":4.9933691},"BottomRight":{"Latitude":43.9273558,"Longitude":4.9964909}},"Address":{"Label":"35 Place du Marché, 84250 Le Thor, France","Country":"FRA","State":"Provence-Alpes-Côte d'Azur","County":"Vaucluse","City":"Le Thor","Street":"Place du Marché","HouseNumber":"35","PostalCode":"84250","AdditionalData":[{"value":"France","key":"CountryName"},{"value":"Provence-Alpes-Côte d'Azur","key":"StateName"},{"value":"Vaucluse","key":"CountyName"}]},"MapReference":{"ReferenceId":"546106258","Spot":0.52,"SideOfStreet":"left","CountryId":"20000001","StateId":"20000193","CountyId":"20056024","CityId":"20056422","AddressId":"319064246","RoadLinkId":"45800156"}}},{"Relevance":1.0,"Distance":18.7,"MatchLevel":"houseNumber","MatchQuality":{"Country":1.0,"State":1.0,"County":1.0,"City":1.0,"Street":[1.0],"HouseNumber":1.0,"PostalCode":1.0},"MatchType":"interpolated","Location":{"LocationId":"NT_0EIYmRIrFOS5kFD6ty7v6A_0QD","LocationType":"point","DisplayPosition":{"Latitude":43.9288,"Longitude":4.99487},"MapView":{"TopLeft":{"Latitude":43.9299242,"Longitude":4.9933091},"BottomRight":{"Latitude":43.9276758,"Longitude":4.9964309}},"Address":{"Label":"44 Rue Pasteur, 84250 Le Thor, France","Country":"FRA","State":"Provence-Alpes-Côte d'Azur","County":"Vaucluse","City":"Le Thor","Street":"Rue Pasteur","HouseNumber":"44","PostalCode":"84250","AdditionalData":[{"value":"France","key":"CountryName"},{"value":"Provence-Alpes-Côte d'Azur","key":"StateName"},{"value":"Vaucluse","key":"CountyName"}]},"MapReference":{"ReferenceId":"970037768","Spot":0.58,"SideOfStreet":"right","CountryId":"20000001","StateId":"20000193","CountyId":"20056024","CityId":"20056422","AddressId":"319135247","RoadLinkId":"306416359"}}},{"Relevance":1.0,"Distance":21.4,"MatchLevel":"houseNumber","MatchQuality":{"Country":1.0,"State":1.0,"County":1.0,"City":1.0,"Street":[1.0],"HouseNumber":1.0,"PostalCode":1.0},"MatchType":"interpolated","Location":{"LocationId":"NT_0JmheGambsPz3QIlnfBnqB_xkD","LocationType":"point","DisplayPosition":{"Latitude":43.9288,"Longitude":4.99518},"MapView":{"TopLeft":{"Latitude":43.9299242,"Longitude":4.9936191},"BottomRight":{"Latitude":43.9276758,"Longitude":4.9967409}},"Address":{"Label":"19 Rue de la République, 84250 Le Thor, France","Country":"FRA","State":"Provence-Alpes-Côte d'Azur","County":"Vaucluse","City":"Le Thor","Street":"Rue de la République","HouseNumber":"19","PostalCode":"84250","AdditionalData":[{"value":"France","key":"CountryName"},{"value":"Provence-Alpes-Côte d'Azur","key":"StateName"},{"value":"Vaucluse","key":"CountyName"}]},"MapReference":{"ReferenceId":"1198434533","Spot":0.85,"SideOfStreet":"left","CountryId":"20000001","StateId":"20000193","CountyId":"20056024","CityId":"20056422","AddressId":"379879390","RoadLinkId":"509718124"}}},{"Relevance":1.0,"Distance":26.9,"MatchLevel":"houseNumber","MatchQuality":{"Country":1.0,"State":1.0,"County":1.0,"City":1.0,"Street":[1.0],"HouseNumber":1.0,"PostalCode":1.0},"MatchType":"interpolated","Location":{"LocationId":"NT_0JmheGambsPz3QIlnfBnqB_yUD","LocationType":"point","DisplayPosition":{"Latitude":43.92886,"Longitude":4.99514},"MapView":{"TopLeft":{"Latitude":43.9299842,"Longitude":4.9935791},"BottomRight":{"Latitude":43.9277358,"Longitude":4.9967009}},"Address":{"Label":"25 Rue de la République, 84250 Le Thor, France","Country":"FRA","State":"Provence-Alpes-Côte d'Azur","County":"Vaucluse","City":"Le Thor","Street":"Rue de la République","HouseNumber":"25","PostalCode":"84250","AdditionalData":[{"value":"France","key":"CountryName"},{"value":"Provence-Alpes-Côte d'Azur","key":"StateName"},{"value":"Vaucluse","key":"CountyName"}]},"MapReference":{"ReferenceId":"1198434534","Spot":0.44,"SideOfStreet":"left","CountryId":"20000001","StateId":"20000193","CountyId":"20056024","CityId":"20056422","AddressId":"379879392","RoadLinkId":"509718125"}}},{"Relevance":1.0,"Distance":33.5,"MatchLevel":"street","MatchQuality":{"Country":1.0,"State":1.0,"County":1.0,"City":1.0,"Street":[1.0],"PostalCode":1.0},"Location":{"LocationId":"NT_Lg6V5isADr6QKy0wdcDSdA_l_737473140_L","LocationType":"point","DisplayPosition":{"Latitude":43.92858,"Longitude":4.99537},"MapView":{"TopLeft":{"Latitude":43.92858,"Longitude":4.99537},"BottomRight":{"Latitude":43.92843,"Longitude":4.9956}},"Address":{"Label":"Cours Victor Hugo, 84250 Le Thor, France","Country":"FRA","State":"Provence-Alpes-Côte d'Azur","County":"Vaucluse","City":"Le Thor","Street":"Cours Victor Hugo","PostalCode":"84250","AdditionalData":[{"value":"France","key":"CountryName"},{"value":"Provence-Alpes-Côte d'Azur","key":"StateName"},{"value":"Vaucluse","key":"CountyName"}]},"MapReference":{"ReferenceId":"737473140","Spot":1.0,"SideOfStreet":"left","CountryId":"20000001","StateId":"20000193","CountyId":"20056024","CityId":"20056422"}}},{"Relevance":1.0,"Distance":34.2,"MatchLevel":"houseNumber","MatchQuality":{"Country":1.0,"State":1.0,"County":1.0,"City":1.0,"Street":[1.0],"HouseNumber":1.0,"PostalCode":1.0},"MatchType":"interpolated","Location":{"LocationId":"NT_0JmheGambsPz3QIlnfBnqB_zMD","LocationType":"point","DisplayPosition":{"Latitude":43.92894,"Longitude":4.99507},"MapView":{"TopLeft":{"Latitude":43.9300642,"Longitude":4.9935091},"BottomRight":{"Latitude":43.9278158,"Longitude":4.9966309}},"Address":{"Label":"33 Rue de la République, 84250 Le Thor, France","Country":"FRA","State":"Provence-Alpes-Côte d'Azur","County":"Vaucluse","City":"Le Thor","Street":"Rue de la République","HouseNumber":"33","PostalCode":"84250","AdditionalData":[{"value":"France","key":"CountryName"},{"value":"Provence-Alpes-Côte d'Azur","key":"StateName"},{"value":"Vaucluse","key":"CountyName"}]},"MapReference":{"ReferenceId":"546105999","Spot":0.23,"SideOfStreet":"left","CountryId":"20000001","StateId":"20000193","CountyId":"20056024","CityId":"20056422","AddressId":"319369292","RoadLinkId":"45729606"}}},{"Relevance":1.0,"Distance":36.1,"MatchLevel":"houseNumber","MatchQuality":{"Country":1.0,"State":1.0,"County":1.0,"City":1.0,"Street":[1.0],"HouseNumber":1.0,"PostalCode":1.0},"MatchType":"interpolated","Location":{"LocationId":"NT_0EIYmRIrFOS5kFD6ty7v6A_2gD","LocationType":"point","DisplayPosition":{"Latitude":43.9289,"Longitude":4.99518},"MapView":{"TopLeft":{"Latitude":43.9300242,"Longitude":4.9936191},"BottomRight":{"Latitude":43.9277758,"Longitude":4.9967409}},"Address":{"Label":"68 Rue Pasteur, 84250 Le Thor, France","Country":"FRA","State":"Provence-Alpes-Côte d'Azur","County":"Vaucluse","City":"Le Thor","Street":"Rue Pasteur","HouseNumber":"68","PostalCode":"84250","AdditionalData":[{"value":"France","key":"CountryName"},{"value":"Provence-Alpes-Côte d'Azur","key":"StateName"},{"value":"Vaucluse","key":"CountyName"}]},"MapReference":{"ReferenceId":"546106002","Spot":0.19,"SideOfStreet":"right","CountryId":"20000001","StateId":"20000193","CountyId":"20056024","CityId":"20056422","AddressId":"319343496","RoadLinkId":"45695174"}}},{"Relevance":1.0,"Distance":36.3,"MatchLevel":"houseNumber","MatchQuality":{"Country":1.0,"State":1.0,"County":1.0,"City":1.0,"Street":[1.0],"HouseNumber":1.0,"PostalCode":1.0},"MatchType":"interpolated","Location":{"LocationId":"NT_FNeZJ3RshzrpZOkAyAa6ZB_3MD","LocationType":"point","DisplayPosition":{"Latitude":43.9286,"Longitude":4.99544},"MapView":{"TopLeft":{"Latitude":43.9297242,"Longitude":4.9938791},"BottomRight":{"Latitude":43.9274758,"Longitude":4.9970009}},"Address":{"Label":"73 Place du Marché, 84250 Le Thor, France","Country":"FRA","State":"Provence-Alpes-Côte d'Azur","County":"Vaucluse","City":"Le Thor","Street":"Place du Marché","HouseNumber":"73","PostalCode":"84250","AdditionalData":[{"value":"France","key":"CountryName"},{"value":"Provence-Alpes-Côte d'Azur","key":"StateName"},{"value":"Vaucluse","key":"CountyName"}]},"MapReference":{"ReferenceId":"546105996","Spot":0.27,"SideOfStreet":"left","CountryId":"20000001","StateId":"20000193","CountyId":"20056024","CityId":"20056422","AddressId":"319139570","RoadLinkId":"46212269"}}},{"Relevance":1.0,"Distance":44.5,"MatchLevel":"houseNumber","MatchQuality":{"Country":1.0,"State":1.0,"County":1.0,"City":1.0,"Street":[1.0],"HouseNumber":1.0,"PostalCode":1.0},"MatchType":"interpolated","Location":{"LocationId":"NT_JGFdNEgwZeU3glMpywCzQA_yID","LocationType":"point","DisplayPosition":{"Latitude":43.92899,"Longitude":4.99462},"MapView":{"TopLeft":{"Latitude":43.9301142,"Longitude":4.9930591},"BottomRight":{"Latitude":43.9278658,"Longitude":4.9961809}},"Address":{"Label":"22 Impasse des Églantines, 84250 Le Thor, France","Country":"FRA","State":"Provence-Alpes-Côte d'Azur","County":"Vaucluse","City":"Le Thor","Street":"Impasse des Églantines","HouseNumber":"22","PostalCode":"84250","AdditionalData":[{"value":"France","key":"CountryName"},{"value":"Provence-Alpes-Côte d'Azur","key":"StateName"},{"value":"Vaucluse","key":"CountyName"}]},"MapReference":{"ReferenceId":"737270456","Spot":0.21,"SideOfStreet":"right","CountryId":"20000001","StateId":"20000193","CountyId":"20056024","CityId":"20056422","AddressId":"682314591","RoadLinkId":"136744885"}}}]}]}}