{"Response":{"MetaInfo":{"Timestamp":"2020-03-28T09:50:01.738+0000","NextPageInformation":"2"},"View":[{"_type":"SearchResultsViewType","ViewId":0,"Result":[{"Relevance":1.0,"Distance":-9.1,"MatchLevel":"landmark","MatchQuality":{"Country":1.0,"State":1.0,"County":1.0,"City":1.0,"PostalCode":1.0,"Name":1.0},"Location":{"LocationId":"NT_l4No7jX05RAMqTwOuyRLlA_p_o7aiUH4OgCtq45cVOOl8mC","LocationType":"shoppingCentre","Name":"Centre Commercial Avignon Nord","DisplayPosition":{"Latitude":43.98188,"Longitude":4.88155},"MapView":{"TopLeft":{"Latitude":43.99024,"Longitude":4.87069},"BottomRight":{"Latitude":43.97777,"Longitude":4.89062}},"Address":{"Label":"84130 Le Pontet, France","Country":"FRA","State":"Provence-Alpes-Côte d'Azur","County":"Vaucluse","City":"Le Pontet","PostalCode":"84130","AdditionalData":[{"value":"France","key":"CountryName"},{"value":"Provence-Alpes-Côte d'Azur","key":"StateName"},{"value":"Vaucluse","key":"CountyName"}]},"MapReference":{"CountryId":"20000001","StateId":"20000193","CountyId":"20056024","CityId":"20056302","PlaceId":"51403576"}}},{"Relevance":1.0,"Distance":0.0,"Direction":0.0,"MatchLevel":"city","MatchQuality":{"Country":1.0,"State":1.0,"County":1.0,"City":1.0,"PostalCode":1.0},"Location":{"LocationId":"NT_5TVYmbDUYBWfbJgt38doYA","LocationType":"point","DisplayPosition":{"Latitude":43.9866818,"Longitude":4.8882829},"MapView":{"TopLeft":{"Latitude":44.05039,"Longitude":4.79617},"BottomRight":{"Latitude":43.98161,"Longitude":4.91524}},"Address":{"Label":"Sorgues, Provence-Alpes-Côte d'Azur, France","Country":"FRA","State":"Provence-Alpes-Côte d'Azur","County":"Vaucluse","City":"Sorgues","PostalCode":"84700","AdditionalData":[{"value":"France","key":"CountryName"},{"value":"Provence-Alpes-Côte d'Azur","key":"StateName"},{"value":"Vaucluse","key":"CountyName"}]},"MapReference":{"ReferenceId":"1211366264","SideOfStreet":"neither","CountryId":"20000001","StateId":"20000193","CountyId":"20056024","CityId":"20056413"}}},{"Relevance":1.0,"Distance":4.9,"MatchLevel":"street","MatchQuality":{"Country":1.0,"State":1.0,"County":1.0,"City":1.0,"PostalCode":1.0},"Location":{"LocationId":"NT_bWRl93NiRTj9KRNPn7PC9B_l_977012615_R","LocationType":"point","DisplayPosition":{"Latitude":43.9866457,"Longitude":4.8882485},"MapView":{"TopLeft":{"Latitude":43.98673,"Longitude":4.88816},"BottomRight":{"Latitude":43.98563,"Longitude":4.88961}},"Address":{"Label":"84700 Sorgues, France","Country":"FRA","State":"Provence-Alpes-Côte d'Azur","County":"Vaucluse","City":"Sorgues","PostalCode":"84700","AdditionalData":[{"value":"France","key":"CountryName"},{"value":"Provence-Alpes-Côte d'Azur","key":"StateName"},{"value":"Vaucluse","key":"CountyName"}]},"MapReference":{"ReferenceId":"977012615","Spot":0.94,"SideOfStreet":"right","CountryId":"20000001","StateId":"20000193","CountyId":"20056024","CityId":"20056413"}}},{"Relevance":1.0,"Distance":9.2,"MatchLevel":"street","MatchQuality":{"Country":1.0,"State":1.0,"County":1.0,"City":1.0,"Street":[1.0],"PostalCode":1.0},"Location":{"LocationId":"NT_eku3Dk52gHoYjuPkIy0.aD_l_69188603_R","LocationType":"point","DisplayPosition":{"Latitude":43.9867619,"Longitude":4.8882563},"MapView":{"TopLeft":{"Latitude":43.98729,"Longitude":4.88816},"BottomRight":{"Latitude":43.98673,"Longitude":4.88985}},"Address":{"Label":"399 Avenue Jules Verne, 84700 Sorgues, France","Country":"FRA","State":"Provence-Alpes-Côte d'Azur","County":"Vaucluse","City":"Sorgues","Street":"399 Avenue Jules Verne","PostalCode":"84700","AdditionalData":[{"value":"France","key":"CountryName"},{"value":"Provence-Alpes-Côte d'Azur","key":"StateName"},{"value":"Vaucluse","key":"CountyName"}]},"MapReference":{"ReferenceId":"69188603","Spot":0.06,"SideOfStreet":"right","CountryId":"20000001","StateId":"20000193","CountyId":"20056024","CityId":"20056413"}}},{"Relevance":1.0,"Distance":11.2,"MatchLevel":"street","MatchQuality":{"Country":1.0,"State":1.0,"County":1.0,"City":1.0,"Street":[1.0],"PostalCode":1.0},"Location":{"LocationId":"NT_eku3Dk52gHoYjuPkIy0.aD_l_69188602_R","LocationType":"point","DisplayPosition":{"Latitude":43.98673,"Longitude":4.88816},"MapView":{"TopLeft":{"Latitude":43.98673,"Longitude":4.88693},"BottomRight":{"Latitude":43.98625,"Longitude":4.88816}},"Address":{"Label":"399 Avenue Jules Verne, 84700 Sorgues, France","Country":"FRA","State":"Provence-Alpes-Côte d'Azur","County":"Vaucluse","City":"Sorgues","Street":"399 Avenue Jules Verne","PostalCode":"84700","AdditionalData":[{"value":"France","key":"CountryName"},{"value":"Provence-Alpes-Côte d'Azur","key":"StateName"},{"value":"Vaucluse","key":"CountyName"}]},"MapReference":{"ReferenceId":"69188602","Spot":1.0,"SideOfStreet":"right","CountryId":"20000001","StateId":"20000193","CountyId":"20056024","CityId":"20056413"}}},{"Relevance":1.0,"Distance":11.2,"MatchLevel":"street","MatchQuality":{"Country":1.0,"State":1.0,"County":1.0,"City":1.0,"PostalCode":1.0},"Location":{"LocationId":"NT_bWRl93NiRTj9KRNPn7PC9B_l_69188604_R","LocationType":"point","DisplayPosition":{"Latitude":43.98673,"Longitude":4.88816},"MapView":{"TopLeft":{"Latitude":43.98835,"Longitude":4.88693},"BottomRight":{"Latitude":43.98673,"Longitude":4.88816}},"Address":{"Label":"84700 Sorgues, France","Country":"FRA","State":"Provence-Alpes-Côte d'Azur","County":"Vaucluse","City":"Sorgues","PostalCode":"84700","AdditionalData":[{"value":"France","key":"CountryName"},{"value":"Provence-Alpes-Côte d'Azur","key":"StateName"},{"value":"Vaucluse","key":"CountyName"}]},"MapReference":{"ReferenceId":"69188604","Spot":0.0,"SideOfStreet":"right","CountryId":"20000001","StateId":"20000193","CountyId":"20056024","CityId":"20056413"}}},{"Relevance":1.0,"Distance":89.7,"MatchLevel":"street","MatchQuality":{"Country":1.0,"State":1.0,"County":1.0,"City":1.0,"PostalCode":1.0},"Location":{"LocationId":"NT_bWRl93NiRTj9KRNPn7PC9B_l_977012614_R","LocationType":"point","DisplayPosition":{"Latitude":43.98589,"Longitude":4.8885},"MapView":{"TopLeft":{"Latitude":43.98589,"Longitude":4.8885},"BottomRight":{"Latitude":43.98518,"Longitude":4.8888}},"Address":{"Label":"84700 Sorgues, France","Country":"FRA","State":"Provence-Alpes-Côte d'Azur","County":"Vaucluse","City":"Sorgues","PostalCode":"84700","AdditionalData":[{"value":"France","key":"CountryName"},{"value":"Provence-Alpes-Côte d'Azur","key":"StateName"},{"value":"Vaucluse","key":"CountyName"}]},"MapReference":{"ReferenceId":"977012614","Spot":1.0,"SideOfStreet":"right","CountryId":"20000001","StateId":"20000193","CountyId":"20056024","CityId":"20056413"}}},{"Relevance":1.0,"Distance":93.3,"MatchLevel":"street","MatchQuality":{"Country":1.0,"State":1.0,"County":1.0,"City":1.0,"PostalCode":1.0},"Location":{"LocationId":"NT_bWRl93NiRTj9KRNPn7PC9B_l_977012613_L","LocationType":"point","DisplayPosition":{"Latitude":43.98589,"Longitude":4.88867},"MapView":{"TopLeft":{"Latitude":43.98589,"Longitude":4.88867},"BottomRight":{"Latitude":43.98518,"Longitude":4.88889}},"Address":{"Label":"84700 Sorgues, France","Country":"FRA","State":"Provence-Alpes-Côte d'Azur","County":"Vaucluse","City":"Sorgues","PostalCode":"84700","AdditionalData":[{"value":"France","key":"CountryName"},{"value":"Provence-Alpes-Côte d'Azur","key":"StateName"},{"value":"Vaucluse","key":"CountyName"}]},"MapReference":{"ReferenceId":"977012613","Spot":1.0,"SideOfStreet":"left","CountryId":"20000001","StateId":"20000193","CountyId":"20056024","CityId":"20056413"}}},{"Relevance":1.0,"Distance":114.0,"MatchLevel":"street","MatchQuality":{"Country":1.0,"State":1.0,"County":1.0,"City":1.0,"Street":[1.0],"PostalCode":1.0},"Location":{"LocationId":"NT_3B0IUPY6HMJw71UH-X48tC_l_845792300_R","LocationType":"point","DisplayPosition":{"Latitude":43.98618,"Longitude":4.88704},"MapView":{"TopLeft":{"Latitude":43.98625,"Longitude":4.88693},"BottomRight":{"Latitude":43.98618,"Longitude":4.88704}},"Address":{"Label":"Avenue Marcel Pagnol, 84700 Sorgues, France","Country":"FRA","State":"Provence-Alpes-Côte d'Azur","County":"Vaucluse","City":"Sorgues","Street":"Avenue Marcel Pagnol","PostalCode":"84700","AdditionalData":[{"value":"France","key":"CountryName"},{"value":"Provence-Alpes-Côte d'Azur","key":"StateName"},{"value":"Vaucluse","key":"CountyName"}]},"MapReference":{"ReferenceId":"845792300","Spot":0.0,"SideOfStreet":"right","CountryId":"20000001","StateId":"20000193","CountyId":"20056024","CityId":"20056413"}}},{"Relevance":1.0,"Distance":115.5,"MatchLevel":"street","MatchQuality":{"Country":1.0,"State":1.0,"County":1.0,"City":1.0,"Street":[1.0],"PostalCode":1.0},"Location":{"LocationId":"NT_3B0IUPY6HMJw71UH-X48tC_l_977012633_R","LocationType":"point","DisplayPosition":{"Latitude":43.9860683,"Longitude":4.8871172},"MapView":{"TopLeft":{"Latitude":43.98618,"Longitude":4.8868},"BottomRight":{"Latitude":43.98519,"Longitude":4.88732}},"Address":{"Label":"Avenue Marcel Pagnol, 84700 Sorgues, France","Country":"FRA","State":"Provence-Alpes-Côte d'Azur","County":"Vaucluse","City":"Sorgues","Street":"Avenue Marcel Pagnol","PostalCode":"84700","AdditionalData":[{"value":"France","key":"CountryName"},{"value":"Provence-Alpes-Côte d'Azur","key":"StateName"},{"value":"Vaucluse","key":"CountyName"}]},"MapReference":{"ReferenceId":"977012633","Spot":0.9,"SideOfStreet":"right","CountryId":"20000001","StateId":"20000193","CountyId":"20056024","CityId":"20056413"}}}]}]}}