{"Response":{"MetaInfo":{"Timestamp":"2020-03-28T10:31:14.272+0000","NextPageInformation":"2"},"View":[{"_type":"SearchResultsViewType","ViewId":0,"Result":[{"Relevance":1.0,"Distance":0.0,"Direction":0.0,"MatchLevel":"city","MatchQuality":{"Country":1.0,"State":1.0,"County":1.0,"City":1.0,"PostalCode":1.0},"Location":{"LocationId":"NT_8gPT0Vr75qFYu6SMbJLZHD","LocationType":"point","DisplayPosition":{"Latitude":43.9536733,"Longitude":4.8436431},"MapView":{"TopLeft":{"Latitude":43.99076,"Longitude":4.83793},"BottomRight":{"Latitude":43.95067,"Longitude":4.88484}},"Address":{"Label":"Le Pontet, Provence-Alpes-Côte d'Azur, France","Country":"FRA","State":"Provence-Alpes-Côte d'Azur","County":"Vaucluse","City":"Le Pontet","PostalCode":"84130","AdditionalData":[{"value":"France","key":"CountryName"},{"value":"Provence-Alpes-Côte d'Azur","key":"StateName"},{"value":"Vaucluse","key":"CountyName"}]},"MapReference":{"ReferenceId":"62131800","SideOfStreet":"neither","CountryId":"20000001","StateId":"20000193","CountyId":"20056024","CityId":"20056302"}}},{"Relevance":1.0,"Distance":4.3,"MatchLevel":"houseNumber","MatchQuality":{"Country":1.0,"State":1.0,"County":1.0,"City":1.0,"Street":[1.0],"HouseNumber":1.0,"PostalCode":1.0},"MatchType":"interpolated","Location":{"LocationId":"NT_B5kHXnaPrIndM4iqx-5oEA_yA","LocationType":"point","DisplayPosition":{"Latitude":43.95371,"Longitude":4.84366},"MapView":{"TopLeft":{"Latitude":43.9548342,"Longitude":4.8420985},"BottomRight":{"Latitude":43.9525858,"Longitude":4.8452215}},"Address":{"Label":"2 Rue de l'Arlésienne, 84130 Le Pontet, France","Country":"FRA","State":"Provence-Alpes-Côte d'Azur","County":"Vaucluse","City":"Le Pontet","Street":"Rue de l'Arlésienne","HouseNumber":"2","PostalCode":"84130","AdditionalData":[{"value":"France","key":"CountryName"},{"value":"Provence-Alpes-Côte d'Azur","key":"StateName"},{"value":"Vaucluse","key":"CountyName"}]},"MapReference":{"ReferenceId":"62132230","Spot":0.77,"SideOfStreet":"left","CountryId":"20000001","StateId":"20000193","CountyId":"20056024","CityId":"20056302","AddressId":"319375289","RoadLinkId":"45852721"}}},{"Relevance":1.0,"Distance":12.8,"MatchLevel":"houseNumber","MatchQuality":{"Country":1.0,"State":1.0,"County":1.0,"City":1.0,"Street":[1.0],"HouseNumber":1.0,"PostalCode":1.0},"MatchType":"interpolated","Location":{"LocationId":"NT_6fVVrqDT9tT-DKhlR381-C_xA","LocationType":"point","DisplayPosition":{"Latitude":43.95332,"Longitude":4.84359},"MapView":{"TopLeft":{"Latitude":43.9544442,"Longitude":4.8420285},"BottomRight":{"Latitude":43.9521958,"Longitude":4.8451515}},"Address":{"Label":"1 Rue de l'Olivier, 84130 Le Pontet, France","Country":"FRA","State":"Provence-Alpes-Côte d'Azur","County":"Vaucluse","City":"Le Pontet","Street":"Rue de l'Olivier","HouseNumber":"1","PostalCode":"84130","AdditionalData":[{"value":"France","key":"CountryName"},{"value":"Provence-Alpes-Côte d'Azur","key":"StateName"},{"value":"Vaucluse","key":"CountyName"}]},"MapReference":{"ReferenceId":"62132241","Spot":0.73,"SideOfStreet":"right","CountryId":"20000001","StateId":"20000193","CountyId":"20056024","CityId":"20056302","AddressId":"319115850","RoadLinkId":"45848000"}}},{"Relevance":1.0,"Distance":16.3,"MatchLevel":"houseNumber","MatchQuality":{"Country":1.0,"State":1.0,"County":1.0,"City":1.0,"Street":[1.0],"HouseNumber":1.0,"PostalCode":1.0},"MatchType":"interpolated","Location":{"LocationId":"NT_8.TCBlj9ohVMVTJyo33l-C_xA","LocationType":"point","DisplayPosition":{"Latitude":43.95362,"Longitude":4.8433},"MapView":{"TopLeft":{"Latitude":43.9547442,"Longitude":4.8417385},"BottomRight":{"Latitude":43.9524958,"Longitude":4.8448615}},"Address":{"Label":"1 Boulevard Rose des Vents, 84130 Le Pontet, France","Country":"FRA","State":"Provence-Alpes-Côte d'Azur","County":"Vaucluse","City":"Le Pontet","Street":"Boulevard Rose des Vents","HouseNumber":"1","PostalCode":"84130","AdditionalData":[{"value":"France","key":"CountryName"},{"value":"Provence-Alpes-Côte d'Azur","key":"StateName"},{"value":"Vaucluse","key":"CountyName"}]},"MapReference":{"ReferenceId":"62132226","Spot":0.36,"SideOfStreet":"right","CountryId":"20000001","StateId":"20000193","CountyId":"20056024","CityId":"20056302","AddressId":"319387476","RoadLinkId":"46200541"}}},{"Relevance":1.0,"Distance":33.1,"MatchLevel":"houseNumber","MatchQuality":{"Country":1.0,"State":1.0,"County":1.0,"City":1.0,"Street":[1.0],"HouseNumber":1.0,"PostalCode":1.0},"MatchType":"interpolated","Location":{"LocationId":"NT_8.TCBlj9ohVMVTJyo33l-C_yA","LocationType":"point","DisplayPosition":{"Latitude":43.95389,"Longitude":4.84336},"MapView":{"TopLeft":{"Latitude":43.9550142,"Longitude":4.8417985},"BottomRight":{"Latitude":43.9527658,"Longitude":4.8449215}},"Address":{"Label":"2 Boulevard Rose des Vents, 84130 Le Pontet, France","Country":"FRA","State":"Provence-Alpes-Côte d'Azur","County":"Vaucluse","City":"Le Pontet","Street":"Boulevard Rose des Vents","HouseNumber":"2","PostalCode":"84130","AdditionalData":[{"value":"France","key":"CountryName"},{"value":"Provence-Alpes-Côte d'Azur","key":"StateName"},{"value":"Vaucluse","key":"CountyName"}]},"MapReference":{"ReferenceId":"62132214","Spot":0.35,"SideOfStreet":"left","CountryId":"20000001","StateId":"20000193","CountyId":"20056024","CityId":"20056302","AddressId":"319406717","RoadLinkId":"45869892"}}},{"Relevance":1.0,"Distance":41.1,"MatchLevel":"houseNumber","MatchQuality":{"Country":1.0,"State":1.0,"County":1.0,"City":1.0,"Street":[1.0],"HouseNumber":1.0,"PostalCode":1.0},"MatchType":"interpolated","Location":{"LocationId":"NT_8.TCBlj9ohVMVTJyo33l-C_2A","LocationType":"point","DisplayPosition":{"Latitude":43.95342,"Longitude":4.84327},"MapView":{"TopLeft":{"Latitude":43.9545442,"Longitude":4.8417085},"BottomRight":{"Latitude":43.9522958,"Longitude":4.8448315}},"Address":{"Label":"6 Boulevard Rose des Vents, 84130 Le Pontet, France","Country":"FRA","State":"Provence-Alpes-Côte d'Azur","County":"Vaucluse","City":"Le Pontet","Street":"Boulevard Rose des Vents","HouseNumber":"6","PostalCode":"84130","AdditionalData":[{"value":"France","key":"CountryName"},{"value":"Provence-Alpes-Côte d'Azur","key":"StateName"},{"value":"Vaucluse","key":"CountyName"}]},"MapReference":{"ReferenceId":"62132236","Spot":0.29,"SideOfStreet":"left","CountryId":"20000001","StateId":"20000193","CountyId":"20056024","CityId":"20056302","AddressId":"319387477","RoadLinkId":"45290279"}}},{"Relevance":1.0,"Distance":45.3,"MatchLevel":"houseNumber","MatchQuality":{"Country":1.0,"State":1.0,"County":1.0,"City":1.0,"Street":[1.0],"HouseNumber":1.0,"PostalCode":1.0},"MatchType":"interpolated","Location":{"LocationId":"NT_wzCS70t1-SXhCK9SDk68ED_1gjQ","LocationType":"point","DisplayPosition":{"Latitude":43.95409,"Longitude":4.84387},"MapView":{"TopLeft":{"Latitude":43.9552142,"Longitude":4.8423085},"BottomRight":{"Latitude":43.9529658,"Longitude":4.8454315}},"Address":{"Label":"58B Avenue Alphonse Daudet, 84130 Le Pontet, France","Country":"FRA","State":"Provence-Alpes-Côte d'Azur","County":"Vaucluse","City":"Le Pontet","Street":"Avenue Alphonse Daudet","HouseNumber":"58B","PostalCode":"84130","AdditionalData":[{"value":"France","key":"CountryName"},{"value":"Provence-Alpes-Côte d'Azur","key":"StateName"},{"value":"Vaucluse","key":"CountyName"}]},"MapReference":{"ReferenceId":"62137438","Spot":0.78,"SideOfStreet":"left","CountryId":"20000001","StateId":"20000193","CountyId":"20056024","CityId":"20056302","AddressId":"605770458","RoadLinkId":"45975074"}}},{"Relevance":1.0,"Distance":53.5,"MatchLevel":"houseNumber","MatchQuality":{"Country":1.0,"State":1.0,"County":1.0,"City":1.0,"Street":[1.0],"HouseNumber":1.0,"PostalCode":1.0},"MatchType":"interpolated","Location":{"LocationId":"NT_E4i6cdAWp3aLz0E.CTYTXB_yA","LocationType":"point","DisplayPosition":{"Latitude":43.95355,"Longitude":4.84298},"MapView":{"TopLeft":{"Latitude":43.9546742,"Longitude":4.8414185},"BottomRight":{"Latitude":43.9524258,"Longitude":4.8445415}},"Address":{"Label":"2 Rue Magali, 84130 Le Pontet, France","Country":"FRA","State":"Provence-Alpes-Côte d'Azur","County":"Vaucluse","City":"Le Pontet","Street":"Rue Magali","HouseNumber":"2","PostalCode":"84130","AdditionalData":[{"value":"France","key":"CountryName"},{"value":"Provence-Alpes-Côte d'Azur","key":"StateName"},{"value":"Vaucluse","key":"CountyName"}]},"MapReference":{"ReferenceId":"62132265","Spot":0.85,"SideOfStreet":"left","CountryId":"20000001","StateId":"20000193","CountyId":"20056024","CityId":"20056302","AddressId":"319242857","RoadLinkId":"45323728"}}},{"Relevance":1.0,"Distance":54.8,"MatchLevel":"houseNumber","MatchQuality":{"Country":1.0,"State":1.0,"County":1.0,"City":1.0,"Street":[1.0],"HouseNumber":1.0,"PostalCode":1.0},"MatchType":"interpolated","Location":{"LocationId":"NT_8.TCBlj9ohVMVTJyo33l-C_zA","LocationType":"point","DisplayPosition":{"Latitude":43.95326,"Longitude":4.84325},"MapView":{"TopLeft":{"Latitude":43.9543842,"Longitude":4.8416885},"BottomRight":{"Latitude":43.9521358,"Longitude":4.8448115}},"Address":{"Label":"3 Boulevard Rose des Vents, 84130 Le Pontet, France","Country":"FRA","State":"Provence-Alpes-Côte d'Azur","County":"Vaucluse","City":"Le Pontet","Street":"Boulevard Rose des Vents","HouseNumber":"3","PostalCode":"84130","AdditionalData":[{"value":"France","key":"CountryName"},{"value":"Provence-Alpes-Côte d'Azur","key":"StateName"},{"value":"Vaucluse","key":"CountyName"}]},"MapReference":{"ReferenceId":"62132261","Spot":0.8,"SideOfStreet":"right","CountryId":"20000001","StateId":"20000193","CountyId":"20056024","CityId":"20056302","AddressId":"573583033","RoadLinkId":"46096295"}}},{"Relevance":1.0,"Distance":56.6,"MatchLevel":"houseNumber","MatchQuality":{"Country":1.0,"State":1.0,"County":1.0,"City":1.0,"Street":[1.0],"HouseNumber":1.0,"PostalCode":1.0},"MatchType":"interpolated","Location":{"LocationId":"NT_wzCS70t1-SXhCK9SDk68ED_2YD","LocationType":"point","DisplayPosition":{"Latitude":43.95415,"Longitude":4.84328},"MapView":{"TopLeft":{"Latitude":43.9552742,"Longitude":4.8417185},"BottomRight":{"Latitude":43.9530258,"Longitude":4.8448415}},"Address":{"Label":"66 Avenue Alphonse Daudet, 84130 Le Pontet, France","Country":"FRA","State":"Provence-Alpes-Côte d'Azur","County":"Vaucluse","City":"Le Pontet","Street":"Avenue Alphonse Daudet","HouseNumber":"66","PostalCode":"84130","AdditionalData":[{"value":"France","key":"CountryName"},{"value":"Provence-Alpes-Côte d'Azur","key":"StateName"},{"value":"Vaucluse","key":"CountyName"}]},"MapReference":{"ReferenceId":"62132175","Spot":0.14,"SideOfStreet":"left","CountryId":"20000001","StateId":"20000193","CountyId":"20056024","CityId":"20056302","AddressId":"573260835","RoadLinkId":"45254831"}}}]}]}}