{"Response":{"MetaInfo":{"Timestamp":"2020-03-28T11:08:15.858+0000","NextPageInformation":"2"},"View":[{"_type":"SearchResultsViewType","ViewId":0,"Result":[{"Relevance":1.0,"Distance":-14.5,"MatchLevel":"landmark","MatchQuality":{"Country":1.0,"State":1.0,"County":1.0,"City":1.0,"PostalCode":1.0,"Name":1.0},"Location":{"LocationId":"NT_VmJc9d4JqMo8VxkM-n.LYC_p_4KBuxi8RZ5EF5GGfbOI06C","LocationType":"hospital","Name":"CH de Condom","DisplayPosition":{"Latitude":43.95643,"Longitude":0.37945},"MapView":{"TopLeft":{"Latitude":43.95673,"Longitude":0.37754},"BottomRight":{"Latitude":43.95518,"Longitude":0.37985}},"Address":{"Label":"32100 Condom, France","Country":"FRA","State":"Occitanie","County":"Gers","City":"Condom","PostalCode":"32100","AdditionalData":[{"value":"France","key":"CountryName"},{"value":"Occitanie","key":"StateName"},{"value":"Gers","key":"CountyName"}]},"MapReference":{"CountryId":"20000001","StateId":"20050212","CountyId":"20096397","CityId":"20096713","PlaceId":"51335272"}}},{"Relevance":1.0,"Distance":0.0,"Direction":0.0,"MatchLevel":"city","MatchQuality":{"Country":1.0,"State":1.0,"County":1.0,"City":1.0,"PostalCode":1.0},"Location":{"LocationId":"NT_7Rk0bdGcVzcL0NKJMFhzrD","LocationType":"point","DisplayPosition":{"Latitude":43.9562919,"Longitude":0.3782684},"MapView":{"TopLeft":{"Latitude":44.02948,"Longitude":0.29962},"BottomRight":{"Latitude":43.90214,"Longitude":0.45647}},"Address":{"Label":"Condom, Occitanie, France","Country":"FRA","State":"Occitanie","County":"Gers","City":"Condom","PostalCode":"32100","AdditionalData":[{"value":"France","key":"CountryName"},{"value":"Occitanie","key":"StateName"},{"value":"Gers","key":"CountyName"}]},"MapReference":{"ReferenceId":"584051476","SideOfStreet":"neither","CountryId":"20000001","StateId":"20050212","CountyId":"20096397","CityId":"20096713"}}},{"Relevance":1.0,"Distance":29.8,"MatchLevel":"street","MatchQuality":{"Country":1.0,"State":1.0,"County":1.0,"City":1.0,"Street":[1.0],"PostalCode":1.0},"Location":{"LocationId":"NT_SzZB4vA96GhZomPd1xl05A_l_854592081_R","LocationType":"point","DisplayPosition":{"Latitude":43.95622,"Longitude":0.37791},"MapView":{"TopLeft":{"Latitude":43.95622,"Longitude":0.37779},"BottomRight":{"Latitude":43.95602,"Longitude":0.37791}},"Address":{"Label":"Rue Capuron, 32100 Condom, France","Country":"FRA","State":"Occitanie","County":"Gers","City":"Condom","Street":"Rue Capuron","PostalCode":"32100","AdditionalData":[{"value":"France","key":"CountryName"},{"value":"Occitanie","key":"StateName"},{"value":"Gers","key":"CountyName"}]},"MapReference":{"ReferenceId":"854592081","Spot":1.0,"SideOfStreet":"right","CountryId":"20000001","StateId":"20050212","CountyId":"20096397","CityId":"20096713"}}},{"Relevance":1.0,"Distance":39.4,"MatchLevel":"houseNumber","MatchQuality":{"Country":1.0,"State":1.0,"County":1.0,"City":1.0,"Street":[1.0],"HouseNumber":1.0,"PostalCode":1.0},"MatchType":"interpolated","Location":{"LocationId":"NT_SzZB4vA96GhZomPd1xl05A_l_854592082_R_5A","LocationType":"point","DisplayPosition":{"Latitude":43.9562934,"Longitude":0.3777763},"MapView":{"TopLeft":{"Latitude":43.9574176,"Longitude":0.3762147},"BottomRight":{"Latitude":43.9551693,"Longitude":0.3793379}},"Address":{"Label":"9 Rue Capuron, 32100 Condom, France","Country":"FRA","State":"Occitanie","County":"Gers","City":"Condom","Street":"Rue Capuron","HouseNumber":"9","PostalCode":"32100","AdditionalData":[{"value":"France","key":"CountryName"},{"value":"Occitanie","key":"StateName"},{"value":"Gers","key":"CountyName"}]},"MapReference":{"ReferenceId":"854592082","Spot":0.48,"SideOfStreet":"right","CountryId":"20000001","StateId":"20050212","CountyId":"20096397","CityId":"20096713"}}},{"Relevance":1.0,"Distance":43.9,"MatchLevel":"houseNumber","MatchQuality":{"Country":1.0,"State":1.0,"County":1.0,"City":1.0,"Street":[1.0],"HouseNumber":1.0,"PostalCode":1.0},"MatchType":"interpolated","Location":{"LocationId":"NT_Qk9YHXlsaB4yNorjPDXbJA_5A","LocationType":"point","DisplayPosition":{"Latitude":43.95602,"Longitude":0.37779},"MapView":{"TopLeft":{"Latitude":43.9571442,"Longitude":0.3762284},"BottomRight":{"Latitude":43.9548958,"Longitude":0.3793516}},"Address":{"Label":"9 Rue Marie Barbe, 32100 Condom, France","Country":"FRA","State":"Occitanie","County":"Gers","City":"Condom","Street":"Rue Marie Barbe","HouseNumber":"9","PostalCode":"32100","AdditionalData":[{"value":"France","key":"CountryName"},{"value":"Occitanie","key":"StateName"},{"value":"Gers","key":"CountyName"}]},"MapReference":{"ReferenceId":"584049026","Spot":1.0,"SideOfStreet":"right","CountryId":"20000001","StateId":"20050212","CountyId":"20096397","CityId":"20096713","AddressId":"321015290","RoadLinkId":"50636137"}}},{"Relevance":1.0,"Distance":50.4,"MatchLevel":"houseNumber","MatchQuality":{"Country":1.0,"State":1.0,"County":1.0,"City":1.0,"Street":[1.0],"HouseNumber":1.0,"PostalCode":1.0},"MatchType":"interpolated","Location":{"LocationId":"NT_4JTq1Nsoq1VTi981xHfL1D_xUD","LocationType":"point","DisplayPosition":{"Latitude":43.95683,"Longitude":0.3781},"MapView":{"TopLeft":{"Latitude":43.9579542,"Longitude":0.3765384},"BottomRight":{"Latitude":43.9557058,"Longitude":0.3796616}},"Address":{"Label":"15 Avenue Maréchal Joffre, 32100 Condom, France","Country":"FRA","State":"Occitanie","County":"Gers","City":"Condom","Street":"Avenue Maréchal Joffre","HouseNumber":"15","PostalCode":"32100","AdditionalData":[{"value":"France","key":"CountryName"},{"value":"Occitanie","key":"StateName"},{"value":"Gers","key":"CountyName"}]},"MapReference":{"ReferenceId":"989803747","Spot":0.38,"SideOfStreet":"left","CountryId":"20000001","StateId":"20050212","CountyId":"20096397","CityId":"20096713","AddressId":"320789767","RoadLinkId":"318470078"}}},{"Relevance":1.0,"Distance":57.6,"MatchLevel":"houseNumber","MatchQuality":{"Country":1.0,"State":1.0,"County":1.0,"City":1.0,"Street":[1.0],"HouseNumber":1.0,"PostalCode":1.0},"MatchType":"interpolated","Location":{"LocationId":"NT_75Zup77vVZ04LSHR1g55aB_l_854592079_L_xMD","LocationType":"point","DisplayPosition":{"Latitude":43.9566619,"Longitude":0.3789384},"MapView":{"TopLeft":{"Latitude":43.9577861,"Longitude":0.3773768},"BottomRight":{"Latitude":43.9555377,"Longitude":0.3805001}},"Address":{"Label":"13 Avenue Maréchal Joffre, 32100 Condom, France","Country":"FRA","State":"Occitanie","County":"Gers","City":"Condom","Street":"Avenue Maréchal Joffre","HouseNumber":"13","PostalCode":"32100","AdditionalData":[{"value":"France","key":"CountryName"},{"value":"Occitanie","key":"StateName"},{"value":"Gers","key":"CountyName"}]},"MapReference":{"ReferenceId":"854592079","Spot":0.6,"SideOfStreet":"left","CountryId":"20000001","StateId":"20050212","CountyId":"20096397","CityId":"20096713"}}},{"Relevance":1.0,"Distance":62.7,"MatchLevel":"houseNumber","MatchQuality":{"Country":1.0,"State":1.0,"County":1.0,"City":1.0,"Street":[1.0],"HouseNumber":1.0,"PostalCode":1.0},"MatchType":"interpolated","Location":{"LocationId":"NT_wxXVyold4.j45dAZRMZ9NA_1A","LocationType":"point","DisplayPosition":{"Latitude":43.95616,"Longitude":0.37747},"MapView":{"TopLeft":{"Latitude":43.9572842,"Longitude":0.3759084},"BottomRight":{"Latitude":43.9550358,"Longitude":0.3790316}},"Address":{"Label":"5 Rue des Charpentiers, 32100 Condom, France","Country":"FRA","State":"Occitanie","County":"Gers","City":"Condom","Street":"Rue des Charpentiers","HouseNumber":"5","PostalCode":"32100","AdditionalData":[{"value":"France","key":"CountryName"},{"value":"Occitanie","key":"StateName"},{"value":"Gers","key":"CountyName"}]},"MapReference":{"ReferenceId":"584049029","Spot":0.56,"SideOfStreet":"right","CountryId":"20000001","StateId":"20050212","CountyId":"20096397","CityId":"20096713","AddressId":"321076100","RoadLinkId":"51301168"}}},{"Relevance":1.0,"Distance":65.9,"MatchLevel":"houseNumber","MatchQuality":{"Country":1.0,"State":1.0,"County":1.0,"City":1.0,"Street":[1.0],"HouseNumber":1.0,"PostalCode":1.0},"MatchType":"interpolated","Location":{"LocationId":"NT_SzZB4vA96GhZomPd1xl05A_xYD","LocationType":"point","DisplayPosition":{"Latitude":43.95635,"Longitude":0.37744},"MapView":{"TopLeft":{"Latitude":43.9574742,"Longitude":0.3758784},"BottomRight":{"Latitude":43.9552258,"Longitude":0.3790016}},"Address":{"Label":"16 Rue Capuron, 32100 Condom, France","Country":"FRA","State":"Occitanie","County":"Gers","City":"Condom","Street":"Rue Capuron","HouseNumber":"16","PostalCode":"32100","AdditionalData":[{"value":"France","key":"CountryName"},{"value":"Occitanie","key":"StateName"},{"value":"Gers","key":"CountyName"}]},"MapReference":{"ReferenceId":"1086406880","Spot":0.74,"SideOfStreet":"right","CountryId":"20000001","StateId":"20050212","CountyId":"20096397","CityId":"20096713","AddressId":"321045620","RoadLinkId":"402190358"}}},{"Relevance":1.0,"Distance":77.7,"MatchLevel":"houseNumber","MatchQuality":{"Country":1.0,"State":1.0,"County":1.0,"City":1.0,"Street":[1.0],"HouseNumber":1.0,"PostalCode":1.0},"MatchType":"interpolated","Location":{"LocationId":"NT_.jZt1v2D6pp29hi0s6GHaB_1gD","LocationType":"point","DisplayPosition":{"Latitude":43.9557,"Longitude":0.37771},"MapView":{"TopLeft":{"Latitude":43.9568242,"Longitude":0.3761484},"BottomRight":{"Latitude":43.9545758,"Longitude":0.3792716}},"Address":{"Label":"58 Rue Dutoya, 32100 Condom, France","Country":"FRA","State":"Occitanie","County":"Gers","City":"Condom","Street":"Rue Dutoya","HouseNumber":"58","PostalCode":"32100","AdditionalData":[{"value":"France","key":"CountryName"},{"value":"Occitanie","key":"StateName"},{"value":"Gers","key":"CountyName"}]},"MapReference":{"ReferenceId":"584048682","Spot":0.8,"SideOfStreet":"right","CountryId":"20000001","StateId":"20050212","CountyId":"20096397","CityId":"20096713","AddressId":"320903639","RoadLinkId":"50877148"}}}]}]}}