{"Response":{"MetaInfo":{"Timestamp":"2020-03-28T10:28:13.231+0000","NextPageInformation":"2"},"View":[{"_type":"SearchResultsViewType","ViewId":0,"Result":[{"Relevance":1.0,"Distance":0.0,"Direction":0.0,"MatchLevel":"city","MatchQuality":{"Country":1.0,"State":1.0,"County":1.0,"City":1.0,"PostalCode":1.0},"Location":{"LocationId":"NT_HIuCGf0BNp.4DGBBAWe49B","LocationType":"point","DisplayPosition":{"Latitude":43.911662,"Longitude":4.0036853},"MapView":{"TopLeft":{"Latitude":43.94789,"Longitude":3.95704},"BottomRight":{"Latitude":43.8925,"Longitude":4.0409}},"Address":{"Label":"Quissac, Occitanie, France","Country":"FRA","State":"Occitanie","County":"Gard","City":"Quissac","PostalCode":"30260","AdditionalData":[{"value":"France","key":"CountryName"},{"value":"Occitanie","key":"StateName"},{"value":"Gard","key":"CountyName"}]},"MapReference":{"ReferenceId":"57877284","SideOfStreet":"neither","CountryId":"20000001","StateId":"20050212","CountyId":"20050213","CityId":"20094198"}}},{"Relevance":1.0,"Distance":20.9,"MatchLevel":"street","MatchQuality":{"Country":1.0,"State":1.0,"County":1.0,"City":1.0,"Street":[1.0],"PostalCode":1.0},"Location":{"LocationId":"NT_QGshyTtfltl4c-IVKvzC2B_l_1186952269_R","LocationType":"point","DisplayPosition":{"Latitude":43.91149,"Longitude":4.00358},"MapView":{"TopLeft":{"Latitude":43.9117,"Longitude":4.00313},"BottomRight":{"Latitude":43.91149,"Longitude":4.00358}},"Address":{"Label":"Rue du Lac, 30260 Quissac, France","Country":"FRA","State":"Occitanie","County":"Gard","City":"Quissac","Street":"Rue du Lac","PostalCode":"30260","AdditionalData":[{"value":"France","key":"CountryName"},{"value":"Occitanie","key":"StateName"},{"value":"Gard","key":"CountyName"}]},"MapReference":{"ReferenceId":"1186952269","Spot":0.0,"SideOfStreet":"right","CountryId":"20000001","StateId":"20050212","CountyId":"20050213","CityId":"20094198"}}},{"Relevance":1.0,"Distance":20.9,"MatchLevel":"street","MatchQuality":{"Country":1.0,"State":1.0,"County":1.0,"City":1.0,"PostalCode":1.0},"Location":{"LocationId":"NT_F30GWdEy-2ETp7F-1w7SIA_l_1186952271_L","LocationType":"point","DisplayPosition":{"Latitude":43.91149,"Longitude":4.00358},"MapView":{"TopLeft":{"Latitude":43.91149,"Longitude":4.00317},"BottomRight":{"Latitude":43.9113,"Longitude":4.00358}},"Address":{"Label":"30260 Quissac, France","Country":"FRA","State":"Occitanie","County":"Gard","City":"Quissac","PostalCode":"30260","AdditionalData":[{"value":"France","key":"CountryName"},{"value":"Occitanie","key":"StateName"},{"value":"Gard","key":"CountyName"}]},"MapReference":{"ReferenceId":"1186952271","Spot":1.0,"SideOfStreet":"left","CountryId":"20000001","StateId":"20050212","CountyId":"20050213","CityId":"20094198"}}},{"Relevance":1.0,"Distance":21.4,"MatchLevel":"houseNumber","MatchQuality":{"Country":1.0,"State":1.0,"County":1.0,"City":1.0,"Street":[1.0],"HouseNumber":1.0,"PostalCode":1.0},"MatchType":"interpolated","Location":{"LocationId":"NT_QGshyTtfltl4c-IVKvzC2B_xUD","LocationType":"point","DisplayPosition":{"Latitude":43.91143,"Longitude":4.00368},"MapView":{"TopLeft":{"Latitude":43.9125542,"Longitude":4.0021196},"BottomRight":{"Latitude":43.9103058,"Longitude":4.0052404}},"Address":{"Label":"15 Rue du Lac, 30260 Quissac, France","Country":"FRA","State":"Occitanie","County":"Gard","City":"Quissac","Street":"Rue du Lac","HouseNumber":"15","PostalCode":"30260","AdditionalData":[{"value":"France","key":"CountryName"},{"value":"Occitanie","key":"StateName"},{"value":"Gard","key":"CountyName"}]},"MapReference":{"ReferenceId":"1186952268","Spot":0.6,"SideOfStreet":"right","CountryId":"20000001","StateId":"20050212","CountyId":"20050213","CityId":"20094198","AddressId":"317195471","RoadLinkId":"495575698"}}},{"Relevance":1.0,"Distance":23.9,"MatchLevel":"houseNumber","MatchQuality":{"Country":1.0,"State":1.0,"County":1.0,"City":1.0,"Street":[1.0],"HouseNumber":1.0,"PostalCode":1.0},"MatchType":"interpolated","Location":{"LocationId":"NT_CWDZ3Egc38hEL772vkwSLC_l_1198143341_R_5gD","LocationType":"point","DisplayPosition":{"Latitude":43.9120111,"Longitude":4.0036671},"MapView":{"TopLeft":{"Latitude":43.9131353,"Longitude":4.0021066},"BottomRight":{"Latitude":43.910887,"Longitude":4.0052275}},"Address":{"Label":"98 Route de Saint-Théodorit, 30260 Quissac, France","Country":"FRA","State":"Occitanie","County":"Gard","City":"Quissac","Street":"Route de Saint-Théodorit","HouseNumber":"98","PostalCode":"30260","AdditionalData":[{"value":"France","key":"CountryName"},{"value":"Occitanie","key":"StateName"},{"value":"Gard","key":"CountyName"}]},"MapReference":{"ReferenceId":"1198143341","Spot":0.52,"SideOfStreet":"right","CountryId":"20000001","StateId":"20050212","CountyId":"20050213","CityId":"20094198"}}},{"Relevance":1.0,"Distance":27.3,"MatchLevel":"houseNumber","MatchQuality":{"Country":1.0,"State":1.0,"County":1.0,"City":1.0,"Street":[1.0],"HouseNumber":1.0,"PostalCode":1.0},"MatchType":"interpolated","Location":{"LocationId":"NT_tKNMe3kJtYJLJgohwoPTSD_l_877446652_R_5YD","LocationType":"point","DisplayPosition":{"Latitude":43.9119751,"Longitude":4.003433},"MapView":{"TopLeft":{"Latitude":43.9130992,"Longitude":4.0018726},"BottomRight":{"Latitude":43.9108509,"Longitude":4.0049935}},"Address":{"Label":"96 Route de Saint-Théodorit, 30260 Quissac, France","Country":"FRA","State":"Occitanie","County":"Gard","City":"Quissac","Street":"Route de Saint-Théodorit","HouseNumber":"96","PostalCode":"30260","AdditionalData":[{"value":"France","key":"CountryName"},{"value":"Occitanie","key":"StateName"},{"value":"Gard","key":"CountyName"}]},"MapReference":{"ReferenceId":"877446652","Spot":0.86,"SideOfStreet":"right","CountryId":"20000001","StateId":"20050212","CountyId":"20050213","CityId":"20094198"}}},{"Relevance":1.0,"Distance":41.8,"MatchLevel":"houseNumber","MatchQuality":{"Country":1.0,"State":1.0,"County":1.0,"City":1.0,"Street":[1.0],"HouseNumber":1.0,"PostalCode":1.0},"MatchType":"interpolated","Location":{"LocationId":"NT_aSxm7ScMgfDOjOyv0wYROD_xA","LocationType":"point","DisplayPosition":{"Latitude":43.91138,"Longitude":4.00403},"MapView":{"TopLeft":{"Latitude":43.9125042,"Longitude":4.0024696},"BottomRight":{"Latitude":43.9102558,"Longitude":4.0055904}},"Address":{"Label":"1 Impasse des Tonneliers, 30260 Quissac, France","Country":"FRA","State":"Occitanie","County":"Gard","City":"Quissac","Street":"Impasse des Tonneliers","HouseNumber":"1","PostalCode":"30260","AdditionalData":[{"value":"France","key":"CountryName"},{"value":"Occitanie","key":"StateName"},{"value":"Gard","key":"CountyName"}]},"MapReference":{"ReferenceId":"546818396","Spot":0.19,"SideOfStreet":"right","CountryId":"20000001","StateId":"20050212","CountyId":"20050213","CityId":"20094198","AddressId":"590498812","RoadLinkId":"50441928"}}},{"Relevance":1.0,"Distance":44.6,"MatchLevel":"houseNumber","MatchQuality":{"Country":1.0,"State":1.0,"County":1.0,"City":1.0,"Street":[1.0],"HouseNumber":1.0,"PostalCode":1.0},"MatchType":"interpolated","Location":{"LocationId":"NT_x.VRw8REgxkHxUEVJHQIGC_xUD","LocationType":"point","DisplayPosition":{"Latitude":43.91183,"Longitude":4.00318},"MapView":{"TopLeft":{"Latitude":43.9129542,"Longitude":4.0016196},"BottomRight":{"Latitude":43.9107058,"Longitude":4.0047404}},"Address":{"Label":"15 Route d'Anduze, 30260 Quissac, France","Country":"FRA","State":"Occitanie","County":"Gard","City":"Quissac","Street":"Route d'Anduze","HouseNumber":"15","PostalCode":"30260","AdditionalData":[{"value":"France","key":"CountryName"},{"value":"Occitanie","key":"StateName"},{"value":"Gard","key":"CountyName"}]},"MapReference":{"ReferenceId":"546817875","Spot":0.53,"SideOfStreet":"left","CountryId":"20000001","StateId":"20050212","CountyId":"20050213","CityId":"20094198","AddressId":"571174051","RoadLinkId":"134674215"}}},{"Relevance":1.0,"Distance":44.7,"MatchLevel":"street","MatchQuality":{"Country":1.0,"State":1.0,"County":1.0,"City":1.0,"Street":[1.0],"PostalCode":1.0},"Location":{"LocationId":"NT_x.VRw8REgxkHxUEVJHQIGC_l_807538194_R","LocationType":"point","DisplayPosition":{"Latitude":43.9117,"Longitude":4.00313},"MapView":{"TopLeft":{"Latitude":43.9117,"Longitude":4.00304},"BottomRight":{"Latitude":43.91155,"Longitude":4.00313}},"Address":{"Label":"Route d'Anduze, 30260 Quissac, France","Country":"FRA","State":"Occitanie","County":"Gard","City":"Quissac","Street":"Route d'Anduze","PostalCode":"30260","AdditionalData":[{"value":"France","key":"CountryName"},{"value":"Occitanie","key":"StateName"},{"value":"Gard","key":"CountyName"}]},"MapReference":{"ReferenceId":"807538194","Spot":1.0,"SideOfStreet":"right","CountryId":"20000001","StateId":"20050212","CountyId":"20050213","CityId":"20094198"}}},{"Relevance":1.0,"Distance":50.9,"MatchLevel":"street","MatchQuality":{"Country":1.0,"State":1.0,"County":1.0,"City":1.0,"PostalCode":1.0},"Location":{"LocationId":"NT_F30GWdEy-2ETp7F-1w7SIA_l_877844305_R","LocationType":"point","DisplayPosition":{"Latitude":43.9115118,"Longitude":4.0030845},"MapView":{"TopLeft":{"Latitude":43.91155,"Longitude":4.00304},"BottomRight":{"Latitude":43.91145,"Longitude":4.00309}},"Address":{"Label":"30260 Quissac, France","Country":"FRA","State":"Occitanie","County":"Gard","City":"Quissac","PostalCode":"30260","AdditionalData":[{"value":"France","key":"CountryName"},{"value":"Occitanie","key":"StateName"},{"value":"Gard","key":"CountyName"}]},"MapReference":{"ReferenceId":"877844305","Spot":0.5,"SideOfStreet":"right","CountryId":"20000001","StateId":"20050212","CountyId":"20050213","CityId":"20094198"}}}]}]}}