{"Response":{"MetaInfo":{"Timestamp":"2020-03-28T11:52:04.083+0000","NextPageInformation":"2"},"View":[{"_type":"SearchResultsViewType","ViewId":0,"Result":[{"Relevance":1.0,"Distance":0.0,"Direction":0.0,"MatchLevel":"city","MatchQuality":{"Country":1.0,"State":1.0,"County":1.0,"City":1.0,"PostalCode":1.0},"Location":{"LocationId":"NT_TclAa5OTsDTD-lM5vzs6KC","LocationType":"point","DisplayPosition":{"Latitude":44.028367,"Longitude":1.36937},"MapView":{"TopLeft":{"Latitude":44.09218,"Longitude":1.28571},"BottomRight":{"Latitude":43.95068,"Longitude":1.44271}},"Address":{"Label":"Montauban, Occitanie, France","Country":"FRA","State":"Occitanie","County":"Tarn-et-Garonne","City":"Montauban","PostalCode":"82000","AdditionalData":[{"value":"France","key":"CountryName"},{"value":"Occitanie","key":"StateName"},{"value":"Tarn-et-Garonne","key":"CountyName"}]},"MapReference":{"ReferenceId":"759347167","SideOfStreet":"neither","CountryId":"20000001","StateId":"20050212","CountyId":"20109291","CityId":"20109654"}}},{"Relevance":1.0,"Distance":11.1,"MatchLevel":"houseNumber","MatchQuality":{"Country":1.0,"State":1.0,"County":1.0,"City":1.0,"Street":[1.0],"HouseNumber":1.0,"PostalCode":1.0},"MatchType":"interpolated","Location":{"LocationId":"NT_vFVW8jgzDDtNnCLg7nuGNB_3ADM","LocationType":"point","DisplayPosition":{"Latitude":44.02853,"Longitude":1.36921},"MapView":{"TopLeft":{"Latitude":44.0296542,"Longitude":1.3676465},"BottomRight":{"Latitude":44.0274058,"Longitude":1.3707735}},"Address":{"Label":"700 Avenue Jean Moulin, 82000 Montauban, France","Country":"FRA","State":"Occitanie","County":"Tarn-et-Garonne","City":"Montauban","Street":"Avenue Jean Moulin","HouseNumber":"700","PostalCode":"82000","AdditionalData":[{"value":"France","key":"CountryName"},{"value":"Occitanie","key":"StateName"},{"value":"Tarn-et-Garonne","key":"CountyName"}]},"MapReference":{"ReferenceId":"940896877","Spot":0.48,"SideOfStreet":"right","CountryId":"20000001","StateId":"20050212","CountyId":"20109291","CityId":"20109654","AddressId":"320940325","RoadLinkId":"290944046"}}},{"Relevance":1.0,"Distance":29.9,"MatchLevel":"houseNumber","MatchQuality":{"Country":1.0,"State":1.0,"County":1.0,"City":1.0,"Street":[1.0],"HouseNumber":1.0,"PostalCode":1.0},"MatchType":"interpolated","Location":{"LocationId":"NT_vFVW8jgzDDtNnCLg7nuGNB_2YjM","LocationType":"point","DisplayPosition":{"Latitude":44.0283,"Longitude":1.36894},"MapView":{"TopLeft":{"Latitude":44.0294242,"Longitude":1.3673765},"BottomRight":{"Latitude":44.0271758,"Longitude":1.3705035}},"Address":{"Label":"662 Avenue Jean Moulin, 82000 Montauban, France","Country":"FRA","State":"Occitanie","County":"Tarn-et-Garonne","City":"Montauban","Street":"Avenue Jean Moulin","HouseNumber":"662","PostalCode":"82000","AdditionalData":[{"value":"France","key":"CountryName"},{"value":"Occitanie","key":"StateName"},{"value":"Tarn-et-Garonne","key":"CountyName"}]},"MapReference":{"ReferenceId":"940896876","Spot":1.0,"SideOfStreet":"right","CountryId":"20000001","StateId":"20050212","CountyId":"20109291","CityId":"20109654","AddressId":"320940314","RoadLinkId":"290944045"}}},{"Relevance":1.0,"Distance":47.1,"MatchLevel":"landmark","MatchQuality":{"Country":1.0,"State":1.0,"County":1.0,"City":1.0,"Street":[1.0],"PostalCode":1.0,"Name":1.0},"Location":{"LocationId":"NT_4n5Oh770t-wqD-J5AN1DtA_p_GZhMRc3Y9yBxbRdB2CfbMD","LocationType":"shoppingCentre","Name":"Centre Commercial les 3 Rivi√®res","DisplayPosition":{"Latitude":44.03027,"Longitude":1.36851},"MapView":{"TopLeft":{"Latitude":44.03137,"Longitude":1.36717},"BottomRight":{"Latitude":44.02878,"Longitude":1.37018}},"Address":{"Label":"Avenue Jean Moulin, 82000 Montauban, France","Country":"FRA","State":"Occitanie","County":"Tarn-et-Garonne","City":"Montauban","Street":"Avenue Jean Moulin","PostalCode":"82000","AdditionalData":[{"value":"France","key":"CountryName"},{"value":"Occitanie","key":"StateName"},{"value":"Tarn-et-Garonne","key":"CountyName"}]},"MapReference":{"CountryId":"20000001","StateId":"20050212","CountyId":"20109291","CityId":"20109654","PlaceId":"842823158"}}},{"Relevance":1.0,"Distance":52.2,"MatchLevel":"houseNumber","MatchQuality":{"Country":1.0,"State":1.0,"County":1.0,"City":1.0,"Street":[1.0],"HouseNumber":1.0,"PostalCode":1.0},"MatchType":"interpolated","Location":{"LocationId":"NT_vFVW8jgzDDtNnCLg7nuGNB_3MDO","LocationType":"point","DisplayPosition":{"Latitude":44.02882,"Longitude":1.36954},"MapView":{"TopLeft":{"Latitude":44.0299442,"Longitude":1.3679765},"BottomRight":{"Latitude":44.0276958,"Longitude":1.3711035}},"Address":{"Label":"738 Avenue Jean Moulin, 82000 Montauban, France","Country":"FRA","State":"Occitanie","County":"Tarn-et-Garonne","City":"Montauban","Street":"Avenue Jean Moulin","HouseNumber":"738","PostalCode":"82000","AdditionalData":[{"value":"France","key":"CountryName"},{"value":"Occitanie","key":"StateName"},{"value":"Tarn-et-Garonne","key":"CountyName"}]},"MapReference":{"ReferenceId":"718217450","Spot":0.12,"SideOfStreet":"right","CountryId":"20000001","StateId":"20050212","CountyId":"20109291","CityId":"20109654","AddressId":"320811378","RoadLinkId":"123068897"}}},{"Relevance":1.0,"Distance":85.2,"MatchLevel":"houseNumber","MatchQuality":{"Country":1.0,"State":1.0,"County":1.0,"City":1.0,"Street":[1.0],"HouseNumber":1.0,"PostalCode":1.0},"MatchType":"interpolated","Location":{"LocationId":"NT_vFVW8jgzDDtNnCLg7nuGNB_2UzMBB","LocationType":"point","DisplayPosition":{"Latitude":44.02859,"Longitude":1.36835},"MapView":{"TopLeft":{"Latitude":44.0297142,"Longitude":1.3667865},"BottomRight":{"Latitude":44.0274658,"Longitude":1.3699135}},"Address":{"Label":"653A Avenue Jean Moulin, 82000 Montauban, France","Country":"FRA","State":"Occitanie","County":"Tarn-et-Garonne","City":"Montauban","Street":"Avenue Jean Moulin","HouseNumber":"653A","PostalCode":"82000","AdditionalData":[{"value":"France","key":"CountryName"},{"value":"Occitanie","key":"StateName"},{"value":"Tarn-et-Garonne","key":"CountyName"}]},"MapReference":{"ReferenceId":"940896878","Spot":0.99,"SideOfStreet":"right","CountryId":"20000001","StateId":"20050212","CountyId":"20109291","CityId":"20109654","AddressId":"371445691","RoadLinkId":"290944047"}}},{"Relevance":1.0,"Distance":86.5,"MatchLevel":"street","MatchQuality":{"Country":1.0,"State":1.0,"County":1.0,"City":1.0,"PostalCode":1.0},"Location":{"LocationId":"NT_ODgd8XoJTAQk-t7RZ0Ar6C_l_1046559891_R","LocationType":"point","DisplayPosition":{"Latitude":44.02913,"Longitude":1.36916},"MapView":{"TopLeft":{"Latitude":44.02937,"Longitude":1.36916},"BottomRight":{"Latitude":44.02913,"Longitude":1.36939}},"Address":{"Label":"82000 Montauban, France","Country":"FRA","State":"Occitanie","County":"Tarn-et-Garonne","City":"Montauban","PostalCode":"82000","AdditionalData":[{"value":"France","key":"CountryName"},{"value":"Occitanie","key":"StateName"},{"value":"Tarn-et-Garonne","key":"CountyName"}]},"MapReference":{"ReferenceId":"1046559891","Spot":0.0,"SideOfStreet":"right","CountryId":"20000001","StateId":"20050212","CountyId":"20109291","CityId":"20109654"}}},{"Relevance":1.0,"Distance":90.6,"MatchLevel":"houseNumber","MatchQuality":{"Country":1.0,"State":1.0,"County":1.0,"City":1.0,"Street":[1.0],"HouseNumber":1.0,"PostalCode":1.0},"MatchType":"interpolated","Location":{"LocationId":"NT_vFVW8jgzDDtNnCLg7nuGNB_3gTN","LocationType":"point","DisplayPosition":{"Latitude":44.02915,"Longitude":1.36981},"MapView":{"TopLeft":{"Latitude":44.0302742,"Longitude":1.3682465},"BottomRight":{"Latitude":44.0280258,"Longitude":1.3713735}},"Address":{"Label":"785 Avenue Jean Moulin, 82000 Montauban, France","Country":"FRA","State":"Occitanie","County":"Tarn-et-Garonne","City":"Montauban","Street":"Avenue Jean Moulin","HouseNumber":"785","PostalCode":"82000","AdditionalData":[{"value":"France","key":"CountryName"},{"value":"Occitanie","key":"StateName"},{"value":"Tarn-et-Garonne","key":"CountyName"}]},"MapReference":{"ReferenceId":"546920788","Spot":0.61,"SideOfStreet":"left","CountryId":"20000001","StateId":"20050212","CountyId":"20109291","CityId":"20109654","AddressId":"673557384","RoadLinkId":"50316134"}}},{"Relevance":1.0,"Distance":90.7,"MatchLevel":"houseNumber","MatchQuality":{"Country":1.0,"State":1.0,"County":1.0,"City":1.0,"Street":[1.0],"HouseNumber":1.0,"PostalCode":1.0},"MatchType":"interpolated","Location":{"LocationId":"NT_vFVW8jgzDDtNnCLg7nuGNB_3gDM","LocationType":"point","DisplayPosition":{"Latitude":44.02909,"Longitude":1.36998},"MapView":{"TopLeft":{"Latitude":44.0302142,"Longitude":1.3684165},"BottomRight":{"Latitude":44.0279658,"Longitude":1.3715435}},"Address":{"Label":"780 Avenue Jean Moulin, 82000 Montauban, France","Country":"FRA","State":"Occitanie","County":"Tarn-et-Garonne","City":"Montauban","Street":"Avenue Jean Moulin","HouseNumber":"780","PostalCode":"82000","AdditionalData":[{"value":"France","key":"CountryName"},{"value":"Occitanie","key":"StateName"},{"value":"Tarn-et-Garonne","key":"CountyName"}]},"MapReference":{"ReferenceId":"546920796","Spot":0.42,"SideOfStreet":"right","CountryId":"20000001","StateId":"20050212","CountyId":"20109291","CityId":"20109654","AddressId":"673557385","RoadLinkId":"50352111"}}},{"Relevance":1.0,"Distance":91.6,"MatchLevel":"street","MatchQuality":{"Country":1.0,"State":1.0,"County":1.0,"City":1.0,"PostalCode":1.0},"Location":{"LocationId":"NT_ODgd8XoJTAQk-t7RZ0Ar6C_l_1046559892_R","LocationType":"point","DisplayPosition":{"Latitude":44.02919,"Longitude":1.36932},"MapView":{"TopLeft":{"Latitude":44.02933,"Longitude":1.36932},"BottomRight":{"Latitude":44.02919,"Longitude":1.3695}},"Address":{"Label":"82000 Montauban, France","Country":"FRA","State":"Occitanie","County":"Tarn-et-Garonne","City":"Montauban","PostalCode":"82000","AdditionalData":[{"value":"France","key":"CountryName"},{"value":"Occitanie","key":"StateName"},{"value":"Tarn-et-Garonne","key":"CountyName"}]},"MapReference":{"ReferenceId":"1046559892","Spot":0.0,"SideOfStreet":"right","CountryId":"20000001","StateId":"20050212","CountyId":"20109291","CityId":"20109654"}}}]}]}}