{"Response":{"MetaInfo":{"Timestamp":"2020-03-28T10:31:15.244+0000","NextPageInformation":"2"},"View":[{"_type":"SearchResultsViewType","ViewId":0,"Result":[{"Relevance":1.0,"Distance":0.0,"Direction":0.0,"MatchLevel":"city","MatchQuality":{"Country":1.0,"State":1.0,"County":1.0,"City":1.0,"PostalCode":1.0},"Location":{"LocationId":"NT_c8phMqxa9DtoMdrJesvQwA","LocationType":"point","DisplayPosition":{"Latitude":44.0395579,"Longitude":4.8971029},"MapView":{"TopLeft":{"Latitude":44.07662,"Longitude":4.86169},"BottomRight":{"Latitude":44.01893,"Longitude":4.94378}},"Address":{"Label":"Bédarrides, Provence-Alpes-Côte d'Azur, France","Country":"FRA","State":"Provence-Alpes-Côte d'Azur","County":"Vaucluse","City":"Bédarrides","PostalCode":"84370","AdditionalData":[{"value":"France","key":"CountryName"},{"value":"Provence-Alpes-Côte d'Azur","key":"StateName"},{"value":"Vaucluse","key":"CountyName"}]},"MapReference":{"ReferenceId":"62129834","SideOfStreet":"neither","CountryId":"20000001","StateId":"20000193","CountyId":"20056024","CityId":"20056072"}}},{"Relevance":1.0,"Distance":1.5,"MatchLevel":"houseNumber","MatchQuality":{"Country":1.0,"State":1.0,"County":1.0,"City":1.0,"Street":[1.0],"HouseNumber":1.0,"PostalCode":1.0},"MatchType":"interpolated","Location":{"LocationId":"NT_cy5Atpv4N9ugBxCOrXuPxA_3A","LocationType":"point","DisplayPosition":{"Latitude":44.03957,"Longitude":4.89711},"MapView":{"TopLeft":{"Latitude":44.0406942,"Longitude":4.8955462},"BottomRight":{"Latitude":44.0384458,"Longitude":4.8986738}},"Address":{"Label":"7 Rue du Pont Trouca, 84370 Bédarrides, France","Country":"FRA","State":"Provence-Alpes-Côte d'Azur","County":"Vaucluse","City":"Bédarrides","Street":"Rue du Pont Trouca","HouseNumber":"7","PostalCode":"84370","AdditionalData":[{"value":"France","key":"CountryName"},{"value":"Provence-Alpes-Côte d'Azur","key":"StateName"},{"value":"Vaucluse","key":"CountyName"}]},"MapReference":{"ReferenceId":"62129917","Spot":0.7,"SideOfStreet":"right","CountryId":"20000001","StateId":"20000193","CountyId":"20056024","CityId":"20056072","AddressId":"319322927","RoadLinkId":"45411661"}}},{"Relevance":1.0,"Distance":12.7,"MatchLevel":"houseNumber","MatchQuality":{"Country":1.0,"State":1.0,"County":1.0,"City":1.0,"Street":[1.0],"HouseNumber":1.0,"PostalCode":1.0},"MatchType":"interpolated","Location":{"LocationId":"NT_cy5Atpv4N9ugBxCOrXuPxA_l_62129902_R_5A","LocationType":"point","DisplayPosition":{"Latitude":44.03967,"Longitude":4.89713},"MapView":{"TopLeft":{"Latitude":44.0407942,"Longitude":4.8955662},"BottomRight":{"Latitude":44.0385459,"Longitude":4.8986938}},"Address":{"Label":"9 Rue du Pont Trouca, 84370 Bédarrides, France","Country":"FRA","State":"Provence-Alpes-Côte d'Azur","County":"Vaucluse","City":"Bédarrides","Street":"Rue du Pont Trouca","HouseNumber":"9","PostalCode":"84370","AdditionalData":[{"value":"France","key":"CountryName"},{"value":"Provence-Alpes-Côte d'Azur","key":"StateName"},{"value":"Vaucluse","key":"CountyName"}]},"MapReference":{"ReferenceId":"62129902","Spot":0.0,"SideOfStreet":"right","CountryId":"20000001","StateId":"20000193","CountyId":"20056024","CityId":"20056072"}}},{"Relevance":1.0,"Distance":18.1,"MatchLevel":"houseNumber","MatchQuality":{"Country":1.0,"State":1.0,"County":1.0,"City":1.0,"Street":[1.0],"HouseNumber":1.0,"PostalCode":1.0},"MatchType":"interpolated","Location":{"LocationId":"NT_cy5Atpv4N9ugBxCOrXuPxA_yIE","LocationType":"point","DisplayPosition":{"Latitude":44.03969,"Longitude":4.89697},"MapView":{"TopLeft":{"Latitude":44.0408142,"Longitude":4.8954062},"BottomRight":{"Latitude":44.0385658,"Longitude":4.8985338}},"Address":{"Label":"2B Rue du Pont Trouca, 84370 Bédarrides, France","Country":"FRA","State":"Provence-Alpes-Côte d'Azur","County":"Vaucluse","City":"Bédarrides","Street":"Rue du Pont Trouca","HouseNumber":"2B","PostalCode":"84370","AdditionalData":[{"value":"France","key":"CountryName"},{"value":"Provence-Alpes-Côte d'Azur","key":"StateName"},{"value":"Vaucluse","key":"CountyName"}]},"MapReference":{"ReferenceId":"62129903","Spot":0.55,"SideOfStreet":"right","CountryId":"20000001","StateId":"20000193","CountyId":"20056024","CityId":"20056072","AddressId":"319114572","RoadLinkId":"45200785"}}},{"Relevance":1.0,"Distance":20.3,"MatchLevel":"houseNumber","MatchQuality":{"Country":1.0,"State":1.0,"County":1.0,"City":1.0,"Street":[1.0],"HouseNumber":1.0,"PostalCode":1.0},"MatchType":"interpolated","Location":{"LocationId":"NT_hwdTqGdeya8m8gypGZqBbD_xAD","LocationType":"point","DisplayPosition":{"Latitude":44.03972,"Longitude":4.89722},"MapView":{"TopLeft":{"Latitude":44.0408442,"Longitude":4.8956562},"BottomRight":{"Latitude":44.0385958,"Longitude":4.8987838}},"Address":{"Label":"10 Rue des Minimes, 84370 Bédarrides, France","Country":"FRA","State":"Provence-Alpes-Côte d'Azur","County":"Vaucluse","City":"Bédarrides","Street":"Rue des Minimes","HouseNumber":"10","PostalCode":"84370","AdditionalData":[{"value":"France","key":"CountryName"},{"value":"Provence-Alpes-Côte d'Azur","key":"StateName"},{"value":"Vaucluse","key":"CountyName"}]},"MapReference":{"ReferenceId":"62129905","Spot":0.88,"SideOfStreet":"left","CountryId":"20000001","StateId":"20000193","CountyId":"20056024","CityId":"20056072","AddressId":"319223709","RoadLinkId":"45427490"}}},{"Relevance":1.0,"Distance":20.5,"MatchLevel":"houseNumber","MatchQuality":{"Country":1.0,"State":1.0,"County":1.0,"City":1.0,"Street":[1.0],"HouseNumber":1.0,"PostalCode":1.0},"MatchType":"interpolated","Location":{"LocationId":"NT_mY2RV2tg.wch.Q1oj7ElvC_1A","LocationType":"point","DisplayPosition":{"Latitude":44.03953,"Longitude":4.89681},"MapView":{"TopLeft":{"Latitude":44.0406542,"Longitude":4.8952462},"BottomRight":{"Latitude":44.0384058,"Longitude":4.8983738}},"Address":{"Label":"5 Place Sainte-Croix, 84370 Bédarrides, France","Country":"FRA","State":"Provence-Alpes-Côte d'Azur","County":"Vaucluse","City":"Bédarrides","Street":"Place Sainte-Croix","HouseNumber":"5","PostalCode":"84370","AdditionalData":[{"value":"France","key":"CountryName"},{"value":"Provence-Alpes-Côte d'Azur","key":"StateName"},{"value":"Vaucluse","key":"CountyName"}]},"MapReference":{"ReferenceId":"62129914","Spot":0.84,"SideOfStreet":"right","CountryId":"20000001","StateId":"20000193","CountyId":"20056024","CityId":"20056072","AddressId":"319162442","RoadLinkId":"45145471"}}},{"Relevance":1.0,"Distance":20.8,"MatchLevel":"houseNumber","MatchQuality":{"Country":1.0,"State":1.0,"County":1.0,"City":1.0,"Street":[1.0],"HouseNumber":1.0,"PostalCode":1.0},"MatchType":"interpolated","Location":{"LocationId":"NT_mY2RV2tg.wch.Q1oj7ElvC_zA","LocationType":"point","DisplayPosition":{"Latitude":44.0396,"Longitude":4.89682},"MapView":{"TopLeft":{"Latitude":44.0407242,"Longitude":4.8952562},"BottomRight":{"Latitude":44.0384758,"Longitude":4.8983838}},"Address":{"Label":"3 Place Sainte-Croix, 84370 Bédarrides, France","Country":"FRA","State":"Provence-Alpes-Côte d'Azur","County":"Vaucluse","City":"Bédarrides","Street":"Place Sainte-Croix","HouseNumber":"3","PostalCode":"84370","AdditionalData":[{"value":"France","key":"CountryName"},{"value":"Provence-Alpes-Côte d'Azur","key":"StateName"},{"value":"Vaucluse","key":"CountyName"}]},"MapReference":{"ReferenceId":"62129907","Spot":0.26,"SideOfStreet":"right","CountryId":"20000001","StateId":"20000193","CountyId":"20056024","CityId":"20056072","AddressId":"319424021","RoadLinkId":"45466242"}}},{"Relevance":1.0,"Distance":21.0,"MatchLevel":"houseNumber","MatchQuality":{"Country":1.0,"State":1.0,"County":1.0,"City":1.0,"Street":[1.0],"HouseNumber":1.0,"PostalCode":1.0},"MatchType":"interpolated","Location":{"LocationId":"NT_HJylhgAYGRFl9ZBj-Od-oD_zcD","LocationType":"point","DisplayPosition":{"Latitude":44.03932,"Longitude":4.89712},"MapView":{"TopLeft":{"Latitude":44.0404442,"Longitude":4.8955562},"BottomRight":{"Latitude":44.0381958,"Longitude":4.8986838}},"Address":{"Label":"37 Quai de l'Ouvèze, 84370 Bédarrides, France","Country":"FRA","State":"Provence-Alpes-Côte d'Azur","County":"Vaucluse","City":"Bédarrides","Street":"Quai de l'Ouvèze","HouseNumber":"37","PostalCode":"84370","AdditionalData":[{"value":"France","key":"CountryName"},{"value":"Provence-Alpes-Côte d'Azur","key":"StateName"},{"value":"Vaucluse","key":"CountyName"}]},"MapReference":{"ReferenceId":"62129924","Spot":0.97,"SideOfStreet":"right","CountryId":"20000001","StateId":"20000193","CountyId":"20056024","CityId":"20056072","AddressId":"319237115","RoadLinkId":"46119304"}}},{"Relevance":1.0,"Distance":21.5,"MatchLevel":"houseNumber","MatchQuality":{"Country":1.0,"State":1.0,"County":1.0,"City":1.0,"Street":[1.0],"HouseNumber":1.0,"PostalCode":1.0},"MatchType":"interpolated","Location":{"LocationId":"NT_hwdTqGdeya8m8gypGZqBbD_4A","LocationType":"point","DisplayPosition":{"Latitude":44.03975,"Longitude":4.89713},"MapView":{"TopLeft":{"Latitude":44.0408742,"Longitude":4.8955662},"BottomRight":{"Latitude":44.0386258,"Longitude":4.8986938}},"Address":{"Label":"8 Rue des Minimes, 84370 Bédarrides, France","Country":"FRA","State":"Provence-Alpes-Côte d'Azur","County":"Vaucluse","City":"Bédarrides","Street":"Rue des Minimes","HouseNumber":"8","PostalCode":"84370","AdditionalData":[{"value":"France","key":"CountryName"},{"value":"Provence-Alpes-Côte d'Azur","key":"StateName"},{"value":"Vaucluse","key":"CountyName"}]},"MapReference":{"ReferenceId":"62140836","Spot":0.08,"SideOfStreet":"left","CountryId":"20000001","StateId":"20000193","CountyId":"20056024","CityId":"20056072","AddressId":"319250278","RoadLinkId":"45371184"}}},{"Relevance":1.0,"Distance":21.5,"MatchLevel":"houseNumber","MatchQuality":{"Country":1.0,"State":1.0,"County":1.0,"City":1.0,"Street":[1.0],"HouseNumber":1.0,"PostalCode":1.0},"MatchType":"interpolated","Location":{"LocationId":"NT_HJylhgAYGRFl9ZBj-Od-oD_zkD","LocationType":"point","DisplayPosition":{"Latitude":44.03934,"Longitude":4.89696},"MapView":{"TopLeft":{"Latitude":44.0404642,"Longitude":4.8953962},"BottomRight":{"Latitude":44.0382158,"Longitude":4.8985238}},"Address":{"Label":"39 Quai de l'Ouvèze, 84370 Bédarrides, France","Country":"FRA","State":"Provence-Alpes-Côte d'Azur","County":"Vaucluse","City":"Bédarrides","Street":"Quai de l'Ouvèze","HouseNumber":"39","PostalCode":"84370","AdditionalData":[{"value":"France","key":"CountryName"},{"value":"Provence-Alpes-Côte d'Azur","key":"StateName"},{"value":"Vaucluse","key":"CountyName"}]},"MapReference":{"ReferenceId":"62129918","Spot":0.38,"SideOfStreet":"right","CountryId":"20000001","StateId":"20000193","CountyId":"20056024","CityId":"20056072","AddressId":"319410092","RoadLinkId":"45770525"}}}]}]}}