{"Response":{"MetaInfo":{"Timestamp":"2020-03-28T11:10:45.114+0000","NextPageInformation":"2"},"View":[{"_type":"SearchResultsViewType","ViewId":0,"Result":[{"Relevance":1.0,"Distance":0.0,"Direction":0.0,"MatchLevel":"city","MatchQuality":{"Country":1.0,"State":1.0,"County":1.0,"City":1.0,"PostalCode":1.0},"Location":{"LocationId":"NT_xVRyB1GZt25p.PyG6qrWuA","LocationType":"point","DisplayPosition":{"Latitude":44.1854228,"Longitude":0.6279259},"MapView":{"TopLeft":{"Latitude":44.22351,"Longitude":0.60259},"BottomRight":{"Latitude":44.17833,"Longitude":0.65711}},"Address":{"Label":"Agen, Nouvelle-Aquitaine, France","Country":"FRA","State":"Nouvelle-Aquitaine","County":"Lot-et-Garonne","City":"Agen","PostalCode":"47000","AdditionalData":[{"value":"France","key":"CountryName"},{"value":"Nouvelle-Aquitaine","key":"StateName"},{"value":"Lot-et-Garonne","key":"CountyName"}]},"MapReference":{"ReferenceId":"561455530","SideOfStreet":"neither","CountryId":"20000001","StateId":"20000383","CountyId":"20101674","CityId":"20101677"}}},{"Relevance":1.0,"Distance":5.1,"MatchLevel":"landmark","MatchQuality":{"Country":1.0,"State":1.0,"County":1.0,"City":1.0,"Street":[1.0],"HouseNumber":1.0,"PostalCode":1.0,"Name":1.0},"Location":{"LocationId":"NT_6pD9AYO4zqcqi7wgrQwhtC_p_YDa3hwmEH9mgJ7NcDRnGDB","LocationType":"hospital","Name":"Clinique Esquirol-Saint Hilaire","DisplayPosition":{"Latitude":44.18563,"Longitude":0.62968},"MapView":{"TopLeft":{"Latitude":44.1867542,"Longitude":0.6281123},"BottomRight":{"Latitude":44.1845058,"Longitude":0.6312477}},"Address":{"Label":"1 Rue du Docteur et Madame Delmas, 47000 Agen, France","Country":"FRA","State":"Nouvelle-Aquitaine","County":"Lot-et-Garonne","City":"Agen","Street":"Rue du Docteur et Madame Delmas","HouseNumber":"1","PostalCode":"47000","AdditionalData":[{"value":"France","key":"CountryName"},{"value":"Nouvelle-Aquitaine","key":"StateName"},{"value":"Lot-et-Garonne","key":"CountyName"}]},"MapReference":{"CountryId":"20000001","StateId":"20000383","CountyId":"20101674","CityId":"20101677","PlaceId":"1069864270"}}},{"Relevance":1.0,"Distance":15.8,"MatchLevel":"street","MatchQuality":{"Country":1.0,"State":1.0,"County":1.0,"City":1.0,"PostalCode":1.0},"Location":{"LocationId":"NT_qMtTekhWn03WIwixnXBh7A_l_863395914_L","LocationType":"point","DisplayPosition":{"Latitude":44.1855384,"Longitude":0.6280416},"MapView":{"TopLeft":{"Latitude":44.18709,"Longitude":0.62782},"BottomRight":{"Latitude":44.18551,"Longitude":0.62827}},"Address":{"Label":"47000 Agen, France","Country":"FRA","State":"Nouvelle-Aquitaine","County":"Lot-et-Garonne","City":"Agen","PostalCode":"47000","AdditionalData":[{"value":"France","key":"CountryName"},{"value":"Nouvelle-Aquitaine","key":"StateName"},{"value":"Lot-et-Garonne","key":"CountyName"}]},"MapReference":{"ReferenceId":"863395914","Spot":0.13,"SideOfStreet":"left","CountryId":"20000001","StateId":"20000383","CountyId":"20101674","CityId":"20101677"}}},{"Relevance":1.0,"Distance":21.8,"MatchLevel":"houseNumber","MatchQuality":{"Country":1.0,"State":1.0,"County":1.0,"City":1.0,"Street":[1.0],"HouseNumber":1.0,"PostalCode":1.0},"MatchType":"interpolated","Location":{"LocationId":"NT_gk4uNxtpbI3Bc8pvIfcfeC_yQTO","LocationType":"point","DisplayPosition":{"Latitude":44.18572,"Longitude":0.62759},"MapView":{"TopLeft":{"Latitude":44.1868442,"Longitude":0.6260223},"BottomRight":{"Latitude":44.1845958,"Longitude":0.6291577}},"Address":{"Label":"249 Rue de Gravissat, 47000 Agen, France","Country":"FRA","State":"Nouvelle-Aquitaine","County":"Lot-et-Garonne","City":"Agen","Street":"Rue de Gravissat","HouseNumber":"249","PostalCode":"47000","AdditionalData":[{"value":"France","key":"CountryName"},{"value":"Nouvelle-Aquitaine","key":"StateName"},{"value":"Lot-et-Garonne","key":"CountyName"}]},"MapReference":{"ReferenceId":"561456142","Spot":0.02,"SideOfStreet":"left","CountryId":"20000001","StateId":"20000383","CountyId":"20101674","CityId":"20101677","AddressId":"696730758","RoadLinkId":"51270604"}}},{"Relevance":1.0,"Distance":30.9,"MatchLevel":"street","MatchQuality":{"Country":1.0,"State":1.0,"County":1.0,"City":1.0,"PostalCode":1.0},"Location":{"LocationId":"NT_qMtTekhWn03WIwixnXBh7A_l_863395915_L","LocationType":"point","DisplayPosition":{"Latitude":44.18555,"Longitude":0.62827},"MapView":{"TopLeft":{"Latitude":44.18555,"Longitude":0.62827},"BottomRight":{"Latitude":44.18518,"Longitude":0.62834}},"Address":{"Label":"47000 Agen, France","Country":"FRA","State":"Nouvelle-Aquitaine","County":"Lot-et-Garonne","City":"Agen","PostalCode":"47000","AdditionalData":[{"value":"France","key":"CountryName"},{"value":"Nouvelle-Aquitaine","key":"StateName"},{"value":"Lot-et-Garonne","key":"CountyName"}]},"MapReference":{"ReferenceId":"863395915","Spot":1.0,"SideOfStreet":"left","CountryId":"20000001","StateId":"20000383","CountyId":"20101674","CityId":"20101677"}}},{"Relevance":1.0,"Distance":30.9,"MatchLevel":"street","MatchQuality":{"Country":1.0,"State":1.0,"County":1.0,"City":1.0,"PostalCode":1.0},"Location":{"LocationId":"NT_qMtTekhWn03WIwixnXBh7A_l_863395916_L","LocationType":"point","DisplayPosition":{"Latitude":44.18555,"Longitude":0.62827},"MapView":{"TopLeft":{"Latitude":44.1867,"Longitude":0.62808},"BottomRight":{"Latitude":44.18555,"Longitude":0.62827}},"Address":{"Label":"47000 Agen, France","Country":"FRA","State":"Nouvelle-Aquitaine","County":"Lot-et-Garonne","City":"Agen","PostalCode":"47000","AdditionalData":[{"value":"France","key":"CountryName"},{"value":"Nouvelle-Aquitaine","key":"StateName"},{"value":"Lot-et-Garonne","key":"CountyName"}]},"MapReference":{"ReferenceId":"863395916","Spot":0.0,"SideOfStreet":"left","CountryId":"20000001","StateId":"20000383","CountyId":"20101674","CityId":"20101677"}}},{"Relevance":1.0,"Distance":42.7,"MatchLevel":"street","MatchQuality":{"Country":1.0,"State":1.0,"County":1.0,"City":1.0,"PostalCode":1.0},"Location":{"LocationId":"NT_qMtTekhWn03WIwixnXBh7A_l_1237586489_L","LocationType":"point","DisplayPosition":{"Latitude":44.18518,"Longitude":0.62834},"MapView":{"TopLeft":{"Latitude":44.1852,"Longitude":0.62834},"BottomRight":{"Latitude":44.18518,"Longitude":0.62853}},"Address":{"Label":"47000 Agen, France","Country":"FRA","State":"Nouvelle-Aquitaine","County":"Lot-et-Garonne","City":"Agen","PostalCode":"47000","AdditionalData":[{"value":"France","key":"CountryName"},{"value":"Nouvelle-Aquitaine","key":"StateName"},{"value":"Lot-et-Garonne","key":"CountyName"}]},"MapReference":{"ReferenceId":"1237586489","Spot":0.0,"SideOfStreet":"left","CountryId":"20000001","StateId":"20000383","CountyId":"20101674","CityId":"20101677"}}},{"Relevance":1.0,"Distance":42.7,"MatchLevel":"street","MatchQuality":{"Country":1.0,"State":1.0,"County":1.0,"City":1.0,"PostalCode":1.0},"Location":{"LocationId":"NT_qMtTekhWn03WIwixnXBh7A_l_863395910_L","LocationType":"point","DisplayPosition":{"Latitude":44.18518,"Longitude":0.62834},"MapView":{"TopLeft":{"Latitude":44.18518,"Longitude":0.62834},"BottomRight":{"Latitude":44.18501,"Longitude":0.6284}},"Address":{"Label":"47000 Agen, France","Country":"FRA","State":"Nouvelle-Aquitaine","County":"Lot-et-Garonne","City":"Agen","PostalCode":"47000","AdditionalData":[{"value":"France","key":"CountryName"},{"value":"Nouvelle-Aquitaine","key":"StateName"},{"value":"Lot-et-Garonne","key":"CountyName"}]},"MapReference":{"ReferenceId":"863395910","Spot":1.0,"SideOfStreet":"left","CountryId":"20000001","StateId":"20000383","CountyId":"20101674","CityId":"20101677"}}},{"Relevance":1.0,"Distance":46.4,"MatchLevel":"street","MatchQuality":{"Country":1.0,"State":1.0,"County":1.0,"City":1.0,"PostalCode":1.0},"Location":{"LocationId":"NT_qMtTekhWn03WIwixnXBh7A_l_1166708257_R","LocationType":"point","DisplayPosition":{"Latitude":44.18536,"Longitude":0.62735},"MapView":{"TopLeft":{"Latitude":44.1854,"Longitude":0.62713},"BottomRight":{"Latitude":44.1847,"Longitude":0.62735}},"Address":{"Label":"47000 Agen, France","Country":"FRA","State":"Nouvelle-Aquitaine","County":"Lot-et-Garonne","City":"Agen","PostalCode":"47000","AdditionalData":[{"value":"France","key":"CountryName"},{"value":"Nouvelle-Aquitaine","key":"StateName"},{"value":"Lot-et-Garonne","key":"CountyName"}]},"MapReference":{"ReferenceId":"1166708257","Spot":0.73,"SideOfStreet":"right","CountryId":"20000001","StateId":"20000383","CountyId":"20101674","CityId":"20101677"}}},{"Relevance":1.0,"Distance":54.2,"MatchLevel":"street","MatchQuality":{"Country":1.0,"State":1.0,"County":1.0,"City":1.0,"PostalCode":1.0},"Location":{"LocationId":"NT_qMtTekhWn03WIwixnXBh7A_l_1237586490_L","LocationType":"point","DisplayPosition":{"Latitude":44.1852,"Longitude":0.62853},"MapView":{"TopLeft":{"Latitude":44.18521,"Longitude":0.62853},"BottomRight":{"Latitude":44.1852,"Longitude":0.62864}},"Address":{"Label":"47000 Agen, France","Country":"FRA","State":"Nouvelle-Aquitaine","County":"Lot-et-Garonne","City":"Agen","PostalCode":"47000","AdditionalData":[{"value":"France","key":"CountryName"},{"value":"Nouvelle-Aquitaine","key":"StateName"},{"value":"Lot-et-Garonne","key":"CountyName"}]},"MapReference":{"ReferenceId":"1237586490","Spot":0.0,"SideOfStreet":"left","CountryId":"20000001","StateId":"20000383","CountyId":"20101674","CityId":"20101677"}}}]}]}}