{"Response":{"MetaInfo":{"Timestamp":"2020-03-28T10:00:11.520+0000","NextPageInformation":"2"},"View":[{"_type":"SearchResultsViewType","ViewId":0,"Result":[{"Relevance":1.0,"Distance":0.0,"Direction":0.0,"MatchLevel":"district","MatchQuality":{"Country":1.0,"County":1.0,"City":1.0,"District":1.0,"PostalCode":1.0},"Location":{"LocationId":"NT_.ZiaBGLDlBOoDhRFqxs72C","LocationType":"point","DisplayPosition":{"Latitude":44.1731521,"Longitude":28.4133915},"MapView":{"TopLeft":{"Latitude":44.18642,"Longitude":28.39189},"BottomRight":{"Latitude":44.16652,"Longitude":28.42584}},"Address":{"Label":"Murfatlar, România","Country":"ROU","County":"Constanța","City":"Murfatlar","District":"Murfatlar","PostalCode":"905100","AdditionalData":[{"value":"România","key":"CountryName"},{"value":"Constanța","key":"CountyName"}]},"MapReference":{"ReferenceId":"901090664","SideOfStreet":"neither","CountryId":"20656215","CountyId":"20658746","CityId":"23753402","DistrictId":"23753601"}}},{"Relevance":1.0,"Distance":24.9,"MatchLevel":"houseNumber","MatchQuality":{"Country":1.0,"County":1.0,"City":1.0,"District":1.0,"Street":[1.0],"HouseNumber":1.0,"PostalCode":1.0},"MatchType":"interpolated","Location":{"LocationId":"NT_L0twd89mYgOh8.zuf9AGKC_0QD","LocationType":"point","DisplayPosition":{"Latitude":44.17286,"Longitude":28.4133},"MapView":{"TopLeft":{"Latitude":44.1739842,"Longitude":28.4117327},"BottomRight":{"Latitude":44.1717358,"Longitude":28.4148673}},"Address":{"Label":"Calea București 44, 905100 Murfatlar, România","Country":"ROU","County":"Constanța","City":"Murfatlar","District":"Murfatlar","Street":"Calea București","HouseNumber":"44","PostalCode":"905100","AdditionalData":[{"value":"România","key":"CountryName"},{"value":"Constanța","key":"CountyName"}]},"MapReference":{"ReferenceId":"837680501","Spot":0.92,"SideOfStreet":"right","CountryId":"20656215","CountyId":"20658746","CityId":"23753402","DistrictId":"23753601","AddressId":"832715265","RoadLinkId":"220520486"}}},{"Relevance":1.0,"Distance":25.2,"MatchLevel":"houseNumber","MatchQuality":{"Country":1.0,"County":1.0,"City":1.0,"District":1.0,"Street":[1.0],"HouseNumber":1.0,"PostalCode":1.0},"MatchType":"interpolated","Location":{"LocationId":"NT_L0twd89mYgOh8.zuf9AGKC_0YD","LocationType":"point","DisplayPosition":{"Latitude":44.17308,"Longitude":28.41289},"MapView":{"TopLeft":{"Latitude":44.1742042,"Longitude":28.4113227},"BottomRight":{"Latitude":44.1719558,"Longitude":28.4144573}},"Address":{"Label":"Calea București 46, 905100 Murfatlar, România","Country":"ROU","County":"Constanța","City":"Murfatlar","District":"Murfatlar","Street":"Calea București","HouseNumber":"46","PostalCode":"905100","AdditionalData":[{"value":"România","key":"CountryName"},{"value":"Constanța","key":"CountyName"}]},"MapReference":{"ReferenceId":"901090662","Spot":0.21,"SideOfStreet":"right","CountryId":"20656215","CountyId":"20658746","CityId":"23753402","DistrictId":"23753601","AddressId":"832767109","RoadLinkId":"262724811"}}},{"Relevance":1.0,"Distance":27.6,"MatchLevel":"houseNumber","MatchQuality":{"Country":1.0,"County":1.0,"City":1.0,"District":1.0,"Street":[1.0],"HouseNumber":1.0,"PostalCode":1.0},"MatchType":"interpolated","Location":{"LocationId":"NT_XaCtMLD2KH6Dvx92w8SxcB_yA","LocationType":"point","DisplayPosition":{"Latitude":44.17341,"Longitude":28.41327},"MapView":{"TopLeft":{"Latitude":44.1745342,"Longitude":28.4117027},"BottomRight":{"Latitude":44.1722858,"Longitude":28.4148373}},"Address":{"Label":"Strada Dimitrie Cantemir 2, 905100 Murfatlar, România","Country":"ROU","County":"Constanța","City":"Murfatlar","District":"Murfatlar","Street":"Strada Dimitrie Cantemir","HouseNumber":"2","PostalCode":"905100","AdditionalData":[{"value":"România","key":"CountryName"},{"value":"Constanța","key":"CountyName"}]},"MapReference":{"ReferenceId":"843770227","Spot":0.46,"SideOfStreet":"right","CountryId":"20656215","CountyId":"20658746","CityId":"23753402","DistrictId":"23753601","AddressId":"757033578","RoadLinkId":"225184702"}}},{"Relevance":1.0,"Distance":31.5,"MatchLevel":"street","MatchQuality":{"Country":1.0,"County":1.0,"City":1.0,"District":1.0,"Street":[1.0],"PostalCode":1.0},"Location":{"LocationId":"NT_Huv0OLdhDDAPCX1X0rmNHC_l_901090661_R","LocationType":"point","DisplayPosition":{"Latitude":44.1729,"Longitude":28.41321},"MapView":{"TopLeft":{"Latitude":44.17294,"Longitude":28.41312},"BottomRight":{"Latitude":44.1729,"Longitude":28.41321}},"Address":{"Label":"Calea București, 905100 Murfatlar, România","Country":"ROU","County":"Constanța","City":"Murfatlar","District":"Murfatlar","Street":"Calea București","PostalCode":"905100","AdditionalData":[{"value":"România","key":"CountryName"},{"value":"Constanța","key":"CountyName"}]},"MapReference":{"ReferenceId":"901090661","Spot":0.0,"SideOfStreet":"right","CountryId":"20656215","CountyId":"20658746","CityId":"23753402","DistrictId":"23753601"}}},{"Relevance":1.0,"Distance":36.4,"MatchLevel":"houseNumber","MatchQuality":{"Country":1.0,"County":1.0,"City":1.0,"District":1.0,"Street":[1.0],"HouseNumber":1.0,"PostalCode":1.0},"MatchType":"interpolated","Location":{"LocationId":"NT_ICPZGU7CfEIcQ7FBJiBZtA_yA","LocationType":"point","DisplayPosition":{"Latitude":44.17292,"Longitude":28.41307},"MapView":{"TopLeft":{"Latitude":44.1740442,"Longitude":28.4115027},"BottomRight":{"Latitude":44.1717958,"Longitude":28.4146373}},"Address":{"Label":"Strada Daciei 2, 905100 Murfatlar, România","Country":"ROU","County":"Constanța","City":"Murfatlar","District":"Murfatlar","Street":"Strada Daciei","HouseNumber":"2","PostalCode":"905100","AdditionalData":[{"value":"România","key":"CountryName"},{"value":"Constanța","key":"CountyName"}]},"MapReference":{"ReferenceId":"1142352313","Spot":0.02,"SideOfStreet":"right","CountryId":"20656215","CountyId":"20658746","CityId":"23753402","DistrictId":"23753601","AddressId":"757033366","RoadLinkId":"447784595"}}},{"Relevance":1.0,"Distance":86.9,"MatchLevel":"houseNumber","MatchQuality":{"Country":1.0,"County":1.0,"City":1.0,"District":1.0,"Street":[1.0],"HouseNumber":1.0,"PostalCode":1.0},"MatchType":"interpolated","Location":{"LocationId":"NT_wo-IDjdUmYZizlE79AamRD_1A","LocationType":"point","DisplayPosition":{"Latitude":44.173,"Longitude":28.41452},"MapView":{"TopLeft":{"Latitude":44.1741242,"Longitude":28.4129527},"BottomRight":{"Latitude":44.1718758,"Longitude":28.4160873}},"Address":{"Label":"Strada Alexandru Ioan Cuza 5, 905100 Murfatlar, România","Country":"ROU","County":"Constanța","City":"Murfatlar","District":"Murfatlar","Street":"Strada Alexandru Ioan Cuza","HouseNumber":"5","PostalCode":"905100","AdditionalData":[{"value":"România","key":"CountryName"},{"value":"Constanța","key":"CountyName"}]},"MapReference":{"ReferenceId":"843770134","Spot":0.15,"SideOfStreet":"left","CountryId":"20656215","CountyId":"20658746","CityId":"23753402","DistrictId":"23753601","AddressId":"757033269","RoadLinkId":"225184609"}}},{"Relevance":1.0,"Distance":103.2,"MatchLevel":"houseNumber","MatchQuality":{"Country":1.0,"County":1.0,"City":1.0,"District":1.0,"Street":[1.0],"HouseNumber":1.0,"PostalCode":1.0},"MatchType":"interpolated","Location":{"LocationId":"NT_XaCtMLD2KH6Dvx92w8SxcB_xAD","LocationType":"point","DisplayPosition":{"Latitude":44.17408,"Longitude":28.41334},"MapView":{"TopLeft":{"Latitude":44.1752042,"Longitude":28.4117726},"BottomRight":{"Latitude":44.1729558,"Longitude":28.4149074}},"Address":{"Label":"Strada Dimitrie Cantemir 10, 905100 Murfatlar, România","Country":"ROU","County":"Constanța","City":"Murfatlar","District":"Murfatlar","Street":"Strada Dimitrie Cantemir","HouseNumber":"10","PostalCode":"905100","AdditionalData":[{"value":"România","key":"CountryName"},{"value":"Constanța","key":"CountyName"}]},"MapReference":{"ReferenceId":"843770229","Spot":0.07,"SideOfStreet":"right","CountryId":"20656215","CountyId":"20658746","CityId":"23753402","DistrictId":"23753601","AddressId":"757034268","RoadLinkId":"225184704"}}},{"Relevance":1.0,"Distance":111.3,"MatchLevel":"houseNumber","MatchQuality":{"Country":1.0,"County":1.0,"City":1.0,"District":1.0,"Street":[1.0],"HouseNumber":1.0,"PostalCode":1.0},"MatchType":"interpolated","Location":{"LocationId":"NT_-ugGND4Yz9Z4G2RMsz3aoC_zQD","LocationType":"point","DisplayPosition":{"Latitude":44.1726,"Longitude":28.41458},"MapView":{"TopLeft":{"Latitude":44.1737242,"Longitude":28.4130127},"BottomRight":{"Latitude":44.1714758,"Longitude":28.4161473}},"Address":{"Label":"Strada București 34, 905100 Murfatlar, România","Country":"ROU","County":"Constanța","City":"Murfatlar","District":"Murfatlar","Street":"Strada București","HouseNumber":"34","PostalCode":"905100","AdditionalData":[{"value":"România","key":"CountryName"},{"value":"Constanța","key":"CountyName"}]},"MapReference":{"ReferenceId":"837680500","Spot":0.89,"SideOfStreet":"right","CountryId":"20656215","CountyId":"20658746","CityId":"23753402","DistrictId":"23753601","AddressId":"762096369","RoadLinkId":"220520485"}}},{"Relevance":1.0,"Distance":113.8,"MatchLevel":"houseNumber","MatchQuality":{"Country":1.0,"County":1.0,"City":1.0,"District":1.0,"Street":[1.0],"HouseNumber":1.0,"PostalCode":1.0},"MatchType":"interpolated","Location":{"LocationId":"NT_XaCtMLD2KH6Dvx92w8SxcB_5A","LocationType":"point","DisplayPosition":{"Latitude":44.17409,"Longitude":28.41282},"MapView":{"TopLeft":{"Latitude":44.1752142,"Longitude":28.4112526},"BottomRight":{"Latitude":44.1729658,"Longitude":28.4143874}},"Address":{"Label":"Strada Dimitrie Cantemir 9, 905100 Murfatlar, România","Country":"ROU","County":"Constanța","City":"Murfatlar","District":"Murfatlar","Street":"Strada Dimitrie Cantemir","HouseNumber":"9","PostalCode":"905100","AdditionalData":[{"value":"România","key":"CountryName"},{"value":"Constanța","key":"CountyName"}]},"MapReference":{"ReferenceId":"843770228","Spot":1.0,"SideOfStreet":"left","CountryId":"20656215","CountyId":"20658746","CityId":"23753402","DistrictId":"23753601","AddressId":"757033522","RoadLinkId":"225184703"}}}]}]}}