{"Response":{"MetaInfo":{"Timestamp":"2020-03-28T10:29:00.896+0000","NextPageInformation":"2"},"View":[{"_type":"SearchResultsViewType","ViewId":0,"Result":[{"Relevance":1.0,"Distance":0.0,"Direction":0.0,"MatchLevel":"city","MatchQuality":{"Country":1.0,"State":1.0,"County":1.0,"City":1.0,"PostalCode":1.0},"Location":{"LocationId":"NT_isuym96YjuID-ZpNGVHR.D","LocationType":"point","DisplayPosition":{"Latitude":44.1034494,"Longitude":1.093712},"MapView":{"TopLeft":{"Latitude":44.16907,"Longitude":1.00732},"BottomRight":{"Latitude":44.07445,"Longitude":1.19306}},"Address":{"Label":"Moissac, Occitanie, France","Country":"FRA","State":"Occitanie","County":"Tarn-et-Garonne","City":"Moissac","PostalCode":"82200","AdditionalData":[{"value":"France","key":"CountryName"},{"value":"Occitanie","key":"StateName"},{"value":"Tarn-et-Garonne","key":"CountyName"}]},"MapReference":{"ReferenceId":"82354325","SideOfStreet":"neither","CountryId":"20000001","StateId":"20050212","CountyId":"20109291","CityId":"20109627"}}},{"Relevance":1.0,"Distance":26.9,"MatchLevel":"houseNumber","MatchQuality":{"Country":1.0,"State":1.0,"County":1.0,"City":1.0,"Street":[1.0],"HouseNumber":1.0,"PostalCode":1.0},"MatchType":"interpolated","Location":{"LocationId":"NT_0Ga6Scm0AwDT3dadv4QcoD_3AD","LocationType":"point","DisplayPosition":{"Latitude":44.10377,"Longitude":1.09389},"MapView":{"TopLeft":{"Latitude":44.1048942,"Longitude":1.0923245},"BottomRight":{"Latitude":44.1026458,"Longitude":1.0954555}},"Address":{"Label":"70 Rue Louis Pasteur, 82200 Moissac, France","Country":"FRA","State":"Occitanie","County":"Tarn-et-Garonne","City":"Moissac","Street":"Rue Louis Pasteur","HouseNumber":"70","PostalCode":"82200","AdditionalData":[{"value":"France","key":"CountryName"},{"value":"Occitanie","key":"StateName"},{"value":"Tarn-et-Garonne","key":"CountyName"}]},"MapReference":{"ReferenceId":"82359363","Spot":0.41,"SideOfStreet":"right","CountryId":"20000001","StateId":"20050212","CountyId":"20109291","CityId":"20109627","AddressId":"371419483","RoadLinkId":"50400157"}}},{"Relevance":1.0,"Distance":33.9,"MatchLevel":"houseNumber","MatchQuality":{"Country":1.0,"State":1.0,"County":1.0,"City":1.0,"Street":[1.0],"HouseNumber":1.0,"PostalCode":1.0},"MatchType":"interpolated","Location":{"LocationId":"NT_IHgPF5OmVww8J41CLcS2oD_xA","LocationType":"point","DisplayPosition":{"Latitude":44.10315,"Longitude":1.09379},"MapView":{"TopLeft":{"Latitude":44.1042742,"Longitude":1.0922245},"BottomRight":{"Latitude":44.1020258,"Longitude":1.0953555}},"Address":{"Label":"1 Avenue du Sarlac, 82200 Moissac, France","Country":"FRA","State":"Occitanie","County":"Tarn-et-Garonne","City":"Moissac","Street":"Avenue du Sarlac","HouseNumber":"1","PostalCode":"82200","AdditionalData":[{"value":"France","key":"CountryName"},{"value":"Occitanie","key":"StateName"},{"value":"Tarn-et-Garonne","key":"CountyName"}]},"MapReference":{"ReferenceId":"940894207","Spot":1.0,"SideOfStreet":"left","CountryId":"20000001","StateId":"20050212","CountyId":"20109291","CityId":"20109627","AddressId":"379669330","RoadLinkId":"290940844"}}},{"Relevance":1.0,"Distance":58.2,"MatchLevel":"houseNumber","MatchQuality":{"Country":1.0,"State":1.0,"County":1.0,"City":1.0,"Street":[1.0],"HouseNumber":1.0,"PostalCode":1.0},"MatchType":"interpolated","Location":{"LocationId":"NT_0Ga6Scm0AwDT3dadv4QcoD_0A","LocationType":"point","DisplayPosition":{"Latitude":44.10376,"Longitude":1.09307},"MapView":{"TopLeft":{"Latitude":44.1048842,"Longitude":1.0915045},"BottomRight":{"Latitude":44.1026358,"Longitude":1.0946355}},"Address":{"Label":"4 Rue Louis Pasteur, 82200 Moissac, France","Country":"FRA","State":"Occitanie","County":"Tarn-et-Garonne","City":"Moissac","Street":"Rue Louis Pasteur","HouseNumber":"4","PostalCode":"82200","AdditionalData":[{"value":"France","key":"CountryName"},{"value":"Occitanie","key":"StateName"},{"value":"Tarn-et-Garonne","key":"CountyName"}]},"MapReference":{"ReferenceId":"82359366","Spot":1.0,"SideOfStreet":"right","CountryId":"20000001","StateId":"20050212","CountyId":"20109291","CityId":"20109627","AddressId":"321072330","RoadLinkId":"50523556"}}},{"Relevance":1.0,"Distance":70.2,"MatchLevel":"houseNumber","MatchQuality":{"Country":1.0,"State":1.0,"County":1.0,"City":1.0,"Street":[1.0],"HouseNumber":1.0,"PostalCode":1.0},"MatchType":"interpolated","Location":{"LocationId":"NT_5-sMP4UuBy1wYguGkpOGKB_0A","LocationType":"point","DisplayPosition":{"Latitude":44.10391,"Longitude":1.09307},"MapView":{"TopLeft":{"Latitude":44.1050342,"Longitude":1.0915045},"BottomRight":{"Latitude":44.1027858,"Longitude":1.0946355}},"Address":{"Label":"4 Impasse Louis Pasteur, 82200 Moissac, France","Country":"FRA","State":"Occitanie","County":"Tarn-et-Garonne","City":"Moissac","Street":"Impasse Louis Pasteur","HouseNumber":"4","PostalCode":"82200","AdditionalData":[{"value":"France","key":"CountryName"},{"value":"Occitanie","key":"StateName"},{"value":"Tarn-et-Garonne","key":"CountyName"}]},"MapReference":{"ReferenceId":"82359365","Spot":0.43,"SideOfStreet":"right","CountryId":"20000001","StateId":"20050212","CountyId":"20109291","CityId":"20109627","AddressId":"321043611","RoadLinkId":"50384903"}}},{"Relevance":1.0,"Distance":78.9,"MatchLevel":"houseNumber","MatchQuality":{"Country":1.0,"State":1.0,"County":1.0,"City":1.0,"Street":[1.0],"HouseNumber":1.0,"PostalCode":1.0},"MatchType":"interpolated","Location":{"LocationId":"NT_ejd6b82TCvJuynJhChHNfA_yA","LocationType":"point","DisplayPosition":{"Latitude":44.10342,"Longitude":1.09476},"MapView":{"TopLeft":{"Latitude":44.1045442,"Longitude":1.0931945},"BottomRight":{"Latitude":44.1022958,"Longitude":1.0963255}},"Address":{"Label":"2 Square de la Libération, 82200 Moissac, France","Country":"FRA","State":"Occitanie","County":"Tarn-et-Garonne","City":"Moissac","Street":"Square de la Libération","HouseNumber":"2","PostalCode":"82200","AdditionalData":[{"value":"France","key":"CountryName"},{"value":"Occitanie","key":"StateName"},{"value":"Tarn-et-Garonne","key":"CountyName"}]},"MapReference":{"ReferenceId":"82359271","Spot":0.74,"SideOfStreet":"left","CountryId":"20000001","StateId":"20050212","CountyId":"20109291","CityId":"20109627","AddressId":"320889859","RoadLinkId":"51280382"}}},{"Relevance":1.0,"Distance":90.6,"MatchLevel":"houseNumber","MatchQuality":{"Country":1.0,"State":1.0,"County":1.0,"City":1.0,"Street":[1.0],"HouseNumber":1.0,"PostalCode":1.0},"MatchType":"interpolated","Location":{"LocationId":"NT_XU0jwPinUhb68oKyz5uuDC_xADV","LocationType":"point","DisplayPosition":{"Latitude":44.10351,"Longitude":1.09258},"MapView":{"TopLeft":{"Latitude":44.1046342,"Longitude":1.0910145},"BottomRight":{"Latitude":44.1023858,"Longitude":1.0941455}},"Address":{"Label":"10T Boulevard du Lycée, 82200 Moissac, France","Country":"FRA","State":"Occitanie","County":"Tarn-et-Garonne","City":"Moissac","Street":"Boulevard du Lycée","HouseNumber":"10T","PostalCode":"82200","AdditionalData":[{"value":"France","key":"CountryName"},{"value":"Occitanie","key":"StateName"},{"value":"Tarn-et-Garonne","key":"CountyName"}]},"MapReference":{"ReferenceId":"82359370","Spot":0.85,"SideOfStreet":"left","CountryId":"20000001","StateId":"20050212","CountyId":"20109291","CityId":"20109627","AddressId":"320919033","RoadLinkId":"50976014"}}},{"Relevance":1.0,"Distance":107.8,"MatchLevel":"houseNumber","MatchQuality":{"Country":1.0,"State":1.0,"County":1.0,"City":1.0,"Street":[1.0],"HouseNumber":1.0,"PostalCode":1.0},"MatchType":"interpolated","Location":{"LocationId":"NT_tTkcNtJMFKMUtnyToo4kyD_l_82359268_R_3A","LocationType":"point","DisplayPosition":{"Latitude":44.10335,"Longitude":1.095055},"MapView":{"TopLeft":{"Latitude":44.1044742,"Longitude":1.0934895},"BottomRight":{"Latitude":44.1022259,"Longitude":1.0966205}},"Address":{"Label":"7 Rue du Corps Franc Pommiès, 82200 Moissac, France","Country":"FRA","State":"Occitanie","County":"Tarn-et-Garonne","City":"Moissac","Street":"Rue du Corps Franc Pommiès","HouseNumber":"7","PostalCode":"82200","AdditionalData":[{"value":"France","key":"CountryName"},{"value":"Occitanie","key":"StateName"},{"value":"Tarn-et-Garonne","key":"CountyName"}]},"MapReference":{"ReferenceId":"82359268","Spot":0.5,"SideOfStreet":"right","CountryId":"20000001","StateId":"20050212","CountyId":"20109291","CityId":"20109627"}}},{"Relevance":1.0,"Distance":107.9,"MatchLevel":"houseNumber","MatchQuality":{"Country":1.0,"State":1.0,"County":1.0,"City":1.0,"Street":[1.0],"HouseNumber":1.0,"PostalCode":1.0},"MatchType":"interpolated","Location":{"LocationId":"NT_IHgPF5OmVww8J41CLcS2oD_xQF","LocationType":"point","DisplayPosition":{"Latitude":44.10245,"Longitude":1.0935},"MapView":{"TopLeft":{"Latitude":44.1035742,"Longitude":1.0919345},"BottomRight":{"Latitude":44.1013258,"Longitude":1.0950655}},"Address":{"Label":"1T Avenue du Sarlac, 82200 Moissac, France","Country":"FRA","State":"Occitanie","County":"Tarn-et-Garonne","City":"Moissac","Street":"Avenue du Sarlac","HouseNumber":"1T","PostalCode":"82200","AdditionalData":[{"value":"France","key":"CountryName"},{"value":"Occitanie","key":"StateName"},{"value":"Tarn-et-Garonne","key":"CountyName"}]},"MapReference":{"ReferenceId":"940894206","Spot":0.44,"SideOfStreet":"right","CountryId":"20000001","StateId":"20050212","CountyId":"20109291","CityId":"20109627","AddressId":"674330980","RoadLinkId":"290940843"}}},{"Relevance":1.0,"Distance":109.3,"MatchLevel":"houseNumber","MatchQuality":{"Country":1.0,"State":1.0,"County":1.0,"City":1.0,"Street":[1.0],"HouseNumber":1.0,"PostalCode":1.0},"MatchType":"interpolated","Location":{"LocationId":"NT_tTkcNtJMFKMUtnyToo4kyD_3A","LocationType":"point","DisplayPosition":{"Latitude":44.10362,"Longitude":1.09506},"MapView":{"TopLeft":{"Latitude":44.1047442,"Longitude":1.0934945},"BottomRight":{"Latitude":44.1024958,"Longitude":1.0966255}},"Address":{"Label":"7 Rue du Corps Franc Pommiès, 82200 Moissac, France","Country":"FRA","State":"Occitanie","County":"Tarn-et-Garonne","City":"Moissac","Street":"Rue du Corps Franc Pommiès","HouseNumber":"7","PostalCode":"82200","AdditionalData":[{"value":"France","key":"CountryName"},{"value":"Occitanie","key":"StateName"},{"value":"Tarn-et-Garonne","key":"CountyName"}]},"MapReference":{"ReferenceId":"82359276","Spot":0.42,"SideOfStreet":"right","CountryId":"20000001","StateId":"20050212","CountyId":"20109291","CityId":"20109627","AddressId":"320878385","RoadLinkId":"51353722"}}}]}]}}