{"Response":{"MetaInfo":{"Timestamp":"2020-03-28T11:46:44.904+0000","NextPageInformation":"2"},"View":[{"_type":"SearchResultsViewType","ViewId":0,"Result":[{"Relevance":1.0,"Distance":0.0,"Direction":0.0,"MatchLevel":"city","MatchQuality":{"Country":1.0,"State":1.0,"County":1.0,"City":1.0,"PostalCode":1.0},"Location":{"LocationId":"NT_xVRyB1GZt25p.PyG6qrWuA","LocationType":"point","DisplayPosition":{"Latitude":44.1966548,"Longitude":0.6272449},"MapView":{"TopLeft":{"Latitude":44.22351,"Longitude":0.60259},"BottomRight":{"Latitude":44.17833,"Longitude":0.65711}},"Address":{"Label":"Agen, Nouvelle-Aquitaine, France","Country":"FRA","State":"Nouvelle-Aquitaine","County":"Lot-et-Garonne","City":"Agen","PostalCode":"47000","AdditionalData":[{"value":"France","key":"CountryName"},{"value":"Nouvelle-Aquitaine","key":"StateName"},{"value":"Lot-et-Garonne","key":"CountyName"}]},"MapReference":{"ReferenceId":"561455530","SideOfStreet":"neither","CountryId":"20000001","StateId":"20000383","CountyId":"20101674","CityId":"20101677"}}},{"Relevance":1.0,"Distance":9.4,"MatchLevel":"houseNumber","MatchQuality":{"Country":1.0,"State":1.0,"County":1.0,"City":1.0,"Street":[1.0],"HouseNumber":1.0,"PostalCode":1.0},"MatchType":"interpolated","Location":{"LocationId":"NT_3o0sxmBiT9GQ4n-l9yF9QB_0cD","LocationType":"point","DisplayPosition":{"Latitude":44.1966,"Longitude":0.62737},"MapView":{"TopLeft":{"Latitude":44.1977242,"Longitude":0.625802},"BottomRight":{"Latitude":44.1954758,"Longitude":0.628938}},"Address":{"Label":"47 Boulevard Édouard Lacour, 47000 Agen, France","Country":"FRA","State":"Nouvelle-Aquitaine","County":"Lot-et-Garonne","City":"Agen","Street":"Boulevard Édouard Lacour","HouseNumber":"47","PostalCode":"47000","AdditionalData":[{"value":"France","key":"CountryName"},{"value":"Nouvelle-Aquitaine","key":"StateName"},{"value":"Lot-et-Garonne","key":"CountyName"}]},"MapReference":{"ReferenceId":"561456610","Spot":0.12,"SideOfStreet":"left","CountryId":"20000001","StateId":"20000383","CountyId":"20101674","CityId":"20101677","AddressId":"318320156","RoadLinkId":"50679904"}}},{"Relevance":1.0,"Distance":53.6,"MatchLevel":"houseNumber","MatchQuality":{"Country":1.0,"State":1.0,"County":1.0,"City":1.0,"Street":[1.0],"HouseNumber":1.0,"PostalCode":1.0},"MatchType":"interpolated","Location":{"LocationId":"NT_as9U.LpmRkqcgRwaK3V76A_1A","LocationType":"point","DisplayPosition":{"Latitude":44.19683,"Longitude":0.62788},"MapView":{"TopLeft":{"Latitude":44.1979542,"Longitude":0.626312},"BottomRight":{"Latitude":44.1957058,"Longitude":0.629448}},"Address":{"Label":"5 Rue du Quinaut, 47000 Agen, France","Country":"FRA","State":"Nouvelle-Aquitaine","County":"Lot-et-Garonne","City":"Agen","Street":"Rue du Quinaut","HouseNumber":"5","PostalCode":"47000","AdditionalData":[{"value":"France","key":"CountryName"},{"value":"Nouvelle-Aquitaine","key":"StateName"},{"value":"Lot-et-Garonne","key":"CountyName"}]},"MapReference":{"ReferenceId":"561455768","Spot":0.27,"SideOfStreet":"left","CountryId":"20000001","StateId":"20000383","CountyId":"20101674","CityId":"20101677","AddressId":"318349961","RoadLinkId":"51374178"}}},{"Relevance":1.0,"Distance":58.1,"MatchLevel":"houseNumber","MatchQuality":{"Country":1.0,"State":1.0,"County":1.0,"City":1.0,"Street":[1.0],"HouseNumber":1.0,"PostalCode":1.0},"MatchType":"interpolated","Location":{"LocationId":"NT_3o0sxmBiT9GQ4n-l9yF9QB_0UjQ","LocationType":"point","DisplayPosition":{"Latitude":44.19617,"Longitude":0.62755},"MapView":{"TopLeft":{"Latitude":44.1972942,"Longitude":0.6259821},"BottomRight":{"Latitude":44.1950458,"Longitude":0.6291179}},"Address":{"Label":"45B Boulevard Édouard Lacour, 47000 Agen, France","Country":"FRA","State":"Nouvelle-Aquitaine","County":"Lot-et-Garonne","City":"Agen","Street":"Boulevard Édouard Lacour","HouseNumber":"45B","PostalCode":"47000","AdditionalData":[{"value":"France","key":"CountryName"},{"value":"Nouvelle-Aquitaine","key":"StateName"},{"value":"Lot-et-Garonne","key":"CountyName"}]},"MapReference":{"ReferenceId":"79425455","Spot":0.55,"SideOfStreet":"left","CountryId":"20000001","StateId":"20000383","CountyId":"20101674","CityId":"20101677","AddressId":"569984555","RoadLinkId":"50455609"}}},{"Relevance":1.0,"Distance":70.0,"MatchLevel":"houseNumber","MatchQuality":{"Country":1.0,"State":1.0,"County":1.0,"City":1.0,"Street":[1.0],"HouseNumber":1.0,"PostalCode":1.0},"MatchType":"interpolated","Location":{"LocationId":"NT_ss-Ka4Ak3VkvsnugFmPfzC_yUD","LocationType":"point","DisplayPosition":{"Latitude":44.19631,"Longitude":0.62651},"MapView":{"TopLeft":{"Latitude":44.1974342,"Longitude":0.624942},"BottomRight":{"Latitude":44.1951858,"Longitude":0.628078}},"Address":{"Label":"25 Rue Roland Goumy, 47000 Agen, France","Country":"FRA","State":"Nouvelle-Aquitaine","County":"Lot-et-Garonne","City":"Agen","Street":"Rue Roland Goumy","HouseNumber":"25","PostalCode":"47000","AdditionalData":[{"value":"France","key":"CountryName"},{"value":"Nouvelle-Aquitaine","key":"StateName"},{"value":"Lot-et-Garonne","key":"CountyName"}]},"MapReference":{"ReferenceId":"561455781","Spot":0.6,"SideOfStreet":"left","CountryId":"20000001","StateId":"20000383","CountyId":"20101674","CityId":"20101677","AddressId":"318551154","RoadLinkId":"50593446"}}},{"Relevance":1.0,"Distance":109.7,"MatchLevel":"street","MatchQuality":{"Country":1.0,"State":1.0,"County":1.0,"City":1.0,"Street":[1.0],"PostalCode":1.0},"Location":{"LocationId":"NT_495pmZGQr7V4Rzj8JllQeD_l_561456609_R","LocationType":"point","DisplayPosition":{"Latitude":44.19762,"Longitude":0.62696},"MapView":{"TopLeft":{"Latitude":44.19783,"Longitude":0.62696},"BottomRight":{"Latitude":44.19762,"Longitude":0.62717}},"Address":{"Label":"Rue Poton de Xaintrailles, 47000 Agen, France","Country":"FRA","State":"Nouvelle-Aquitaine","County":"Lot-et-Garonne","City":"Agen","Street":"Rue Poton de Xaintrailles","PostalCode":"47000","AdditionalData":[{"value":"France","key":"CountryName"},{"value":"Nouvelle-Aquitaine","key":"StateName"},{"value":"Lot-et-Garonne","key":"CountyName"}]},"MapReference":{"ReferenceId":"561456609","Spot":0.0,"SideOfStreet":"right","CountryId":"20000001","StateId":"20000383","CountyId":"20101674","CityId":"20101677"}}},{"Relevance":1.0,"Distance":110.4,"MatchLevel":"houseNumber","MatchQuality":{"Country":1.0,"State":1.0,"County":1.0,"City":1.0,"Street":[1.0],"HouseNumber":1.0,"PostalCode":1.0},"MatchType":"interpolated","Location":{"LocationId":"NT_3o0sxmBiT9GQ4n-l9yF9QB_l_79425456_L_4AD","LocationType":"point","DisplayPosition":{"Latitude":44.196214,"Longitude":0.6284889},"MapView":{"TopLeft":{"Latitude":44.1973381,"Longitude":0.6269209},"BottomRight":{"Latitude":44.1950898,"Longitude":0.6300568}},"Address":{"Label":"80 Boulevard Édouard Lacour, 47000 Agen, France","Country":"FRA","State":"Nouvelle-Aquitaine","County":"Lot-et-Garonne","City":"Agen","Street":"Boulevard Édouard Lacour","HouseNumber":"80","PostalCode":"47000","AdditionalData":[{"value":"France","key":"CountryName"},{"value":"Nouvelle-Aquitaine","key":"StateName"},{"value":"Lot-et-Garonne","key":"CountyName"}]},"MapReference":{"ReferenceId":"79425456","Spot":0.5,"SideOfStreet":"left","CountryId":"20000001","StateId":"20000383","CountyId":"20101674","CityId":"20101677"}}},{"Relevance":1.0,"Distance":116.9,"MatchLevel":"houseNumber","MatchQuality":{"Country":1.0,"State":1.0,"County":1.0,"City":1.0,"Street":[1.0],"HouseNumber":1.0,"PostalCode":1.0},"MatchType":"interpolated","Location":{"LocationId":"NT_3o0sxmBiT9GQ4n-l9yF9QB_l_561456611_L_1kD","LocationType":"point","DisplayPosition":{"Latitude":44.1977126,"Longitude":0.626923},"MapView":{"TopLeft":{"Latitude":44.1988368,"Longitude":0.625355},"BottomRight":{"Latitude":44.1965885,"Longitude":0.6284909}},"Address":{"Label":"59 Boulevard Édouard Lacour, 47000 Agen, France","Country":"FRA","State":"Nouvelle-Aquitaine","County":"Lot-et-Garonne","City":"Agen","Street":"Boulevard Édouard Lacour","HouseNumber":"59","PostalCode":"47000","AdditionalData":[{"value":"France","key":"CountryName"},{"value":"Nouvelle-Aquitaine","key":"StateName"},{"value":"Lot-et-Garonne","key":"CountyName"}]},"MapReference":{"ReferenceId":"561456611","Spot":0.54,"SideOfStreet":"left","CountryId":"20000001","StateId":"20000383","CountyId":"20101674","CityId":"20101677"}}},{"Relevance":1.0,"Distance":129.9,"MatchLevel":"street","MatchQuality":{"Country":1.0,"State":1.0,"County":1.0,"City":1.0,"Street":[1.0],"PostalCode":1.0},"Location":{"LocationId":"NT_495pmZGQr7V4Rzj8JllQeD_l_561456608_R","LocationType":"point","DisplayPosition":{"Latitude":44.197817,"Longitude":0.6270789},"MapView":{"TopLeft":{"Latitude":44.19783,"Longitude":0.62689},"BottomRight":{"Latitude":44.19779,"Longitude":0.62717}},"Address":{"Label":"Rue Poton de Xaintrailles, 47000 Agen, France","Country":"FRA","State":"Nouvelle-Aquitaine","County":"Lot-et-Garonne","City":"Agen","Street":"Rue Poton de Xaintrailles","PostalCode":"47000","AdditionalData":[{"value":"France","key":"CountryName"},{"value":"Nouvelle-Aquitaine","key":"StateName"},{"value":"Lot-et-Garonne","key":"CountyName"}]},"MapReference":{"ReferenceId":"561456608","Spot":0.67,"SideOfStreet":"right","CountryId":"20000001","StateId":"20000383","CountyId":"20101674","CityId":"20101677"}}},{"Relevance":1.0,"Distance":141.2,"MatchLevel":"houseNumber","MatchQuality":{"Country":1.0,"State":1.0,"County":1.0,"City":1.0,"Street":[1.0],"HouseNumber":1.0,"PostalCode":1.0},"MatchType":"interpolated","Location":{"LocationId":"NT_495pmZGQr7V4Rzj8JllQeD_yA","LocationType":"point","DisplayPosition":{"Latitude":44.19794,"Longitude":0.62737},"MapView":{"TopLeft":{"Latitude":44.1990642,"Longitude":0.625802},"BottomRight":{"Latitude":44.1968158,"Longitude":0.628938}},"Address":{"Label":"2 Rue Poton de Xaintrailles, 47000 Agen, France","Country":"FRA","State":"Nouvelle-Aquitaine","County":"Lot-et-Garonne","City":"Agen","Street":"Rue Poton de Xaintrailles","HouseNumber":"2","PostalCode":"47000","AdditionalData":[{"value":"France","key":"CountryName"},{"value":"Nouvelle-Aquitaine","key":"StateName"},{"value":"Lot-et-Garonne","key":"CountyName"}]},"MapReference":{"ReferenceId":"561456607","Spot":0.15,"SideOfStreet":"right","CountryId":"20000001","StateId":"20000383","CountyId":"20101674","CityId":"20101677","AddressId":"318188351","RoadLinkId":"51312695"}}}]}]}}