{"Response":{"MetaInfo":{"Timestamp":"2020-03-28T11:48:47.123+0000","NextPageInformation":"2"},"View":[{"_type":"SearchResultsViewType","ViewId":0,"Result":[{"Relevance":1.0,"Distance":0.0,"Direction":0.0,"MatchLevel":"city","MatchQuality":{"Country":1.0,"State":1.0,"County":1.0,"City":1.0,"PostalCode":1.0},"Location":{"LocationId":"NT_isuym96YjuID-ZpNGVHR.D","LocationType":"point","DisplayPosition":{"Latitude":44.1016474,"Longitude":1.0881224},"MapView":{"TopLeft":{"Latitude":44.16907,"Longitude":1.00732},"BottomRight":{"Latitude":44.07445,"Longitude":1.19306}},"Address":{"Label":"Moissac, Occitanie, France","Country":"FRA","State":"Occitanie","County":"Tarn-et-Garonne","City":"Moissac","PostalCode":"82200","AdditionalData":[{"value":"France","key":"CountryName"},{"value":"Occitanie","key":"StateName"},{"value":"Tarn-et-Garonne","key":"CountyName"}]},"MapReference":{"ReferenceId":"82354325","SideOfStreet":"neither","CountryId":"20000001","StateId":"20050212","CountyId":"20109291","CityId":"20109627"}}},{"Relevance":1.0,"Distance":2.9,"MatchLevel":"houseNumber","MatchQuality":{"Country":1.0,"State":1.0,"County":1.0,"City":1.0,"Street":[1.0],"HouseNumber":1.0,"PostalCode":1.0},"MatchType":"interpolated","Location":{"LocationId":"NT_.4R4Jgh5qOuvFXc732S.ZB_xYD","LocationType":"point","DisplayPosition":{"Latitude":44.1017,"Longitude":1.08816},"MapView":{"TopLeft":{"Latitude":44.1028242,"Longitude":1.0865946},"BottomRight":{"Latitude":44.1005758,"Longitude":1.0897254}},"Address":{"Label":"16 Rue de l'Inondation de 1930, 82200 Moissac, France","Country":"FRA","State":"Occitanie","County":"Tarn-et-Garonne","City":"Moissac","Street":"Rue de l'Inondation de 1930","HouseNumber":"16","PostalCode":"82200","AdditionalData":[{"value":"France","key":"CountryName"},{"value":"Occitanie","key":"StateName"},{"value":"Tarn-et-Garonne","key":"CountyName"}]},"MapReference":{"ReferenceId":"82355893","Spot":0.72,"SideOfStreet":"left","CountryId":"20000001","StateId":"20050212","CountyId":"20109291","CityId":"20109627","AddressId":"320998230","RoadLinkId":"50615509"}}},{"Relevance":1.0,"Distance":15.6,"MatchLevel":"houseNumber","MatchQuality":{"Country":1.0,"State":1.0,"County":1.0,"City":1.0,"Street":[1.0],"HouseNumber":1.0,"PostalCode":1.0},"MatchType":"interpolated","Location":{"LocationId":"NT_IcxwSdm8YfcufyOvYhCDsC_yA","LocationType":"point","DisplayPosition":{"Latitude":44.10142,"Longitude":1.08787},"MapView":{"TopLeft":{"Latitude":44.1025442,"Longitude":1.0863046},"BottomRight":{"Latitude":44.1002958,"Longitude":1.0894354}},"Address":{"Label":"2 Quai Charles de Gaulle, 82200 Moissac, France","Country":"FRA","State":"Occitanie","County":"Tarn-et-Garonne","City":"Moissac","Street":"Quai Charles de Gaulle","HouseNumber":"2","PostalCode":"82200","AdditionalData":[{"value":"France","key":"CountryName"},{"value":"Occitanie","key":"StateName"},{"value":"Tarn-et-Garonne","key":"CountyName"}]},"MapReference":{"ReferenceId":"1163193381","Spot":0.62,"SideOfStreet":"right","CountryId":"20000001","StateId":"20050212","CountyId":"20109291","CityId":"20109627","AddressId":"320772967","RoadLinkId":"469628442"}}},{"Relevance":1.0,"Distance":21.8,"MatchLevel":"houseNumber","MatchQuality":{"Country":1.0,"State":1.0,"County":1.0,"City":1.0,"Street":[1.0],"HouseNumber":1.0,"PostalCode":1.0},"MatchType":"interpolated","Location":{"LocationId":"NT_86lox7dorpIenzCwrqWq4D_0A","LocationType":"point","DisplayPosition":{"Latitude":44.10178,"Longitude":1.08776},"MapView":{"TopLeft":{"Latitude":44.1029042,"Longitude":1.0861946},"BottomRight":{"Latitude":44.1006558,"Longitude":1.0893254}},"Address":{"Label":"4 Boulevard Pierre Delbrel, 82200 Moissac, France","Country":"FRA","State":"Occitanie","County":"Tarn-et-Garonne","City":"Moissac","Street":"Boulevard Pierre Delbrel","HouseNumber":"4","PostalCode":"82200","AdditionalData":[{"value":"France","key":"CountryName"},{"value":"Occitanie","key":"StateName"},{"value":"Tarn-et-Garonne","key":"CountyName"}]},"MapReference":{"ReferenceId":"82355891","Spot":0.04,"SideOfStreet":"right","CountryId":"20000001","StateId":"20050212","CountyId":"20109291","CityId":"20109627","AddressId":"321073252","RoadLinkId":"51173476"}}},{"Relevance":1.0,"Distance":23.6,"MatchLevel":"houseNumber","MatchQuality":{"Country":1.0,"State":1.0,"County":1.0,"City":1.0,"Street":[1.0],"HouseNumber":1.0,"PostalCode":1.0},"MatchType":"interpolated","Location":{"LocationId":"NT_86lox7dorpIenzCwrqWq4D_l_537562908_R_yA","LocationType":"point","DisplayPosition":{"Latitude":44.1014746,"Longitude":1.0877708},"MapView":{"TopLeft":{"Latitude":44.1025987,"Longitude":1.0862054},"BottomRight":{"Latitude":44.1003504,"Longitude":1.0893363}},"Address":{"Label":"2 Avenue Henri Cayrou, 82200 Moissac, France","Country":"FRA","State":"Occitanie","County":"Tarn-et-Garonne","City":"Moissac","Street":"Avenue Henri Cayrou","HouseNumber":"2","PostalCode":"82200","AdditionalData":[{"value":"France","key":"CountryName"},{"value":"Occitanie","key":"StateName"},{"value":"Tarn-et-Garonne","key":"CountyName"}]},"MapReference":{"ReferenceId":"537562908","Spot":0.61,"SideOfStreet":"right","CountryId":"20000001","StateId":"20050212","CountyId":"20109291","CityId":"20109627"}}},{"Relevance":1.0,"Distance":23.6,"MatchLevel":"street","MatchQuality":{"Country":1.0,"State":1.0,"County":1.0,"City":1.0,"PostalCode":1.0},"Location":{"LocationId":"NT_DR6FUWBdc0mms577R4aeKA_l_1063449983_R","LocationType":"point","DisplayPosition":{"Latitude":44.10168,"Longitude":1.08783},"MapView":{"TopLeft":{"Latitude":44.10174,"Longitude":1.08775},"BottomRight":{"Latitude":44.10168,"Longitude":1.08783}},"Address":{"Label":"82200 Moissac, France","Country":"FRA","State":"Occitanie","County":"Tarn-et-Garonne","City":"Moissac","PostalCode":"82200","AdditionalData":[{"value":"France","key":"CountryName"},{"value":"Occitanie","key":"StateName"},{"value":"Tarn-et-Garonne","key":"CountyName"}]},"MapReference":{"ReferenceId":"1063449983","Spot":0.0,"SideOfStreet":"right","CountryId":"20000001","StateId":"20050212","CountyId":"20109291","CityId":"20109627"}}},{"Relevance":1.0,"Distance":23.6,"MatchLevel":"street","MatchQuality":{"Country":1.0,"State":1.0,"County":1.0,"City":1.0,"PostalCode":1.0},"Location":{"LocationId":"NT_DR6FUWBdc0mms577R4aeKA_l_1063449986_R","LocationType":"point","DisplayPosition":{"Latitude":44.10168,"Longitude":1.08783},"MapView":{"TopLeft":{"Latitude":44.10168,"Longitude":1.0878},"BottomRight":{"Latitude":44.10161,"Longitude":1.08783}},"Address":{"Label":"82200 Moissac, France","Country":"FRA","State":"Occitanie","County":"Tarn-et-Garonne","City":"Moissac","PostalCode":"82200","AdditionalData":[{"value":"France","key":"CountryName"},{"value":"Occitanie","key":"StateName"},{"value":"Tarn-et-Garonne","key":"CountyName"}]},"MapReference":{"ReferenceId":"1063449986","Spot":1.0,"SideOfStreet":"right","CountryId":"20000001","StateId":"20050212","CountyId":"20109291","CityId":"20109627"}}},{"Relevance":1.0,"Distance":26.1,"MatchLevel":"street","MatchQuality":{"Country":1.0,"State":1.0,"County":1.0,"City":1.0,"PostalCode":1.0},"Location":{"LocationId":"NT_DR6FUWBdc0mms577R4aeKA_l_1217988727_R","LocationType":"point","DisplayPosition":{"Latitude":44.10161,"Longitude":1.0878},"MapView":{"TopLeft":{"Latitude":44.10161,"Longitude":1.08774},"BottomRight":{"Latitude":44.10149,"Longitude":1.0878}},"Address":{"Label":"82200 Moissac, France","Country":"FRA","State":"Occitanie","County":"Tarn-et-Garonne","City":"Moissac","PostalCode":"82200","AdditionalData":[{"value":"France","key":"CountryName"},{"value":"Occitanie","key":"StateName"},{"value":"Tarn-et-Garonne","key":"CountyName"}]},"MapReference":{"ReferenceId":"1217988727","Spot":1.0,"SideOfStreet":"right","CountryId":"20000001","StateId":"20050212","CountyId":"20109291","CityId":"20109627"}}},{"Relevance":1.0,"Distance":27.6,"MatchLevel":"houseNumber","MatchQuality":{"Country":1.0,"State":1.0,"County":1.0,"City":1.0,"Street":[1.0],"HouseNumber":1.0,"PostalCode":1.0},"MatchType":"interpolated","Location":{"LocationId":"NT_IcxwSdm8YfcufyOvYhCDsC_1A","LocationType":"point","DisplayPosition":{"Latitude":44.10138,"Longitude":1.088},"MapView":{"TopLeft":{"Latitude":44.1025042,"Longitude":1.0864346},"BottomRight":{"Latitude":44.1002558,"Longitude":1.0895654}},"Address":{"Label":"5 Quai Charles de Gaulle, 82200 Moissac, France","Country":"FRA","State":"Occitanie","County":"Tarn-et-Garonne","City":"Moissac","Street":"Quai Charles de Gaulle","HouseNumber":"5","PostalCode":"82200","AdditionalData":[{"value":"France","key":"CountryName"},{"value":"Occitanie","key":"StateName"},{"value":"Tarn-et-Garonne","key":"CountyName"}]},"MapReference":{"ReferenceId":"1163193380","Spot":0.96,"SideOfStreet":"right","CountryId":"20000001","StateId":"20050212","CountyId":"20109291","CityId":"20109627","AddressId":"571762456","RoadLinkId":"469628441"}}},{"Relevance":1.0,"Distance":31.5,"MatchLevel":"street","MatchQuality":{"Country":1.0,"State":1.0,"County":1.0,"City":1.0,"PostalCode":1.0},"Location":{"LocationId":"NT_DR6FUWBdc0mms577R4aeKA_l_1063449984_R","LocationType":"point","DisplayPosition":{"Latitude":44.10174,"Longitude":1.08775},"MapView":{"TopLeft":{"Latitude":44.10174,"Longitude":1.08764},"BottomRight":{"Latitude":44.10166,"Longitude":1.08775}},"Address":{"Label":"82200 Moissac, France","Country":"FRA","State":"Occitanie","County":"Tarn-et-Garonne","City":"Moissac","PostalCode":"82200","AdditionalData":[{"value":"France","key":"CountryName"},{"value":"Occitanie","key":"StateName"},{"value":"Tarn-et-Garonne","key":"CountyName"}]},"MapReference":{"ReferenceId":"1063449984","Spot":1.0,"SideOfStreet":"right","CountryId":"20000001","StateId":"20050212","CountyId":"20109291","CityId":"20109627"}}}]}]}}