{"Response":{"MetaInfo":{"Timestamp":"2020-03-28T11:23:33.318+0000","NextPageInformation":"2"},"View":[{"_type":"SearchResultsViewType","ViewId":0,"Result":[{"Relevance":1.0,"Distance":0.0,"Direction":0.0,"MatchLevel":"city","MatchQuality":{"Country":1.0,"State":1.0,"County":1.0,"City":1.0,"PostalCode":1.0},"Location":{"LocationId":"NT_dPzoR1hFowYRwkjA-XfaFB","LocationType":"point","DisplayPosition":{"Latitude":44.1139748,"Longitude":9.9632599},"MapView":{"TopLeft":{"Latitude":44.16949,"Longitude":9.9321},"BottomRight":{"Latitude":44.04429,"Longitude":10.02689}},"Address":{"Label":"Sarzana, Liguria, Italia","Country":"ITA","State":"Liguria","County":"SP","City":"Sarzana","PostalCode":"19038","AdditionalData":[{"value":"Italia","key":"CountryName"},{"value":"Liguria","key":"StateName"},{"value":"La Spezia","key":"CountyName"}]},"MapReference":{"ReferenceId":"832591152","SideOfStreet":"neither","CountryId":"20110484","StateId":"20114100","CountyId":"20114779","CityId":"20114885"}}},{"Relevance":1.0,"Distance":13.0,"MatchLevel":"houseNumber","MatchQuality":{"Country":1.0,"State":1.0,"County":1.0,"City":1.0,"Street":[1.0],"HouseNumber":1.0,"PostalCode":1.0},"MatchType":"interpolated","Location":{"LocationId":"NT_.LZ4QhiTOAyn3l34SlIBrC_xA","LocationType":"point","DisplayPosition":{"Latitude":44.11383,"Longitude":9.96344},"MapView":{"TopLeft":{"Latitude":44.1149542,"Longitude":9.9618742},"BottomRight":{"Latitude":44.1127058,"Longitude":9.9650058}},"Address":{"Label":"Via Agostino Paci, 1, 19038 Sarzana SP, Italia","Country":"ITA","State":"Liguria","County":"SP","City":"Sarzana","Street":"Via Agostino Paci","HouseNumber":"1","PostalCode":"19038","AdditionalData":[{"value":"Italia","key":"CountryName"},{"value":"Liguria","key":"StateName"},{"value":"La Spezia","key":"CountyName"}]},"MapReference":{"ReferenceId":"580346210","Spot":0.5,"SideOfStreet":"left","CountryId":"20110484","StateId":"20114100","CountyId":"20114779","CityId":"20114885","AddressId":"752762416","RoadLinkId":"55741366"}}},{"Relevance":1.0,"Distance":47.6,"MatchLevel":"houseNumber","MatchQuality":{"Country":1.0,"State":1.0,"County":1.0,"City":1.0,"Street":[1.0],"HouseNumber":1.0,"PostalCode":1.0},"MatchType":"interpolated","Location":{"LocationId":"NT_jMTkTCmKSpEBJSUZ0c5D9D_xMD","LocationType":"point","DisplayPosition":{"Latitude":44.1144,"Longitude":9.96333},"MapView":{"TopLeft":{"Latitude":44.1155242,"Longitude":9.9617642},"BottomRight":{"Latitude":44.1132758,"Longitude":9.9648958}},"Address":{"Label":"Via San Francesco, 13, 19038 Sarzana SP, Italia","Country":"ITA","State":"Liguria","County":"SP","City":"Sarzana","Street":"Via San Francesco","HouseNumber":"13","PostalCode":"19038","AdditionalData":[{"value":"Italia","key":"CountryName"},{"value":"Liguria","key":"StateName"},{"value":"La Spezia","key":"CountyName"}]},"MapReference":{"ReferenceId":"580343583","Spot":1.0,"SideOfStreet":"right","CountryId":"20110484","StateId":"20114100","CountyId":"20114779","CityId":"20114885","AddressId":"373229991","RoadLinkId":"55171132"}}},{"Relevance":1.0,"Distance":51.0,"MatchLevel":"houseNumber","MatchQuality":{"Country":1.0,"State":1.0,"County":1.0,"City":1.0,"Street":[1.0],"HouseNumber":1.0,"PostalCode":1.0},"MatchType":"interpolated","Location":{"LocationId":"NT_jMTkTCmKSpEBJSUZ0c5D9D_yA","LocationType":"point","DisplayPosition":{"Latitude":44.11432,"Longitude":9.96368},"MapView":{"TopLeft":{"Latitude":44.1154442,"Longitude":9.9621142},"BottomRight":{"Latitude":44.1131958,"Longitude":9.9652458}},"Address":{"Label":"Via San Francesco, 2, 19038 Sarzana SP, Italia","Country":"ITA","State":"Liguria","County":"SP","City":"Sarzana","Street":"Via San Francesco","HouseNumber":"2","PostalCode":"19038","AdditionalData":[{"value":"Italia","key":"CountryName"},{"value":"Liguria","key":"StateName"},{"value":"La Spezia","key":"CountyName"}]},"MapReference":{"ReferenceId":"580343582","Spot":1.0,"SideOfStreet":"left","CountryId":"20110484","StateId":"20114100","CountyId":"20114779","CityId":"20114885","AddressId":"752626399","RoadLinkId":"54828344"}}},{"Relevance":1.0,"Distance":63.3,"MatchLevel":"houseNumber","MatchQuality":{"Country":1.0,"State":1.0,"County":1.0,"City":1.0,"Street":[1.0],"HouseNumber":1.0,"PostalCode":1.0},"MatchType":"interpolated","Location":{"LocationId":"NT_u5TnoQMIm0IfzvhhN6nfPD_yA","LocationType":"point","DisplayPosition":{"Latitude":44.11337,"Longitude":9.96305},"MapView":{"TopLeft":{"Latitude":44.1144942,"Longitude":9.9614842},"BottomRight":{"Latitude":44.1122458,"Longitude":9.9646158}},"Address":{"Label":"Via della Croce, 2, 19038 Sarzana SP, Italia","Country":"ITA","State":"Liguria","County":"SP","City":"Sarzana","Street":"Via della Croce","HouseNumber":"2","PostalCode":"19038","AdditionalData":[{"value":"Italia","key":"CountryName"},{"value":"Liguria","key":"StateName"},{"value":"La Spezia","key":"CountyName"}]},"MapReference":{"ReferenceId":"580346208","Spot":0.11,"SideOfStreet":"right","CountryId":"20110484","StateId":"20114100","CountyId":"20114779","CityId":"20114885","AddressId":"752784302","RoadLinkId":"55797416"}}},{"Relevance":1.0,"Distance":76.8,"MatchLevel":"houseNumber","MatchQuality":{"Country":1.0,"State":1.0,"County":1.0,"City":1.0,"Street":[1.0],"HouseNumber":1.0,"PostalCode":1.0},"MatchType":"interpolated","Location":{"LocationId":"NT_2kxKwQVPvQ3Cz5p0VRXjhD_zkD","LocationType":"point","DisplayPosition":{"Latitude":44.11327,"Longitude":9.96322},"MapView":{"TopLeft":{"Latitude":44.1143942,"Longitude":9.9616543},"BottomRight":{"Latitude":44.1121458,"Longitude":9.9647857}},"Address":{"Label":"Via Castruccio Castracani, 39, 19038 Sarzana SP, Italia","Country":"ITA","State":"Liguria","County":"SP","City":"Sarzana","Street":"Via Castruccio Castracani","HouseNumber":"39","PostalCode":"19038","AdditionalData":[{"value":"Italia","key":"CountryName"},{"value":"Liguria","key":"StateName"},{"value":"La Spezia","key":"CountyName"}]},"MapReference":{"ReferenceId":"580346212","Spot":0.8,"SideOfStreet":"left","CountryId":"20110484","StateId":"20114100","CountyId":"20114779","CityId":"20114885","AddressId":"752270166","RoadLinkId":"54945166"}}},{"Relevance":1.0,"Distance":78.1,"MatchLevel":"houseNumber","MatchQuality":{"Country":1.0,"State":1.0,"County":1.0,"City":1.0,"Street":[1.0],"HouseNumber":1.0,"PostalCode":1.0},"MatchType":"interpolated","Location":{"LocationId":"NT_wzO47.q8Y0E10RDUuQC5pB_2ED","LocationType":"point","DisplayPosition":{"Latitude":44.11317,"Longitude":9.96293},"MapView":{"TopLeft":{"Latitude":44.1142942,"Longitude":9.9613643},"BottomRight":{"Latitude":44.1120458,"Longitude":9.9644957}},"Address":{"Label":"Via Torrione San Francesco, 61, 19038 Sarzana SP, Italia","Country":"ITA","State":"Liguria","County":"SP","City":"Sarzana","Street":"Via Torrione San Francesco","HouseNumber":"61","PostalCode":"19038","AdditionalData":[{"value":"Italia","key":"CountryName"},{"value":"Liguria","key":"StateName"},{"value":"La Spezia","key":"CountyName"}]},"MapReference":{"ReferenceId":"580699085","Spot":0.13,"SideOfStreet":"right","CountryId":"20110484","StateId":"20114100","CountyId":"20114779","CityId":"20114885","AddressId":"373189144","RoadLinkId":"55505343"}}},{"Relevance":1.0,"Distance":82.3,"MatchLevel":"houseNumber","MatchQuality":{"Country":1.0,"State":1.0,"County":1.0,"City":1.0,"Street":[1.0],"HouseNumber":1.0,"PostalCode":1.0},"MatchType":"interpolated","Location":{"LocationId":"NT_Wfk4NX5OIcL0jk3WjnF2pB_xA","LocationType":"point","DisplayPosition":{"Latitude":44.11481,"Longitude":9.96366},"MapView":{"TopLeft":{"Latitude":44.1159342,"Longitude":9.9620942},"BottomRight":{"Latitude":44.1136858,"Longitude":9.9652258}},"Address":{"Label":"Piazza Dino Ricchetti, 1, 19038 Sarzana SP, Italia","Country":"ITA","State":"Liguria","County":"SP","City":"Sarzana","Street":"Piazza Dino Ricchetti","HouseNumber":"1","PostalCode":"19038","AdditionalData":[{"value":"Italia","key":"CountryName"},{"value":"Liguria","key":"StateName"},{"value":"La Spezia","key":"CountyName"}]},"MapReference":{"ReferenceId":"580701443","Spot":1.0,"SideOfStreet":"right","CountryId":"20110484","StateId":"20114100","CountyId":"20114779","CityId":"20114885","AddressId":"752775013","RoadLinkId":"55941884"}}},{"Relevance":1.0,"Distance":83.2,"MatchLevel":"houseNumber","MatchQuality":{"Country":1.0,"State":1.0,"County":1.0,"City":1.0,"Street":[1.0],"HouseNumber":1.0,"PostalCode":1.0},"MatchType":"interpolated","Location":{"LocationId":"NT_jMTkTCmKSpEBJSUZ0c5D9D_xED","LocationType":"point","DisplayPosition":{"Latitude":44.11438,"Longitude":9.96207},"MapView":{"TopLeft":{"Latitude":44.1155042,"Longitude":9.9605042},"BottomRight":{"Latitude":44.1132558,"Longitude":9.9636358}},"Address":{"Label":"Via San Francesco, 11, 19038 Sarzana SP, Italia","Country":"ITA","State":"Liguria","County":"SP","City":"Sarzana","Street":"Via San Francesco","HouseNumber":"11","PostalCode":"19038","AdditionalData":[{"value":"Italia","key":"CountryName"},{"value":"Liguria","key":"StateName"},{"value":"La Spezia","key":"CountyName"}]},"MapReference":{"ReferenceId":"832479195","Spot":0.0,"SideOfStreet":"left","CountryId":"20110484","StateId":"20114100","CountyId":"20114779","CityId":"20114885","AddressId":"373229992","RoadLinkId":"215656674"}}},{"Relevance":1.0,"Distance":96.2,"MatchLevel":"houseNumber","MatchQuality":{"Country":1.0,"State":1.0,"County":1.0,"City":1.0,"Street":[1.0],"HouseNumber":1.0,"PostalCode":1.0},"MatchType":"interpolated","Location":{"LocationId":"NT_2kxKwQVPvQ3Cz5p0VRXjhD_zMD","LocationType":"point","DisplayPosition":{"Latitude":44.11308,"Longitude":9.96307},"MapView":{"TopLeft":{"Latitude":44.1142042,"Longitude":9.9615043},"BottomRight":{"Latitude":44.1119558,"Longitude":9.9646357}},"Address":{"Label":"Via Castruccio Castracani, 33, 19038 Sarzana SP, Italia","Country":"ITA","State":"Liguria","County":"SP","City":"Sarzana","Street":"Via Castruccio Castracani","HouseNumber":"33","PostalCode":"19038","AdditionalData":[{"value":"Italia","key":"CountryName"},{"value":"Liguria","key":"StateName"},{"value":"La Spezia","key":"CountyName"}]},"MapReference":{"ReferenceId":"580346213","Spot":0.92,"SideOfStreet":"left","CountryId":"20110484","StateId":"20114100","CountyId":"20114779","CityId":"20114885","AddressId":"373231577","RoadLinkId":"54735001"}}}]}]}}