{"Response":{"MetaInfo":{"Timestamp":"2020-03-28T11:35:24.589+0000","NextPageInformation":"2"},"View":[{"_type":"SearchResultsViewType","ViewId":0,"Result":[{"Relevance":1.0,"Distance":0.0,"Direction":0.0,"MatchLevel":"district","MatchQuality":{"Country":1.0,"County":1.0,"City":1.0,"District":1.0,"PostalCode":1.0},"Location":{"LocationId":"NT_7OSV3Q7NHV2lS0s1tdJSWB","LocationType":"point","DisplayPosition":{"Latitude":44.2317851,"Longitude":28.6085487},"MapView":{"TopLeft":{"Latitude":44.236,"Longitude":28.58617},"BottomRight":{"Latitude":44.21507,"Longitude":28.61423}},"Address":{"Label":"Palazu Mare, Constanța, România","Country":"ROU","County":"Constanța","City":"Constanța","District":"Palazu Mare","PostalCode":"900002","AdditionalData":[{"value":"România","key":"CountryName"},{"value":"Constanța","key":"CountyName"}]},"MapReference":{"ReferenceId":"1240422741","SideOfStreet":"neither","CountryId":"20656215","CountyId":"20658746","CityId":"20658789","DistrictId":"23750665"}}},{"Relevance":1.0,"Distance":8.5,"MatchLevel":"houseNumber","MatchQuality":{"Country":1.0,"County":1.0,"City":1.0,"District":1.0,"Street":[1.0],"HouseNumber":1.0,"PostalCode":1.0},"MatchType":"interpolated","Location":{"LocationId":"NT_xM9bRy2SKayLRib0fcVYpB_2kTQ","LocationType":"point","DisplayPosition":{"Latitude":44.23186,"Longitude":28.60863},"MapView":{"TopLeft":{"Latitude":44.2329842,"Longitude":28.6070611},"BottomRight":{"Latitude":44.2307358,"Longitude":28.6101989}},"Address":{"Label":"Strada Santinelei 69A, 900002 Constanța, România","Country":"ROU","County":"Constanța","City":"Constanța","District":"Palazu Mare","Street":"Strada Santinelei","HouseNumber":"69A","PostalCode":"900002","AdditionalData":[{"value":"România","key":"CountryName"},{"value":"Constanța","key":"CountyName"}]},"MapReference":{"ReferenceId":"920275210","Spot":0.99,"SideOfStreet":"right","CountryId":"20656215","CountyId":"20658746","CityId":"20658789","DistrictId":"23750665","AddressId":"686612274","RoadLinkId":"277106242"}}},{"Relevance":1.0,"Distance":67.7,"MatchLevel":"houseNumber","MatchQuality":{"Country":1.0,"County":1.0,"City":1.0,"District":1.0,"Street":[1.0],"HouseNumber":1.0,"PostalCode":1.0},"MatchType":"interpolated","Location":{"LocationId":"NT_GWlaWCu-J-73wMn3h.8X1B_0A","LocationType":"point","DisplayPosition":{"Latitude":44.23239,"Longitude":28.60845},"MapView":{"TopLeft":{"Latitude":44.2335142,"Longitude":28.6068811},"BottomRight":{"Latitude":44.2312658,"Longitude":28.6100189}},"Address":{"Label":"Strada Codrilor 4, 900002 Constanța, România","Country":"ROU","County":"Constanța","City":"Constanța","District":"Palazu Mare","Street":"Strada Codrilor","HouseNumber":"4","PostalCode":"900002","AdditionalData":[{"value":"România","key":"CountryName"},{"value":"Constanța","key":"CountyName"}]},"MapReference":{"ReferenceId":"920275209","Spot":0.53,"SideOfStreet":"right","CountryId":"20656215","CountyId":"20658746","CityId":"20658789","DistrictId":"23750665","AddressId":"686612273","RoadLinkId":"277106241"}}},{"Relevance":1.0,"Distance":84.6,"MatchLevel":"street","MatchQuality":{"Country":1.0,"County":1.0,"City":1.0,"District":1.0,"Street":[1.0],"PostalCode":1.0},"Location":{"LocationId":"NT_xM9bRy2SKayLRib0fcVYpB_l_844956335_L","LocationType":"point","DisplayPosition":{"Latitude":44.23157,"Longitude":28.60753},"MapView":{"TopLeft":{"Latitude":44.23157,"Longitude":28.60723},"BottomRight":{"Latitude":44.23151,"Longitude":28.60753}},"Address":{"Label":"Strada Santinelei, 900002 Constanța, România","Country":"ROU","County":"Constanța","City":"Constanța","District":"Palazu Mare","Street":"Strada Santinelei","PostalCode":"900002","AdditionalData":[{"value":"România","key":"CountryName"},{"value":"Constanța","key":"CountyName"}]},"MapReference":{"ReferenceId":"844956335","Spot":1.0,"SideOfStreet":"left","CountryId":"20656215","CountyId":"20658746","CityId":"20658789","DistrictId":"23750665"}}},{"Relevance":1.0,"Distance":97.6,"MatchLevel":"houseNumber","MatchQuality":{"Country":1.0,"County":1.0,"City":1.0,"District":1.0,"Street":[1.0],"HouseNumber":1.0,"PostalCode":1.0},"MatchType":"interpolated","Location":{"LocationId":"NT_IaqilT56wIXYIrNL2Oxn2C_yA","LocationType":"point","DisplayPosition":{"Latitude":44.23207,"Longitude":28.60734},"MapView":{"TopLeft":{"Latitude":44.2331942,"Longitude":28.6057711},"BottomRight":{"Latitude":44.2309458,"Longitude":28.6089089}},"Address":{"Label":"Strada Brebenei 2, 900002 Constanța, România","Country":"ROU","County":"Constanța","City":"Constanța","District":"Palazu Mare","Street":"Strada Brebenei","HouseNumber":"2","PostalCode":"900002","AdditionalData":[{"value":"România","key":"CountryName"},{"value":"Constanța","key":"CountyName"}]},"MapReference":{"ReferenceId":"844956327","Spot":0.46,"SideOfStreet":"right","CountryId":"20656215","CountyId":"20658746","CityId":"20658789","DistrictId":"23750665","AddressId":"686613149","RoadLinkId":"226384120"}}},{"Relevance":1.0,"Distance":109.2,"MatchLevel":"houseNumber","MatchQuality":{"Country":1.0,"County":1.0,"City":1.0,"District":1.0,"Street":[1.0],"HouseNumber":1.0,"PostalCode":1.0},"MatchType":"interpolated","Location":{"LocationId":"NT_xM9bRy2SKayLRib0fcVYpB_3MD","LocationType":"point","DisplayPosition":{"Latitude":44.23217,"Longitude":28.60981},"MapView":{"TopLeft":{"Latitude":44.2332942,"Longitude":28.6082411},"BottomRight":{"Latitude":44.2310458,"Longitude":28.6113789}},"Address":{"Label":"Strada Santinelei 73, 900002 Constanța, România","Country":"ROU","County":"Constanța","City":"Constanța","District":"Palazu Mare","Street":"Strada Santinelei","HouseNumber":"73","PostalCode":"900002","AdditionalData":[{"value":"România","key":"CountryName"},{"value":"Constanța","key":"CountyName"}]},"MapReference":{"ReferenceId":"920275211","Spot":0.7,"SideOfStreet":"right","CountryId":"20656215","CountyId":"20658746","CityId":"20658789","DistrictId":"23750665","AddressId":"686612280","RoadLinkId":"277106243"}}},{"Relevance":1.0,"Distance":119.8,"MatchLevel":"houseNumber","MatchQuality":{"Country":1.0,"County":1.0,"City":1.0,"District":1.0,"Street":[1.0],"HouseNumber":1.0,"PostalCode":1.0},"MatchType":"interpolated","Location":{"LocationId":"NT_UVRQmXtxe0lqXg.BFnGIgB_2A","LocationType":"point","DisplayPosition":{"Latitude":44.23279,"Longitude":28.6079},"MapView":{"TopLeft":{"Latitude":44.2339142,"Longitude":28.6063311},"BottomRight":{"Latitude":44.2316658,"Longitude":28.6094689}},"Address":{"Label":"Strada Midia 6, 900002 Constanța, România","Country":"ROU","County":"Constanța","City":"Constanța","District":"Palazu Mare","Street":"Strada Midia","HouseNumber":"6","PostalCode":"900002","AdditionalData":[{"value":"România","key":"CountryName"},{"value":"Constanța","key":"CountyName"}]},"MapReference":{"ReferenceId":"920275207","Spot":0.67,"SideOfStreet":"right","CountryId":"20656215","CountyId":"20658746","CityId":"20658789","DistrictId":"23750665","AddressId":"686612267","RoadLinkId":"277106239"}}},{"Relevance":1.0,"Distance":120.5,"MatchLevel":"houseNumber","MatchQuality":{"Country":1.0,"County":1.0,"City":1.0,"District":1.0,"Street":[1.0],"HouseNumber":1.0,"PostalCode":1.0},"MatchType":"interpolated","Location":{"LocationId":"NT_FjEGAge4p-0ofmpGPjPWuA_0AD","LocationType":"point","DisplayPosition":{"Latitude":44.23148,"Longitude":28.60709},"MapView":{"TopLeft":{"Latitude":44.2326042,"Longitude":28.6055211},"BottomRight":{"Latitude":44.2303558,"Longitude":28.6086589}},"Address":{"Label":"Strada Sentinelei 40, 900002 Constanța, România","Country":"ROU","County":"Constanța","City":"Constanța","District":"Palazu Mare","Street":"Strada Sentinelei","HouseNumber":"40","PostalCode":"900002","AdditionalData":[{"value":"România","key":"CountryName"},{"value":"Constanța","key":"CountyName"}]},"MapReference":{"ReferenceId":"844956334","Spot":0.82,"SideOfStreet":"right","CountryId":"20656215","CountyId":"20658746","CityId":"20658789","DistrictId":"23750665","AddressId":"762071396","RoadLinkId":"226384127"}}},{"Relevance":1.0,"Distance":124.0,"MatchLevel":"street","MatchQuality":{"Country":1.0,"County":1.0,"City":1.0,"District":1.0,"PostalCode":1.0},"Location":{"LocationId":"NT_eyy2GDhsda4rJaXv9XgAWC_l_920275205_L","LocationType":"point","DisplayPosition":{"Latitude":44.2306855,"Longitude":28.6088091},"MapView":{"TopLeft":{"Latitude":44.23137,"Longitude":28.60667},"BottomRight":{"Latitude":44.23021,"Longitude":28.6117}},"Address":{"Label":"900002 Constanța, România","Country":"ROU","County":"Constanța","City":"Constanța","District":"Palazu Mare","PostalCode":"900002","AdditionalData":[{"value":"România","key":"CountryName"},{"value":"Constanța","key":"CountyName"}]},"MapReference":{"ReferenceId":"920275205","Spot":0.42,"SideOfStreet":"left","CountryId":"20656215","CountyId":"20658746","CityId":"20658789","DistrictId":"23750665"}}},{"Relevance":1.0,"Distance":126.3,"MatchLevel":"houseNumber","MatchQuality":{"Country":1.0,"County":1.0,"City":1.0,"District":1.0,"Street":[1.0],"HouseNumber":1.0,"PostalCode":1.0},"MatchType":"interpolated","Location":{"LocationId":"NT_UVRQmXtxe0lqXg.BFnGIgB_ycTQ","LocationType":"point","DisplayPosition":{"Latitude":44.23292,"Longitude":28.60862},"MapView":{"TopLeft":{"Latitude":44.2340442,"Longitude":28.6070511},"BottomRight":{"Latitude":44.2317958,"Longitude":28.6101889}},"Address":{"Label":"Strada Midia 27A, 900002 Constanța, România","Country":"ROU","County":"Constanța","City":"Constanța","District":"Palazu Mare","Street":"Strada Midia","HouseNumber":"27A","PostalCode":"900002","AdditionalData":[{"value":"România","key":"CountryName"},{"value":"Constanța","key":"CountyName"}]},"MapReference":{"ReferenceId":"920275208","Spot":0.68,"SideOfStreet":"left","CountryId":"20656215","CountyId":"20658746","CityId":"20658789","DistrictId":"23750665","AddressId":"686612275","RoadLinkId":"277106240"}}}]}]}}