{"Response":{"MetaInfo":{"Timestamp":"2020-03-28T10:30:50.571+0000","NextPageInformation":"2"},"View":[{"_type":"SearchResultsViewType","ViewId":0,"Result":[{"Relevance":1.0,"Distance":0.0,"Direction":0.0,"MatchLevel":"city","MatchQuality":{"Country":1.0,"State":1.0,"County":1.0,"City":1.0,"PostalCode":1.0},"Location":{"LocationId":"NT_VEQCg7Q4hBcAFQTEZ.tgNB","LocationType":"point","DisplayPosition":{"Latitude":44.231359,"Longitude":2.042866},"MapView":{"TopLeft":{"Latitude":44.27053,"Longitude":1.99385},"BottomRight":{"Latitude":44.1983,"Longitude":2.10914}},"Address":{"Label":"La Fouillade, Occitanie, France","Country":"FRA","State":"Occitanie","County":"Aveyron","City":"La Fouillade","PostalCode":"12270","AdditionalData":[{"value":"France","key":"CountryName"},{"value":"Occitanie","key":"StateName"},{"value":"Aveyron","key":"CountyName"}]},"MapReference":{"ReferenceId":"1111750677","SideOfStreet":"neither","CountryId":"20000001","StateId":"20050212","CountyId":"20085946","CityId":"20086262"}}},{"Relevance":1.0,"Distance":14.0,"MatchLevel":"street","MatchQuality":{"Country":1.0,"State":1.0,"County":1.0,"City":1.0,"Street":[1.0],"PostalCode":1.0},"Location":{"LocationId":"NT_Sdfc2o7QEwJU7e87nWCd3A_l_582683681_L","LocationType":"point","DisplayPosition":{"Latitude":44.2314436,"Longitude":2.0429962},"MapView":{"TopLeft":{"Latitude":44.23153,"Longitude":2.04294},"BottomRight":{"Latitude":44.23133,"Longitude":2.04307}},"Address":{"Label":"Place des Anciens Combattants, 12270 La Fouillade, France","Country":"FRA","State":"Occitanie","County":"Aveyron","City":"La Fouillade","Street":"Place des Anciens Combattants","PostalCode":"12270","AdditionalData":[{"value":"France","key":"CountryName"},{"value":"Occitanie","key":"StateName"},{"value":"Aveyron","key":"CountyName"}]},"MapReference":{"ReferenceId":"582683681","Spot":0.57,"SideOfStreet":"left","CountryId":"20000001","StateId":"20050212","CountyId":"20085946","CityId":"20086262"}}},{"Relevance":1.0,"Distance":15.5,"MatchLevel":"houseNumber","MatchQuality":{"Country":1.0,"State":1.0,"County":1.0,"City":1.0,"Street":[1.0],"HouseNumber":1.0,"PostalCode":1.0},"MatchType":"interpolated","Location":{"LocationId":"NT_OR7u7StkIRcsZiDVIhi.mD_zA","LocationType":"point","DisplayPosition":{"Latitude":44.23123,"Longitude":2.04271},"MapView":{"TopLeft":{"Latitude":44.2323542,"Longitude":2.0411411},"BottomRight":{"Latitude":44.2301058,"Longitude":2.0442789}},"Address":{"Label":"3 Route du Ségala, 12270 La Fouillade, France","Country":"FRA","State":"Occitanie","County":"Aveyron","City":"La Fouillade","Street":"Route du Ségala","HouseNumber":"3","PostalCode":"12270","AdditionalData":[{"value":"France","key":"CountryName"},{"value":"Occitanie","key":"StateName"},{"value":"Aveyron","key":"CountyName"}]},"MapReference":{"ReferenceId":"582683679","Spot":0.61,"SideOfStreet":"left","CountryId":"20000001","StateId":"20050212","CountyId":"20085946","CityId":"20086262","AddressId":"362470640","RoadLinkId":"50486246"}}},{"Relevance":1.0,"Distance":39.1,"MatchLevel":"street","MatchQuality":{"Country":1.0,"State":1.0,"County":1.0,"City":1.0,"Street":[1.0],"PostalCode":1.0},"Location":{"LocationId":"NT_8hT.ajidlXVQYEphjET2WC_l_582683664_R","LocationType":"point","DisplayPosition":{"Latitude":44.23171,"Longitude":2.04284},"MapView":{"TopLeft":{"Latitude":44.23197,"Longitude":2.0419},"BottomRight":{"Latitude":44.23159,"Longitude":2.0434}},"Address":{"Label":"Place Omnisports, 12270 La Fouillade, France","Country":"FRA","State":"Occitanie","County":"Aveyron","City":"La Fouillade","Street":"Place Omnisports","PostalCode":"12270","AdditionalData":[{"value":"France","key":"CountryName"},{"value":"Occitanie","key":"StateName"},{"value":"Aveyron","key":"CountyName"}]},"MapReference":{"ReferenceId":"582683664","Spot":0.58,"SideOfStreet":"right","CountryId":"20000001","StateId":"20050212","CountyId":"20085946","CityId":"20086262"}}},{"Relevance":1.0,"Distance":41.2,"MatchLevel":"houseNumber","MatchQuality":{"Country":1.0,"State":1.0,"County":1.0,"City":1.0,"Street":[1.0],"HouseNumber":1.0,"PostalCode":1.0},"MatchType":"interpolated","Location":{"LocationId":"NT_OR7u7StkIRcsZiDVIhi.mD_1A","LocationType":"point","DisplayPosition":{"Latitude":44.23132,"Longitude":2.04338},"MapView":{"TopLeft":{"Latitude":44.2324442,"Longitude":2.0418111},"BottomRight":{"Latitude":44.2301958,"Longitude":2.0449489}},"Address":{"Label":"5 Route du Ségala, 12270 La Fouillade, France","Country":"FRA","State":"Occitanie","County":"Aveyron","City":"La Fouillade","Street":"Route du Ségala","HouseNumber":"5","PostalCode":"12270","AdditionalData":[{"value":"France","key":"CountryName"},{"value":"Occitanie","key":"StateName"},{"value":"Aveyron","key":"CountyName"}]},"MapReference":{"ReferenceId":"582683680","Spot":0.57,"SideOfStreet":"right","CountryId":"20000001","StateId":"20050212","CountyId":"20085946","CityId":"20086262","AddressId":"362475289","RoadLinkId":"51174845"}}},{"Relevance":1.0,"Distance":59.3,"MatchLevel":"houseNumber","MatchQuality":{"Country":1.0,"State":1.0,"County":1.0,"City":1.0,"Street":[1.0],"HouseNumber":1.0,"PostalCode":1.0},"MatchType":"interpolated","Location":{"LocationId":"NT_-U4K8-6KmN0s4XRYiXO16D_0A","LocationType":"point","DisplayPosition":{"Latitude":44.23117,"Longitude":2.04211},"MapView":{"TopLeft":{"Latitude":44.2322942,"Longitude":2.0405411},"BottomRight":{"Latitude":44.2300458,"Longitude":2.0436789}},"Address":{"Label":"4 Route de Laudinie, 12270 La Fouillade, France","Country":"FRA","State":"Occitanie","County":"Aveyron","City":"La Fouillade","Street":"Route de Laudinie","HouseNumber":"4","PostalCode":"12270","AdditionalData":[{"value":"France","key":"CountryName"},{"value":"Occitanie","key":"StateName"},{"value":"Aveyron","key":"CountyName"}]},"MapReference":{"ReferenceId":"758979428","Spot":0.71,"SideOfStreet":"right","CountryId":"20000001","StateId":"20050212","CountyId":"20085946","CityId":"20086262","AddressId":"571664725","RoadLinkId":"153597145"}}},{"Relevance":1.0,"Distance":64.0,"MatchLevel":"street","MatchQuality":{"Country":1.0,"State":1.0,"County":1.0,"City":1.0,"Street":[1.0],"PostalCode":1.0},"Location":{"LocationId":"NT_-U4K8-6KmN0s4XRYiXO16D_l_758979429_R","LocationType":"point","DisplayPosition":{"Latitude":44.23121,"Longitude":2.04209},"MapView":{"TopLeft":{"Latitude":44.23159,"Longitude":2.0419},"BottomRight":{"Latitude":44.23121,"Longitude":2.04209}},"Address":{"Label":"Route de Laudinie, 12270 La Fouillade, France","Country":"FRA","State":"Occitanie","County":"Aveyron","City":"La Fouillade","Street":"Route de Laudinie","PostalCode":"12270","AdditionalData":[{"value":"France","key":"CountryName"},{"value":"Occitanie","key":"StateName"},{"value":"Aveyron","key":"CountyName"}]},"MapReference":{"ReferenceId":"758979429","Spot":0.0,"SideOfStreet":"right","CountryId":"20000001","StateId":"20050212","CountyId":"20085946","CityId":"20086262"}}},{"Relevance":1.0,"Distance":64.0,"MatchLevel":"street","MatchQuality":{"Country":1.0,"State":1.0,"County":1.0,"City":1.0,"Street":[1.0],"PostalCode":1.0},"Location":{"LocationId":"NT_mp6Hv43Kk8OefYqvr09XUD_l_582683929_L","LocationType":"point","DisplayPosition":{"Latitude":44.23121,"Longitude":2.04209},"MapView":{"TopLeft":{"Latitude":44.23121,"Longitude":2.04176},"BottomRight":{"Latitude":44.23117,"Longitude":2.04209}},"Address":{"Label":"Place de la Mairie, 12270 La Fouillade, France","Country":"FRA","State":"Occitanie","County":"Aveyron","City":"La Fouillade","Street":"Place de la Mairie","PostalCode":"12270","AdditionalData":[{"value":"France","key":"CountryName"},{"value":"Occitanie","key":"StateName"},{"value":"Aveyron","key":"CountyName"}]},"MapReference":{"ReferenceId":"582683929","Spot":1.0,"SideOfStreet":"left","CountryId":"20000001","StateId":"20050212","CountyId":"20085946","CityId":"20086262"}}},{"Relevance":1.0,"Distance":64.8,"MatchLevel":"street","MatchQuality":{"Country":1.0,"State":1.0,"County":1.0,"City":1.0,"Street":[1.0],"PostalCode":1.0},"Location":{"LocationId":"NT_vB19IIDbmeVqfLfunj3oBA_l_1111750676_L","LocationType":"point","DisplayPosition":{"Latitude":44.23107,"Longitude":2.04216},"MapView":{"TopLeft":{"Latitude":44.23107,"Longitude":2.04149},"BottomRight":{"Latitude":44.23101,"Longitude":2.04216}},"Address":{"Label":"Route d'Occitanie, 12270 La Fouillade, France","Country":"FRA","State":"Occitanie","County":"Aveyron","City":"La Fouillade","Street":"Route d'Occitanie","PostalCode":"12270","AdditionalData":[{"value":"France","key":"CountryName"},{"value":"Occitanie","key":"StateName"},{"value":"Aveyron","key":"CountyName"}]},"MapReference":{"ReferenceId":"1111750676","Spot":1.0,"SideOfStreet":"left","CountryId":"20000001","StateId":"20050212","CountyId":"20085946","CityId":"20086262"}}},{"Relevance":1.0,"Distance":65.8,"MatchLevel":"houseNumber","MatchQuality":{"Country":1.0,"State":1.0,"County":1.0,"City":1.0,"Street":[1.0],"HouseNumber":1.0,"PostalCode":1.0},"MatchType":"interpolated","Location":{"LocationId":"NT_-U4K8-6KmN0s4XRYiXO16D_xAD","LocationType":"point","DisplayPosition":{"Latitude":44.23191,"Longitude":2.0424},"MapView":{"TopLeft":{"Latitude":44.2330342,"Longitude":2.0408311},"BottomRight":{"Latitude":44.2307858,"Longitude":2.0439689}},"Address":{"Label":"10 Route de Laudinie, 12270 La Fouillade, France","Country":"FRA","State":"Occitanie","County":"Aveyron","City":"La Fouillade","Street":"Route de Laudinie","HouseNumber":"10","PostalCode":"12270","AdditionalData":[{"value":"France","key":"CountryName"},{"value":"Occitanie","key":"StateName"},{"value":"Aveyron","key":"CountyName"}]},"MapReference":{"ReferenceId":"582683650","Spot":0.04,"SideOfStreet":"right","CountryId":"20000001","StateId":"20050212","CountyId":"20085946","CityId":"20086262","AddressId":"571664072","RoadLinkId":"50330777"}}}]}]}}