{"Response":{"MetaInfo":{"Timestamp":"2020-03-28T11:27:27.227+0000","NextPageInformation":"2"},"View":[{"_type":"SearchResultsViewType","ViewId":0,"Result":[{"Relevance":1.0,"Distance":0.0,"Direction":0.0,"MatchLevel":"city","MatchQuality":{"Country":1.0,"State":1.0,"County":1.0,"City":1.0,"PostalCode":1.0},"Location":{"LocationId":"NT_eB19Xd4e6.YLZX5r3R.6TB","LocationType":"point","DisplayPosition":{"Latitude":44.2861355,"Longitude":11.8662048},"MapView":{"TopLeft":{"Latitude":44.38043,"Longitude":11.76096},"BottomRight":{"Latitude":44.21018,"Longitude":12.03067}},"Address":{"Label":"Faenza, Emilia Romagna, Italia","Country":"ITA","State":"Emilia Romagna","County":"RA","City":"Faenza","PostalCode":"48018","AdditionalData":[{"value":"Italia","key":"CountryName"},{"value":"Emilia Romagna","key":"StateName"},{"value":"Ravenna","key":"CountyName"}]},"MapReference":{"ReferenceId":"76098053","SideOfStreet":"neither","CountryId":"20110484","StateId":"20123512","CountyId":"20125950","CityId":"20125990"}}},{"Relevance":1.0,"Distance":13.7,"MatchLevel":"houseNumber","MatchQuality":{"Country":1.0,"State":1.0,"County":1.0,"City":1.0,"Street":[1.0],"HouseNumber":1.0,"PostalCode":1.0},"MatchType":"interpolated","Location":{"LocationId":"NT_Xd4KwrLD8VIbbl6GvOrwEB_xA","LocationType":"point","DisplayPosition":{"Latitude":44.286,"Longitude":11.86629},"MapView":{"TopLeft":{"Latitude":44.2871242,"Longitude":11.8647197},"BottomRight":{"Latitude":44.2848758,"Longitude":11.8678603}},"Address":{"Label":"Via Portisano, 1, 48018 Faenza RA, Italia","Country":"ITA","State":"Emilia Romagna","County":"RA","City":"Faenza","Street":"Via Portisano","HouseNumber":"1","PostalCode":"48018","AdditionalData":[{"value":"Italia","key":"CountryName"},{"value":"Emilia Romagna","key":"StateName"},{"value":"Ravenna","key":"CountyName"}]},"MapReference":{"ReferenceId":"76097667","Spot":0.76,"SideOfStreet":"right","CountryId":"20110484","StateId":"20123512","CountyId":"20125950","CityId":"20125990","AddressId":"775930734","RoadLinkId":"58928533"}}},{"Relevance":1.0,"Distance":59.8,"MatchLevel":"houseNumber","MatchQuality":{"Country":1.0,"State":1.0,"County":1.0,"City":1.0,"Street":[1.0],"HouseNumber":1.0,"PostalCode":1.0},"MatchType":"interpolated","Location":{"LocationId":"NT_Xd4KwrLD8VIbbl6GvOrwEB_l_818704430_L_1ID","LocationType":"point","DisplayPosition":{"Latitude":44.2863,"Longitude":11.86549},"MapView":{"TopLeft":{"Latitude":44.2874242,"Longitude":11.8639196},"BottomRight":{"Latitude":44.2851759,"Longitude":11.8670603}},"Address":{"Label":"Via Portisano, 52, 48018 Faenza RA, Italia","Country":"ITA","State":"Emilia Romagna","County":"RA","City":"Faenza","Street":"Via Portisano","HouseNumber":"52","PostalCode":"48018","AdditionalData":[{"value":"Italia","key":"CountryName"},{"value":"Emilia Romagna","key":"StateName"},{"value":"Ravenna","key":"CountyName"}]},"MapReference":{"ReferenceId":"818704430","Spot":0.13,"SideOfStreet":"left","CountryId":"20110484","StateId":"20123512","CountyId":"20125950","CityId":"20125990"}}},{"Relevance":1.0,"Distance":64.7,"MatchLevel":"houseNumber","MatchQuality":{"Country":1.0,"State":1.0,"County":1.0,"City":1.0,"Street":[1.0],"HouseNumber":1.0,"PostalCode":1.0},"MatchType":"interpolated","Location":{"LocationId":"NT_-KmYApyshH1oNYMnU08e7A_3ID","LocationType":"point","DisplayPosition":{"Latitude":44.28669,"Longitude":11.86596},"MapView":{"TopLeft":{"Latitude":44.2878142,"Longitude":11.8643896},"BottomRight":{"Latitude":44.2855658,"Longitude":11.8675304}},"Address":{"Label":"Via Domenico Montevecchi, 72, 48018 Faenza RA, Italia","Country":"ITA","State":"Emilia Romagna","County":"RA","City":"Faenza","Street":"Via Domenico Montevecchi","HouseNumber":"72","PostalCode":"48018","AdditionalData":[{"value":"Italia","key":"CountryName"},{"value":"Emilia Romagna","key":"StateName"},{"value":"Ravenna","key":"CountyName"}]},"MapReference":{"ReferenceId":"543230415","Spot":0.17,"SideOfStreet":"left","CountryId":"20110484","StateId":"20123512","CountyId":"20125950","CityId":"20125990","AddressId":"372935305","RoadLinkId":"58741008"}}},{"Relevance":1.0,"Distance":64.9,"MatchLevel":"houseNumber","MatchQuality":{"Country":1.0,"State":1.0,"County":1.0,"City":1.0,"Street":[1.0],"HouseNumber":1.0,"PostalCode":1.0},"MatchType":"interpolated","Location":{"LocationId":"NT_yvCaQ86Wuh6-djxLV5CrQC_zA","LocationType":"point","DisplayPosition":{"Latitude":44.28589,"Longitude":11.86535},"MapView":{"TopLeft":{"Latitude":44.2870142,"Longitude":11.8637797},"BottomRight":{"Latitude":44.2847658,"Longitude":11.8669203}},"Address":{"Label":"Via Silvio Corbari, 3, 48018 Faenza RA, Italia","Country":"ITA","State":"Emilia Romagna","County":"RA","City":"Faenza","Street":"Via Silvio Corbari","HouseNumber":"3","PostalCode":"48018","AdditionalData":[{"value":"Italia","key":"CountryName"},{"value":"Emilia Romagna","key":"StateName"},{"value":"Ravenna","key":"CountyName"}]},"MapReference":{"ReferenceId":"76097462","Spot":0.58,"SideOfStreet":"right","CountryId":"20110484","StateId":"20123512","CountyId":"20125950","CityId":"20125990","AddressId":"372946192","RoadLinkId":"59072281"}}},{"Relevance":1.0,"Distance":94.3,"MatchLevel":"houseNumber","MatchQuality":{"Country":1.0,"State":1.0,"County":1.0,"City":1.0,"Street":[1.0],"HouseNumber":1.0,"PostalCode":1.0},"MatchType":"interpolated","Location":{"LocationId":"NT_IjmKberth2oMyRr6tQLIIB_0gD","LocationType":"point","DisplayPosition":{"Latitude":44.28529,"Longitude":11.86611},"MapView":{"TopLeft":{"Latitude":44.2864142,"Longitude":11.8645397},"BottomRight":{"Latitude":44.2841658,"Longitude":11.8676803}},"Address":{"Label":"Via Canal Grande, 48, 48018 Faenza RA, Italia","Country":"ITA","State":"Emilia Romagna","County":"RA","City":"Faenza","Street":"Via Canal Grande","HouseNumber":"48","PostalCode":"48018","AdditionalData":[{"value":"Italia","key":"CountryName"},{"value":"Emilia Romagna","key":"StateName"},{"value":"Ravenna","key":"CountyName"}]},"MapReference":{"ReferenceId":"1162056112","Spot":1.0,"SideOfStreet":"left","CountryId":"20110484","StateId":"20123512","CountyId":"20125950","CityId":"20125990","AddressId":"784421863","RoadLinkId":"562995910"}}},{"Relevance":1.0,"Distance":106.8,"MatchLevel":"street","MatchQuality":{"Country":1.0,"State":1.0,"County":1.0,"City":1.0,"Street":[1.0],"PostalCode":1.0},"Location":{"LocationId":"NT_OKlichC083966VENRN3d5A_l_1152281689_L","LocationType":"point","DisplayPosition":{"Latitude":44.2869114,"Longitude":11.8669952},"MapView":{"TopLeft":{"Latitude":44.2871,"Longitude":11.86681},"BottomRight":{"Latitude":44.28601,"Longitude":11.86788}},"Address":{"Label":"Via Emilia, 48018 Faenza RA, Italia","Country":"ITA","State":"Emilia Romagna","County":"RA","City":"Faenza","Street":"Via Emilia","PostalCode":"48018","AdditionalData":[{"value":"Italia","key":"CountryName"},{"value":"Emilia Romagna","key":"StateName"},{"value":"Ravenna","key":"CountyName"}]},"MapReference":{"ReferenceId":"1152281689","Spot":0.83,"SideOfStreet":"left","CountryId":"20110484","StateId":"20123512","CountyId":"20125950","CityId":"20125990"}}},{"Relevance":1.0,"Distance":117.6,"MatchLevel":"street","MatchQuality":{"Country":1.0,"State":1.0,"County":1.0,"City":1.0,"Street":[1.0],"PostalCode":1.0},"Location":{"LocationId":"NT_uYD94rB8eEQvXQOkKJVb2C_l_724198363_L","LocationType":"point","DisplayPosition":{"Latitude":44.2871,"Longitude":11.86681},"MapView":{"TopLeft":{"Latitude":44.28775,"Longitude":11.86617},"BottomRight":{"Latitude":44.2871,"Longitude":11.86681}},"Address":{"Label":"Via Emilia, 48018 Faenza RA, Italia","Country":"ITA","State":"Emilia Romagna","County":"RA","City":"Faenza","Street":"Via Emilia","PostalCode":"48018","AdditionalData":[{"value":"Italia","key":"CountryName"},{"value":"Emilia Romagna","key":"StateName"},{"value":"Ravenna","key":"CountyName"}]},"MapReference":{"ReferenceId":"724198363","Spot":0.0,"SideOfStreet":"left","CountryId":"20110484","StateId":"20123512","CountyId":"20125950","CityId":"20125990"}}},{"Relevance":1.0,"Distance":127.2,"MatchLevel":"street","MatchQuality":{"Country":1.0,"State":1.0,"County":1.0,"City":1.0,"PostalCode":1.0},"Location":{"LocationId":"NT_vwH7As8OKJw1-569yZHa7A_l_591617325_R","LocationType":"point","DisplayPosition":{"Latitude":44.28533,"Longitude":11.86507},"MapView":{"TopLeft":{"Latitude":44.28537,"Longitude":11.86492},"BottomRight":{"Latitude":44.28512,"Longitude":11.8651}},"Address":{"Label":"48018 Faenza RA, Italia","Country":"ITA","State":"Emilia Romagna","County":"RA","City":"Faenza","PostalCode":"48018","AdditionalData":[{"value":"Italia","key":"CountryName"},{"value":"Emilia Romagna","key":"StateName"},{"value":"Ravenna","key":"CountyName"}]},"MapReference":{"ReferenceId":"591617325","Spot":0.79,"SideOfStreet":"right","CountryId":"20110484","StateId":"20123512","CountyId":"20125950","CityId":"20125990"}}},{"Relevance":1.0,"Distance":128.8,"MatchLevel":"street","MatchQuality":{"Country":1.0,"State":1.0,"County":1.0,"City":1.0,"PostalCode":1.0},"Location":{"LocationId":"NT_vwH7As8OKJw1-569yZHa7A_l_591617323_L","LocationType":"point","DisplayPosition":{"Latitude":44.28537,"Longitude":11.86499},"MapView":{"TopLeft":{"Latitude":44.28538,"Longitude":11.86473},"BottomRight":{"Latitude":44.2852,"Longitude":11.86499}},"Address":{"Label":"48018 Faenza RA, Italia","Country":"ITA","State":"Emilia Romagna","County":"RA","City":"Faenza","PostalCode":"48018","AdditionalData":[{"value":"Italia","key":"CountryName"},{"value":"Emilia Romagna","key":"StateName"},{"value":"Ravenna","key":"CountyName"}]},"MapReference":{"ReferenceId":"591617323","Spot":1.0,"SideOfStreet":"left","CountryId":"20110484","StateId":"20123512","CountyId":"20125950","CityId":"20125990"}}}]}]}}