{"Response":{"MetaInfo":{"Timestamp":"2020-03-28T11:35:26.262+0000","NextPageInformation":"2"},"View":[{"_type":"SearchResultsViewType","ViewId":0,"Result":[{"Relevance":1.0,"Distance":-4.5,"MatchLevel":"landmark","MatchQuality":{"Country":1.0,"County":1.0,"City":1.0,"District":1.0,"Street":[1.0],"Name":1.0},"Location":{"LocationId":"NT_evtxLDiwBplwpV0JoQnB3B_p_IBmDbkLUiXu6jA-x0qCj8B","LocationType":"hospital","Name":"Spitalul Clinic de Urgență Bagdasar","DisplayPosition":{"Latitude":44.38643,"Longitude":26.12829},"MapView":{"TopLeft":{"Latitude":44.39093,"Longitude":26.12052},"BottomRight":{"Latitude":44.38306,"Longitude":26.12952}},"Address":{"Label":"Șoseaua Berceni, București, România","Country":"ROU","County":"București","City":"București","District":"Sectorul 4","Street":"Șoseaua Berceni","AdditionalData":[{"value":"România","key":"CountryName"},{"value":"București","key":"CountyName"}]},"MapReference":{"CountryId":"20656215","CountyId":"20658062","CityId":"20658063","DistrictId":"20658067","PlaceId":"1058651900"}}},{"Relevance":1.0,"Distance":0.0,"Direction":0.0,"MatchLevel":"district","MatchQuality":{"Country":1.0,"County":1.0,"City":1.0,"District":1.0,"PostalCode":1.0},"Location":{"LocationId":"NT_HKlI0YR-b060gJzYJuNUHC","LocationType":"point","DisplayPosition":{"Latitude":44.3851108,"Longitude":26.1293482},"MapView":{"TopLeft":{"Latitude":44.42996,"Longitude":26.08669},"BottomRight":{"Latitude":44.3495,"Longitude":26.1524}},"Address":{"Label":"Sectorul 4, București, România","Country":"ROU","County":"București","City":"București","District":"Sectorul 4","PostalCode":"041975","AdditionalData":[{"value":"România","key":"CountryName"},{"value":"București","key":"CountyName"}]},"MapReference":{"ReferenceId":"1228300855","SideOfStreet":"neither","CountryId":"20656215","CountyId":"20658062","CityId":"20658063","DistrictId":"20658067"}}},{"Relevance":1.0,"Distance":4.6,"MatchLevel":"landmark","MatchQuality":{"Country":1.0,"County":1.0,"City":1.0,"District":1.0,"Name":1.0},"Location":{"LocationId":"NT_lMUeJREOayWyKT3XnG1liB","LocationType":"hospital","Name":"Spitalul de Boli Cronice Sf. Luca","DisplayPosition":{"Latitude":44.38363,"Longitude":26.1295},"MapView":{"TopLeft":{"Latitude":44.38514,"Longitude":26.1277},"BottomRight":{"Latitude":44.38212,"Longitude":26.13185}},"Address":{"Label":"București, România","Country":"ROU","County":"București","City":"București","District":"Sectorul 4","AdditionalData":[{"value":"România","key":"CountryName"},{"value":"București","key":"CountyName"}]},"MapReference":{"CountryId":"20656215","CountyId":"20658062","CityId":"20658063","DistrictId":"20658067","PlaceId":"1504721372"}}},{"Relevance":1.0,"Distance":4.6,"MatchLevel":"street","MatchQuality":{"Country":1.0,"County":1.0,"City":1.0,"District":1.0},"Location":{"LocationId":"NT_7YfpCq6VIJ0799o5T1juRD_l_852899961_L","LocationType":"point","DisplayPosition":{"Latitude":44.3850712,"Longitude":26.1293659},"MapView":{"TopLeft":{"Latitude":44.38514,"Longitude":26.1277},"BottomRight":{"Latitude":44.38395,"Longitude":26.12952}},"Address":{"Label":"București, România","Country":"ROU","County":"București","City":"București","District":"Sectorul 4","AdditionalData":[{"value":"România","key":"CountryName"},{"value":"București","key":"CountyName"}]},"MapReference":{"ReferenceId":"852899961","Spot":0.93,"SideOfStreet":"left","CountryId":"20656215","CountyId":"20658062","CityId":"20658063","DistrictId":"20658067"}}},{"Relevance":1.0,"Distance":14.0,"MatchLevel":"street","MatchQuality":{"Country":1.0,"County":1.0,"City":1.0,"District":1.0,"Street":[1.0]},"Location":{"LocationId":"NT_nrkjzRJXRXFaMPZbdIUJTD_l_852899956_L","LocationType":"point","DisplayPosition":{"Latitude":44.38514,"Longitude":26.12952},"MapView":{"TopLeft":{"Latitude":44.38514,"Longitude":26.12952},"BottomRight":{"Latitude":44.38487,"Longitude":26.12978}},"Address":{"Label":"Șoseaua Berceni, București, România","Country":"ROU","County":"București","City":"București","District":"Sectorul 4","Street":"Șoseaua Berceni","AdditionalData":[{"value":"România","key":"CountryName"},{"value":"București","key":"CountyName"}]},"MapReference":{"ReferenceId":"852899956","Spot":1.0,"SideOfStreet":"left","CountryId":"20656215","CountyId":"20658062","CityId":"20658063","DistrictId":"20658067"}}},{"Relevance":1.0,"Distance":24.8,"MatchLevel":"street","MatchQuality":{"Country":1.0,"County":1.0,"City":1.0,"District":1.0,"Street":[1.0]},"Location":{"LocationId":"NT_q4h5pYveLHKvwwKFtUPbeD_l_852899958_L","LocationType":"point","DisplayPosition":{"Latitude":44.38519,"Longitude":26.12964},"MapView":{"TopLeft":{"Latitude":44.38519,"Longitude":26.12964},"BottomRight":{"Latitude":44.38489,"Longitude":26.12992}},"Address":{"Label":"Șoseaua Berceni, București, România","Country":"ROU","County":"București","City":"București","District":"Sectorul 4","Street":"Șoseaua Berceni","AdditionalData":[{"value":"România","key":"CountryName"},{"value":"București","key":"CountyName"}]},"MapReference":{"ReferenceId":"852899958","Spot":1.0,"SideOfStreet":"left","CountryId":"20656215","CountyId":"20658062","CityId":"20658063","DistrictId":"20658067"}}},{"Relevance":1.0,"Distance":25.6,"MatchLevel":"street","MatchQuality":{"Country":1.0,"County":1.0,"City":1.0,"District":1.0,"Street":[1.0]},"Location":{"LocationId":"NT_q4h5pYveLHKvwwKFtUPbeD_l_852899959_L","LocationType":"point","DisplayPosition":{"Latitude":44.385293,"Longitude":26.1295444},"MapView":{"TopLeft":{"Latitude":44.38575,"Longitude":26.12912},"BottomRight":{"Latitude":44.38519,"Longitude":26.12964}},"Address":{"Label":"Șoseaua Berceni, București, România","Country":"ROU","County":"București","City":"București","District":"Sectorul 4","Street":"Șoseaua Berceni","AdditionalData":[{"value":"România","key":"CountryName"},{"value":"București","key":"CountyName"}]},"MapReference":{"ReferenceId":"852899959","Spot":0.18,"SideOfStreet":"left","CountryId":"20656215","CountyId":"20658062","CityId":"20658063","DistrictId":"20658067"}}},{"Relevance":1.0,"Distance":30.2,"MatchLevel":"houseNumber","MatchQuality":{"Country":1.0,"County":1.0,"City":1.0,"District":1.0,"Street":[1.0],"HouseNumber":1.0},"MatchType":"interpolated","Location":{"LocationId":"NT_nrkjzRJXRXFaMPZbdIUJTD_l_852899957_L_xAD","LocationType":"point","DisplayPosition":{"Latitude":44.3854354,"Longitude":26.1292296},"MapView":{"TopLeft":{"Latitude":44.3865596,"Longitude":26.1276566},"BottomRight":{"Latitude":44.3843113,"Longitude":26.1308026}},"Address":{"Label":"Șoseaua Berceni 10, București, România","Country":"ROU","County":"București","City":"București","District":"Sectorul 4","Street":"Șoseaua Berceni","HouseNumber":"10","AdditionalData":[{"value":"România","key":"CountryName"},{"value":"București","key":"CountyName"}]},"MapReference":{"ReferenceId":"852899957","Spot":0.5,"SideOfStreet":"left","CountryId":"20656215","CountyId":"20658062","CityId":"20658063","DistrictId":"20658067"}}},{"Relevance":1.0,"Distance":63.1,"MatchLevel":"houseNumber","MatchQuality":{"Country":1.0,"County":1.0,"City":1.0,"District":1.0,"Street":[1.0],"HouseNumber":1.0,"PostalCode":1.0},"MatchType":"interpolated","Location":{"LocationId":"NT_yKgX5IiLpAsQ6z6o0exFvD_xED","LocationType":"point","DisplayPosition":{"Latitude":44.38507,"Longitude":26.13014},"MapView":{"TopLeft":{"Latitude":44.3861942,"Longitude":26.128567},"BottomRight":{"Latitude":44.3839458,"Longitude":26.131713}},"Address":{"Label":"Strada Caporal Ion Gheorghe 11, 041975 București, România","Country":"ROU","County":"București","City":"București","District":"Sectorul 4","Street":"Strada Caporal Ion Gheorghe","HouseNumber":"11","PostalCode":"041975","AdditionalData":[{"value":"România","key":"CountryName"},{"value":"București","key":"CountyName"}]},"MapReference":{"ReferenceId":"588544122","Spot":0.33,"SideOfStreet":"right","CountryId":"20656215","CountyId":"20658062","CityId":"20658063","DistrictId":"20658067","AddressId":"686128014","RoadLinkId":"77414632"}}},{"Relevance":1.0,"Distance":72.1,"MatchLevel":"houseNumber","MatchQuality":{"Country":1.0,"County":1.0,"City":1.0,"District":1.0,"Street":[1.0],"HouseNumber":1.0},"MatchType":"interpolated","Location":{"LocationId":"NT_q4h5pYveLHKvwwKFtUPbeD_l_588544071_L_xID","LocationType":"point","DisplayPosition":{"Latitude":44.3846476,"Longitude":26.1299824},"MapView":{"TopLeft":{"Latitude":44.3857717,"Longitude":26.1284094},"BottomRight":{"Latitude":44.3835234,"Longitude":26.1315554}},"Address":{"Label":"Șoseaua Berceni 12, București, România","Country":"ROU","County":"București","City":"București","District":"Sectorul 4","Street":"Șoseaua Berceni","HouseNumber":"12","AdditionalData":[{"value":"România","key":"CountryName"},{"value":"București","key":"CountyName"}]},"MapReference":{"ReferenceId":"588544071","Spot":0.51,"SideOfStreet":"left","CountryId":"20656215","CountyId":"20658062","CityId":"20658063","DistrictId":"20658067"}}}]}]}}