{"Response":{"MetaInfo":{"Timestamp":"2020-03-28T11:35:28.381+0000","NextPageInformation":"2"},"View":[{"_type":"SearchResultsViewType","ViewId":0,"Result":[{"Relevance":1.0,"Distance":-0.5,"MatchLevel":"landmark","MatchQuality":{"Country":1.0,"County":1.0,"City":1.0,"District":1.0,"Street":[1.0],"PostalCode":1.0,"Name":1.0},"Location":{"LocationId":"NT_T9YCj6tNXA.I992mMzxGAA_p_vYZol1VnNTLGnD4Ga2Q8.A","LocationType":"hospital","Name":"Spitalul Clinic Sfântul Ioan","DisplayPosition":{"Latitude":44.39161,"Longitude":26.14326},"MapView":{"TopLeft":{"Latitude":44.39164,"Longitude":26.14241},"BottomRight":{"Latitude":44.38989,"Longitude":26.14555}},"Address":{"Label":"Strada Metrologiei, 030171 București, România","Country":"ROU","County":"București","City":"București","District":"Sectorul 3","Street":"Strada Metrologiei","PostalCode":"030171","AdditionalData":[{"value":"România","key":"CountryName"},{"value":"București","key":"CountyName"}]},"MapReference":{"CountryId":"20656215","CountyId":"20658062","CityId":"20658063","DistrictId":"20658066","PlaceId":"556597375"}}},{"Relevance":1.0,"Distance":0.0,"Direction":0.0,"MatchLevel":"district","MatchQuality":{"Country":1.0,"County":1.0,"City":1.0,"District":1.0,"PostalCode":1.0},"Location":{"LocationId":"NT_V79jU6GqfRXGPNnUs6b01A","LocationType":"point","DisplayPosition":{"Latitude":44.3916272,"Longitude":26.1427626},"MapView":{"TopLeft":{"Latitude":44.44113,"Longitude":26.0964},"BottomRight":{"Latitude":44.38868,"Longitude":26.22437}},"Address":{"Label":"Sectorul 3, București, România","Country":"ROU","County":"București","City":"București","District":"Sectorul 3","PostalCode":"030171","AdditionalData":[{"value":"România","key":"CountryName"},{"value":"București","key":"CountyName"}]},"MapReference":{"ReferenceId":"588490028","SideOfStreet":"neither","CountryId":"20656215","CountyId":"20658062","CityId":"20658063","DistrictId":"20658066"}}},{"Relevance":1.0,"Distance":0.6,"MatchLevel":"street","MatchQuality":{"Country":1.0,"County":1.0,"City":1.0,"District":1.0,"Street":[1.0],"PostalCode":1.0},"Location":{"LocationId":"NT_3nSSre-NihwtQwvLFPKtRC_l_836042824_L","LocationType":"point","DisplayPosition":{"Latitude":44.3916329,"Longitude":26.1427629},"MapView":{"TopLeft":{"Latitude":44.39164,"Longitude":26.14261},"BottomRight":{"Latitude":44.39162,"Longitude":26.14304}},"Address":{"Label":"Strada Metrologiei, 030171 București, România","Country":"ROU","County":"București","City":"București","District":"Sectorul 3","Street":"Strada Metrologiei","PostalCode":"030171","AdditionalData":[{"value":"România","key":"CountryName"},{"value":"București","key":"CountyName"}]},"MapReference":{"ReferenceId":"836042824","Spot":0.64,"SideOfStreet":"neither","CountryId":"20656215","CountyId":"20658062","CityId":"20658063","DistrictId":"20658066"}}},{"Relevance":1.0,"Distance":12.2,"MatchLevel":"street","MatchQuality":{"Country":1.0,"County":1.0,"City":1.0,"District":1.0,"Street":[1.0],"PostalCode":1.0},"Location":{"LocationId":"NT_uFXwIOyTfbCDypAicxzRsC_l_1103996319_R","LocationType":"point","DisplayPosition":{"Latitude":44.3916345,"Longitude":26.1426097},"MapView":{"TopLeft":{"Latitude":44.39164,"Longitude":26.1426},"BottomRight":{"Latitude":44.39143,"Longitude":26.14261}},"Address":{"Label":"Șoseaua Vitan Bârzești, 030171 București, România","Country":"ROU","County":"București","City":"București","District":"Sectorul 3","Street":"Șoseaua Vitan Bârzești","PostalCode":"030171","AdditionalData":[{"value":"România","key":"CountryName"},{"value":"București","key":"CountyName"}]},"MapReference":{"ReferenceId":"1103996319","Spot":0.97,"SideOfStreet":"right","CountryId":"20656215","CountyId":"20658062","CityId":"20658063","DistrictId":"20658066"}}},{"Relevance":1.0,"Distance":12.2,"MatchLevel":"street","MatchQuality":{"Country":1.0,"County":1.0,"City":1.0,"District":1.0,"Street":[1.0],"PostalCode":1.0},"Location":{"LocationId":"NT_uFXwIOyTfbCDypAicxzRsC_l_1103996316_R","LocationType":"point","DisplayPosition":{"Latitude":44.3916432,"Longitude":26.1426103},"MapView":{"TopLeft":{"Latitude":44.39183,"Longitude":26.14261},"BottomRight":{"Latitude":44.39164,"Longitude":26.14263}},"Address":{"Label":"Șoseaua Vitan Bârzești, 030171 București, România","Country":"ROU","County":"București","City":"București","District":"Sectorul 3","Street":"Șoseaua Vitan Bârzești","PostalCode":"030171","AdditionalData":[{"value":"România","key":"CountryName"},{"value":"București","key":"CountyName"}]},"MapReference":{"ReferenceId":"1103996316","Spot":0.02,"SideOfStreet":"right","CountryId":"20656215","CountyId":"20658062","CityId":"20658063","DistrictId":"20658066"}}},{"Relevance":1.0,"Distance":22.1,"MatchLevel":"street","MatchQuality":{"Country":1.0,"County":1.0,"City":1.0,"District":1.0,"Street":[1.0],"PostalCode":1.0},"Location":{"LocationId":"NT_3nSSre-NihwtQwvLFPKtRC_l_836042823_L","LocationType":"point","DisplayPosition":{"Latitude":44.39162,"Longitude":26.14304},"MapView":{"TopLeft":{"Latitude":44.39162,"Longitude":26.14304},"BottomRight":{"Latitude":44.3916,"Longitude":26.14347}},"Address":{"Label":"Strada Metrologiei, 030171 București, România","Country":"ROU","County":"București","City":"București","District":"Sectorul 3","Street":"Strada Metrologiei","PostalCode":"030171","AdditionalData":[{"value":"România","key":"CountryName"},{"value":"București","key":"CountyName"}]},"MapReference":{"ReferenceId":"836042823","Spot":1.0,"SideOfStreet":"left","CountryId":"20656215","CountyId":"20658062","CityId":"20658063","DistrictId":"20658066"}}},{"Relevance":1.0,"Distance":24.9,"MatchLevel":"street","MatchQuality":{"Country":1.0,"County":1.0,"City":1.0,"District":1.0,"Street":[1.0],"PostalCode":1.0},"Location":{"LocationId":"NT_uFXwIOyTfbCDypAicxzRsC_l_1103996317_R","LocationType":"point","DisplayPosition":{"Latitude":44.39183,"Longitude":26.14263},"MapView":{"TopLeft":{"Latitude":44.39209,"Longitude":26.14263},"BottomRight":{"Latitude":44.39183,"Longitude":26.14266}},"Address":{"Label":"Șoseaua Vitan Bârzești, 030171 București, România","Country":"ROU","County":"București","City":"București","District":"Sectorul 3","Street":"Șoseaua Vitan Bârzești","PostalCode":"030171","AdditionalData":[{"value":"România","key":"CountryName"},{"value":"București","key":"CountyName"}]},"MapReference":{"ReferenceId":"1103996317","Spot":0.0,"SideOfStreet":"right","CountryId":"20656215","CountyId":"20658062","CityId":"20658063","DistrictId":"20658066"}}},{"Relevance":1.0,"Distance":25.5,"MatchLevel":"street","MatchQuality":{"Country":1.0,"County":1.0,"City":1.0,"District":1.0,"Street":[1.0],"PostalCode":1.0},"Location":{"LocationId":"NT_uFXwIOyTfbCDypAicxzRsC_l_1103996318_R","LocationType":"point","DisplayPosition":{"Latitude":44.39143,"Longitude":26.1426},"MapView":{"TopLeft":{"Latitude":44.39143,"Longitude":26.14258},"BottomRight":{"Latitude":44.39124,"Longitude":26.1426}},"Address":{"Label":"Șoseaua Vitan Bârzești, 030171 București, România","Country":"ROU","County":"București","City":"București","District":"Sectorul 3","Street":"Șoseaua Vitan Bârzești","PostalCode":"030171","AdditionalData":[{"value":"România","key":"CountryName"},{"value":"București","key":"CountyName"}]},"MapReference":{"ReferenceId":"1103996318","Spot":1.0,"SideOfStreet":"right","CountryId":"20656215","CountyId":"20658062","CityId":"20658063","DistrictId":"20658066"}}},{"Relevance":1.0,"Distance":45.4,"MatchLevel":"street","MatchQuality":{"Country":1.0,"County":1.0,"City":1.0,"District":1.0,"Street":[1.0],"PostalCode":1.0},"Location":{"LocationId":"NT_uFXwIOyTfbCDypAicxzRsC_l_836042821_R","LocationType":"point","DisplayPosition":{"Latitude":44.39124,"Longitude":26.14258},"MapView":{"TopLeft":{"Latitude":44.39124,"Longitude":26.14257},"BottomRight":{"Latitude":44.39105,"Longitude":26.14258}},"Address":{"Label":"Șoseaua Vitan Bârzești, 030171 București, România","Country":"ROU","County":"București","City":"București","District":"Sectorul 3","Street":"Șoseaua Vitan Bârzești","PostalCode":"030171","AdditionalData":[{"value":"România","key":"CountryName"},{"value":"București","key":"CountyName"}]},"MapReference":{"ReferenceId":"836042821","Spot":1.0,"SideOfStreet":"right","CountryId":"20656215","CountyId":"20658062","CityId":"20658063","DistrictId":"20658066"}}},{"Relevance":1.0,"Distance":52.1,"MatchLevel":"street","MatchQuality":{"Country":1.0,"County":1.0,"City":1.0,"District":1.0,"Street":[1.0],"PostalCode":1.0},"Location":{"LocationId":"NT_uFXwIOyTfbCDypAicxzRsC_l_1103999466_R","LocationType":"point","DisplayPosition":{"Latitude":44.39209,"Longitude":26.14266},"MapView":{"TopLeft":{"Latitude":44.39239,"Longitude":26.14266},"BottomRight":{"Latitude":44.39209,"Longitude":26.14269}},"Address":{"Label":"Șoseaua Vitan Bârzești, 030171 București, România","Country":"ROU","County":"București","City":"București","District":"Sectorul 3","Street":"Șoseaua Vitan Bârzești","PostalCode":"030171","AdditionalData":[{"value":"România","key":"CountryName"},{"value":"București","key":"CountyName"}]},"MapReference":{"ReferenceId":"1103999466","Spot":0.0,"SideOfStreet":"right","CountryId":"20656215","CountyId":"20658062","CityId":"20658063","DistrictId":"20658066"}}}]}]}}