{"Response":{"MetaInfo":{"Timestamp":"2020-03-28T11:35:18.462+0000","NextPageInformation":"2"},"View":[{"_type":"SearchResultsViewType","ViewId":0,"Result":[{"Relevance":1.0,"Distance":0.0,"Direction":0.0,"MatchLevel":"district","MatchQuality":{"Country":1.0,"County":1.0,"City":1.0,"District":1.0,"PostalCode":1.0},"Location":{"LocationId":"NT_egxBCY-upyF-qtG8nFNkqA","LocationType":"point","DisplayPosition":{"Latitude":44.3066944,"Longitude":23.792401},"MapView":{"TopLeft":{"Latitude":44.35419,"Longitude":23.74383},"BottomRight":{"Latitude":44.27491,"Longitude":23.86847}},"Address":{"Label":"Craiova, România","Country":"ROU","County":"Dolj","City":"Craiova","District":"Craiova","PostalCode":"200642","AdditionalData":[{"value":"România","key":"CountryName"},{"value":"Dolj","key":"CountyName"}]},"MapReference":{"ReferenceId":"990698394","SideOfStreet":"neither","CountryId":"20656215","CountyId":"20659235","CityId":"20659321","DistrictId":"20659323"}}},{"Relevance":1.0,"Distance":11.3,"MatchLevel":"street","MatchQuality":{"Country":1.0,"County":1.0,"City":1.0,"District":1.0},"Location":{"LocationId":"NT_IvsAZvUuw2SxOaq3Hy-JbB_l_810622478_L","LocationType":"point","DisplayPosition":{"Latitude":44.30675,"Longitude":23.79252},"MapView":{"TopLeft":{"Latitude":44.30675,"Longitude":23.79252},"BottomRight":{"Latitude":44.30665,"Longitude":23.79258}},"Address":{"Label":"Craiova, România","Country":"ROU","County":"Dolj","City":"Craiova","District":"Craiova","AdditionalData":[{"value":"România","key":"CountryName"},{"value":"Dolj","key":"CountyName"}]},"MapReference":{"ReferenceId":"810622478","Spot":1.0,"SideOfStreet":"left","CountryId":"20656215","CountyId":"20659235","CityId":"20659321","DistrictId":"20659323"}}},{"Relevance":1.0,"Distance":11.9,"MatchLevel":"street","MatchQuality":{"Country":1.0,"County":1.0,"City":1.0,"District":1.0},"Location":{"LocationId":"NT_IvsAZvUuw2SxOaq3Hy-JbB_l_810622479_L","LocationType":"point","DisplayPosition":{"Latitude":44.3067715,"Longitude":23.7925038},"MapView":{"TopLeft":{"Latitude":44.30687,"Longitude":23.79243},"BottomRight":{"Latitude":44.30675,"Longitude":23.79252}},"Address":{"Label":"Craiova, România","Country":"ROU","County":"Dolj","City":"Craiova","District":"Craiova","AdditionalData":[{"value":"România","key":"CountryName"},{"value":"Dolj","key":"CountyName"}]},"MapReference":{"ReferenceId":"810622479","Spot":0.18,"SideOfStreet":"left","CountryId":"20656215","CountyId":"20659235","CityId":"20659321","DistrictId":"20659323"}}},{"Relevance":1.0,"Distance":17.1,"MatchLevel":"street","MatchQuality":{"Country":1.0,"County":1.0,"City":1.0,"District":1.0,"Street":[1.0],"PostalCode":1.0},"Location":{"LocationId":"NT_CJreW.SB4KZGVoB5cWQGnB_l_1205548587_R","LocationType":"point","DisplayPosition":{"Latitude":44.3068437,"Longitude":23.7923512},"MapView":{"TopLeft":{"Latitude":44.30687,"Longitude":23.79225},"BottomRight":{"Latitude":44.30681,"Longitude":23.79243}},"Address":{"Label":"Strada Tabaci, 200642 Craiova, România","Country":"ROU","County":"Dolj","City":"Craiova","District":"Craiova","Street":"Strada Tabaci","PostalCode":"200642","AdditionalData":[{"value":"România","key":"CountryName"},{"value":"Dolj","key":"CountyName"}]},"MapReference":{"ReferenceId":"1205548587","Spot":0.56,"SideOfStreet":"right","CountryId":"20656215","CountyId":"20659235","CityId":"20659321","DistrictId":"20659323"}}},{"Relevance":1.0,"Distance":19.7,"MatchLevel":"houseNumber","MatchQuality":{"Country":1.0,"County":1.0,"City":1.0,"District":1.0,"Street":[1.0],"HouseNumber":1.0,"PostalCode":1.0},"MatchType":"interpolated","Location":{"LocationId":"NT_CJreW.SB4KZGVoB5cWQGnB_xAD","LocationType":"point","DisplayPosition":{"Latitude":44.30687,"Longitude":23.79243},"MapView":{"TopLeft":{"Latitude":44.3079942,"Longitude":23.7908591},"BottomRight":{"Latitude":44.3057458,"Longitude":23.7940009}},"Address":{"Label":"Strada Tabaci 10, 200642 Craiova, România","Country":"ROU","County":"Dolj","City":"Craiova","District":"Craiova","Street":"Strada Tabaci","HouseNumber":"10","PostalCode":"200642","AdditionalData":[{"value":"România","key":"CountryName"},{"value":"Dolj","key":"CountyName"}]},"MapReference":{"ReferenceId":"1016460129","Spot":0.0,"SideOfStreet":"left","CountryId":"20656215","CountyId":"20659235","CityId":"20659321","DistrictId":"20659323","AddressId":"686717296","RoadLinkId":"340776513"}}},{"Relevance":1.0,"Distance":24.6,"MatchLevel":"street","MatchQuality":{"Country":1.0,"County":1.0,"City":1.0,"District":1.0,"PostalCode":1.0},"Location":{"LocationId":"NT_A9rsP2ZRiiL73s-kZ4nLlC_l_1205548588_L","LocationType":"point","DisplayPosition":{"Latitude":44.30679,"Longitude":23.79268},"MapView":{"TopLeft":{"Latitude":44.30679,"Longitude":23.79268},"BottomRight":{"Latitude":44.3067,"Longitude":23.79274}},"Address":{"Label":"200642 Craiova, România","Country":"ROU","County":"Dolj","City":"Craiova","District":"Craiova","PostalCode":"200642","AdditionalData":[{"value":"România","key":"CountryName"},{"value":"Dolj","key":"CountyName"}]},"MapReference":{"ReferenceId":"1205548588","Spot":1.0,"SideOfStreet":"left","CountryId":"20656215","CountyId":"20659235","CityId":"20659321","DistrictId":"20659323"}}},{"Relevance":1.0,"Distance":25.8,"MatchLevel":"street","MatchQuality":{"Country":1.0,"County":1.0,"City":1.0,"District":1.0,"PostalCode":1.0},"Location":{"LocationId":"NT_A9rsP2ZRiiL73s-kZ4nLlC_l_1205548589_L","LocationType":"point","DisplayPosition":{"Latitude":44.3068559,"Longitude":23.7926343},"MapView":{"TopLeft":{"Latitude":44.30692,"Longitude":23.79259},"BottomRight":{"Latitude":44.30679,"Longitude":23.79268}},"Address":{"Label":"200642 Craiova, România","Country":"ROU","County":"Dolj","City":"Craiova","District":"Craiova","PostalCode":"200642","AdditionalData":[{"value":"România","key":"CountryName"},{"value":"Dolj","key":"CountyName"}]},"MapReference":{"ReferenceId":"1205548589","Spot":0.51,"SideOfStreet":"left","CountryId":"20656215","CountyId":"20659235","CityId":"20659321","DistrictId":"20659323"}}},{"Relevance":1.0,"Distance":43.3,"MatchLevel":"houseNumber","MatchQuality":{"Country":1.0,"County":1.0,"City":1.0,"District":1.0,"Street":[1.0],"HouseNumber":1.0,"PostalCode":1.0},"MatchType":"interpolated","Location":{"LocationId":"NT_CJreW.SB4KZGVoB5cWQGnB_0A","LocationType":"point","DisplayPosition":{"Latitude":44.30698,"Longitude":23.79277},"MapView":{"TopLeft":{"Latitude":44.3081042,"Longitude":23.7911991},"BottomRight":{"Latitude":44.3058558,"Longitude":23.7943409}},"Address":{"Label":"Strada Tabaci 4, 200642 Craiova, România","Country":"ROU","County":"Dolj","City":"Craiova","District":"Craiova","Street":"Strada Tabaci","HouseNumber":"4","PostalCode":"200642","AdditionalData":[{"value":"România","key":"CountryName"},{"value":"Dolj","key":"CountyName"}]},"MapReference":{"ReferenceId":"1205614182","Spot":0.31,"SideOfStreet":"left","CountryId":"20656215","CountyId":"20659235","CityId":"20659321","DistrictId":"20659323","AddressId":"686717299","RoadLinkId":"519321127"}}},{"Relevance":1.0,"Distance":71.1,"MatchLevel":"houseNumber","MatchQuality":{"Country":1.0,"County":1.0,"City":1.0,"District":1.0,"Street":[1.0],"HouseNumber":1.0,"PostalCode":1.0},"MatchType":"interpolated","Location":{"LocationId":"NT_CJreW.SB4KZGVoB5cWQGnB_xA","LocationType":"point","DisplayPosition":{"Latitude":44.30651,"Longitude":23.79153},"MapView":{"TopLeft":{"Latitude":44.3076342,"Longitude":23.7899591},"BottomRight":{"Latitude":44.3053858,"Longitude":23.7931009}},"Address":{"Label":"Strada Tabaci 1, 200642 Craiova, România","Country":"ROU","County":"Dolj","City":"Craiova","District":"Craiova","Street":"Strada Tabaci","HouseNumber":"1","PostalCode":"200642","AdditionalData":[{"value":"România","key":"CountryName"},{"value":"Dolj","key":"CountyName"}]},"MapReference":{"ReferenceId":"1205548586","Spot":0.3,"SideOfStreet":"right","CountryId":"20656215","CountyId":"20659235","CityId":"20659321","DistrictId":"20659323","AddressId":"686708064","RoadLinkId":"519226904"}}},{"Relevance":1.0,"Distance":76.7,"MatchLevel":"street","MatchQuality":{"Country":1.0,"County":1.0,"City":1.0,"District":1.0,"Street":[1.0],"PostalCode":1.0},"Location":{"LocationId":"NT_CJreW.SB4KZGVoB5cWQGnB_l_1205614183_R","LocationType":"point","DisplayPosition":{"Latitude":44.30711,"Longitude":23.79317},"MapView":{"TopLeft":{"Latitude":44.3072,"Longitude":23.79317},"BottomRight":{"Latitude":44.30711,"Longitude":23.79343}},"Address":{"Label":"Strada Tabaci, 200642 Craiova, România","Country":"ROU","County":"Dolj","City":"Craiova","District":"Craiova","Street":"Strada Tabaci","PostalCode":"200642","AdditionalData":[{"value":"România","key":"CountryName"},{"value":"Dolj","key":"CountyName"}]},"MapReference":{"ReferenceId":"1205614183","Spot":0.0,"SideOfStreet":"right","CountryId":"20656215","CountyId":"20659235","CityId":"20659321","DistrictId":"20659323"}}}]}]}}