{"Response":{"MetaInfo":{"Timestamp":"2020-03-28T11:10:11.304+0000","NextPageInformation":"2"},"View":[{"_type":"SearchResultsViewType","ViewId":0,"Result":[{"Relevance":1.0,"Distance":0.0,"Direction":0.0,"MatchLevel":"city","MatchQuality":{"Country":1.0,"State":1.0,"County":1.0,"City":1.0,"PostalCode":1.0},"Location":{"LocationId":"NT_e9jLMxl57GN20P6o.kho-C","LocationType":"point","DisplayPosition":{"Latitude":44.3546653,"Longitude":2.0360567},"MapView":{"TopLeft":{"Latitude":44.38937,"Longitude":1.9757},"BottomRight":{"Latitude":44.30468,"Longitude":2.08337}},"Address":{"Label":"Villefranche-de-Rouergue, Occitanie, France","Country":"FRA","State":"Occitanie","County":"Aveyron","City":"Villefranche-de-Rouergue","PostalCode":"12200","AdditionalData":[{"value":"France","key":"CountryName"},{"value":"Occitanie","key":"StateName"},{"value":"Aveyron","key":"CountyName"}]},"MapReference":{"ReferenceId":"537540825","SideOfStreet":"neither","CountryId":"20000001","StateId":"20050212","CountyId":"20085946","CityId":"20086845"}}},{"Relevance":1.0,"Distance":65.6,"MatchLevel":"houseNumber","MatchQuality":{"Country":1.0,"State":1.0,"County":1.0,"City":1.0,"Street":[1.0],"HouseNumber":1.0,"PostalCode":1.0},"MatchType":"interpolated","Location":{"LocationId":"NT_sjx8N208YfES17FUvMp.4A_3A","LocationType":"point","DisplayPosition":{"Latitude":44.35512,"Longitude":2.03672},"MapView":{"TopLeft":{"Latitude":44.3562442,"Longitude":2.0351478},"BottomRight":{"Latitude":44.3539958,"Longitude":2.0382922}},"Address":{"Label":"7 Rue du Docteur Joseph Pechdo, 12200 Villefranche-de-Rouergue, France","Country":"FRA","State":"Occitanie","County":"Aveyron","City":"Villefranche-de-Rouergue","Street":"Rue du Docteur Joseph Pechdo","HouseNumber":"7","PostalCode":"12200","AdditionalData":[{"value":"France","key":"CountryName"},{"value":"Occitanie","key":"StateName"},{"value":"Aveyron","key":"CountyName"}]},"MapReference":{"ReferenceId":"537549550","Spot":0.57,"SideOfStreet":"left","CountryId":"20000001","StateId":"20050212","CountyId":"20085946","CityId":"20086845","AddressId":"571691337","RoadLinkId":"51404101"}}},{"Relevance":1.0,"Distance":76.0,"MatchLevel":"street","MatchQuality":{"Country":1.0,"State":1.0,"County":1.0,"City":1.0,"Street":[1.0],"PostalCode":1.0},"Location":{"LocationId":"NT_Pkd3bRXzhSwjF8HQ1.0CMC_l_537549554_L","LocationType":"point","DisplayPosition":{"Latitude":44.3539915,"Longitude":2.03622},"MapView":{"TopLeft":{"Latitude":44.35431,"Longitude":2.03609},"BottomRight":{"Latitude":44.35396,"Longitude":2.03749}},"Address":{"Label":"Boulevard du Petit Languedoc, 12200 Villefranche-de-Rouergue, France","Country":"FRA","State":"Occitanie","County":"Aveyron","City":"Villefranche-de-Rouergue","Street":"Boulevard du Petit Languedoc","PostalCode":"12200","AdditionalData":[{"value":"France","key":"CountryName"},{"value":"Occitanie","key":"StateName"},{"value":"Aveyron","key":"CountyName"}]},"MapReference":{"ReferenceId":"537549554","Spot":0.09,"SideOfStreet":"left","CountryId":"20000001","StateId":"20050212","CountyId":"20085946","CityId":"20086845"}}},{"Relevance":1.0,"Distance":78.5,"MatchLevel":"street","MatchQuality":{"Country":1.0,"State":1.0,"County":1.0,"City":1.0,"Street":[1.0],"PostalCode":1.0},"Location":{"LocationId":"NT_llIZ2gtI5G5iAUCR3d1LhB_l_537577053_L","LocationType":"point","DisplayPosition":{"Latitude":44.35396,"Longitude":2.03609},"MapView":{"TopLeft":{"Latitude":44.35396,"Longitude":2.03494},"BottomRight":{"Latitude":44.35367,"Longitude":2.03609}},"Address":{"Label":"Promenade du Petit Languedoc, 12200 Villefranche-de-Rouergue, France","Country":"FRA","State":"Occitanie","County":"Aveyron","City":"Villefranche-de-Rouergue","Street":"Promenade du Petit Languedoc","PostalCode":"12200","AdditionalData":[{"value":"France","key":"CountryName"},{"value":"Occitanie","key":"StateName"},{"value":"Aveyron","key":"CountyName"}]},"MapReference":{"ReferenceId":"537577053","Spot":1.0,"SideOfStreet":"left","CountryId":"20000001","StateId":"20050212","CountyId":"20085946","CityId":"20086845"}}},{"Relevance":1.0,"Distance":78.5,"MatchLevel":"street","MatchQuality":{"Country":1.0,"State":1.0,"County":1.0,"City":1.0,"PostalCode":1.0},"Location":{"LocationId":"NT_P93z-w66TCglcldSs1Pa.D_l_537549569_L","LocationType":"point","DisplayPosition":{"Latitude":44.35396,"Longitude":2.03609},"MapView":{"TopLeft":{"Latitude":44.35396,"Longitude":2.03609},"BottomRight":{"Latitude":44.3538,"Longitude":2.03609}},"Address":{"Label":"12200 Villefranche-de-Rouergue, France","Country":"FRA","State":"Occitanie","County":"Aveyron","City":"Villefranche-de-Rouergue","PostalCode":"12200","AdditionalData":[{"value":"France","key":"CountryName"},{"value":"Occitanie","key":"StateName"},{"value":"Aveyron","key":"CountyName"}]},"MapReference":{"ReferenceId":"537549569","Spot":1.0,"SideOfStreet":"left","CountryId":"20000001","StateId":"20050212","CountyId":"20085946","CityId":"20086845"}}},{"Relevance":1.0,"Distance":78.5,"MatchLevel":"street","MatchQuality":{"Country":1.0,"State":1.0,"County":1.0,"City":1.0,"PostalCode":1.0},"Location":{"LocationId":"NT_P93z-w66TCglcldSs1Pa.D_l_537549562_R","LocationType":"point","DisplayPosition":{"Latitude":44.35396,"Longitude":2.03609},"MapView":{"TopLeft":{"Latitude":44.35396,"Longitude":2.03609},"BottomRight":{"Latitude":44.35385,"Longitude":2.03635}},"Address":{"Label":"12200 Villefranche-de-Rouergue, France","Country":"FRA","State":"Occitanie","County":"Aveyron","City":"Villefranche-de-Rouergue","PostalCode":"12200","AdditionalData":[{"value":"France","key":"CountryName"},{"value":"Occitanie","key":"StateName"},{"value":"Aveyron","key":"CountyName"}]},"MapReference":{"ReferenceId":"537549562","Spot":1.0,"SideOfStreet":"right","CountryId":"20000001","StateId":"20050212","CountyId":"20085946","CityId":"20086845"}}},{"Relevance":1.0,"Distance":85.6,"MatchLevel":"street","MatchQuality":{"Country":1.0,"State":1.0,"County":1.0,"City":1.0,"Street":[1.0],"PostalCode":1.0},"Location":{"LocationId":"NT_3mHLdz2Nud3TmHlcNWrBSB_l_537549543_L","LocationType":"point","DisplayPosition":{"Latitude":44.3554303,"Longitude":2.0359318},"MapView":{"TopLeft":{"Latitude":44.35565,"Longitude":2.03527},"BottomRight":{"Latitude":44.35543,"Longitude":2.03642}},"Address":{"Label":"Rue du 19 Mars 1962, 12200 Villefranche-de-Rouergue, France","Country":"FRA","State":"Occitanie","County":"Aveyron","City":"Villefranche-de-Rouergue","Street":"Rue du 19 Mars 1962","PostalCode":"12200","AdditionalData":[{"value":"France","key":"CountryName"},{"value":"Occitanie","key":"StateName"},{"value":"Aveyron","key":"CountyName"}]},"MapReference":{"ReferenceId":"537549543","Spot":0.41,"SideOfStreet":"left","CountryId":"20000001","StateId":"20050212","CountyId":"20085946","CityId":"20086845"}}},{"Relevance":1.0,"Distance":94.5,"MatchLevel":"houseNumber","MatchQuality":{"Country":1.0,"State":1.0,"County":1.0,"City":1.0,"Street":[1.0],"HouseNumber":1.0,"PostalCode":1.0},"MatchType":"interpolated","Location":{"LocationId":"NT_YF.nh.JtuPHvxNiR.yDd7B_zED","LocationType":"point","DisplayPosition":{"Latitude":44.35382,"Longitude":2.03618},"MapView":{"TopLeft":{"Latitude":44.3549442,"Longitude":2.0346078},"BottomRight":{"Latitude":44.3526958,"Longitude":2.0377522}},"Address":{"Label":"31 Boulevard Haute Guyenne, 12200 Villefranche-de-Rouergue, France","Country":"FRA","State":"Occitanie","County":"Aveyron","City":"Villefranche-de-Rouergue","Street":"Boulevard Haute Guyenne","HouseNumber":"31","PostalCode":"12200","AdditionalData":[{"value":"France","key":"CountryName"},{"value":"Occitanie","key":"StateName"},{"value":"Aveyron","key":"CountyName"}]},"MapReference":{"ReferenceId":"537540802","Spot":0.35,"SideOfStreet":"right","CountryId":"20000001","StateId":"20050212","CountyId":"20085946","CityId":"20086845","AddressId":"571780069","RoadLinkId":"50947977"}}},{"Relevance":1.0,"Distance":96.7,"MatchLevel":"houseNumber","MatchQuality":{"Country":1.0,"State":1.0,"County":1.0,"City":1.0,"Street":[1.0],"HouseNumber":1.0,"PostalCode":1.0},"MatchType":"interpolated","Location":{"LocationId":"NT_YF.nh.JtuPHvxNiR.yDd7B_yUD","LocationType":"point","DisplayPosition":{"Latitude":44.35388,"Longitude":2.03658},"MapView":{"TopLeft":{"Latitude":44.3550042,"Longitude":2.0350078},"BottomRight":{"Latitude":44.3527558,"Longitude":2.0381522}},"Address":{"Label":"25 Boulevard Haute Guyenne, 12200 Villefranche-de-Rouergue, France","Country":"FRA","State":"Occitanie","County":"Aveyron","City":"Villefranche-de-Rouergue","Street":"Boulevard Haute Guyenne","HouseNumber":"25","PostalCode":"12200","AdditionalData":[{"value":"France","key":"CountryName"},{"value":"Occitanie","key":"StateName"},{"value":"Aveyron","key":"CountyName"}]},"MapReference":{"ReferenceId":"537540796","Spot":0.41,"SideOfStreet":"right","CountryId":"20000001","StateId":"20050212","CountyId":"20085946","CityId":"20086845","AddressId":"571752406","RoadLinkId":"50492576"}}},{"Relevance":1.0,"Distance":98.3,"MatchLevel":"street","MatchQuality":{"Country":1.0,"State":1.0,"County":1.0,"City":1.0,"Street":[1.0],"PostalCode":1.0},"Location":{"LocationId":"NT_ODNhzZVqQcRTER9kr.icsB_l_537549573_L","LocationType":"point","DisplayPosition":{"Latitude":44.35551,"Longitude":2.03642},"MapView":{"TopLeft":{"Latitude":44.35653,"Longitude":2.03638},"BottomRight":{"Latitude":44.35551,"Longitude":2.0366}},"Address":{"Label":"Chemin des Filtres, 12200 Villefranche-de-Rouergue, France","Country":"FRA","State":"Occitanie","County":"Aveyron","City":"Villefranche-de-Rouergue","Street":"Chemin des Filtres","PostalCode":"12200","AdditionalData":[{"value":"France","key":"CountryName"},{"value":"Occitanie","key":"StateName"},{"value":"Aveyron","key":"CountyName"}]},"MapReference":{"ReferenceId":"537549573","Spot":0.0,"SideOfStreet":"left","CountryId":"20000001","StateId":"20050212","CountyId":"20085946","CityId":"20086845"}}}]}]}}