{"Response":{"MetaInfo":{"Timestamp":"2020-03-28T09:56:05.351+0000","NextPageInformation":"2"},"View":[{"_type":"SearchResultsViewType","ViewId":0,"Result":[{"Relevance":1.0,"Distance":0.0,"Direction":0.0,"MatchLevel":"city","MatchQuality":{"Country":1.0,"State":1.0,"County":1.0,"City":1.0,"PostalCode":1.0},"Location":{"LocationId":"NT_mbxIRmzc6Um0AWtmhMFO7B","LocationType":"point","DisplayPosition":{"Latitude":44.3510484,"Longitude":9.159604},"MapView":{"TopLeft":{"Latitude":44.35814,"Longitude":9.14506},"BottomRight":{"Latitude":44.30844,"Longitude":9.192}},"Address":{"Label":"Camogli, Liguria, Italia","Country":"ITA","State":"Liguria","County":"GE","City":"Camogli","PostalCode":"16032","AdditionalData":[{"value":"Italia","key":"CountryName"},{"value":"Liguria","key":"StateName"},{"value":"Genova","key":"CountyName"}]},"MapReference":{"ReferenceId":"844894602","SideOfStreet":"neither","CountryId":"20110484","StateId":"20114100","CountyId":"20114536","CityId":"20114561"}}},{"Relevance":1.0,"Distance":52.7,"MatchLevel":"houseNumber","MatchQuality":{"Country":1.0,"State":1.0,"County":1.0,"City":1.0,"Street":[1.0],"HouseNumber":1.0,"PostalCode":1.0},"MatchType":"interpolated","Location":{"LocationId":"NT_kTv-3s1pFbPwH5JkMSz0rA_l_587656755_R_4YD","LocationType":"point","DisplayPosition":{"Latitude":44.3506683,"Longitude":9.1599996},"MapView":{"TopLeft":{"Latitude":44.3517925,"Longitude":9.1584275},"BottomRight":{"Latitude":44.3495442,"Longitude":9.1615717}},"Address":{"Label":"Strada Vicinale Cava, 86, 16032 Camogli GE, Italia","Country":"ITA","State":"Liguria","County":"GE","City":"Camogli","Street":"Strada Vicinale Cava","HouseNumber":"86","PostalCode":"16032","AdditionalData":[{"value":"Italia","key":"CountryName"},{"value":"Liguria","key":"StateName"},{"value":"Genova","key":"CountyName"}]},"MapReference":{"ReferenceId":"587656755","Spot":0.61,"SideOfStreet":"right","CountryId":"20110484","StateId":"20114100","CountyId":"20114536","CityId":"20114561"}}},{"Relevance":1.0,"Distance":107.7,"MatchLevel":"houseNumber","MatchQuality":{"Country":1.0,"State":1.0,"County":1.0,"City":1.0,"Street":[1.0],"HouseNumber":1.0,"PostalCode":1.0},"MatchType":"interpolated","Location":{"LocationId":"NT_CBvsl5Q49MnZ5zSUTJz4zB_4ID","LocationType":"point","DisplayPosition":{"Latitude":44.3499,"Longitude":9.1607},"MapView":{"TopLeft":{"Latitude":44.3510242,"Longitude":9.1591279},"BottomRight":{"Latitude":44.3487758,"Longitude":9.1622721}},"Address":{"Label":"Via Aurelia, 82, 16032 Camogli GE, Italia","Country":"ITA","State":"Liguria","County":"GE","City":"Camogli","Street":"Via Aurelia","HouseNumber":"82","PostalCode":"16032","AdditionalData":[{"value":"Italia","key":"CountryName"},{"value":"Liguria","key":"StateName"},{"value":"Genova","key":"CountyName"}]},"MapReference":{"ReferenceId":"727922876","Spot":0.71,"SideOfStreet":"right","CountryId":"20110484","StateId":"20114100","CountyId":"20114536","CityId":"20114561","AddressId":"373125590","RoadLinkId":"130549324"}}},{"Relevance":1.0,"Distance":116.2,"MatchLevel":"houseNumber","MatchQuality":{"Country":1.0,"State":1.0,"County":1.0,"City":1.0,"Street":[1.0],"HouseNumber":1.0,"PostalCode":1.0},"MatchType":"interpolated","Location":{"LocationId":"NT_kTv-3s1pFbPwH5JkMSz0rA_l_587656754_R_3kD","LocationType":"point","DisplayPosition":{"Latitude":44.3499791,"Longitude":9.1589091},"MapView":{"TopLeft":{"Latitude":44.3511032,"Longitude":9.1573371},"BottomRight":{"Latitude":44.3488549,"Longitude":9.1604812}},"Address":{"Label":"Strada Vicinale Cava, 79, 16032 Camogli GE, Italia","Country":"ITA","State":"Liguria","County":"GE","City":"Camogli","Street":"Strada Vicinale Cava","HouseNumber":"79","PostalCode":"16032","AdditionalData":[{"value":"Italia","key":"CountryName"},{"value":"Liguria","key":"StateName"},{"value":"Genova","key":"CountyName"}]},"MapReference":{"ReferenceId":"587656754","Spot":0.48,"SideOfStreet":"right","CountryId":"20110484","StateId":"20114100","CountyId":"20114536","CityId":"20114561"}}},{"Relevance":1.0,"Distance":130.0,"MatchLevel":"houseNumber","MatchQuality":{"Country":1.0,"State":1.0,"County":1.0,"City":1.0,"Street":[1.0],"HouseNumber":1.0,"PostalCode":1.0},"MatchType":"interpolated","Location":{"LocationId":"NT_CBvsl5Q49MnZ5zSUTJz4zB_4kD","LocationType":"point","DisplayPosition":{"Latitude":44.34985,"Longitude":9.15955},"MapView":{"TopLeft":{"Latitude":44.3509742,"Longitude":9.1579779},"BottomRight":{"Latitude":44.3487258,"Longitude":9.1611221}},"Address":{"Label":"Via Aurelia, 89, 16032 Camogli GE, Italia","Country":"ITA","State":"Liguria","County":"GE","City":"Camogli","Street":"Via Aurelia","HouseNumber":"89","PostalCode":"16032","AdditionalData":[{"value":"Italia","key":"CountryName"},{"value":"Liguria","key":"StateName"},{"value":"Genova","key":"CountyName"}]},"MapReference":{"ReferenceId":"578582913","Spot":0.59,"SideOfStreet":"right","CountryId":"20110484","StateId":"20114100","CountyId":"20114536","CityId":"20114561","AddressId":"373177175","RoadLinkId":"55047467"}}},{"Relevance":1.0,"Distance":135.1,"MatchLevel":"street","MatchQuality":{"Country":1.0,"State":1.0,"County":1.0,"City":1.0,"Street":[1.0],"PostalCode":1.0},"Location":{"LocationId":"NT_nPUyrK4u9ZzDY.q3NbHvVC_l_1141508393_R","LocationType":"point","DisplayPosition":{"Latitude":44.34993,"Longitude":9.15894},"MapView":{"TopLeft":{"Latitude":44.34994,"Longitude":9.15886},"BottomRight":{"Latitude":44.34993,"Longitude":9.15894}},"Address":{"Label":"Via Aurelia, 16032 Camogli GE, Italia","Country":"ITA","State":"Liguria","County":"GE","City":"Camogli","Street":"Via Aurelia","PostalCode":"16032","AdditionalData":[{"value":"Italia","key":"CountryName"},{"value":"Liguria","key":"StateName"},{"value":"Genova","key":"CountyName"}]},"MapReference":{"ReferenceId":"1141508393","Spot":0.0,"SideOfStreet":"right","CountryId":"20110484","StateId":"20114100","CountyId":"20114536","CityId":"20114561"}}},{"Relevance":1.0,"Distance":137.2,"MatchLevel":"houseNumber","MatchQuality":{"Country":1.0,"State":1.0,"County":1.0,"City":1.0,"Street":[1.0],"HouseNumber":1.0,"PostalCode":1.0},"MatchType":"interpolated","Location":{"LocationId":"NT_CBvsl5Q49MnZ5zSUTJz4zB_3gD","LocationType":"point","DisplayPosition":{"Latitude":44.35001,"Longitude":9.15857},"MapView":{"TopLeft":{"Latitude":44.3511342,"Longitude":9.1569979},"BottomRight":{"Latitude":44.3488858,"Longitude":9.1601421}},"Address":{"Label":"Via Aurelia, 78, 16032 Camogli GE, Italia","Country":"ITA","State":"Liguria","County":"GE","City":"Camogli","Street":"Via Aurelia","HouseNumber":"78","PostalCode":"16032","AdditionalData":[{"value":"Italia","key":"CountryName"},{"value":"Liguria","key":"StateName"},{"value":"Genova","key":"CountyName"}]},"MapReference":{"ReferenceId":"1141508394","Spot":0.21,"SideOfStreet":"right","CountryId":"20110484","StateId":"20114100","CountyId":"20114536","CityId":"20114561","AddressId":"710204003","RoadLinkId":"447071271"}}},{"Relevance":1.0,"Distance":148.0,"MatchLevel":"houseNumber","MatchQuality":{"Country":1.0,"State":1.0,"County":1.0,"City":1.0,"Street":[1.0],"HouseNumber":1.0,"PostalCode":1.0},"MatchType":"interpolated","Location":{"LocationId":"NT_lOKUZ3zwKiytxc6fyo49CC_5AD","LocationType":"point","DisplayPosition":{"Latitude":44.34978,"Longitude":9.15904},"MapView":{"TopLeft":{"Latitude":44.3509042,"Longitude":9.1574679},"BottomRight":{"Latitude":44.3486558,"Longitude":9.1606121}},"Address":{"Label":"Via Romana, 90, 16032 Camogli GE, Italia","Country":"ITA","State":"Liguria","County":"GE","City":"Camogli","Street":"Via Romana","HouseNumber":"90","PostalCode":"16032","AdditionalData":[{"value":"Italia","key":"CountryName"},{"value":"Liguria","key":"StateName"},{"value":"Genova","key":"CountyName"}]},"MapReference":{"ReferenceId":"578583410","Spot":0.17,"SideOfStreet":"right","CountryId":"20110484","StateId":"20114100","CountyId":"20114536","CityId":"20114561","AddressId":"373132325","RoadLinkId":"55855152"}}},{"Relevance":1.0,"Distance":151.0,"MatchLevel":"houseNumber","MatchQuality":{"Country":1.0,"State":1.0,"County":1.0,"City":1.0,"Street":[1.0],"HouseNumber":1.0,"PostalCode":1.0},"MatchType":"interpolated","Location":{"LocationId":"NT_CBvsl5Q49MnZ5zSUTJz4zB_3UD","LocationType":"point","DisplayPosition":{"Latitude":44.3507,"Longitude":9.15756},"MapView":{"TopLeft":{"Latitude":44.3518242,"Longitude":9.1559879},"BottomRight":{"Latitude":44.3495758,"Longitude":9.1591321}},"Address":{"Label":"Via Aurelia, 75, 16032 Camogli GE, Italia","Country":"ITA","State":"Liguria","County":"GE","City":"Camogli","Street":"Via Aurelia","HouseNumber":"75","PostalCode":"16032","AdditionalData":[{"value":"Italia","key":"CountryName"},{"value":"Liguria","key":"StateName"},{"value":"Genova","key":"CountyName"}]},"MapReference":{"ReferenceId":"1141508391","Spot":0.04,"SideOfStreet":"right","CountryId":"20110484","StateId":"20114100","CountyId":"20114536","CityId":"20114561","AddressId":"373065304","RoadLinkId":"447071266"}}},{"Relevance":1.0,"Distance":174.5,"MatchLevel":"houseNumber","MatchQuality":{"Country":1.0,"State":1.0,"County":1.0,"City":1.0,"Street":[1.0],"HouseNumber":1.0,"PostalCode":1.0},"MatchType":"interpolated","Location":{"LocationId":"NT_-LhHQyqYwd0SXimboe-2KD_zETQ","LocationType":"point","DisplayPosition":{"Latitude":44.34948,"Longitude":9.15968},"MapView":{"TopLeft":{"Latitude":44.3506042,"Longitude":9.158108},"BottomRight":{"Latitude":44.3483558,"Longitude":9.161252}},"Address":{"Label":"Via Sego, 31A, 16032 Camogli GE, Italia","Country":"ITA","State":"Liguria","County":"GE","City":"Camogli","Street":"Via Sego","HouseNumber":"31A","PostalCode":"16032","AdditionalData":[{"value":"Italia","key":"CountryName"},{"value":"Liguria","key":"StateName"},{"value":"Genova","key":"CountyName"}]},"MapReference":{"ReferenceId":"578583412","Spot":0.61,"SideOfStreet":"left","CountryId":"20110484","StateId":"20114100","CountyId":"20114536","CityId":"20114561","AddressId":"373092278","RoadLinkId":"55301996"}}}]}]}}