{"Response":{"MetaInfo":{"Timestamp":"2020-03-28T11:23:34.678+0000","NextPageInformation":"2"},"View":[{"_type":"SearchResultsViewType","ViewId":0,"Result":[{"Relevance":1.0,"Distance":0.0,"Direction":0.0,"MatchLevel":"city","MatchQuality":{"Country":1.0,"State":1.0,"County":1.0,"City":1.0,"PostalCode":1.0},"Location":{"LocationId":"NT_mAOz9-ywJcoLHg4fVfsioA","LocationType":"point","DisplayPosition":{"Latitude":44.3176656,"Longitude":11.8005193},"MapView":{"TopLeft":{"Latitude":44.36479,"Longitude":11.73585},"BottomRight":{"Latitude":44.28605,"Longitude":11.84168}},"Address":{"Label":"Castel Bolognese, Emilia Romagna, Italia","Country":"ITA","State":"Emilia Romagna","County":"RA","City":"Castel Bolognese","PostalCode":"48014","AdditionalData":[{"value":"Italia","key":"CountryName"},{"value":"Emilia Romagna","key":"StateName"},{"value":"Ravenna","key":"CountyName"}]},"MapReference":{"ReferenceId":"833138295","SideOfStreet":"neither","CountryId":"20110484","StateId":"20123512","CountyId":"20125950","CityId":"20125972"}}},{"Relevance":1.0,"Distance":39.8,"MatchLevel":"houseNumber","MatchQuality":{"Country":1.0,"State":1.0,"County":1.0,"City":1.0,"Street":[1.0],"HouseNumber":1.0,"PostalCode":1.0},"MatchType":"interpolated","Location":{"LocationId":"NT_rZY9wpx3UoUgE.uNowvKmA_zA","LocationType":"point","DisplayPosition":{"Latitude":44.31737,"Longitude":11.80022},"MapView":{"TopLeft":{"Latitude":44.3184942,"Longitude":11.7986488},"BottomRight":{"Latitude":44.3162458,"Longitude":11.8017912}},"Address":{"Label":"Viale Roma, 3, 48014 Castel Bolognese RA, Italia","Country":"ITA","State":"Emilia Romagna","County":"RA","City":"Castel Bolognese","Street":"Viale Roma","HouseNumber":"3","PostalCode":"48014","AdditionalData":[{"value":"Italia","key":"CountryName"},{"value":"Emilia Romagna","key":"StateName"},{"value":"Ravenna","key":"CountyName"}]},"MapReference":{"ReferenceId":"82642337","Spot":0.26,"SideOfStreet":"right","CountryId":"20110484","StateId":"20123512","CountyId":"20125950","CityId":"20125972","AddressId":"385031648","RoadLinkId":"59120710"}}},{"Relevance":1.0,"Distance":41.5,"MatchLevel":"houseNumber","MatchQuality":{"Country":1.0,"State":1.0,"County":1.0,"City":1.0,"Street":[1.0],"HouseNumber":1.0,"PostalCode":1.0},"MatchType":"interpolated","Location":{"LocationId":"NT_B33OLQe.02PcGwM52fcX9D_l_841188906_L_xYjM","LocationType":"point","DisplayPosition":{"Latitude":44.3175511,"Longitude":11.8011697},"MapView":{"TopLeft":{"Latitude":44.3186753,"Longitude":11.7995985},"BottomRight":{"Latitude":44.316427,"Longitude":11.8027409}},"Address":{"Label":"Via Biancanigo, 162, 48014 Castel Bolognese RA, Italia","Country":"ITA","State":"Emilia Romagna","County":"RA","City":"Castel Bolognese","Street":"Via Biancanigo","HouseNumber":"162","PostalCode":"48014","AdditionalData":[{"value":"Italia","key":"CountryName"},{"value":"Emilia Romagna","key":"StateName"},{"value":"Ravenna","key":"CountyName"}]},"MapReference":{"ReferenceId":"841188906","Spot":0.54,"SideOfStreet":"left","CountryId":"20110484","StateId":"20123512","CountyId":"20125950","CityId":"20125972"}}},{"Relevance":1.0,"Distance":46.4,"MatchLevel":"houseNumber","MatchQuality":{"Country":1.0,"State":1.0,"County":1.0,"City":1.0,"Street":[1.0],"HouseNumber":1.0,"PostalCode":1.0},"MatchType":"interpolated","Location":{"LocationId":"NT_B33OLQe.02PcGwM52fcX9D_xUjN","LocationType":"point","DisplayPosition":{"Latitude":44.31731,"Longitude":11.80099},"MapView":{"TopLeft":{"Latitude":44.3184342,"Longitude":11.7994188},"BottomRight":{"Latitude":44.3161858,"Longitude":11.8025612}},"Address":{"Label":"Via Biancanigo, 156, 48014 Castel Bolognese RA, Italia","Country":"ITA","State":"Emilia Romagna","County":"RA","City":"Castel Bolognese","Street":"Via Biancanigo","HouseNumber":"156","PostalCode":"48014","AdditionalData":[{"value":"Italia","key":"CountryName"},{"value":"Emilia Romagna","key":"StateName"},{"value":"Ravenna","key":"CountyName"}]},"MapReference":{"ReferenceId":"841188905","Spot":0.73,"SideOfStreet":"left","CountryId":"20110484","StateId":"20123512","CountyId":"20125950","CityId":"20125972","AddressId":"728446891","RoadLinkId":"223105029"}}},{"Relevance":1.0,"Distance":50.9,"MatchLevel":"houseNumber","MatchQuality":{"Country":1.0,"State":1.0,"County":1.0,"City":1.0,"Street":[1.0],"HouseNumber":1.0,"PostalCode":1.0},"MatchType":"interpolated","Location":{"LocationId":"NT_L6T9-b0Jv9fn6GynomJLIC_1A","LocationType":"point","DisplayPosition":{"Latitude":44.31817,"Longitude":11.80007},"MapView":{"TopLeft":{"Latitude":44.3192942,"Longitude":11.7984988},"BottomRight":{"Latitude":44.3170458,"Longitude":11.8016412}},"Address":{"Label":"Via Pietro Borghesi, 5, 48014 Castel Bolognese RA, Italia","Country":"ITA","State":"Emilia Romagna","County":"RA","City":"Castel Bolognese","Street":"Via Pietro Borghesi","HouseNumber":"5","PostalCode":"48014","AdditionalData":[{"value":"Italia","key":"CountryName"},{"value":"Emilia Romagna","key":"StateName"},{"value":"Ravenna","key":"CountyName"}]},"MapReference":{"ReferenceId":"82641349","Spot":0.6,"SideOfStreet":"right","CountryId":"20110484","StateId":"20123512","CountyId":"20125950","CityId":"20125972","AddressId":"385045976","RoadLinkId":"58481426"}}},{"Relevance":1.0,"Distance":56.2,"MatchLevel":"street","MatchQuality":{"Country":1.0,"State":1.0,"County":1.0,"City":1.0,"Street":[1.0],"PostalCode":1.0},"Location":{"LocationId":"NT_vMtBfb8wpFgAFBUKsL3UOB_l_82641333_R","LocationType":"point","DisplayPosition":{"Latitude":44.31812,"Longitude":11.80083},"MapView":{"TopLeft":{"Latitude":44.31849,"Longitude":11.80083},"BottomRight":{"Latitude":44.31812,"Longitude":11.80114}},"Address":{"Label":"Piazzale Giuseppe Garibaldi, 48014 Castel Bolognese RA, Italia","Country":"ITA","State":"Emilia Romagna","County":"RA","City":"Castel Bolognese","Street":"Piazzale Giuseppe Garibaldi","PostalCode":"48014","AdditionalData":[{"value":"Italia","key":"CountryName"},{"value":"Emilia Romagna","key":"StateName"},{"value":"Ravenna","key":"CountyName"}]},"MapReference":{"ReferenceId":"82641333","Spot":0.0,"SideOfStreet":"right","CountryId":"20110484","StateId":"20123512","CountyId":"20125950","CityId":"20125972"}}},{"Relevance":1.0,"Distance":57.7,"MatchLevel":"street","MatchQuality":{"Country":1.0,"State":1.0,"County":1.0,"City":1.0,"Street":[1.0],"PostalCode":1.0},"Location":{"LocationId":"NT_EvU.tMNnZUiEqt8wQjnBZA_l_82641334_L","LocationType":"point","DisplayPosition":{"Latitude":44.3181653,"Longitude":11.8007136},"MapView":{"TopLeft":{"Latitude":44.31833,"Longitude":11.80029},"BottomRight":{"Latitude":44.31812,"Longitude":11.80083}},"Address":{"Label":"Via Antolini, 48014 Castel Bolognese RA, Italia","Country":"ITA","State":"Emilia Romagna","County":"RA","City":"Castel Bolognese","Street":"Via Antolini","PostalCode":"48014","AdditionalData":[{"value":"Italia","key":"CountryName"},{"value":"Emilia Romagna","key":"StateName"},{"value":"Ravenna","key":"CountyName"}]},"MapReference":{"ReferenceId":"82641334","Spot":0.22,"SideOfStreet":"left","CountryId":"20110484","StateId":"20123512","CountyId":"20125950","CityId":"20125972"}}},{"Relevance":1.0,"Distance":59.4,"MatchLevel":"houseNumber","MatchQuality":{"Country":1.0,"State":1.0,"County":1.0,"City":1.0,"Street":[1.0],"HouseNumber":1.0,"PostalCode":1.0},"MatchType":"interpolated","Location":{"LocationId":"NT_L6T9-b0Jv9fn6GynomJLIC_xUD","LocationType":"point","DisplayPosition":{"Latitude":44.31775,"Longitude":11.79975},"MapView":{"TopLeft":{"Latitude":44.3188742,"Longitude":11.7981788},"BottomRight":{"Latitude":44.3166258,"Longitude":11.8013212}},"Address":{"Label":"Via Pietro Borghesi, 15, 48014 Castel Bolognese RA, Italia","Country":"ITA","State":"Emilia Romagna","County":"RA","City":"Castel Bolognese","Street":"Via Pietro Borghesi","HouseNumber":"15","PostalCode":"48014","AdditionalData":[{"value":"Italia","key":"CountryName"},{"value":"Emilia Romagna","key":"StateName"},{"value":"Ravenna","key":"CountyName"}]},"MapReference":{"ReferenceId":"82642148","Spot":0.74,"SideOfStreet":"right","CountryId":"20110484","StateId":"20123512","CountyId":"20125950","CityId":"20125972","AddressId":"385116771","RoadLinkId":"59280948"}}},{"Relevance":1.0,"Distance":67.9,"MatchLevel":"houseNumber","MatchQuality":{"Country":1.0,"State":1.0,"County":1.0,"City":1.0,"Street":[1.0],"HouseNumber":1.0,"PostalCode":1.0},"MatchType":"interpolated","Location":{"LocationId":"NT_PR99yvmC66JMx2Va2JY3tD_4A","LocationType":"point","DisplayPosition":{"Latitude":44.31793,"Longitude":11.79974},"MapView":{"TopLeft":{"Latitude":44.3190542,"Longitude":11.7981688},"BottomRight":{"Latitude":44.3168058,"Longitude":11.8013112}},"Address":{"Label":"Via Panazza, 8, 48014 Castel Bolognese RA, Italia","Country":"ITA","State":"Emilia Romagna","County":"RA","City":"Castel Bolognese","Street":"Via Panazza","HouseNumber":"8","PostalCode":"48014","AdditionalData":[{"value":"Italia","key":"CountryName"},{"value":"Emilia Romagna","key":"StateName"},{"value":"Ravenna","key":"CountyName"}]},"MapReference":{"ReferenceId":"82641350","Spot":0.22,"SideOfStreet":"right","CountryId":"20110484","StateId":"20123512","CountyId":"20125950","CityId":"20125972","AddressId":"385067358","RoadLinkId":"59052009"}}},{"Relevance":1.0,"Distance":72.2,"MatchLevel":"houseNumber","MatchQuality":{"Country":1.0,"State":1.0,"County":1.0,"City":1.0,"Street":[1.0],"HouseNumber":1.0,"PostalCode":1.0},"MatchType":"interpolated","Location":{"LocationId":"NT_ihIWXKz5Wrurodxuni9mBB_xgD","LocationType":"point","DisplayPosition":{"Latitude":44.31753,"Longitude":11.80144},"MapView":{"TopLeft":{"Latitude":44.3186542,"Longitude":11.7998688},"BottomRight":{"Latitude":44.3164058,"Longitude":11.8030112}},"Address":{"Label":"Via Nino Bixio, 18, 48014 Castel Bolognese RA, Italia","Country":"ITA","State":"Emilia Romagna","County":"RA","City":"Castel Bolognese","Street":"Via Nino Bixio","HouseNumber":"18","PostalCode":"48014","AdditionalData":[{"value":"Italia","key":"CountryName"},{"value":"Emilia Romagna","key":"StateName"},{"value":"Ravenna","key":"CountyName"}]},"MapReference":{"ReferenceId":"82642110","Spot":0.85,"SideOfStreet":"left","CountryId":"20110484","StateId":"20123512","CountyId":"20125950","CityId":"20125972","AddressId":"728443385","RoadLinkId":"59528375"}}}]}]}}