{"Response":{"MetaInfo":{"Timestamp":"2020-03-28T10:00:25.260+0000","NextPageInformation":"2"},"View":[{"_type":"SearchResultsViewType","ViewId":0,"Result":[{"Relevance":1.0,"Distance":0.0,"Direction":0.0,"MatchLevel":"district","MatchQuality":{"Country":1.0,"County":1.0,"City":1.0,"District":1.0,"PostalCode":1.0},"Location":{"LocationId":"NT_egxBCY-upyF-qtG8nFNkqA","LocationType":"point","DisplayPosition":{"Latitude":44.3173637,"Longitude":23.8150286},"MapView":{"TopLeft":{"Latitude":44.35419,"Longitude":23.74383},"BottomRight":{"Latitude":44.27491,"Longitude":23.86847}},"Address":{"Label":"Craiova, România","Country":"ROU","County":"Dolj","City":"Craiova","District":"Craiova","PostalCode":"200473","AdditionalData":[{"value":"România","key":"CountryName"},{"value":"Dolj","key":"CountyName"}]},"MapReference":{"ReferenceId":"990698394","SideOfStreet":"neither","CountryId":"20656215","CountyId":"20659235","CityId":"20659321","DistrictId":"20659323"}}},{"Relevance":1.0,"Distance":14.9,"MatchLevel":"houseNumber","MatchQuality":{"Country":1.0,"County":1.0,"City":1.0,"District":1.0,"Street":[1.0],"HouseNumber":1.0,"PostalCode":1.0},"MatchType":"interpolated","Location":{"LocationId":"NT_MLBzERaB1rmVT8Wl5ue9aD_5kD","LocationType":"point","DisplayPosition":{"Latitude":44.31723,"Longitude":23.81503},"MapView":{"TopLeft":{"Latitude":44.3183542,"Longitude":23.8134588},"BottomRight":{"Latitude":44.3161058,"Longitude":23.8166012}},"Address":{"Label":"Calea București 99, 200473 Craiova, România","Country":"ROU","County":"Dolj","City":"Craiova","District":"Craiova","Street":"Calea București","HouseNumber":"99","PostalCode":"200473","AdditionalData":[{"value":"România","key":"CountryName"},{"value":"Dolj","key":"CountyName"}]},"MapReference":{"ReferenceId":"1002185302","Spot":0.21,"SideOfStreet":"right","CountryId":"20656215","CountyId":"20659235","CityId":"20659321","DistrictId":"20659323","AddressId":"756834139","RoadLinkId":"328461901"}}},{"Relevance":1.0,"Distance":17.6,"MatchLevel":"street","MatchQuality":{"Country":1.0,"County":1.0,"City":1.0,"District":1.0},"Location":{"LocationId":"NT_IvsAZvUuw2SxOaq3Hy-JbB_l_990698388_L","LocationType":"point","DisplayPosition":{"Latitude":44.317225,"Longitude":23.8151365},"MapView":{"TopLeft":{"Latitude":44.31777,"Longitude":23.81513},"BottomRight":{"Latitude":44.31722,"Longitude":23.81545}},"Address":{"Label":"Craiova, România","Country":"ROU","County":"Dolj","City":"Craiova","District":"Craiova","AdditionalData":[{"value":"România","key":"CountryName"},{"value":"Dolj","key":"CountyName"}]},"MapReference":{"ReferenceId":"990698388","Spot":0.01,"SideOfStreet":"left","CountryId":"20656215","CountyId":"20659235","CityId":"20659321","DistrictId":"20659323"}}},{"Relevance":1.0,"Distance":17.9,"MatchLevel":"street","MatchQuality":{"Country":1.0,"County":1.0,"City":1.0,"District":1.0,"Street":[1.0]},"Location":{"LocationId":"NT_E1kuJYw74IriY8z3kXzvWC_l_1197155700_R","LocationType":"point","DisplayPosition":{"Latitude":44.31722,"Longitude":23.81513},"MapView":{"TopLeft":{"Latitude":44.31722,"Longitude":23.81513},"BottomRight":{"Latitude":44.31718,"Longitude":23.81535}},"Address":{"Label":"Calea București, Craiova, România","Country":"ROU","County":"Dolj","City":"Craiova","District":"Craiova","Street":"Calea București","AdditionalData":[{"value":"România","key":"CountryName"},{"value":"Dolj","key":"CountyName"}]},"MapReference":{"ReferenceId":"1197155700","Spot":1.0,"SideOfStreet":"right","CountryId":"20656215","CountyId":"20659235","CityId":"20659321","DistrictId":"20659323"}}},{"Relevance":1.0,"Distance":26.5,"MatchLevel":"houseNumber","MatchQuality":{"Country":1.0,"County":1.0,"City":1.0,"District":1.0,"Street":[1.0],"HouseNumber":1.0},"MatchType":"interpolated","Location":{"LocationId":"NT_q7bpXM9KsrFXN.xngugIZB_l_588548346_L_xAD","LocationType":"point","DisplayPosition":{"Latitude":44.3171087,"Longitude":23.8153366},"MapView":{"TopLeft":{"Latitude":44.3182328,"Longitude":23.8137655},"BottomRight":{"Latitude":44.3159845,"Longitude":23.8169078}},"Address":{"Label":"Strada Horia 10, Craiova, România","Country":"ROU","County":"Dolj","City":"Craiova","District":"Craiova","Street":"Strada Horia","HouseNumber":"10","AdditionalData":[{"value":"România","key":"CountryName"},{"value":"Dolj","key":"CountyName"}]},"MapReference":{"ReferenceId":"588548346","Spot":0.55,"SideOfStreet":"left","CountryId":"20656215","CountyId":"20659235","CityId":"20659321","DistrictId":"20659323"}}},{"Relevance":1.0,"Distance":27.8,"MatchLevel":"street","MatchQuality":{"Country":1.0,"County":1.0,"City":1.0,"District":1.0,"Street":[1.0]},"Location":{"LocationId":"NT_q7bpXM9KsrFXN.xngugIZB_l_1197155699_L","LocationType":"point","DisplayPosition":{"Latitude":44.31731,"Longitude":23.81537},"MapView":{"TopLeft":{"Latitude":44.31777,"Longitude":23.81537},"BottomRight":{"Latitude":44.31731,"Longitude":23.81545}},"Address":{"Label":"Strada Horia, Craiova, România","Country":"ROU","County":"Dolj","City":"Craiova","District":"Craiova","Street":"Strada Horia","AdditionalData":[{"value":"România","key":"CountryName"},{"value":"Dolj","key":"CountyName"}]},"MapReference":{"ReferenceId":"1197155699","Spot":0.0,"SideOfStreet":"left","CountryId":"20656215","CountyId":"20659235","CityId":"20659321","DistrictId":"20659323"}}},{"Relevance":1.0,"Distance":27.8,"MatchLevel":"street","MatchQuality":{"Country":1.0,"County":1.0,"City":1.0,"District":1.0,"Street":[1.0]},"Location":{"LocationId":"NT_q7bpXM9KsrFXN.xngugIZB_l_1197155698_L","LocationType":"point","DisplayPosition":{"Latitude":44.31731,"Longitude":23.81537},"MapView":{"TopLeft":{"Latitude":44.31731,"Longitude":23.81535},"BottomRight":{"Latitude":44.31718,"Longitude":23.81537}},"Address":{"Label":"Strada Horia, Craiova, România","Country":"ROU","County":"Dolj","City":"Craiova","District":"Craiova","Street":"Strada Horia","AdditionalData":[{"value":"România","key":"CountryName"},{"value":"Dolj","key":"CountyName"}]},"MapReference":{"ReferenceId":"1197155698","Spot":1.0,"SideOfStreet":"left","CountryId":"20656215","CountyId":"20659235","CityId":"20659321","DistrictId":"20659323"}}},{"Relevance":1.0,"Distance":30.8,"MatchLevel":"street","MatchQuality":{"Country":1.0,"County":1.0,"City":1.0,"District":1.0,"Street":[1.0]},"Location":{"LocationId":"NT_S3I5PDSfuZZ9rqKew9A3KA_l_1002185299_R","LocationType":"point","DisplayPosition":{"Latitude":44.3170901,"Longitude":23.8149728},"MapView":{"TopLeft":{"Latitude":44.31716,"Longitude":23.81463},"BottomRight":{"Latitude":44.31706,"Longitude":23.81512}},"Address":{"Label":"Calea București, Craiova, România","Country":"ROU","County":"Dolj","City":"Craiova","District":"Craiova","Street":"Calea București","AdditionalData":[{"value":"România","key":"CountryName"},{"value":"Dolj","key":"CountyName"}]},"MapReference":{"ReferenceId":"1002185299","Spot":0.3,"SideOfStreet":"right","CountryId":"20656215","CountyId":"20659235","CityId":"20659321","DistrictId":"20659323"}}},{"Relevance":1.0,"Distance":32.7,"MatchLevel":"street","MatchQuality":{"Country":1.0,"County":1.0,"City":1.0,"District":1.0,"Street":[1.0]},"Location":{"LocationId":"NT_E1kuJYw74IriY8z3kXzvWC_l_1197155695_R","LocationType":"point","DisplayPosition":{"Latitude":44.31718,"Longitude":23.81535},"MapView":{"TopLeft":{"Latitude":44.31718,"Longitude":23.81535},"BottomRight":{"Latitude":44.3171,"Longitude":23.81576}},"Address":{"Label":"Calea București, Craiova, România","Country":"ROU","County":"Dolj","City":"Craiova","District":"Craiova","Street":"Calea București","AdditionalData":[{"value":"România","key":"CountryName"},{"value":"Dolj","key":"CountyName"}]},"MapReference":{"ReferenceId":"1197155695","Spot":1.0,"SideOfStreet":"right","CountryId":"20656215","CountyId":"20659235","CityId":"20659321","DistrictId":"20659323"}}},{"Relevance":1.0,"Distance":34.4,"MatchLevel":"street","MatchQuality":{"Country":1.0,"County":1.0,"City":1.0,"District":1.0},"Location":{"LocationId":"NT_H9RCd67xl3NwLFvD7f0QxA_l_1104744618_R","LocationType":"point","DisplayPosition":{"Latitude":44.31767,"Longitude":23.81509},"MapView":{"TopLeft":{"Latitude":44.3178,"Longitude":23.81509},"BottomRight":{"Latitude":44.31767,"Longitude":23.81512}},"Address":{"Label":"Craiova, România","Country":"ROU","County":"Dolj","City":"Craiova","District":"Craiova","AdditionalData":[{"value":"România","key":"CountryName"},{"value":"Dolj","key":"CountyName"}]},"MapReference":{"ReferenceId":"1104744618","Spot":0.0,"SideOfStreet":"right","CountryId":"20656215","CountyId":"20659235","CityId":"20659321","DistrictId":"20659323"}}}]}]}}