{"Response":{"MetaInfo":{"Timestamp":"2020-03-28T11:26:43.599+0000","NextPageInformation":"2"},"View":[{"_type":"SearchResultsViewType","ViewId":0,"Result":[{"Relevance":1.0,"Distance":-2.7,"MatchLevel":"landmark","MatchQuality":{"Country":1.0,"State":1.0,"County":1.0,"City":1.0,"Street":[1.0],"PostalCode":1.0,"Name":1.0},"Location":{"LocationId":"NT_cEwUuUA0fAXBVgI.hV6bDC_p_G3xiOARzTLd0t9br5gqp3C","LocationType":"hospital","Name":"Pavullo nel Frignano","DisplayPosition":{"Latitude":44.3341,"Longitude":10.83558},"MapView":{"TopLeft":{"Latitude":44.33556,"Longitude":10.83457},"BottomRight":{"Latitude":44.33404,"Longitude":10.83665}},"Address":{"Label":"Via Suore di S. G. B. Cottolengo, 41026 Pavullo nel Frignano MO, Italia","Country":"ITA","State":"Emilia Romagna","County":"MO","City":"Pavullo nel Frignano","Street":"Via Suore di S. G. B. Cottolengo","PostalCode":"41026","AdditionalData":[{"value":"Italia","key":"CountryName"},{"value":"Emilia Romagna","key":"StateName"},{"value":"Modena","key":"CountyName"}]},"MapReference":{"CountryId":"20110484","StateId":"20123512","CountyId":"20123522","CityId":"20125494","PlaceId":"552734357"}}},{"Relevance":1.0,"Distance":0.0,"Direction":0.0,"MatchLevel":"city","MatchQuality":{"Country":1.0,"State":1.0,"County":1.0,"City":1.0,"PostalCode":1.0},"Location":{"LocationId":"NT_IFxzrzJJF421PvBlChEHGB","LocationType":"point","DisplayPosition":{"Latitude":44.3340651,"Longitude":10.836611},"MapView":{"TopLeft":{"Latitude":44.40842,"Longitude":10.75865},"BottomRight":{"Latitude":44.26708,"Longitude":10.93148}},"Address":{"Label":"Pavullo nel Frignano, Emilia Romagna, Italia","Country":"ITA","State":"Emilia Romagna","County":"MO","City":"Pavullo nel Frignano","PostalCode":"41026","AdditionalData":[{"value":"Italia","key":"CountryName"},{"value":"Emilia Romagna","key":"StateName"},{"value":"Modena","key":"CountyName"}]},"MapReference":{"ReferenceId":"575535047","SideOfStreet":"neither","CountryId":"20110484","StateId":"20123512","CountyId":"20123522","CityId":"20125494"}}},{"Relevance":1.0,"Distance":2.8,"MatchLevel":"street","MatchQuality":{"Country":1.0,"State":1.0,"County":1.0,"City":1.0,"Street":[1.0],"PostalCode":1.0},"Location":{"LocationId":"NT_ffrHyoGa0FGw2D3LUdfOUD_l_575535389_L","LocationType":"point","DisplayPosition":{"Latitude":44.33404,"Longitude":10.836611},"MapView":{"TopLeft":{"Latitude":44.33427,"Longitude":10.83457},"BottomRight":{"Latitude":44.33404,"Longitude":10.83665}},"Address":{"Label":"Via Suore di S. G. B. Cottolengo, 41026 Pavullo nel Frignano MO, Italia","Country":"ITA","State":"Emilia Romagna","County":"MO","City":"Pavullo nel Frignano","Street":"Via Suore di S. G. B. Cottolengo","PostalCode":"41026","AdditionalData":[{"value":"Italia","key":"CountryName"},{"value":"Emilia Romagna","key":"StateName"},{"value":"Modena","key":"CountyName"}]},"MapReference":{"ReferenceId":"575535389","Spot":0.02,"SideOfStreet":"neither","CountryId":"20110484","StateId":"20123512","CountyId":"20123522","CityId":"20125494"}}},{"Relevance":1.0,"Distance":20.2,"MatchLevel":"houseNumber","MatchQuality":{"Country":1.0,"State":1.0,"County":1.0,"City":1.0,"Street":[1.0],"HouseNumber":1.0,"PostalCode":1.0},"MatchType":"interpolated","Location":{"LocationId":"NT_Gr-tKxtjw.cAaOrWr7amNB_l_575535405_L_zA","LocationType":"point","DisplayPosition":{"Latitude":44.333885,"Longitude":10.83664},"MapView":{"TopLeft":{"Latitude":44.3350092,"Longitude":10.8350684},"BottomRight":{"Latitude":44.3327609,"Longitude":10.8382116}},"Address":{"Label":"Via Rainaudo, 3, 41026 Pavullo nel Frignano MO, Italia","Country":"ITA","State":"Emilia Romagna","County":"MO","City":"Pavullo nel Frignano","Street":"Via Rainaudo","HouseNumber":"3","PostalCode":"41026","AdditionalData":[{"value":"Italia","key":"CountryName"},{"value":"Emilia Romagna","key":"StateName"},{"value":"Modena","key":"CountyName"}]},"MapReference":{"ReferenceId":"575535405","Spot":0.48,"SideOfStreet":"left","CountryId":"20110484","StateId":"20123512","CountyId":"20123522","CityId":"20125494"}}},{"Relevance":1.0,"Distance":77.1,"MatchLevel":"houseNumber","MatchQuality":{"Country":1.0,"State":1.0,"County":1.0,"City":1.0,"Street":[1.0],"HouseNumber":1.0,"PostalCode":1.0},"MatchType":"interpolated","Location":{"LocationId":"NT_onvQXebOjUM3nL-bSMqXzA_3A","LocationType":"point","DisplayPosition":{"Latitude":44.33336,"Longitude":10.83655},"MapView":{"TopLeft":{"Latitude":44.3344842,"Longitude":10.8349784},"BottomRight":{"Latitude":44.3322358,"Longitude":10.8381216}},"Address":{"Label":"Via Lombardia, 7, 41026 Pavullo nel Frignano MO, Italia","Country":"ITA","State":"Emilia Romagna","County":"MO","City":"Pavullo nel Frignano","Street":"Via Lombardia","HouseNumber":"7","PostalCode":"41026","AdditionalData":[{"value":"Italia","key":"CountryName"},{"value":"Emilia Romagna","key":"StateName"},{"value":"Modena","key":"CountyName"}]},"MapReference":{"ReferenceId":"582464232","Spot":0.75,"SideOfStreet":"left","CountryId":"20110484","StateId":"20123512","CountyId":"20123522","CityId":"20125494","AddressId":"247961325","RoadLinkId":"59372704"}}},{"Relevance":1.0,"Distance":96.8,"MatchLevel":"houseNumber","MatchQuality":{"Country":1.0,"State":1.0,"County":1.0,"City":1.0,"Street":[1.0],"HouseNumber":1.0,"PostalCode":1.0},"MatchType":"interpolated","Location":{"LocationId":"NT_aiZyKKu.H.yhxZAK92sVxC_2ETQ","LocationType":"point","DisplayPosition":{"Latitude":44.33443,"Longitude":10.83457},"MapView":{"TopLeft":{"Latitude":44.3355542,"Longitude":10.8329984},"BottomRight":{"Latitude":44.3333058,"Longitude":10.8361416}},"Address":{"Label":"Viale dei Martiri, 61A, 41026 Pavullo nel Frignano MO, Italia","Country":"ITA","State":"Emilia Romagna","County":"MO","City":"Pavullo nel Frignano","Street":"Viale dei Martiri","HouseNumber":"61A","PostalCode":"41026","AdditionalData":[{"value":"Italia","key":"CountryName"},{"value":"Emilia Romagna","key":"StateName"},{"value":"Modena","key":"CountyName"}]},"MapReference":{"ReferenceId":"575535395","Spot":0.15,"SideOfStreet":"right","CountryId":"20110484","StateId":"20123512","CountyId":"20123522","CityId":"20125494","AddressId":"247980905","RoadLinkId":"58484453"}}},{"Relevance":1.0,"Distance":110.4,"MatchLevel":"houseNumber","MatchQuality":{"Country":1.0,"State":1.0,"County":1.0,"City":1.0,"Street":[1.0],"HouseNumber":1.0,"PostalCode":1.0},"MatchType":"interpolated","Location":{"LocationId":"NT_LADuzyi5TAay6KFkjVbwKB_3A","LocationType":"point","DisplayPosition":{"Latitude":44.33307,"Longitude":10.83701},"MapView":{"TopLeft":{"Latitude":44.3341942,"Longitude":10.8354384},"BottomRight":{"Latitude":44.3319458,"Longitude":10.8385816}},"Address":{"Label":"Via Piemonte, 7, 41026 Pavullo nel Frignano MO, Italia","Country":"ITA","State":"Emilia Romagna","County":"MO","City":"Pavullo nel Frignano","Street":"Via Piemonte","HouseNumber":"7","PostalCode":"41026","AdditionalData":[{"value":"Italia","key":"CountryName"},{"value":"Emilia Romagna","key":"StateName"},{"value":"Modena","key":"CountyName"}]},"MapReference":{"ReferenceId":"582464231","Spot":0.72,"SideOfStreet":"left","CountryId":"20110484","StateId":"20123512","CountyId":"20123522","CityId":"20125494","AddressId":"248042901","RoadLinkId":"59352743"}}},{"Relevance":1.0,"Distance":112.4,"MatchLevel":"houseNumber","MatchQuality":{"Country":1.0,"State":1.0,"County":1.0,"City":1.0,"Street":[1.0],"HouseNumber":1.0,"PostalCode":1.0},"MatchType":"interpolated","Location":{"LocationId":"NT_Umubzfv9kA3.4Gq.DuybwC_ycD","LocationType":"point","DisplayPosition":{"Latitude":44.33506,"Longitude":10.83636},"MapView":{"TopLeft":{"Latitude":44.3361842,"Longitude":10.8347883},"BottomRight":{"Latitude":44.3339358,"Longitude":10.8379317}},"Address":{"Label":"Via Torricella, 27, 41026 Pavullo nel Frignano MO, Italia","Country":"ITA","State":"Emilia Romagna","County":"MO","City":"Pavullo nel Frignano","Street":"Via Torricella","HouseNumber":"27","PostalCode":"41026","AdditionalData":[{"value":"Italia","key":"CountryName"},{"value":"Emilia Romagna","key":"StateName"},{"value":"Modena","key":"CountyName"}]},"MapReference":{"ReferenceId":"591615968","Spot":0.25,"SideOfStreet":"right","CountryId":"20110484","StateId":"20123512","CountyId":"20123522","CityId":"20125494","AddressId":"248076373","RoadLinkId":"58889481"}}},{"Relevance":1.0,"Distance":129.8,"MatchLevel":"houseNumber","MatchQuality":{"Country":1.0,"State":1.0,"County":1.0,"City":1.0,"Street":[1.0],"HouseNumber":1.0,"PostalCode":1.0},"MatchType":"interpolated","Location":{"LocationId":"NT_Umubzfv9kA3.4Gq.DuybwC_zED","LocationType":"point","DisplayPosition":{"Latitude":44.33522,"Longitude":10.83685},"MapView":{"TopLeft":{"Latitude":44.3363442,"Longitude":10.8352783},"BottomRight":{"Latitude":44.3340958,"Longitude":10.8384217}},"Address":{"Label":"Via Torricella, 31, 41026 Pavullo nel Frignano MO, Italia","Country":"ITA","State":"Emilia Romagna","County":"MO","City":"Pavullo nel Frignano","Street":"Via Torricella","HouseNumber":"31","PostalCode":"41026","AdditionalData":[{"value":"Italia","key":"CountryName"},{"value":"Emilia Romagna","key":"StateName"},{"value":"Modena","key":"CountyName"}]},"MapReference":{"ReferenceId":"591615967","Spot":0.63,"SideOfStreet":"left","CountryId":"20110484","StateId":"20123512","CountyId":"20123522","CityId":"20125494","AddressId":"248053772","RoadLinkId":"58863714"}}},{"Relevance":1.0,"Distance":148.3,"MatchLevel":"houseNumber","MatchQuality":{"Country":1.0,"State":1.0,"County":1.0,"City":1.0,"Street":[1.0],"HouseNumber":1.0,"PostalCode":1.0},"MatchType":"interpolated","Location":{"LocationId":"NT_YLzpu4O9F9qs0X48.IbJCC_zA","LocationType":"point","DisplayPosition":{"Latitude":44.33301,"Longitude":10.83547},"MapView":{"TopLeft":{"Latitude":44.3341342,"Longitude":10.8338984},"BottomRight":{"Latitude":44.3318858,"Longitude":10.8370416}},"Address":{"Label":"Via Liguria, 3, 41026 Pavullo nel Frignano MO, Italia","Country":"ITA","State":"Emilia Romagna","County":"MO","City":"Pavullo nel Frignano","Street":"Via Liguria","HouseNumber":"3","PostalCode":"41026","AdditionalData":[{"value":"Italia","key":"CountryName"},{"value":"Emilia Romagna","key":"StateName"},{"value":"Modena","key":"CountyName"}]},"MapReference":{"ReferenceId":"575535385","Spot":0.24,"SideOfStreet":"left","CountryId":"20110484","StateId":"20123512","CountyId":"20123522","CityId":"20125494","AddressId":"248046407","RoadLinkId":"58488802"}}}]}]}}