{"Response":{"MetaInfo":{"Timestamp":"2020-03-28T11:24:38.588+0000","NextPageInformation":"2"},"View":[{"_type":"SearchResultsViewType","ViewId":0,"Result":[{"Relevance":1.0,"Distance":0.0,"Direction":0.0,"MatchLevel":"district","MatchQuality":{"Country":1.0,"State":1.0,"County":1.0,"City":1.0,"District":1.0,"PostalCode":1.0},"Location":{"LocationId":"NT_DN9L9Wk6-zAtY8dhJzmAuD","LocationType":"point","DisplayPosition":{"Latitude":44.3849084,"Longitude":9.0296596},"MapView":{"TopLeft":{"Latitude":44.43124,"Longitude":9.00943},"BottomRight":{"Latitude":44.37913,"Longitude":9.09338}},"Address":{"Label":"Nervi, Genova, Liguria, Italia","Country":"ITA","State":"Liguria","County":"GE","City":"Genova","District":"Nervi","PostalCode":"16167","AdditionalData":[{"value":"Italia","key":"CountryName"},{"value":"Liguria","key":"StateName"},{"value":"Genova","key":"CountyName"}]},"MapReference":{"ReferenceId":"55266004","SideOfStreet":"neither","CountryId":"20110484","StateId":"20114100","CountyId":"20114536","CityId":"20114618","DistrictId":"20114635"}}},{"Relevance":1.0,"Distance":15.0,"MatchLevel":"houseNumber","MatchQuality":{"Country":1.0,"State":1.0,"County":1.0,"City":1.0,"District":1.0,"Street":[1.0],"HouseNumber":1.0,"PostalCode":1.0},"MatchType":"interpolated","Location":{"LocationId":"NT_TPrINMH738XFU6DcCcaqSC_xQD","LocationType":"point","DisplayPosition":{"Latitude":44.38478,"Longitude":9.0296},"MapView":{"TopLeft":{"Latitude":44.3859042,"Longitude":9.028027},"BottomRight":{"Latitude":44.3836558,"Longitude":9.031173}},"Address":{"Label":"Via Missolungi, 14, 16167 Genova GE, Italia","Country":"ITA","State":"Liguria","County":"GE","City":"Genova","District":"Nervi","Street":"Via Missolungi","HouseNumber":"14","PostalCode":"16167","AdditionalData":[{"value":"Italia","key":"CountryName"},{"value":"Liguria","key":"StateName"},{"value":"Genova","key":"CountyName"}]},"MapReference":{"ReferenceId":"55265742","Spot":0.59,"SideOfStreet":"right","CountryId":"20110484","StateId":"20114100","CountyId":"20114536","CityId":"20114618","DistrictId":"20114635","AddressId":"775935677","RoadLinkId":"55411311"}}},{"Relevance":1.0,"Distance":32.3,"MatchLevel":"houseNumber","MatchQuality":{"Country":1.0,"State":1.0,"County":1.0,"City":1.0,"District":1.0,"Street":[1.0],"HouseNumber":1.0,"PostalCode":1.0},"MatchType":"interpolated","Location":{"LocationId":"NT_TPrINMH738XFU6DcCcaqSC_xQD","LocationType":"point","DisplayPosition":{"Latitude":44.3847,"Longitude":9.02933},"MapView":{"TopLeft":{"Latitude":44.3858242,"Longitude":9.027757},"BottomRight":{"Latitude":44.3835758,"Longitude":9.030903}},"Address":{"Label":"Via Missolungi, 14, 16167 Genova GE, Italia","Country":"ITA","State":"Liguria","County":"GE","City":"Genova","District":"Nervi","Street":"Via Missolungi","HouseNumber":"14","PostalCode":"16167","AdditionalData":[{"value":"Italia","key":"CountryName"},{"value":"Liguria","key":"StateName"},{"value":"Genova","key":"CountyName"}]},"MapReference":{"ReferenceId":"55265743","Spot":0.23,"SideOfStreet":"right","CountryId":"20110484","StateId":"20114100","CountyId":"20114536","CityId":"20114618","DistrictId":"20114635","AddressId":"775865372","RoadLinkId":"599819960"}}},{"Relevance":1.0,"Distance":45.5,"MatchLevel":"houseNumber","MatchQuality":{"Country":1.0,"State":1.0,"County":1.0,"City":1.0,"District":1.0,"Street":[1.0],"HouseNumber":1.0,"PostalCode":1.0},"MatchType":"interpolated","Location":{"LocationId":"NT_ynL784UCVT6W.xPTcsRKOB_1A","LocationType":"point","DisplayPosition":{"Latitude":44.3845,"Longitude":9.02963},"MapView":{"TopLeft":{"Latitude":44.3856242,"Longitude":9.028057},"BottomRight":{"Latitude":44.3833758,"Longitude":9.031203}},"Address":{"Label":"Via alla Contadina, 5, 16167 Genova GE, Italia","Country":"ITA","State":"Liguria","County":"GE","City":"Genova","District":"Nervi","Street":"Via alla Contadina","HouseNumber":"5","PostalCode":"16167","AdditionalData":[{"value":"Italia","key":"CountryName"},{"value":"Liguria","key":"StateName"},{"value":"Genova","key":"CountyName"}]},"MapReference":{"ReferenceId":"55265778","Spot":0.43,"SideOfStreet":"left","CountryId":"20110484","StateId":"20114100","CountyId":"20114536","CityId":"20114618","DistrictId":"20114635","AddressId":"775939815","RoadLinkId":"55598736"}}},{"Relevance":1.0,"Distance":49.8,"MatchLevel":"houseNumber","MatchQuality":{"Country":1.0,"State":1.0,"County":1.0,"City":1.0,"District":1.0,"Street":[1.0],"HouseNumber":1.0,"PostalCode":1.0},"MatchType":"interpolated","Location":{"LocationId":"NT_TPrINMH738XFU6DcCcaqSC_1cD","LocationType":"point","DisplayPosition":{"Latitude":44.38456,"Longitude":9.03014},"MapView":{"TopLeft":{"Latitude":44.3856842,"Longitude":9.028567},"BottomRight":{"Latitude":44.3834358,"Longitude":9.031713}},"Address":{"Label":"Via Missolungi, 57, 16167 Genova GE, Italia","Country":"ITA","State":"Liguria","County":"GE","City":"Genova","District":"Nervi","Street":"Via Missolungi","HouseNumber":"57","PostalCode":"16167","AdditionalData":[{"value":"Italia","key":"CountryName"},{"value":"Liguria","key":"StateName"},{"value":"Genova","key":"CountyName"}]},"MapReference":{"ReferenceId":"55265747","Spot":0.36,"SideOfStreet":"left","CountryId":"20110484","StateId":"20114100","CountyId":"20114536","CityId":"20114618","DistrictId":"20114635","AddressId":"717150052","RoadLinkId":"599591098"}}},{"Relevance":1.0,"Distance":52.6,"MatchLevel":"houseNumber","MatchQuality":{"Country":1.0,"State":1.0,"County":1.0,"City":1.0,"District":1.0,"Street":[1.0],"HouseNumber":1.0,"PostalCode":1.0},"MatchType":"interpolated","Location":{"LocationId":"NT_gOInlgbWUsISVsVdQuLJUA_xgzM5A","LocationType":"point","DisplayPosition":{"Latitude":44.38423,"Longitude":9.02943},"MapView":{"TopLeft":{"Latitude":44.3853542,"Longitude":9.027857},"BottomRight":{"Latitude":44.3831058,"Longitude":9.031003}},"Address":{"Label":"Corso Europa, 1839, 16167 Genova GE, Italia","Country":"ITA","State":"Liguria","County":"GE","City":"Genova","District":"Nervi","Street":"Corso Europa","HouseNumber":"1839","PostalCode":"16167","AdditionalData":[{"value":"Italia","key":"CountryName"},{"value":"Liguria","key":"StateName"},{"value":"Genova","key":"CountyName"}]},"MapReference":{"ReferenceId":"59612965","Spot":0.6,"SideOfStreet":"left","CountryId":"20110484","StateId":"20114100","CountyId":"20114536","CityId":"20114618","DistrictId":"20114635","AddressId":"717148657","RoadLinkId":"54975656"}}},{"Relevance":1.0,"Distance":53.1,"MatchLevel":"street","MatchQuality":{"Country":1.0,"State":1.0,"County":1.0,"City":1.0,"District":1.0,"Street":[1.0],"PostalCode":1.0},"Location":{"LocationId":"NT_VD9sVtJuf5f2VK11ZVREdB_l_55265616_R","LocationType":"point","DisplayPosition":{"Latitude":44.38537,"Longitude":9.02983},"MapView":{"TopLeft":{"Latitude":44.38539,"Longitude":9.02983},"BottomRight":{"Latitude":44.38537,"Longitude":9.0303}},"Address":{"Label":"Via Spra, 16167 Genova GE, Italia","Country":"ITA","State":"Liguria","County":"GE","City":"Genova","District":"Nervi","Street":"Via Spra","PostalCode":"16167","AdditionalData":[{"value":"Italia","key":"CountryName"},{"value":"Liguria","key":"StateName"},{"value":"Genova","key":"CountyName"}]},"MapReference":{"ReferenceId":"55265616","Spot":0.0,"SideOfStreet":"right","CountryId":"20110484","StateId":"20114100","CountyId":"20114536","CityId":"20114618","DistrictId":"20114635"}}},{"Relevance":1.0,"Distance":53.1,"MatchLevel":"houseNumber","MatchQuality":{"Country":1.0,"State":1.0,"County":1.0,"City":1.0,"District":1.0,"Street":[1.0],"HouseNumber":1.0,"PostalCode":1.0},"MatchType":"interpolated","Location":{"LocationId":"NT_0OD4mixfC60pYDdsZHPYOC_l_1129171067_L_xkTMwA","LocationType":"point","DisplayPosition":{"Latitude":44.3843062,"Longitude":9.029815},"MapView":{"TopLeft":{"Latitude":44.3854304,"Longitude":9.028242},"BottomRight":{"Latitude":44.3831821,"Longitude":9.031388}},"Address":{"Label":"Via Riccardo Pellegrini, 1910, 16167 Genova GE, Italia","Country":"ITA","State":"Liguria","County":"GE","City":"Genova","District":"Nervi","Street":"Via Riccardo Pellegrini","HouseNumber":"1910","PostalCode":"16167","AdditionalData":[{"value":"Italia","key":"CountryName"},{"value":"Liguria","key":"StateName"},{"value":"Genova","key":"CountyName"}]},"MapReference":{"ReferenceId":"1129171067","Spot":0.5,"SideOfStreet":"left","CountryId":"20110484","StateId":"20114100","CountyId":"20114536","CityId":"20114618","DistrictId":"20114635"}}},{"Relevance":1.0,"Distance":53.3,"MatchLevel":"houseNumber","MatchQuality":{"Country":1.0,"State":1.0,"County":1.0,"City":1.0,"District":1.0,"Street":[1.0],"HouseNumber":1.0,"PostalCode":1.0},"MatchType":"interpolated","Location":{"LocationId":"NT_JHI6kkY9hXcRSUMam4TWZC_l_55265615_L_xcD","LocationType":"point","DisplayPosition":{"Latitude":44.3854722,"Longitude":9.0299934},"MapView":{"TopLeft":{"Latitude":44.3865963,"Longitude":9.0284204},"BottomRight":{"Latitude":44.384348,"Longitude":9.0315665}},"Address":{"Label":"Salita Montetto, 17, 16167 Genova GE, Italia","Country":"ITA","State":"Liguria","County":"GE","City":"Genova","District":"Nervi","Street":"Salita Montetto","HouseNumber":"17","PostalCode":"16167","AdditionalData":[{"value":"Italia","key":"CountryName"},{"value":"Liguria","key":"StateName"},{"value":"Genova","key":"CountyName"}]},"MapReference":{"ReferenceId":"55265615","Spot":0.57,"SideOfStreet":"left","CountryId":"20110484","StateId":"20114100","CountyId":"20114536","CityId":"20114618","DistrictId":"20114635"}}},{"Relevance":1.0,"Distance":73.7,"MatchLevel":"street","MatchQuality":{"Country":1.0,"State":1.0,"County":1.0,"City":1.0,"District":1.0,"Street":[1.0],"PostalCode":1.0},"Location":{"LocationId":"NT_gOInlgbWUsISVsVdQuLJUA_l_55265806_R","LocationType":"point","DisplayPosition":{"Latitude":44.384246,"Longitude":9.0296341},"MapView":{"TopLeft":{"Latitude":44.38425,"Longitude":9.02953},"BottomRight":{"Latitude":44.38424,"Longitude":9.02979}},"Address":{"Label":"Corso Europa, 16167 Genova GE, Italia","Country":"ITA","State":"Liguria","County":"GE","City":"Genova","District":"Nervi","Street":"Corso Europa","PostalCode":"16167","AdditionalData":[{"value":"Italia","key":"CountryName"},{"value":"Liguria","key":"StateName"},{"value":"Genova","key":"CountyName"}]},"MapReference":{"ReferenceId":"55265806","Spot":0.6,"SideOfStreet":"right","CountryId":"20110484","StateId":"20114100","CountyId":"20114536","CityId":"20114618","DistrictId":"20114635"}}}]}]}}