{"Response":{"MetaInfo":{"Timestamp":"2020-03-28T11:34:23.957+0000","NextPageInformation":"2"},"View":[{"_type":"SearchResultsViewType","ViewId":0,"Result":[{"Relevance":1.0,"Distance":0.0,"Direction":0.0,"MatchLevel":"district","MatchQuality":{"Country":1.0,"County":1.0,"City":1.0,"District":1.0,"PostalCode":1.0},"Location":{"LocationId":"NT_el0SyfWfX0Rv36LYjhxj5D","LocationType":"point","DisplayPosition":{"Latitude":44.3426833,"Longitude":26.3769358},"MapView":{"TopLeft":{"Latitude":44.34666,"Longitude":26.37286},"BottomRight":{"Latitude":44.33557,"Longitude":26.37946}},"Address":{"Label":"Podu Pitarului, Plătărești, România","Country":"ROU","County":"Călărași","City":"Plătărești","District":"Podu Pitarului","PostalCode":"917203","AdditionalData":[{"value":"România","key":"CountryName"},{"value":"Călărași","key":"CountyName"}]},"MapReference":{"ReferenceId":"1101819043","SideOfStreet":"neither","CountryId":"20656215","CountyId":"20658266","CityId":"23759562","DistrictId":"23761251"}}},{"Relevance":1.0,"Distance":7.1,"MatchLevel":"street","MatchQuality":{"Country":1.0,"County":1.0,"City":1.0,"District":1.0,"Street":[1.0],"PostalCode":1.0},"Location":{"LocationId":"NT_5CuUwKQFvNSX5dLphj0JgA_l_843780308_L","LocationType":"point","DisplayPosition":{"Latitude":44.3427005,"Longitude":26.3770219},"MapView":{"TopLeft":{"Latitude":44.34291,"Longitude":26.37698},"BottomRight":{"Latitude":44.34181,"Longitude":26.3772}},"Address":{"Label":"DJ301, 917203 Plătărești, România","Country":"ROU","County":"Călărași","City":"Plătărești","District":"Podu Pitarului","Street":"DJ301","PostalCode":"917203","AdditionalData":[{"value":"România","key":"CountryName"},{"value":"Călărași","key":"CountyName"}]},"MapReference":{"ReferenceId":"843780308","Spot":0.81,"SideOfStreet":"left","CountryId":"20656215","CountyId":"20658266","CityId":"23759562","DistrictId":"23761251"}}},{"Relevance":1.0,"Distance":15.6,"MatchLevel":"street","MatchQuality":{"Country":1.0,"County":1.0,"City":1.0,"District":1.0,"PostalCode":1.0},"Location":{"LocationId":"NT_vUhvjby0ocxnn.lyXXvDiA_l_843780344_R","LocationType":"point","DisplayPosition":{"Latitude":44.3428067,"Longitude":26.3768429},"MapView":{"TopLeft":{"Latitude":44.34291,"Longitude":26.37537},"BottomRight":{"Latitude":44.34153,"Longitude":26.37698}},"Address":{"Label":"917203 Plătărești, România","Country":"ROU","County":"Călărași","City":"Plătărești","District":"Podu Pitarului","PostalCode":"917203","AdditionalData":[{"value":"România","key":"CountryName"},{"value":"Călărași","key":"CountyName"}]},"MapReference":{"ReferenceId":"843780344","Spot":0.92,"SideOfStreet":"right","CountryId":"20656215","CountyId":"20658266","CityId":"23759562","DistrictId":"23761251"}}},{"Relevance":1.0,"Distance":25.5,"MatchLevel":"street","MatchQuality":{"Country":1.0,"County":1.0,"City":1.0,"District":1.0,"Street":[1.0],"PostalCode":1.0},"Location":{"LocationId":"NT_5CuUwKQFvNSX5dLphj0JgA_l_1101975870_L","LocationType":"point","DisplayPosition":{"Latitude":44.34291,"Longitude":26.37698},"MapView":{"TopLeft":{"Latitude":44.3457,"Longitude":26.37643},"BottomRight":{"Latitude":44.34291,"Longitude":26.37698}},"Address":{"Label":"DJ301, 917203 Plătărești, România","Country":"ROU","County":"Călărași","City":"Plătărești","District":"Podu Pitarului","Street":"DJ301","PostalCode":"917203","AdditionalData":[{"value":"România","key":"CountryName"},{"value":"Călărași","key":"CountyName"}]},"MapReference":{"ReferenceId":"1101975870","Spot":0.0,"SideOfStreet":"left","CountryId":"20656215","CountyId":"20658266","CityId":"23759562","DistrictId":"23761251"}}},{"Relevance":1.0,"Distance":88.7,"MatchLevel":"street","MatchQuality":{"Country":1.0,"County":1.0,"City":1.0,"District":1.0,"PostalCode":1.0},"Location":{"LocationId":"NT_vUhvjby0ocxnn.lyXXvDiA_l_843780335_L","LocationType":"point","DisplayPosition":{"Latitude":44.3419678,"Longitude":26.3774289},"MapView":{"TopLeft":{"Latitude":44.34259,"Longitude":26.3772},"BottomRight":{"Latitude":44.34181,"Longitude":26.37847}},"Address":{"Label":"917203 Plătărești, România","Country":"ROU","County":"Călărași","City":"Plătărești","District":"Podu Pitarului","PostalCode":"917203","AdditionalData":[{"value":"România","key":"CountryName"},{"value":"Călărași","key":"CountyName"}]},"MapReference":{"ReferenceId":"843780335","Spot":0.19,"SideOfStreet":"left","CountryId":"20656215","CountyId":"20658266","CityId":"23759562","DistrictId":"23761251"}}},{"Relevance":1.0,"Distance":99.4,"MatchLevel":"street","MatchQuality":{"Country":1.0,"County":1.0,"City":1.0,"District":1.0,"Street":[1.0],"PostalCode":1.0},"Location":{"LocationId":"NT_s113Q7ek6FzczpCphRUKIA_l_843780332_L","LocationType":"point","DisplayPosition":{"Latitude":44.34181,"Longitude":26.3772},"MapView":{"TopLeft":{"Latitude":44.34181,"Longitude":26.37634},"BottomRight":{"Latitude":44.34104,"Longitude":26.3772}},"Address":{"Label":"Strada Mihai Eminescu, 917203 Plătărești, România","Country":"ROU","County":"Călărași","City":"Plătărești","District":"Podu Pitarului","Street":"Strada Mihai Eminescu","PostalCode":"917203","AdditionalData":[{"value":"România","key":"CountryName"},{"value":"Călărași","key":"CountyName"}]},"MapReference":{"ReferenceId":"843780332","Spot":1.0,"SideOfStreet":"left","CountryId":"20656215","CountyId":"20658266","CityId":"23759562","DistrictId":"23761251"}}},{"Relevance":1.0,"Distance":99.4,"MatchLevel":"street","MatchQuality":{"Country":1.0,"County":1.0,"City":1.0,"District":1.0,"Street":[1.0],"PostalCode":1.0},"Location":{"LocationId":"NT_5CuUwKQFvNSX5dLphj0JgA_l_1101819043_L","LocationType":"point","DisplayPosition":{"Latitude":44.34181,"Longitude":26.3772},"MapView":{"TopLeft":{"Latitude":44.34181,"Longitude":26.3772},"BottomRight":{"Latitude":44.3414,"Longitude":26.37728}},"Address":{"Label":"DJ301, 917203 Plătărești, România","Country":"ROU","County":"Călărași","City":"Plătărești","District":"Podu Pitarului","Street":"DJ301","PostalCode":"917203","AdditionalData":[{"value":"România","key":"CountryName"},{"value":"Călărași","key":"CountyName"}]},"MapReference":{"ReferenceId":"1101819043","Spot":1.0,"SideOfStreet":"left","CountryId":"20656215","CountyId":"20658266","CityId":"23759562","DistrictId":"23761251"}}},{"Relevance":1.0,"Distance":145.3,"MatchLevel":"street","MatchQuality":{"Country":1.0,"County":1.0,"City":1.0,"District":1.0,"Street":[1.0],"PostalCode":1.0},"Location":{"LocationId":"NT_5CuUwKQFvNSX5dLphj0JgA_l_1101975522_L","LocationType":"point","DisplayPosition":{"Latitude":44.3414,"Longitude":26.37728},"MapView":{"TopLeft":{"Latitude":44.3414,"Longitude":26.37728},"BottomRight":{"Latitude":44.34108,"Longitude":26.37732}},"Address":{"Label":"DJ301, 917203 Plătărești, România","Country":"ROU","County":"Călărași","City":"Plătărești","District":"Podu Pitarului","Street":"DJ301","PostalCode":"917203","AdditionalData":[{"value":"România","key":"CountryName"},{"value":"Călărași","key":"CountyName"}]},"MapReference":{"ReferenceId":"1101975522","Spot":1.0,"SideOfStreet":"left","CountryId":"20656215","CountyId":"20658266","CityId":"23759562","DistrictId":"23761251"}}},{"Relevance":1.0,"Distance":180.9,"MatchLevel":"street","MatchQuality":{"Country":1.0,"County":1.0,"City":1.0,"District":1.0,"Street":[1.0],"PostalCode":1.0},"Location":{"LocationId":"NT_5CuUwKQFvNSX5dLphj0JgA_l_1101975521_L","LocationType":"point","DisplayPosition":{"Latitude":44.34108,"Longitude":26.37732},"MapView":{"TopLeft":{"Latitude":44.34108,"Longitude":26.37732},"BottomRight":{"Latitude":44.34063,"Longitude":26.37737}},"Address":{"Label":"DJ301, 917203 Plătărești, România","Country":"ROU","County":"Călărași","City":"Plătărești","District":"Podu Pitarului","Street":"DJ301","PostalCode":"917203","AdditionalData":[{"value":"România","key":"CountryName"},{"value":"Călărași","key":"CountyName"}]},"MapReference":{"ReferenceId":"1101975521","Spot":1.0,"SideOfStreet":"left","CountryId":"20656215","CountyId":"20658266","CityId":"23759562","DistrictId":"23761251"}}},{"Relevance":1.0,"Distance":188.8,"MatchLevel":"street","MatchQuality":{"Country":1.0,"County":1.0,"City":1.0,"District":1.0,"Street":[1.0],"PostalCode":1.0},"Location":{"LocationId":"NT_HLv603vt587jVo9pKFpuTC_l_843780331_R","LocationType":"point","DisplayPosition":{"Latitude":44.34104,"Longitude":26.37634},"MapView":{"TopLeft":{"Latitude":44.34117,"Longitude":26.37597},"BottomRight":{"Latitude":44.34104,"Longitude":26.37634}},"Address":{"Label":"Strada Ioan Slavici, 917203 Plătărești, România","Country":"ROU","County":"Călărași","City":"Plătărești","District":"Podu Pitarului","Street":"Strada Ioan Slavici","PostalCode":"917203","AdditionalData":[{"value":"România","key":"CountryName"},{"value":"Călărași","key":"CountyName"}]},"MapReference":{"ReferenceId":"843780331","Spot":0.0,"SideOfStreet":"right","CountryId":"20656215","CountyId":"20658266","CityId":"23759562","DistrictId":"23761251"}}}]}]}}