{"Response":{"MetaInfo":{"Timestamp":"2020-03-28T10:00:17.066+0000","NextPageInformation":"2"},"View":[{"_type":"SearchResultsViewType","ViewId":0,"Result":[{"Relevance":1.0,"Distance":0.0,"Direction":0.0,"MatchLevel":"district","MatchQuality":{"Country":1.0,"County":1.0,"City":1.0,"District":1.0,"PostalCode":1.0},"Location":{"LocationId":"NT_iR09HvegqKfxAZZ2wPAGwA","LocationType":"point","DisplayPosition":{"Latitude":44.4382081,"Longitude":26.0852584},"MapView":{"TopLeft":{"Latitude":44.52208,"Longitude":25.99784},"BottomRight":{"Latitude":44.4345,"Longitude":26.11483}},"Address":{"Label":"Sectorul 1, București, România","Country":"ROU","County":"București","City":"București","District":"Sectorul 1","PostalCode":"010192","AdditionalData":[{"value":"România","key":"CountryName"},{"value":"București","key":"CountyName"}]},"MapReference":{"ReferenceId":"588481988","SideOfStreet":"neither","CountryId":"20656215","CountyId":"20658062","CityId":"20658063","DistrictId":"20658064"}}},{"Relevance":1.0,"Distance":18.8,"MatchLevel":"houseNumber","MatchQuality":{"Country":1.0,"County":1.0,"City":1.0,"District":1.0,"Street":[1.0],"HouseNumber":1.0,"PostalCode":1.0},"MatchType":"interpolated","Location":{"LocationId":"NT_3wfMs2hZlRaLosf-rXJPkD_yYD","LocationType":"point","DisplayPosition":{"Latitude":44.4381,"Longitude":26.08544},"MapView":{"TopLeft":{"Latitude":44.4392242,"Longitude":26.0838656},"BottomRight":{"Latitude":44.4369758,"Longitude":26.0870144}},"Address":{"Label":"Strada Prof. Grigore Cobălcescu 26, 010195 București, România","Country":"ROU","County":"București","City":"București","District":"Sectorul 1","Street":"Strada Prof. Grigore Cobălcescu","HouseNumber":"26","PostalCode":"010195","AdditionalData":[{"value":"România","key":"CountryName"},{"value":"București","key":"CountyName"}]},"MapReference":{"ReferenceId":"1105083574","Spot":0.61,"SideOfStreet":"right","CountryId":"20656215","CountyId":"20658062","CityId":"20658063","DistrictId":"20658064","AddressId":"686190535","RoadLinkId":"416898907"}}},{"Relevance":1.0,"Distance":57.1,"MatchLevel":"houseNumber","MatchQuality":{"Country":1.0,"County":1.0,"City":1.0,"District":1.0,"Street":[1.0],"HouseNumber":1.0,"PostalCode":1.0},"MatchType":"interpolated","Location":{"LocationId":"NT_WFZuJOzjib57IcFBw2cyBD_zAD","LocationType":"point","DisplayPosition":{"Latitude":44.4384,"Longitude":26.08458},"MapView":{"TopLeft":{"Latitude":44.4395242,"Longitude":26.0830056},"BottomRight":{"Latitude":44.4372758,"Longitude":26.0861544}},"Address":{"Label":"Strada Prof. Grigore Cobălcescu 30, 010196 București, România","Country":"ROU","County":"București","City":"București","District":"Sectorul 1","Street":"Strada Prof. Grigore Cobălcescu","HouseNumber":"30","PostalCode":"010196","AdditionalData":[{"value":"România","key":"CountryName"},{"value":"București","key":"CountyName"}]},"MapReference":{"ReferenceId":"1105083575","Spot":0.56,"SideOfStreet":"right","CountryId":"20656215","CountyId":"20658062","CityId":"20658063","DistrictId":"20658064","AddressId":"686190555","RoadLinkId":"416898908"}}},{"Relevance":1.0,"Distance":66.7,"MatchLevel":"houseNumber","MatchQuality":{"Country":1.0,"County":1.0,"City":1.0,"District":1.0,"Street":[1.0],"HouseNumber":1.0,"PostalCode":1.0},"MatchType":"interpolated","Location":{"LocationId":"NT_JOAoLFf6TMw71cWh4-ejwA_xID","LocationType":"point","DisplayPosition":{"Latitude":44.43779,"Longitude":26.08457},"MapView":{"TopLeft":{"Latitude":44.4389142,"Longitude":26.0829956},"BottomRight":{"Latitude":44.4366658,"Longitude":26.0861444}},"Address":{"Label":"Strada Ostașilor 12, 010205 București, România","Country":"ROU","County":"București","City":"București","District":"Sectorul 1","Street":"Strada Ostașilor","HouseNumber":"12","PostalCode":"010205","AdditionalData":[{"value":"România","key":"CountryName"},{"value":"București","key":"CountyName"}]},"MapReference":{"ReferenceId":"1181038690","Spot":0.59,"SideOfStreet":"right","CountryId":"20656215","CountyId":"20658062","CityId":"20658063","DistrictId":"20658064","AddressId":"686062923","RoadLinkId":"489054614"}}},{"Relevance":1.0,"Distance":69.5,"MatchLevel":"houseNumber","MatchQuality":{"Country":1.0,"County":1.0,"City":1.0,"District":1.0,"Street":[1.0],"HouseNumber":1.0,"PostalCode":1.0},"MatchType":"interpolated","Location":{"LocationId":"NT_ulz3dI16ej8pKE2OlMV3sB_zED","LocationType":"point","DisplayPosition":{"Latitude":44.43833,"Longitude":26.0844},"MapView":{"TopLeft":{"Latitude":44.4394542,"Longitude":26.0828256},"BottomRight":{"Latitude":44.4372058,"Longitude":26.0859744}},"Address":{"Label":"Strada Ostașilor 31, 010203 București, România","Country":"ROU","County":"București","City":"București","District":"Sectorul 1","Street":"Strada Ostașilor","HouseNumber":"31","PostalCode":"010203","AdditionalData":[{"value":"România","key":"CountryName"},{"value":"București","key":"CountyName"}]},"MapReference":{"ReferenceId":"1181038691","Spot":0.51,"SideOfStreet":"left","CountryId":"20656215","CountyId":"20658062","CityId":"20658063","DistrictId":"20658064","AddressId":"686062924","RoadLinkId":"489054615"}}},{"Relevance":1.0,"Distance":88.4,"MatchLevel":"street","MatchQuality":{"Country":1.0,"County":1.0,"City":1.0,"District":1.0,"PostalCode":1.0},"Location":{"LocationId":"NT_j2y1yygmr.IYQxge8O2.fD_l_1159213029_L","LocationType":"point","DisplayPosition":{"Latitude":44.43897,"Longitude":26.08494},"MapView":{"TopLeft":{"Latitude":44.43904,"Longitude":26.08468},"BottomRight":{"Latitude":44.43897,"Longitude":26.08494}},"Address":{"Label":"010198 București, România","Country":"ROU","County":"București","City":"București","District":"Sectorul 1","PostalCode":"010198","AdditionalData":[{"value":"România","key":"CountryName"},{"value":"București","key":"CountyName"}]},"MapReference":{"ReferenceId":"1159213029","Spot":0.0,"SideOfStreet":"left","CountryId":"20656215","CountyId":"20658062","CityId":"20658063","DistrictId":"20658064"}}},{"Relevance":1.0,"Distance":88.5,"MatchLevel":"houseNumber","MatchQuality":{"Country":1.0,"County":1.0,"City":1.0,"District":1.0,"Street":[1.0],"HouseNumber":1.0,"PostalCode":1.0},"MatchType":"interpolated","Location":{"LocationId":"NT_l8USCAgEHF1dL.-Gk9z-XB_0A","LocationType":"point","DisplayPosition":{"Latitude":44.43897,"Longitude":26.08465},"MapView":{"TopLeft":{"Latitude":44.4400942,"Longitude":26.0830755},"BottomRight":{"Latitude":44.4378458,"Longitude":26.0862245}},"Address":{"Label":"Strada Gen. Constantin Cristescu 4, 010198 București, România","Country":"ROU","County":"București","City":"București","District":"Sectorul 1","Street":"Strada Gen. Constantin Cristescu","HouseNumber":"4","PostalCode":"010198","AdditionalData":[{"value":"România","key":"CountryName"},{"value":"București","key":"CountyName"}]},"MapReference":{"ReferenceId":"1159213027","Spot":0.88,"SideOfStreet":"right","CountryId":"20656215","CountyId":"20658062","CityId":"20658063","DistrictId":"20658064","AddressId":"686062466","RoadLinkId":"465833661"}}},{"Relevance":1.0,"Distance":93.7,"MatchLevel":"houseNumber","MatchQuality":{"Country":1.0,"County":1.0,"City":1.0,"District":1.0,"Street":[1.0],"HouseNumber":1.0,"PostalCode":1.0},"MatchType":"interpolated","Location":{"LocationId":"NT_WFZuJOzjib57IcFBw2cyBD_zID","LocationType":"point","DisplayPosition":{"Latitude":44.43855,"Longitude":26.08417},"MapView":{"TopLeft":{"Latitude":44.4396742,"Longitude":26.0825956},"BottomRight":{"Latitude":44.4374258,"Longitude":26.0857444}},"Address":{"Label":"Strada Prof. Grigore Cobălcescu 32, 010196 București, România","Country":"ROU","County":"București","City":"București","District":"Sectorul 1","Street":"Strada Prof. Grigore Cobălcescu","HouseNumber":"32","PostalCode":"010196","AdditionalData":[{"value":"România","key":"CountryName"},{"value":"București","key":"CountyName"}]},"MapReference":{"ReferenceId":"1114054425","Spot":0.37,"SideOfStreet":"right","CountryId":"20656215","CountyId":"20658062","CityId":"20658063","DistrictId":"20658064","AddressId":"686217213","RoadLinkId":"424006201"}}},{"Relevance":1.0,"Distance":110.3,"MatchLevel":"houseNumber","MatchQuality":{"Country":1.0,"County":1.0,"City":1.0,"District":1.0,"Street":[1.0],"HouseNumber":1.0,"PostalCode":1.0},"MatchType":"interpolated","Location":{"LocationId":"NT_TKP96fEso7PCjyjxvfHbbB_xA","LocationType":"point","DisplayPosition":{"Latitude":44.4372,"Longitude":26.08502},"MapView":{"TopLeft":{"Latitude":44.4383242,"Longitude":26.0834456},"BottomRight":{"Latitude":44.4360758,"Longitude":26.0865944}},"Address":{"Label":"Strada Ioan Slavici 1, 010206 București, România","Country":"ROU","County":"București","City":"București","District":"Sectorul 1","Street":"Strada Ioan Slavici","HouseNumber":"1","PostalCode":"010206","AdditionalData":[{"value":"România","key":"CountryName"},{"value":"București","key":"CountyName"}]},"MapReference":{"ReferenceId":"588489283","Spot":0.91,"SideOfStreet":"right","CountryId":"20656215","CountyId":"20658062","CityId":"20658063","DistrictId":"20658064","AddressId":"686077279","RoadLinkId":"77377704"}}},{"Relevance":1.0,"Distance":112.2,"MatchLevel":"houseNumber","MatchQuality":{"Country":1.0,"County":1.0,"City":1.0,"District":1.0,"Street":[1.0],"HouseNumber":1.0,"PostalCode":1.0},"MatchType":"interpolated","Location":{"LocationId":"NT_l8USCAgEHF1dL.-Gk9z-XB_2A","LocationType":"point","DisplayPosition":{"Latitude":44.43917,"Longitude":26.08473},"MapView":{"TopLeft":{"Latitude":44.4402942,"Longitude":26.0831555},"BottomRight":{"Latitude":44.4380458,"Longitude":26.0863045}},"Address":{"Label":"Strada Gen. Constantin Cristescu 6, 010198 București, România","Country":"ROU","County":"București","City":"București","District":"Sectorul 1","Street":"Strada Gen. Constantin Cristescu","HouseNumber":"6","PostalCode":"010198","AdditionalData":[{"value":"România","key":"CountryName"},{"value":"București","key":"CountyName"}]},"MapReference":{"ReferenceId":"1159213028","Spot":0.2,"SideOfStreet":"right","CountryId":"20656215","CountyId":"20658062","CityId":"20658063","DistrictId":"20658064","AddressId":"686062471","RoadLinkId":"465833662"}}}]}]}}