{"Response":{"MetaInfo":{"Timestamp":"2020-03-28T11:24:42.125+0000","NextPageInformation":"2"},"View":[{"_type":"SearchResultsViewType","ViewId":0,"Result":[{"Relevance":1.0,"Distance":0.0,"Direction":0.0,"MatchLevel":"city","MatchQuality":{"Country":1.0,"State":1.0,"County":1.0,"City":1.0,"PostalCode":1.0},"Location":{"LocationId":"NT_b-geb8XKAb-ldOFNSNSYPD","LocationType":"point","DisplayPosition":{"Latitude":44.4007791,"Longitude":8.6631088},"MapView":{"TopLeft":{"Latitude":44.45087,"Longitude":8.62336},"BottomRight":{"Latitude":44.39009,"Longitude":8.70855}},"Address":{"Label":"Arenzano, Liguria, Italia","Country":"ITA","State":"Liguria","County":"GE","City":"Arenzano","PostalCode":"16011","AdditionalData":[{"value":"Italia","key":"CountryName"},{"value":"Liguria","key":"StateName"},{"value":"Genova","key":"CountyName"}]},"MapReference":{"ReferenceId":"82775799","SideOfStreet":"neither","CountryId":"20110484","StateId":"20114100","CountyId":"20114536","CityId":"20114539"}}},{"Relevance":1.0,"Distance":60.7,"MatchLevel":"houseNumber","MatchQuality":{"Country":1.0,"State":1.0,"County":1.0,"City":1.0,"Street":[1.0],"HouseNumber":1.0,"PostalCode":1.0},"MatchType":"interpolated","Location":{"LocationId":"NT_G4Xk70YTQe9mIkXMsLvC.D_3A","LocationType":"point","DisplayPosition":{"Latitude":44.40072,"Longitude":8.66405},"MapView":{"TopLeft":{"Latitude":44.4018442,"Longitude":8.6624766},"BottomRight":{"Latitude":44.3995958,"Longitude":8.6656234}},"Address":{"Label":"Via del Giappone, 7, 16011 Arenzano GE, Italia","Country":"ITA","State":"Liguria","County":"GE","City":"Arenzano","Street":"Via del Giappone","HouseNumber":"7","PostalCode":"16011","AdditionalData":[{"value":"Italia","key":"CountryName"},{"value":"Liguria","key":"StateName"},{"value":"Genova","key":"CountyName"}]},"MapReference":{"ReferenceId":"571476378","Spot":0.6,"SideOfStreet":"left","CountryId":"20110484","StateId":"20114100","CountyId":"20114536","CityId":"20114539","AddressId":"728685615","RoadLinkId":"55196987"}}},{"Relevance":1.0,"Distance":116.6,"MatchLevel":"houseNumber","MatchQuality":{"Country":1.0,"State":1.0,"County":1.0,"City":1.0,"District":1.0,"Street":[1.0],"HouseNumber":1.0,"PostalCode":1.0},"MatchType":"interpolated","Location":{"LocationId":"NT_6sy0rhA0uN9M4Kzef0ZBwC_l_1260229797_L_yIDN","LocationType":"point","DisplayPosition":{"Latitude":44.40188,"Longitude":8.66361},"MapView":{"TopLeft":{"Latitude":44.4030042,"Longitude":8.6620365},"BottomRight":{"Latitude":44.4007559,"Longitude":8.6651834}},"Address":{"Label":"Via Guglielmo Marconi, 224, 16011 Arenzano GE, Italia","Country":"ITA","State":"Liguria","County":"GE","City":"Arenzano","District":"Terralba","Street":"Via Guglielmo Marconi","HouseNumber":"224","PostalCode":"16011","AdditionalData":[{"value":"Italia","key":"CountryName"},{"value":"Liguria","key":"StateName"},{"value":"Genova","key":"CountyName"}]},"MapReference":{"ReferenceId":"1260229797","Spot":0.0,"SideOfStreet":"left","CountryId":"20110484","StateId":"20114100","CountyId":"20114536","CityId":"20114539","DistrictId":"20481128"}}},{"Relevance":1.0,"Distance":117.2,"MatchLevel":"houseNumber","MatchQuality":{"Country":1.0,"State":1.0,"County":1.0,"City":1.0,"District":1.0,"Street":[1.0],"HouseNumber":1.0,"PostalCode":1.0},"MatchType":"interpolated","Location":{"LocationId":"NT_LIvwnZyp5trmxOQSjb0S1D_0gD","LocationType":"point","DisplayPosition":{"Latitude":44.40171,"Longitude":8.6638},"MapView":{"TopLeft":{"Latitude":44.4028342,"Longitude":8.6622266},"BottomRight":{"Latitude":44.4005858,"Longitude":8.6653734}},"Address":{"Label":"Via del Giappone, 48, 16011 Arenzano GE, Italia","Country":"ITA","State":"Liguria","County":"GE","City":"Arenzano","District":"Terralba","Street":"Via del Giappone","HouseNumber":"48","PostalCode":"16011","AdditionalData":[{"value":"Italia","key":"CountryName"},{"value":"Liguria","key":"StateName"},{"value":"Genova","key":"CountyName"}]},"MapReference":{"ReferenceId":"571476379","Spot":0.16,"SideOfStreet":"right","CountryId":"20110484","StateId":"20114100","CountyId":"20114536","CityId":"20114539","DistrictId":"20481128","AddressId":"728666159","RoadLinkId":"54868672"}}},{"Relevance":1.0,"Distance":150.2,"MatchLevel":"street","MatchQuality":{"Country":1.0,"State":1.0,"County":1.0,"City":1.0,"Street":[1.0],"PostalCode":1.0},"Location":{"LocationId":"NT_kax3DVBDukvuJrRah2pSpD_l_82772620_L","LocationType":"point","DisplayPosition":{"Latitude":44.3995221,"Longitude":8.6638002},"MapView":{"TopLeft":{"Latitude":44.4,"Longitude":8.66196},"BottomRight":{"Latitude":44.39862,"Longitude":8.66467}},"Address":{"Label":"Autostrada Genova-Ventimiglia, 16011 Arenzano GE, Italia","Country":"ITA","State":"Liguria","County":"GE","City":"Arenzano","Street":"Autostrada Genova-Ventimiglia","PostalCode":"16011","AdditionalData":[{"value":"Italia","key":"CountryName"},{"value":"Liguria","key":"StateName"},{"value":"Genova","key":"CountyName"}]},"MapReference":{"ReferenceId":"82772620","Spot":0.67,"SideOfStreet":"left","CountryId":"20110484","StateId":"20114100","CountyId":"20114536","CityId":"20114539"}}},{"Relevance":1.0,"Distance":150.3,"MatchLevel":"houseNumber","MatchQuality":{"Country":1.0,"State":1.0,"County":1.0,"City":1.0,"District":1.0,"Street":[1.0],"HouseNumber":1.0,"PostalCode":1.0},"MatchType":"interpolated","Location":{"LocationId":"NT_6sy0rhA0uN9M4Kzef0ZBwC_xkzN","LocationType":"point","DisplayPosition":{"Latitude":44.40202,"Longitude":8.66386},"MapView":{"TopLeft":{"Latitude":44.4031442,"Longitude":8.6622865},"BottomRight":{"Latitude":44.4008958,"Longitude":8.6654335}},"Address":{"Label":"Via Guglielmo Marconi, 197, 16011 Arenzano GE, Italia","Country":"ITA","State":"Liguria","County":"GE","City":"Arenzano","District":"Terralba","Street":"Via Guglielmo Marconi","HouseNumber":"197","PostalCode":"16011","AdditionalData":[{"value":"Italia","key":"CountryName"},{"value":"Liguria","key":"StateName"},{"value":"Genova","key":"CountyName"}]},"MapReference":{"ReferenceId":"1241788982","Spot":0.74,"SideOfStreet":"left","CountryId":"20110484","StateId":"20114100","CountyId":"20114536","CityId":"20114539","DistrictId":"20481128","AddressId":"728682002","RoadLinkId":"562826032"}}},{"Relevance":1.0,"Distance":151.3,"MatchLevel":"street","MatchQuality":{"Country":1.0,"State":1.0,"County":1.0,"City":1.0,"Street":[1.0],"PostalCode":1.0},"Location":{"LocationId":"NT_kax3DVBDukvuJrRah2pSpD_l_1227093551_L","LocationType":"point","DisplayPosition":{"Latitude":44.4,"Longitude":8.66467},"MapView":{"TopLeft":{"Latitude":44.40019,"Longitude":8.66467},"BottomRight":{"Latitude":44.4,"Longitude":8.66497}},"Address":{"Label":"Autostrada Genova-Ventimiglia, 16011 Arenzano GE, Italia","Country":"ITA","State":"Liguria","County":"GE","City":"Arenzano","Street":"Autostrada Genova-Ventimiglia","PostalCode":"16011","AdditionalData":[{"value":"Italia","key":"CountryName"},{"value":"Liguria","key":"StateName"},{"value":"Genova","key":"CountyName"}]},"MapReference":{"ReferenceId":"1227093551","Spot":0.0,"SideOfStreet":"left","CountryId":"20110484","StateId":"20114100","CountyId":"20114536","CityId":"20114539"}}},{"Relevance":1.0,"Distance":151.6,"MatchLevel":"houseNumber","MatchQuality":{"Country":1.0,"State":1.0,"County":1.0,"City":1.0,"District":1.0,"Street":[1.0],"HouseNumber":1.0,"PostalCode":1.0},"MatchType":"interpolated","Location":{"LocationId":"NT_6sy0rhA0uN9M4Kzef0ZBwC_yMDN","LocationType":"point","DisplayPosition":{"Latitude":44.4021,"Longitude":8.66358},"MapView":{"TopLeft":{"Latitude":44.4032242,"Longitude":8.6620065},"BottomRight":{"Latitude":44.4009758,"Longitude":8.6651535}},"Address":{"Label":"Via Guglielmo Marconi, 234, 16011 Arenzano GE, Italia","Country":"ITA","State":"Liguria","County":"GE","City":"Arenzano","District":"Terralba","Street":"Via Guglielmo Marconi","HouseNumber":"234","PostalCode":"16011","AdditionalData":[{"value":"Italia","key":"CountryName"},{"value":"Liguria","key":"StateName"},{"value":"Genova","key":"CountyName"}]},"MapReference":{"ReferenceId":"1260229798","Spot":0.63,"SideOfStreet":"left","CountryId":"20110484","StateId":"20114100","CountyId":"20114536","CityId":"20114539","DistrictId":"20481128","AddressId":"728679988","RoadLinkId":"585650399"}}},{"Relevance":1.0,"Distance":153.0,"MatchLevel":"landmark","MatchQuality":{"Country":1.0,"State":1.0,"County":1.0,"Name":1.0},"Location":{"LocationId":"NT_Y0M5oYzw57DAMhSuwliRWC","LocationType":"industrialComplex","Name":"Zona Industriale Terralba","DisplayPosition":{"Latitude":44.40166,"Longitude":8.65781},"MapView":{"TopLeft":{"Latitude":44.40573,"Longitude":8.65279},"BottomRight":{"Latitude":44.39758,"Longitude":8.66415}},"Address":{"Label":"GE, Italia","Country":"ITA","State":"Liguria","County":"GE","AdditionalData":[{"value":"Italia","key":"CountryName"},{"value":"Liguria","key":"StateName"},{"value":"Genova","key":"CountyName"}]},"MapReference":{"CountryId":"20110484","StateId":"20114100","CountyId":"20114536","PlaceId":"1414829870"}}},{"Relevance":1.0,"Distance":161.0,"MatchLevel":"houseNumber","MatchQuality":{"Country":1.0,"State":1.0,"County":1.0,"City":1.0,"District":1.0,"Street":[1.0],"HouseNumber":1.0,"PostalCode":1.0},"MatchType":"interpolated","Location":{"LocationId":"NT_kv0cW3ImV22xMb6ubsgJPB_0A","LocationType":"point","DisplayPosition":{"Latitude":44.4022,"Longitude":8.6635},"MapView":{"TopLeft":{"Latitude":44.4033242,"Longitude":8.6619265},"BottomRight":{"Latitude":44.4010758,"Longitude":8.6650735}},"Address":{"Label":"Via Castellin, 4, 16011 Arenzano GE, Italia","Country":"ITA","State":"Liguria","County":"GE","City":"Arenzano","District":"Terralba","Street":"Via Castellin","HouseNumber":"4","PostalCode":"16011","AdditionalData":[{"value":"Italia","key":"CountryName"},{"value":"Liguria","key":"StateName"},{"value":"Genova","key":"CountyName"}]},"MapReference":{"ReferenceId":"807415507","Spot":0.08,"SideOfStreet":"right","CountryId":"20110484","StateId":"20114100","CountyId":"20114536","CityId":"20114539","DistrictId":"20481128","AddressId":"728659678","RoadLinkId":"195070201"}}}]}]}}