{"Response":{"MetaInfo":{"Timestamp":"2020-03-28T10:00:01.055+0000","NextPageInformation":"2"},"View":[{"_type":"SearchResultsViewType","ViewId":0,"Result":[{"Relevance":1.0,"Distance":0.0,"Direction":0.0,"MatchLevel":"district","MatchQuality":{"Country":1.0,"County":1.0,"City":1.0,"District":1.0,"PostalCode":1.0},"Location":{"LocationId":"NT_Bgk6jCxEV86ie9Z.FcohQC","LocationType":"point","DisplayPosition":{"Latitude":44.4349386,"Longitude":25.9909996},"MapView":{"TopLeft":{"Latitude":44.4787,"Longitude":25.97201},"BottomRight":{"Latitude":44.40785,"Longitude":26.07276}},"Address":{"Label":"Sectorul 6, București, România","Country":"ROU","County":"București","City":"București","District":"Sectorul 6","PostalCode":"060941","AdditionalData":[{"value":"România","key":"CountryName"},{"value":"București","key":"CountyName"}]},"MapReference":{"ReferenceId":"588545254","SideOfStreet":"neither","CountryId":"20656215","CountyId":"20658062","CityId":"20658063","DistrictId":"20658069"}}},{"Relevance":1.0,"Distance":32.8,"MatchLevel":"houseNumber","MatchQuality":{"Country":1.0,"County":1.0,"City":1.0,"District":1.0,"Street":[1.0],"HouseNumber":1.0,"PostalCode":1.0},"MatchType":"interpolated","Location":{"LocationId":"NT_eoZbF97HpuSYbTyoTGcl-A_l_859344187_R_yMD","LocationType":"point","DisplayPosition":{"Latitude":44.4353232,"Longitude":25.9907576},"MapView":{"TopLeft":{"Latitude":44.4364473,"Longitude":25.9891833},"BottomRight":{"Latitude":44.434199,"Longitude":25.992332}},"Address":{"Label":"Intrarea Filmului 23, 062394 București, România","Country":"ROU","County":"București","City":"București","District":"Sectorul 6","Street":"Intrarea Filmului","HouseNumber":"23","PostalCode":"062394","AdditionalData":[{"value":"România","key":"CountryName"},{"value":"București","key":"CountyName"}]},"MapReference":{"ReferenceId":"859344187","Spot":0.5,"SideOfStreet":"right","CountryId":"20656215","CountyId":"20658062","CityId":"20658063","DistrictId":"20658069"}}},{"Relevance":1.0,"Distance":34.4,"MatchLevel":"houseNumber","MatchQuality":{"Country":1.0,"County":1.0,"City":1.0,"District":1.0,"Street":[1.0],"HouseNumber":1.0,"PostalCode":1.0},"MatchType":"interpolated","Location":{"LocationId":"NT_6IeTC7XZEoMXd1Dr62DitD_xA","LocationType":"point","DisplayPosition":{"Latitude":44.43459,"Longitude":25.99105},"MapView":{"TopLeft":{"Latitude":44.4357142,"Longitude":25.9894757},"BottomRight":{"Latitude":44.4334658,"Longitude":25.9926243}},"Address":{"Label":"Aleea Hamului 1, 062393 București, România","Country":"ROU","County":"București","City":"București","District":"Sectorul 6","Street":"Aleea Hamului","HouseNumber":"1","PostalCode":"062393","AdditionalData":[{"value":"România","key":"CountryName"},{"value":"București","key":"CountyName"}]},"MapReference":{"ReferenceId":"588522799","Spot":0.24,"SideOfStreet":"left","CountryId":"20656215","CountyId":"20658062","CityId":"20658063","DistrictId":"20658069","AddressId":"686131517","RoadLinkId":"77342212"}}},{"Relevance":1.0,"Distance":50.5,"MatchLevel":"houseNumber","MatchQuality":{"Country":1.0,"County":1.0,"City":1.0,"District":1.0,"Street":[1.0],"HouseNumber":1.0,"PostalCode":1.0},"MatchType":"interpolated","Location":{"LocationId":"NT_eoZbF97HpuSYbTyoTGcl-A_yA","LocationType":"point","DisplayPosition":{"Latitude":44.43482,"Longitude":25.99035},"MapView":{"TopLeft":{"Latitude":44.4359442,"Longitude":25.9887757},"BottomRight":{"Latitude":44.4336958,"Longitude":25.9919243}},"Address":{"Label":"Intrarea Filmului 2, 062394 București, România","Country":"ROU","County":"București","City":"București","District":"Sectorul 6","Street":"Intrarea Filmului","HouseNumber":"2","PostalCode":"062394","AdditionalData":[{"value":"România","key":"CountryName"},{"value":"București","key":"CountyName"}]},"MapReference":{"ReferenceId":"859344186","Spot":0.2,"SideOfStreet":"right","CountryId":"20656215","CountyId":"20658062","CityId":"20658063","DistrictId":"20658069","AddressId":"686179022","RoadLinkId":"235036450"}}},{"Relevance":1.0,"Distance":55.6,"MatchLevel":"houseNumber","MatchQuality":{"Country":1.0,"County":1.0,"City":1.0,"District":1.0,"Street":[1.0],"HouseNumber":1.0,"PostalCode":1.0},"MatchType":"interpolated","Location":{"LocationId":"NT_eoZbF97HpuSYbTyoTGcl-A_l_859344184_R_yA","LocationType":"point","DisplayPosition":{"Latitude":44.4345751,"Longitude":25.9903045},"MapView":{"TopLeft":{"Latitude":44.4356993,"Longitude":25.9887302},"BottomRight":{"Latitude":44.433451,"Longitude":25.9918788}},"Address":{"Label":"Intrarea Filmului 2, 062394 București, România","Country":"ROU","County":"București","City":"București","District":"Sectorul 6","Street":"Intrarea Filmului","HouseNumber":"2","PostalCode":"062394","AdditionalData":[{"value":"România","key":"CountryName"},{"value":"București","key":"CountyName"}]},"MapReference":{"ReferenceId":"859344184","Spot":0.51,"SideOfStreet":"right","CountryId":"20656215","CountyId":"20658062","CityId":"20658063","DistrictId":"20658069"}}},{"Relevance":1.0,"Distance":58.4,"MatchLevel":"houseNumber","MatchQuality":{"Country":1.0,"County":1.0,"City":1.0,"District":1.0,"Street":[1.0],"HouseNumber":1.0,"PostalCode":1.0},"MatchType":"interpolated","Location":{"LocationId":"NT_g5-tEAYKaRrigpoRtPjHWA_l_588489712_R_0QjM","LocationType":"point","DisplayPosition":{"Latitude":44.4343604,"Longitude":25.9905952},"MapView":{"TopLeft":{"Latitude":44.4354845,"Longitude":25.9890209},"BottomRight":{"Latitude":44.4332362,"Longitude":25.9921695}},"Address":{"Label":"Bulevardul Iuliu Maniu 442, 060941 București, România","Country":"ROU","County":"București","City":"București","District":"Sectorul 6","Street":"Bulevardul Iuliu Maniu","HouseNumber":"442","PostalCode":"060941","AdditionalData":[{"value":"România","key":"CountryName"},{"value":"București","key":"CountyName"}]},"MapReference":{"ReferenceId":"588489712","Spot":0.51,"SideOfStreet":"right","CountryId":"20656215","CountyId":"20658062","CityId":"20658063","DistrictId":"20658069"}}},{"Relevance":1.0,"Distance":59.0,"MatchLevel":"street","MatchQuality":{"Country":1.0,"County":1.0,"City":1.0,"District":1.0,"PostalCode":1.0},"Location":{"LocationId":"NT_yQ5kiIEF.kkBLLfn1lE-zB_l_859344185_R","LocationType":"point","DisplayPosition":{"Latitude":44.43476,"Longitude":25.9903},"MapView":{"TopLeft":{"Latitude":44.43482,"Longitude":25.99002},"BottomRight":{"Latitude":44.43476,"Longitude":25.9903}},"Address":{"Label":"060941 București, România","Country":"ROU","County":"București","City":"București","District":"Sectorul 6","PostalCode":"060941","AdditionalData":[{"value":"România","key":"CountryName"},{"value":"București","key":"CountyName"}]},"MapReference":{"ReferenceId":"859344185","Spot":0.0,"SideOfStreet":"right","CountryId":"20656215","CountyId":"20658062","CityId":"20658063","DistrictId":"20658069"}}},{"Relevance":1.0,"Distance":61.6,"MatchLevel":"houseNumber","MatchQuality":{"Country":1.0,"County":1.0,"City":1.0,"District":1.0,"Street":[1.0],"HouseNumber":1.0,"PostalCode":1.0},"MatchType":"interpolated","Location":{"LocationId":"NT_GLgIpqRE3UrHrU73cclOVB_zADN","LocationType":"point","DisplayPosition":{"Latitude":44.43432,"Longitude":25.99109},"MapView":{"TopLeft":{"Latitude":44.4354442,"Longitude":25.9895157},"BottomRight":{"Latitude":44.4331958,"Longitude":25.9926643}},"Address":{"Label":"Bulevardul Iuliu Maniu 304, 061127 București, România","Country":"ROU","County":"București","City":"București","District":"Sectorul 6","Street":"Bulevardul Iuliu Maniu","HouseNumber":"304","PostalCode":"061127","AdditionalData":[{"value":"România","key":"CountryName"},{"value":"București","key":"CountyName"}]},"MapReference":{"ReferenceId":"800034955","Spot":0.78,"SideOfStreet":"right","CountryId":"20656215","CountyId":"20658062","CityId":"20658063","DistrictId":"20658069","AddressId":"686150552","RoadLinkId":"190868283"}}},{"Relevance":1.0,"Distance":81.7,"MatchLevel":"houseNumber","MatchQuality":{"Country":1.0,"County":1.0,"City":1.0,"District":1.0,"Street":[1.0],"HouseNumber":1.0,"PostalCode":1.0},"MatchType":"interpolated","Location":{"LocationId":"NT_LzLEdVS330r8V5WNSaXLsA_l_1230858122_R_0QDN","LocationType":"point","DisplayPosition":{"Latitude":44.4344052,"Longitude":25.9901224},"MapView":{"TopLeft":{"Latitude":44.4355294,"Longitude":25.9885481},"BottomRight":{"Latitude":44.4332811,"Longitude":25.9916967}},"Address":{"Label":"Bulevardul Iuliu Maniu 444, 060941 București, România","Country":"ROU","County":"București","City":"București","District":"Sectorul 6","Street":"Bulevardul Iuliu Maniu","HouseNumber":"444","PostalCode":"060941","AdditionalData":[{"value":"România","key":"CountryName"},{"value":"București","key":"CountyName"}]},"MapReference":{"ReferenceId":"1230858122","Spot":0.51,"SideOfStreet":"right","CountryId":"20656215","CountyId":"20658062","CityId":"20658063","DistrictId":"20658069"}}},{"Relevance":1.0,"Distance":86.6,"MatchLevel":"houseNumber","MatchQuality":{"Country":1.0,"County":1.0,"City":1.0,"District":1.0,"Street":[1.0],"HouseNumber":1.0,"PostalCode":1.0},"MatchType":"interpolated","Location":{"LocationId":"NT_srlHVJoIuG0hwTyE9YYTaC_yUD","LocationType":"point","DisplayPosition":{"Latitude":44.43469,"Longitude":25.99211},"MapView":{"TopLeft":{"Latitude":44.4358142,"Longitude":25.9905357},"BottomRight":{"Latitude":44.4335658,"Longitude":25.9936843}},"Address":{"Label":"Drumul Belșugului 25, 062392 București, România","Country":"ROU","County":"București","City":"București","District":"Sectorul 6","Street":"Drumul Belșugului","HouseNumber":"25","PostalCode":"062392","AdditionalData":[{"value":"România","key":"CountryName"},{"value":"București","key":"CountyName"}]},"MapReference":{"ReferenceId":"859344218","Spot":0.56,"SideOfStreet":"left","CountryId":"20656215","CountyId":"20658062","CityId":"20658063","DistrictId":"20658069","AddressId":"686179027","RoadLinkId":"235036487"}}}]}]}}