{"Response":{"MetaInfo":{"Timestamp":"2020-03-28T11:35:22.672+0000","NextPageInformation":"2"},"View":[{"_type":"SearchResultsViewType","ViewId":0,"Result":[{"Relevance":1.0,"Distance":0.0,"Direction":0.0,"MatchLevel":"district","MatchQuality":{"Country":1.0,"County":1.0,"City":1.0,"District":1.0,"PostalCode":1.0},"Location":{"LocationId":"NT_iR09HvegqKfxAZZ2wPAGwA","LocationType":"point","DisplayPosition":{"Latitude":44.4358189,"Longitude":26.0852229},"MapView":{"TopLeft":{"Latitude":44.52208,"Longitude":25.99784},"BottomRight":{"Latitude":44.4345,"Longitude":26.11483}},"Address":{"Label":"Sectorul 1, București, România","Country":"ROU","County":"București","City":"București","District":"Sectorul 1","PostalCode":"010221","AdditionalData":[{"value":"România","key":"CountryName"},{"value":"București","key":"CountyName"}]},"MapReference":{"ReferenceId":"588481988","SideOfStreet":"neither","CountryId":"20656215","CountyId":"20658062","CityId":"20658063","DistrictId":"20658064"}}},{"Relevance":1.0,"Distance":26.8,"MatchLevel":"houseNumber","MatchQuality":{"Country":1.0,"County":1.0,"City":1.0,"District":1.0,"Street":[1.0],"HouseNumber":1.0,"PostalCode":1.0},"MatchType":"interpolated","Location":{"LocationId":"NT_Ij3XCYx7gUkeBmKZw0CqLB_yUD","LocationType":"point","DisplayPosition":{"Latitude":44.43601,"Longitude":26.08498},"MapView":{"TopLeft":{"Latitude":44.4371342,"Longitude":26.0834056},"BottomRight":{"Latitude":44.4348858,"Longitude":26.0865544}},"Address":{"Label":"Calea Plevnei 25, 010221 București, România","Country":"ROU","County":"București","City":"București","District":"Sectorul 1","Street":"Calea Plevnei","HouseNumber":"25","PostalCode":"010221","AdditionalData":[{"value":"România","key":"CountryName"},{"value":"București","key":"CountyName"}]},"MapReference":{"ReferenceId":"1024644199","Spot":0.88,"SideOfStreet":"left","CountryId":"20656215","CountyId":"20658062","CityId":"20658063","DistrictId":"20658064","AddressId":"686177786","RoadLinkId":"347899157"}}},{"Relevance":1.0,"Distance":40.3,"MatchLevel":"houseNumber","MatchQuality":{"Country":1.0,"County":1.0,"City":1.0,"District":1.0,"Street":[1.0],"HouseNumber":1.0,"PostalCode":1.0},"MatchType":"interpolated","Location":{"LocationId":"NT_pfEpB3fdsio793syqhfzvB_xA","LocationType":"point","DisplayPosition":{"Latitude":44.43594,"Longitude":26.08468},"MapView":{"TopLeft":{"Latitude":44.4370642,"Longitude":26.0831056},"BottomRight":{"Latitude":44.4348158,"Longitude":26.0862544}},"Address":{"Label":"Strada Theodor Burada 1, 010215 București, România","Country":"ROU","County":"București","City":"București","District":"Sectorul 1","Street":"Strada Theodor Burada","HouseNumber":"1","PostalCode":"010215","AdditionalData":[{"value":"România","key":"CountryName"},{"value":"București","key":"CountyName"}]},"MapReference":{"ReferenceId":"588489568","Spot":0.55,"SideOfStreet":"right","CountryId":"20656215","CountyId":"20658062","CityId":"20658063","DistrictId":"20658064","AddressId":"686074000","RoadLinkId":"77431402"}}},{"Relevance":1.0,"Distance":42.1,"MatchLevel":"houseNumber","MatchQuality":{"Country":1.0,"County":1.0,"City":1.0,"District":1.0,"Street":[1.0],"HouseNumber":1.0,"PostalCode":1.0},"MatchType":"interpolated","Location":{"LocationId":"NT_DZqzphdy.GbbQ0MupMDr5C_1A","LocationType":"point","DisplayPosition":{"Latitude":44.43553,"Longitude":26.08482},"MapView":{"TopLeft":{"Latitude":44.4366542,"Longitude":26.0832456},"BottomRight":{"Latitude":44.4344058,"Longitude":26.0863944}},"Address":{"Label":"Strada Ioan Bibicescu 5, 010214 București, România","Country":"ROU","County":"București","City":"București","District":"Sectorul 1","Street":"Strada Ioan Bibicescu","HouseNumber":"5","PostalCode":"010214","AdditionalData":[{"value":"România","key":"CountryName"},{"value":"București","key":"CountyName"}]},"MapReference":{"ReferenceId":"588489676","Spot":0.74,"SideOfStreet":"right","CountryId":"20656215","CountyId":"20658062","CityId":"20658063","DistrictId":"20658064","AddressId":"686073758","RoadLinkId":"77347610"}}},{"Relevance":1.0,"Distance":58.0,"MatchLevel":"houseNumber","MatchQuality":{"Country":1.0,"County":1.0,"City":1.0,"District":1.0,"Street":[1.0],"HouseNumber":1.0,"PostalCode":1.0},"MatchType":"interpolated","Location":{"LocationId":"NT_0oVL3VLPYImZpxya7hlgVD_zETQ","LocationType":"point","DisplayPosition":{"Latitude":44.43637,"Longitude":26.08527},"MapView":{"TopLeft":{"Latitude":44.4374942,"Longitude":26.0836956},"BottomRight":{"Latitude":44.4352458,"Longitude":26.0868444}},"Address":{"Label":"Strada Sfântul Constantin 31A, 010217 București, România","Country":"ROU","County":"București","City":"București","District":"Sectorul 1","Street":"Strada Sfântul Constantin","HouseNumber":"31A","PostalCode":"010217","AdditionalData":[{"value":"România","key":"CountryName"},{"value":"București","key":"CountyName"}]},"MapReference":{"ReferenceId":"802531246","Spot":0.3,"SideOfStreet":"left","CountryId":"20656215","CountyId":"20658062","CityId":"20658063","DistrictId":"20658064","AddressId":"686150097","RoadLinkId":"191992010"}}},{"Relevance":1.0,"Distance":62.3,"MatchLevel":"houseNumber","MatchQuality":{"Country":1.0,"County":1.0,"City":1.0,"District":1.0,"Street":[1.0],"HouseNumber":1.0,"PostalCode":1.0},"MatchType":"interpolated","Location":{"LocationId":"NT_pfEpB3fdsio793syqhfzvB_1A","LocationType":"point","DisplayPosition":{"Latitude":44.43564,"Longitude":26.08446},"MapView":{"TopLeft":{"Latitude":44.4367642,"Longitude":26.0828856},"BottomRight":{"Latitude":44.4345158,"Longitude":26.0860344}},"Address":{"Label":"Strada Theodor Burada 5, 010215 București, România","Country":"ROU","County":"București","City":"București","District":"Sectorul 1","Street":"Strada Theodor Burada","HouseNumber":"5","PostalCode":"010215","AdditionalData":[{"value":"România","key":"CountryName"},{"value":"București","key":"CountyName"}]},"MapReference":{"ReferenceId":"588489619","Spot":0.78,"SideOfStreet":"right","CountryId":"20656215","CountyId":"20658062","CityId":"20658063","DistrictId":"20658064","AddressId":"686073925","RoadLinkId":"77500157"}}},{"Relevance":1.0,"Distance":62.3,"MatchLevel":"houseNumber","MatchQuality":{"Country":1.0,"County":1.0,"City":1.0,"District":1.0,"Street":[1.0],"HouseNumber":1.0},"MatchType":"interpolated","Location":{"LocationId":"NT_R9RIMUXRfzbtbhRx2vMZ-A_ycD","LocationType":"point","DisplayPosition":{"Latitude":44.43616,"Longitude":26.0846},"MapView":{"TopLeft":{"Latitude":44.4372842,"Longitude":26.0830256},"BottomRight":{"Latitude":44.4350358,"Longitude":26.0861744}},"Address":{"Label":"Calea Plevnei 27, București, România","Country":"ROU","County":"București","City":"București","District":"Sectorul 1","Street":"Calea Plevnei","HouseNumber":"27","AdditionalData":[{"value":"România","key":"CountryName"},{"value":"București","key":"CountyName"}]},"MapReference":{"ReferenceId":"802531244","Spot":0.68,"SideOfStreet":"left","CountryId":"20656215","CountyId":"20658062","CityId":"20658063","DistrictId":"20658064","AddressId":"711722171","RoadLinkId":"191992008"}}},{"Relevance":1.0,"Distance":63.9,"MatchLevel":"street","MatchQuality":{"Country":1.0,"County":1.0,"City":1.0,"District":1.0,"Street":[1.0]},"Location":{"LocationId":"NT_BR9uj6XbVfYNrUTJ8lDSaD_l_588489408_R","LocationType":"point","DisplayPosition":{"Latitude":44.43633,"Longitude":26.08559},"MapView":{"TopLeft":{"Latitude":44.43642,"Longitude":26.08559},"BottomRight":{"Latitude":44.43633,"Longitude":26.08567}},"Address":{"Label":"Strada Gheorghe Lazăr, București, România","Country":"ROU","County":"București","City":"București","District":"Sectorul 1","Street":"Strada Gheorghe Lazăr","AdditionalData":[{"value":"România","key":"CountryName"},{"value":"București","key":"CountyName"}]},"MapReference":{"ReferenceId":"588489408","Spot":0.0,"SideOfStreet":"right","CountryId":"20656215","CountyId":"20658062","CityId":"20658063","DistrictId":"20658064"}}},{"Relevance":1.0,"Distance":67.1,"MatchLevel":"houseNumber","MatchQuality":{"Country":1.0,"County":1.0,"City":1.0,"District":1.0,"Street":[1.0],"HouseNumber":1.0,"PostalCode":1.0},"MatchType":"interpolated","Location":{"LocationId":"NT_0oVL3VLPYImZpxya7hlgVD_ykD","LocationType":"point","DisplayPosition":{"Latitude":44.4363,"Longitude":26.08581},"MapView":{"TopLeft":{"Latitude":44.4374242,"Longitude":26.0842356},"BottomRight":{"Latitude":44.4351758,"Longitude":26.0873844}},"Address":{"Label":"Strada Sfântul Constantin 29, 010217 București, România","Country":"ROU","County":"București","City":"București","District":"Sectorul 1","Street":"Strada Sfântul Constantin","HouseNumber":"29","PostalCode":"010217","AdditionalData":[{"value":"România","key":"CountryName"},{"value":"București","key":"CountyName"}]},"MapReference":{"ReferenceId":"1105083338","Spot":0.88,"SideOfStreet":"left","CountryId":"20656215","CountyId":"20658062","CityId":"20658063","DistrictId":"20658064","AddressId":"686190248","RoadLinkId":"416898666"}}},{"Relevance":1.0,"Distance":68.8,"MatchLevel":"street","MatchQuality":{"Country":1.0,"County":1.0,"City":1.0,"District":1.0},"Location":{"LocationId":"NT_Mrmu6msF7MGd-3boIuMZeD_l_802531248_R","LocationType":"point","DisplayPosition":{"Latitude":44.43619,"Longitude":26.08453},"MapView":{"TopLeft":{"Latitude":44.43645,"Longitude":26.08452},"BottomRight":{"Latitude":44.43619,"Longitude":26.08454}},"Address":{"Label":"București, România","Country":"ROU","County":"București","City":"București","District":"Sectorul 1","AdditionalData":[{"value":"România","key":"CountryName"},{"value":"București","key":"CountyName"}]},"MapReference":{"ReferenceId":"802531248","Spot":0.0,"SideOfStreet":"right","CountryId":"20656215","CountyId":"20658062","CityId":"20658063","DistrictId":"20658064"}}}]}]}}