{"Response":{"MetaInfo":{"Timestamp":"2020-03-28T11:35:50.649+0000","NextPageInformation":"2"},"View":[{"_type":"SearchResultsViewType","ViewId":0,"Result":[{"Relevance":1.0,"Distance":0.0,"Direction":0.0,"MatchLevel":"district","MatchQuality":{"Country":1.0,"County":1.0,"City":1.0,"District":1.0,"PostalCode":1.0},"Location":{"LocationId":"NT_V79jU6GqfRXGPNnUs6b01A","LocationType":"point","DisplayPosition":{"Latitude":44.4278136,"Longitude":26.1127791},"MapView":{"TopLeft":{"Latitude":44.44113,"Longitude":26.0964},"BottomRight":{"Latitude":44.38868,"Longitude":26.22437}},"Address":{"Label":"Sectorul 3, București, România","Country":"ROU","County":"București","City":"București","District":"Sectorul 3","PostalCode":"030171","AdditionalData":[{"value":"România","key":"CountryName"},{"value":"București","key":"CountyName"}]},"MapReference":{"ReferenceId":"588490028","SideOfStreet":"neither","CountryId":"20656215","CountyId":"20658062","CityId":"20658063","DistrictId":"20658066"}}},{"Relevance":1.0,"Distance":7.7,"MatchLevel":"houseNumber","MatchQuality":{"Country":1.0,"County":1.0,"City":1.0,"District":1.0,"Street":[1.0],"HouseNumber":1.0,"PostalCode":1.0},"MatchType":"interpolated","Location":{"LocationId":"NT_BrvJt6E83msaw5lGpvc3gC_l_1168103356_R_1MD","LocationType":"point","DisplayPosition":{"Latitude":44.42784,"Longitude":26.11269},"MapView":{"TopLeft":{"Latitude":44.4289642,"Longitude":26.1111158},"BottomRight":{"Latitude":44.4267159,"Longitude":26.1142641}},"Address":{"Label":"Aleea Căuzași 53, 030803 București, România","Country":"ROU","County":"București","City":"București","District":"Sectorul 3","Street":"Aleea Căuzași","HouseNumber":"53","PostalCode":"030803","AdditionalData":[{"value":"România","key":"CountryName"},{"value":"București","key":"CountyName"}]},"MapReference":{"ReferenceId":"1168103356","Spot":0.44,"SideOfStreet":"right","CountryId":"20656215","CountyId":"20658062","CityId":"20658063","DistrictId":"20658066"}}},{"Relevance":1.0,"Distance":7.8,"MatchLevel":"street","MatchQuality":{"Country":1.0,"County":1.0,"City":1.0,"District":1.0,"Street":[1.0],"PostalCode":1.0},"Location":{"LocationId":"NT_BrvJt6E83msaw5lGpvc3gC_l_1168103353_R","LocationType":"point","DisplayPosition":{"Latitude":44.42775,"Longitude":26.11282},"MapView":{"TopLeft":{"Latitude":44.42775,"Longitude":26.11282},"BottomRight":{"Latitude":44.42752,"Longitude":26.11308}},"Address":{"Label":"Aleea Căuzași, 030803 București, România","Country":"ROU","County":"București","City":"București","District":"Sectorul 3","Street":"Aleea Căuzași","PostalCode":"030803","AdditionalData":[{"value":"România","key":"CountryName"},{"value":"București","key":"CountyName"}]},"MapReference":{"ReferenceId":"1168103353","Spot":1.0,"SideOfStreet":"right","CountryId":"20656215","CountyId":"20658062","CityId":"20658063","DistrictId":"20658066"}}},{"Relevance":1.0,"Distance":25.6,"MatchLevel":"street","MatchQuality":{"Country":1.0,"County":1.0,"City":1.0,"District":1.0,"PostalCode":1.0},"Location":{"LocationId":"NT_1LoROTRYCEGZmxzBSr0v.C_l_1168103358_R","LocationType":"point","DisplayPosition":{"Latitude":44.4279646,"Longitude":26.1125352},"MapView":{"TopLeft":{"Latitude":44.42815,"Longitude":26.11252},"BottomRight":{"Latitude":44.42794,"Longitude":26.11265}},"Address":{"Label":"030803 București, România","Country":"ROU","County":"București","City":"București","District":"Sectorul 3","PostalCode":"030803","AdditionalData":[{"value":"România","key":"CountryName"},{"value":"București","key":"CountyName"}]},"MapReference":{"ReferenceId":"1168103358","Spot":0.12,"SideOfStreet":"right","CountryId":"20656215","CountyId":"20658062","CityId":"20658063","DistrictId":"20658066"}}},{"Relevance":1.0,"Distance":38.1,"MatchLevel":"houseNumber","MatchQuality":{"Country":1.0,"County":1.0,"City":1.0,"District":1.0,"Street":[1.0],"HouseNumber":1.0,"PostalCode":1.0},"MatchType":"interpolated","Location":{"LocationId":"NT_BrvJt6E83msaw5lGpvc3gC_l_1168103357_L_0kD","LocationType":"point","DisplayPosition":{"Latitude":44.4278794,"Longitude":26.1123087},"MapView":{"TopLeft":{"Latitude":44.4290035,"Longitude":26.1107346},"BottomRight":{"Latitude":44.4267552,"Longitude":26.1138829}},"Address":{"Label":"Aleea Căuzași 49, 030803 București, România","Country":"ROU","County":"București","City":"București","District":"Sectorul 3","Street":"Aleea Căuzași","HouseNumber":"49","PostalCode":"030803","AdditionalData":[{"value":"România","key":"CountryName"},{"value":"București","key":"CountyName"}]},"MapReference":{"ReferenceId":"1168103357","Spot":0.51,"SideOfStreet":"left","CountryId":"20656215","CountyId":"20658062","CityId":"20658063","DistrictId":"20658066"}}},{"Relevance":1.0,"Distance":40.5,"MatchLevel":"street","MatchQuality":{"Country":1.0,"County":1.0,"City":1.0,"District":1.0,"PostalCode":1.0},"Location":{"LocationId":"NT_1LoROTRYCEGZmxzBSr0v.C_l_1168103354_L","LocationType":"point","DisplayPosition":{"Latitude":44.42752,"Longitude":26.11308},"MapView":{"TopLeft":{"Latitude":44.42752,"Longitude":26.11302},"BottomRight":{"Latitude":44.42731,"Longitude":26.11317}},"Address":{"Label":"030803 București, România","Country":"ROU","County":"București","City":"București","District":"Sectorul 3","PostalCode":"030803","AdditionalData":[{"value":"România","key":"CountryName"},{"value":"București","key":"CountyName"}]},"MapReference":{"ReferenceId":"1168103354","Spot":1.0,"SideOfStreet":"left","CountryId":"20656215","CountyId":"20658062","CityId":"20658063","DistrictId":"20658066"}}},{"Relevance":1.0,"Distance":54.1,"MatchLevel":"street","MatchQuality":{"Country":1.0,"County":1.0,"City":1.0,"District":1.0,"Street":[1.0],"PostalCode":1.0},"Location":{"LocationId":"NT_9f4n9PHZ93NPfhP1PNcCZD_l_588491454_R","LocationType":"point","DisplayPosition":{"Latitude":44.42777,"Longitude":26.1121},"MapView":{"TopLeft":{"Latitude":44.42819,"Longitude":26.112},"BottomRight":{"Latitude":44.42777,"Longitude":26.1121}},"Address":{"Label":"Bulevardul Mircea Vodă, 030171 București, România","Country":"ROU","County":"București","City":"București","District":"Sectorul 3","Street":"Bulevardul Mircea Vodă","PostalCode":"030171","AdditionalData":[{"value":"România","key":"CountryName"},{"value":"București","key":"CountyName"}]},"MapReference":{"ReferenceId":"588491454","Spot":0.0,"SideOfStreet":"right","CountryId":"20656215","CountyId":"20658062","CityId":"20658063","DistrictId":"20658066"}}},{"Relevance":1.0,"Distance":54.1,"MatchLevel":"street","MatchQuality":{"Country":1.0,"County":1.0,"City":1.0,"District":1.0,"Street":[1.0],"PostalCode":1.0},"Location":{"LocationId":"NT_9f4n9PHZ93NPfhP1PNcCZD_l_806038092_R","LocationType":"point","DisplayPosition":{"Latitude":44.42777,"Longitude":26.1121},"MapView":{"TopLeft":{"Latitude":44.42777,"Longitude":26.11205},"BottomRight":{"Latitude":44.42721,"Longitude":26.1121}},"Address":{"Label":"Bulevardul Mircea Vodă, 030171 București, România","Country":"ROU","County":"București","City":"București","District":"Sectorul 3","Street":"Bulevardul Mircea Vodă","PostalCode":"030171","AdditionalData":[{"value":"România","key":"CountryName"},{"value":"București","key":"CountyName"}]},"MapReference":{"ReferenceId":"806038092","Spot":1.0,"SideOfStreet":"right","CountryId":"20656215","CountyId":"20658062","CityId":"20658063","DistrictId":"20658066"}}},{"Relevance":1.0,"Distance":74.7,"MatchLevel":"street","MatchQuality":{"Country":1.0,"County":1.0,"City":1.0,"District":1.0,"Street":[1.0],"PostalCode":1.0},"Location":{"LocationId":"NT_9f4n9PHZ93NPfhP1PNcCZD_l_588491386_R","LocationType":"point","DisplayPosition":{"Latitude":44.42819,"Longitude":26.112},"MapView":{"TopLeft":{"Latitude":44.42836,"Longitude":26.11192},"BottomRight":{"Latitude":44.42819,"Longitude":26.112}},"Address":{"Label":"Bulevardul Mircea Vodă, 030171 București, România","Country":"ROU","County":"București","City":"București","District":"Sectorul 3","Street":"Bulevardul Mircea Vodă","PostalCode":"030171","AdditionalData":[{"value":"România","key":"CountryName"},{"value":"București","key":"CountyName"}]},"MapReference":{"ReferenceId":"588491386","Spot":0.0,"SideOfStreet":"right","CountryId":"20656215","CountyId":"20658062","CityId":"20658063","DistrictId":"20658066"}}},{"Relevance":1.0,"Distance":74.7,"MatchLevel":"street","MatchQuality":{"Country":1.0,"County":1.0,"City":1.0,"District":1.0,"Street":[1.0],"PostalCode":1.0},"Location":{"LocationId":"NT_PpXzgFiGnXM1egVbfyEO3C_l_1022598891_R","LocationType":"point","DisplayPosition":{"Latitude":44.42819,"Longitude":26.112},"MapView":{"TopLeft":{"Latitude":44.42819,"Longitude":26.11108},"BottomRight":{"Latitude":44.42816,"Longitude":26.112}},"Address":{"Label":"Strada Sfânta Vineri, 030171 București, România","Country":"ROU","County":"București","City":"București","District":"Sectorul 3","Street":"Strada Sfânta Vineri","PostalCode":"030171","AdditionalData":[{"value":"România","key":"CountryName"},{"value":"București","key":"CountyName"}]},"MapReference":{"ReferenceId":"1022598891","Spot":1.0,"SideOfStreet":"right","CountryId":"20656215","CountyId":"20658062","CityId":"20658063","DistrictId":"20658066"}}}]}]}}