{"Response":{"MetaInfo":{"Timestamp":"2020-03-28T11:25:54.222+0000","NextPageInformation":"2"},"View":[{"_type":"SearchResultsViewType","ViewId":0,"Result":[{"Relevance":1.0,"Distance":0.0,"Direction":0.0,"MatchLevel":"district","MatchQuality":{"Country":1.0,"State":1.0,"County":1.0,"City":1.0,"District":1.0,"PostalCode":1.0},"Location":{"LocationId":"NT_MdfPUIXPjPzjv3gNyEXEGB","LocationType":"point","DisplayPosition":{"Latitude":44.4299288,"Longitude":8.7460374},"MapView":{"TopLeft":{"Latitude":44.4971,"Longitude":8.66556},"BottomRight":{"Latitude":44.41289,"Longitude":8.80624}},"Address":{"Label":"Voltri, Genova, Liguria, Italia","Country":"ITA","State":"Liguria","County":"GE","City":"Genova","District":"Voltri","PostalCode":"16158","AdditionalData":[{"value":"Italia","key":"CountryName"},{"value":"Liguria","key":"StateName"},{"value":"Genova","key":"CountyName"}]},"MapReference":{"ReferenceId":"55256201","SideOfStreet":"neither","CountryId":"20110484","StateId":"20114100","CountyId":"20114536","CityId":"20114618","DistrictId":"20114631"}}},{"Relevance":1.0,"Distance":6.1,"MatchLevel":"landmark","MatchQuality":{"Country":1.0,"State":1.0,"County":1.0,"City":1.0,"District":1.0,"Street":[1.0],"PostalCode":1.0,"Name":1.0},"Location":{"LocationId":"NT_bsrquUo9jt85ldViHnKVOB_p_YxlJ6.bdzSrISYC0u0JZKA","LocationType":"hospital","Name":"Ospedale Evangelico Internazionale","DisplayPosition":{"Latitude":44.42998,"Longitude":8.74601},"MapView":{"TopLeft":{"Latitude":44.43071,"Longitude":8.74403},"BottomRight":{"Latitude":44.42943,"Longitude":8.74697}},"Address":{"Label":"Piazzale Efisio Gianasso, 16158 Genova GE, Italia","Country":"ITA","State":"Liguria","County":"GE","City":"Genova","District":"Voltri","Street":"Piazzale Efisio Gianasso","PostalCode":"16158","AdditionalData":[{"value":"Italia","key":"CountryName"},{"value":"Liguria","key":"StateName"},{"value":"Genova","key":"CountyName"}]},"MapReference":{"CountryId":"20110484","StateId":"20114100","CountyId":"20114536","CityId":"20114618","PlaceId":"74063433"}}},{"Relevance":1.0,"Distance":6.4,"MatchLevel":"houseNumber","MatchQuality":{"Country":1.0,"State":1.0,"County":1.0,"City":1.0,"District":1.0,"Street":[1.0],"HouseNumber":1.0,"PostalCode":1.0},"MatchType":"interpolated","Location":{"LocationId":"NT_BUz65rR5ncWA.Pnb3ZocAB_xYD","LocationType":"point","DisplayPosition":{"Latitude":44.42998,"Longitude":8.746},"MapView":{"TopLeft":{"Latitude":44.4311042,"Longitude":8.7444258},"BottomRight":{"Latitude":44.4288558,"Longitude":8.7475742}},"Address":{"Label":"Piazzale Efisio Gianasso, 16, 16158 Genova GE, Italia","Country":"ITA","State":"Liguria","County":"GE","City":"Genova","District":"Voltri","Street":"Piazzale Efisio Gianasso","HouseNumber":"16","PostalCode":"16158","AdditionalData":[{"value":"Italia","key":"CountryName"},{"value":"Liguria","key":"StateName"},{"value":"Genova","key":"CountyName"}]},"MapReference":{"ReferenceId":"592390072","Spot":0.9,"SideOfStreet":"left","CountryId":"20110484","StateId":"20114100","CountyId":"20114536","CityId":"20114618","AddressId":"778644494","RoadLinkId":"557420164"}}},{"Relevance":1.0,"Distance":8.0,"MatchLevel":"houseNumber","MatchQuality":{"Country":1.0,"State":1.0,"County":1.0,"City":1.0,"District":1.0,"Street":[1.0],"HouseNumber":1.0,"PostalCode":1.0},"MatchType":"interpolated","Location":{"LocationId":"NT_BUz65rR5ncWA.Pnb3ZocAB_xgD","LocationType":"point","DisplayPosition":{"Latitude":44.43,"Longitude":8.74605},"MapView":{"TopLeft":{"Latitude":44.4311242,"Longitude":8.7444758},"BottomRight":{"Latitude":44.4288758,"Longitude":8.7476242}},"Address":{"Label":"Via Enrico Morselli, 18, 16158 Genova GE, Italia","Country":"ITA","State":"Liguria","County":"GE","City":"Genova","District":"Voltri","Street":"Via Enrico Morselli","HouseNumber":"18","PostalCode":"16158","AdditionalData":[{"value":"Italia","key":"CountryName"},{"value":"Liguria","key":"StateName"},{"value":"Genova","key":"CountyName"}]},"MapReference":{"ReferenceId":"587652196","Spot":0.3,"SideOfStreet":"left","CountryId":"20110484","StateId":"20114100","CountyId":"20114536","CityId":"20114618","AddressId":"778645362","RoadLinkId":"557420162"}}},{"Relevance":1.0,"Distance":8.6,"MatchLevel":"street","MatchQuality":{"Country":1.0,"State":1.0,"County":1.0,"City":1.0,"District":1.0,"Street":[1.0],"PostalCode":1.0},"Location":{"LocationId":"NT_AE69DwQWAkfP27Ojl8t.YD_l_592390071_R","LocationType":"point","DisplayPosition":{"Latitude":44.42994,"Longitude":8.74593},"MapView":{"TopLeft":{"Latitude":44.42994,"Longitude":8.74443},"BottomRight":{"Latitude":44.42943,"Longitude":8.74593}},"Address":{"Label":"Via Tito Tosonotti, 16158 Genova GE, Italia","Country":"ITA","State":"Liguria","County":"GE","City":"Genova","District":"Voltri","Street":"Via Tito Tosonotti","PostalCode":"16158","AdditionalData":[{"value":"Italia","key":"CountryName"},{"value":"Liguria","key":"StateName"},{"value":"Genova","key":"CountyName"}]},"MapReference":{"ReferenceId":"592390071","Spot":1.0,"SideOfStreet":"right","CountryId":"20110484","StateId":"20114100","CountyId":"20114536","CityId":"20114618"}}},{"Relevance":1.0,"Distance":8.6,"MatchLevel":"street","MatchQuality":{"Country":1.0,"State":1.0,"County":1.0,"City":1.0,"District":1.0,"Street":[1.0],"PostalCode":1.0},"Location":{"LocationId":"NT_ORcPTvoG5QeUPHoAz4l7fB_l_592390070_R","LocationType":"point","DisplayPosition":{"Latitude":44.42994,"Longitude":8.74593},"MapView":{"TopLeft":{"Latitude":44.42998,"Longitude":8.74587},"BottomRight":{"Latitude":44.42994,"Longitude":8.74593}},"Address":{"Label":"Via Enrico Morselli, 16158 Genova GE, Italia","Country":"ITA","State":"Liguria","County":"GE","City":"Genova","District":"Voltri","Street":"Via Enrico Morselli","PostalCode":"16158","AdditionalData":[{"value":"Italia","key":"CountryName"},{"value":"Liguria","key":"StateName"},{"value":"Genova","key":"CountyName"}]},"MapReference":{"ReferenceId":"592390070","Spot":0.0,"SideOfStreet":"right","CountryId":"20110484","StateId":"20114100","CountyId":"20114536","CityId":"20114618"}}},{"Relevance":1.0,"Distance":14.5,"MatchLevel":"street","MatchQuality":{"Country":1.0,"State":1.0,"County":1.0,"City":1.0,"District":1.0,"Street":[1.0],"PostalCode":1.0},"Location":{"LocationId":"NT_ORcPTvoG5QeUPHoAz4l7fB_l_1155079912_R","LocationType":"point","DisplayPosition":{"Latitude":44.42998,"Longitude":8.74587},"MapView":{"TopLeft":{"Latitude":44.42998,"Longitude":8.74496},"BottomRight":{"Latitude":44.42951,"Longitude":8.74587}},"Address":{"Label":"Via Enrico Morselli, 16158 Genova GE, Italia","Country":"ITA","State":"Liguria","County":"GE","City":"Genova","District":"Voltri","Street":"Via Enrico Morselli","PostalCode":"16158","AdditionalData":[{"value":"Italia","key":"CountryName"},{"value":"Liguria","key":"StateName"},{"value":"Genova","key":"CountyName"}]},"MapReference":{"ReferenceId":"1155079912","Spot":1.0,"SideOfStreet":"right","CountryId":"20110484","StateId":"20114100","CountyId":"20114536","CityId":"20114618"}}},{"Relevance":1.0,"Distance":14.5,"MatchLevel":"street","MatchQuality":{"Country":1.0,"State":1.0,"County":1.0,"City":1.0,"District":1.0,"Street":[1.0],"PostalCode":1.0},"Location":{"LocationId":"NT_ORcPTvoG5QeUPHoAz4l7fB_l_587652195_R","LocationType":"point","DisplayPosition":{"Latitude":44.42998,"Longitude":8.74587},"MapView":{"TopLeft":{"Latitude":44.43005,"Longitude":8.74563},"BottomRight":{"Latitude":44.42998,"Longitude":8.74587}},"Address":{"Label":"Via Enrico Morselli, 16158 Genova GE, Italia","Country":"ITA","State":"Liguria","County":"GE","City":"Genova","District":"Voltri","Street":"Via Enrico Morselli","PostalCode":"16158","AdditionalData":[{"value":"Italia","key":"CountryName"},{"value":"Liguria","key":"StateName"},{"value":"Genova","key":"CountyName"}]},"MapReference":{"ReferenceId":"587652195","Spot":0.0,"SideOfStreet":"right","CountryId":"20110484","StateId":"20114100","CountyId":"20114536","CityId":"20114618"}}},{"Relevance":1.0,"Distance":15.6,"MatchLevel":"street","MatchQuality":{"Country":1.0,"State":1.0,"County":1.0,"City":1.0,"District":1.0,"Street":[1.0],"PostalCode":1.0},"Location":{"LocationId":"NT_ORcPTvoG5QeUPHoAz4l7fB_l_1155079911_L","LocationType":"point","DisplayPosition":{"Latitude":44.4297893,"Longitude":8.7460142},"MapView":{"TopLeft":{"Latitude":44.42979,"Longitude":8.74501},"BottomRight":{"Latitude":44.42951,"Longitude":8.74612}},"Address":{"Label":"Via Enrico Morselli, 16158 Genova GE, Italia","Country":"ITA","State":"Liguria","County":"GE","City":"Genova","District":"Voltri","Street":"Via Enrico Morselli","PostalCode":"16158","AdditionalData":[{"value":"Italia","key":"CountryName"},{"value":"Liguria","key":"StateName"},{"value":"Genova","key":"CountyName"}]},"MapReference":{"ReferenceId":"1155079911","Spot":0.84,"SideOfStreet":"left","CountryId":"20110484","StateId":"20114100","CountyId":"20114536","CityId":"20114618"}}},{"Relevance":1.0,"Distance":20.0,"MatchLevel":"houseNumber","MatchQuality":{"Country":1.0,"State":1.0,"County":1.0,"City":1.0,"District":1.0,"Street":[1.0],"HouseNumber":1.0,"PostalCode":1.0},"MatchType":"interpolated","Location":{"LocationId":"NT_BUz65rR5ncWA.Pnb3ZocAB_yID","LocationType":"point","DisplayPosition":{"Latitude":44.43006,"Longitude":8.74621},"MapView":{"TopLeft":{"Latitude":44.4311842,"Longitude":8.7446358},"BottomRight":{"Latitude":44.4289358,"Longitude":8.7477842}},"Address":{"Label":"Via Enrico Morselli, 22, 16158 Genova GE, Italia","Country":"ITA","State":"Liguria","County":"GE","City":"Genova","District":"Voltri","Street":"Via Enrico Morselli","HouseNumber":"22","PostalCode":"16158","AdditionalData":[{"value":"Italia","key":"CountryName"},{"value":"Liguria","key":"StateName"},{"value":"Genova","key":"CountyName"}]},"MapReference":{"ReferenceId":"955296895","Spot":0.13,"SideOfStreet":"right","CountryId":"20110484","StateId":"20114100","CountyId":"20114536","CityId":"20114618","AddressId":"778649053","RoadLinkId":"557420163"}}}]}]}}