{"Response":{"MetaInfo":{"Timestamp":"2020-03-28T10:29:21.103+0000","NextPageInformation":"2"},"View":[{"_type":"SearchResultsViewType","ViewId":0,"Result":[{"Relevance":1.0,"Distance":-228.8,"MatchLevel":"landmark","MatchQuality":{"Country":1.0,"State":1.0,"Name":1.0},"Location":{"LocationId":"NT_fR.k35.dsgev3W1X8dRsxB","LocationType":"park","Name":"P.N.R. des Causses du Quercy","DisplayPosition":{"Latitude":44.55646,"Longitude":1.69059},"MapView":{"TopLeft":{"Latitude":44.88549,"Longitude":1.4538},"BottomRight":{"Latitude":44.22742,"Longitude":1.94825}},"Address":{"Label":"France","Country":"FRA","State":"Occitanie","AdditionalData":[{"value":"France","key":"CountryName"},{"value":"Occitanie","key":"StateName"}]},"MapReference":{"CountryId":"20000001","StateId":"20050212","PlaceId":"1509326351"}}},{"Relevance":1.0,"Distance":0.0,"Direction":0.0,"MatchLevel":"city","MatchQuality":{"Country":1.0,"State":1.0,"County":1.0,"City":1.0,"PostalCode":1.0},"Location":{"LocationId":"NT_uph4qYNfFWrFWZ11R6NG6D","LocationType":"point","DisplayPosition":{"Latitude":44.4845029,"Longitude":1.8431169},"MapView":{"TopLeft":{"Latitude":44.53481,"Longitude":1.79658},"BottomRight":{"Latitude":44.44906,"Longitude":1.87899}},"Address":{"Label":"Cajarc, Occitanie, France","Country":"FRA","State":"Occitanie","County":"Lot","City":"Cajarc","PostalCode":"46160","AdditionalData":[{"value":"France","key":"CountryName"},{"value":"Occitanie","key":"StateName"},{"value":"Lot","key":"CountyName"}]},"MapReference":{"ReferenceId":"579575422","SideOfStreet":"neither","CountryId":"20000001","StateId":"20050212","CountyId":"20100651","CityId":"20100786"}}},{"Relevance":1.0,"Distance":3.7,"MatchLevel":"houseNumber","MatchQuality":{"Country":1.0,"State":1.0,"County":1.0,"City":1.0,"Street":[1.0],"HouseNumber":1.0,"PostalCode":1.0},"MatchType":"interpolated","Location":{"LocationId":"NT_EvGeWx8rYPxvYlSIzmvJWC_yA","LocationType":"point","DisplayPosition":{"Latitude":44.48447,"Longitude":1.84311},"MapView":{"TopLeft":{"Latitude":44.4855942,"Longitude":1.8415343},"BottomRight":{"Latitude":44.4833458,"Longitude":1.8446857}},"Address":{"Label":"2 Rue du Faubourg, 46160 Cajarc, France","Country":"FRA","State":"Occitanie","County":"Lot","City":"Cajarc","Street":"Rue du Faubourg","HouseNumber":"2","PostalCode":"46160","AdditionalData":[{"value":"France","key":"CountryName"},{"value":"Occitanie","key":"StateName"},{"value":"Lot","key":"CountyName"}]},"MapReference":{"ReferenceId":"579575130","Spot":0.67,"SideOfStreet":"left","CountryId":"20000001","StateId":"20050212","CountyId":"20100651","CityId":"20100786","AddressId":"320917937","RoadLinkId":"51254005"}}},{"Relevance":1.0,"Distance":9.9,"MatchLevel":"houseNumber","MatchQuality":{"Country":1.0,"State":1.0,"County":1.0,"City":1.0,"Street":[1.0],"HouseNumber":1.0,"PostalCode":1.0},"MatchType":"interpolated","Location":{"LocationId":"NT_7vRL1l7eGEQKMb1EtgYx4A_yMD","LocationType":"point","DisplayPosition":{"Latitude":44.48471,"Longitude":1.84316},"MapView":{"TopLeft":{"Latitude":44.4858342,"Longitude":1.8415843},"BottomRight":{"Latitude":44.4835858,"Longitude":1.8447357}},"Address":{"Label":"23 Boulevard du Tour de Ville, 46160 Cajarc, France","Country":"FRA","State":"Occitanie","County":"Lot","City":"Cajarc","Street":"Boulevard du Tour de Ville","HouseNumber":"23","PostalCode":"46160","AdditionalData":[{"value":"France","key":"CountryName"},{"value":"Occitanie","key":"StateName"},{"value":"Lot","key":"CountyName"}]},"MapReference":{"ReferenceId":"579575127","Spot":0.58,"SideOfStreet":"right","CountryId":"20000001","StateId":"20050212","CountyId":"20100651","CityId":"20100786","AddressId":"320984837","RoadLinkId":"50881336"}}},{"Relevance":1.0,"Distance":17.6,"MatchLevel":"houseNumber","MatchQuality":{"Country":1.0,"State":1.0,"County":1.0,"City":1.0,"Street":[1.0],"HouseNumber":1.0,"PostalCode":1.0},"MatchType":"interpolated","Location":{"LocationId":"NT_7vRL1l7eGEQKMb1EtgYx4A_l_579575124_R_yUD","LocationType":"point","DisplayPosition":{"Latitude":44.484732,"Longitude":1.8432639},"MapView":{"TopLeft":{"Latitude":44.4858561,"Longitude":1.8416882},"BottomRight":{"Latitude":44.4836078,"Longitude":1.8448396}},"Address":{"Label":"25 Boulevard du Tour de Ville, 46160 Cajarc, France","Country":"FRA","State":"Occitanie","County":"Lot","City":"Cajarc","Street":"Boulevard du Tour de Ville","HouseNumber":"25","PostalCode":"46160","AdditionalData":[{"value":"France","key":"CountryName"},{"value":"Occitanie","key":"StateName"},{"value":"Lot","key":"CountyName"}]},"MapReference":{"ReferenceId":"579575124","Spot":0.6,"SideOfStreet":"right","CountryId":"20000001","StateId":"20050212","CountyId":"20100651","CityId":"20100786"}}},{"Relevance":1.0,"Distance":21.9,"MatchLevel":"street","MatchQuality":{"Country":1.0,"State":1.0,"County":1.0,"City":1.0,"Street":[1.0],"PostalCode":1.0},"Location":{"LocationId":"NT_LRApCnD4jZC5IlsDBhYqFA_l_579575129_R","LocationType":"point","DisplayPosition":{"Latitude":44.4846976,"Longitude":1.843078},"MapView":{"TopLeft":{"Latitude":44.4847,"Longitude":1.84299},"BottomRight":{"Latitude":44.48468,"Longitude":1.84309}},"Address":{"Label":"Boulevard du Tour de Ville, 46160 Cajarc, France","Country":"FRA","State":"Occitanie","County":"Lot","City":"Cajarc","Street":"Boulevard du Tour de Ville","PostalCode":"46160","AdditionalData":[{"value":"France","key":"CountryName"},{"value":"Occitanie","key":"StateName"},{"value":"Lot","key":"CountyName"}]},"MapReference":{"ReferenceId":"579575129","Spot":0.88,"SideOfStreet":"right","CountryId":"20000001","StateId":"20050212","CountyId":"20100651","CityId":"20100786"}}},{"Relevance":1.0,"Distance":22.5,"MatchLevel":"houseNumber","MatchQuality":{"Country":1.0,"State":1.0,"County":1.0,"City":1.0,"Street":[1.0],"HouseNumber":1.0,"PostalCode":1.0},"MatchType":"interpolated","Location":{"LocationId":"NT_7vRL1l7eGEQKMb1EtgYx4A_0ID","LocationType":"point","DisplayPosition":{"Latitude":44.48468,"Longitude":1.84298},"MapView":{"TopLeft":{"Latitude":44.4858042,"Longitude":1.8414043},"BottomRight":{"Latitude":44.4835558,"Longitude":1.8445557}},"Address":{"Label":"42 Boulevard du Tour de Ville, 46160 Cajarc, France","Country":"FRA","State":"Occitanie","County":"Lot","City":"Cajarc","Street":"Boulevard du Tour de Ville","HouseNumber":"42","PostalCode":"46160","AdditionalData":[{"value":"France","key":"CountryName"},{"value":"Occitanie","key":"StateName"},{"value":"Lot","key":"CountyName"}]},"MapReference":{"ReferenceId":"579575457","Spot":0.95,"SideOfStreet":"left","CountryId":"20000001","StateId":"20050212","CountyId":"20100651","CityId":"20100786","AddressId":"320951975","RoadLinkId":"50634100"}}},{"Relevance":1.0,"Distance":29.3,"MatchLevel":"street","MatchQuality":{"Country":1.0,"State":1.0,"County":1.0,"City":1.0,"Street":[1.0],"PostalCode":1.0},"Location":{"LocationId":"NT_KtMpS96SwahvVdcfg1tMAA_l_579575861_R","LocationType":"point","DisplayPosition":{"Latitude":44.48465,"Longitude":1.84281},"MapView":{"TopLeft":{"Latitude":44.485,"Longitude":1.84274},"BottomRight":{"Latitude":44.48465,"Longitude":1.84283}},"Address":{"Label":"Rue du Timbre, 46160 Cajarc, France","Country":"FRA","State":"Occitanie","County":"Lot","City":"Cajarc","Street":"Rue du Timbre","PostalCode":"46160","AdditionalData":[{"value":"France","key":"CountryName"},{"value":"Occitanie","key":"StateName"},{"value":"Lot","key":"CountyName"}]},"MapReference":{"ReferenceId":"579575861","Spot":0.0,"SideOfStreet":"right","CountryId":"20000001","StateId":"20050212","CountyId":"20100651","CityId":"20100786"}}},{"Relevance":1.0,"Distance":30.1,"MatchLevel":"street","MatchQuality":{"Country":1.0,"State":1.0,"County":1.0,"City":1.0,"Street":[1.0],"PostalCode":1.0},"Location":{"LocationId":"NT_7vRL1l7eGEQKMb1EtgYx4A_l_579575126_L","LocationType":"point","DisplayPosition":{"Latitude":44.48474,"Longitude":1.8433},"MapView":{"TopLeft":{"Latitude":44.48488,"Longitude":1.84326},"BottomRight":{"Latitude":44.48474,"Longitude":1.8433}},"Address":{"Label":"Boulevard du Tour de Ville, 46160 Cajarc, France","Country":"FRA","State":"Occitanie","County":"Lot","City":"Cajarc","Street":"Boulevard du Tour de Ville","PostalCode":"46160","AdditionalData":[{"value":"France","key":"CountryName"},{"value":"Occitanie","key":"StateName"},{"value":"Lot","key":"CountyName"}]},"MapReference":{"ReferenceId":"579575126","Spot":0.0,"SideOfStreet":"left","CountryId":"20000001","StateId":"20050212","CountyId":"20100651","CityId":"20100786"}}},{"Relevance":1.0,"Distance":35.5,"MatchLevel":"houseNumber","MatchQuality":{"Country":1.0,"State":1.0,"County":1.0,"City":1.0,"Street":[1.0],"HouseNumber":1.0,"PostalCode":1.0},"MatchType":"interpolated","Location":{"LocationId":"NT_7vRL1l7eGEQKMb1EtgYx4A_zYD","LocationType":"point","DisplayPosition":{"Latitude":44.48475,"Longitude":1.8434},"MapView":{"TopLeft":{"Latitude":44.4858742,"Longitude":1.8418243},"BottomRight":{"Latitude":44.4836258,"Longitude":1.8449757}},"Address":{"Label":"36 Boulevard du Tour de Ville, 46160 Cajarc, France","Country":"FRA","State":"Occitanie","County":"Lot","City":"Cajarc","Street":"Boulevard du Tour de Ville","HouseNumber":"36","PostalCode":"46160","AdditionalData":[{"value":"France","key":"CountryName"},{"value":"Occitanie","key":"StateName"},{"value":"Lot","key":"CountyName"}]},"MapReference":{"ReferenceId":"579575125","Spot":0.44,"SideOfStreet":"left","CountryId":"20000001","StateId":"20050212","CountyId":"20100651","CityId":"20100786","AddressId":"320823482","RoadLinkId":"50653651"}}}]}]}}