{"Response":{"MetaInfo":{"Timestamp":"2020-03-28T09:59:54.436+0000","NextPageInformation":"2"},"View":[{"_type":"SearchResultsViewType","ViewId":0,"Result":[{"Relevance":1.0,"Distance":0.0,"Direction":0.0,"MatchLevel":"district","MatchQuality":{"Country":1.0,"County":1.0,"City":1.0,"District":1.0,"PostalCode":1.0},"Location":{"LocationId":"NT_5DXv6qi4tcLIbGs55Ruf7C","LocationType":"point","DisplayPosition":{"Latitude":44.4796312,"Longitude":26.1113954},"MapView":{"TopLeft":{"Latitude":44.48719,"Longitude":26.10056},"BottomRight":{"Latitude":44.43141,"Longitude":26.19119}},"Address":{"Label":"Sectorul 2, București, România","Country":"ROU","County":"București","City":"București","District":"Sectorul 2","PostalCode":"023571","AdditionalData":[{"value":"România","key":"CountryName"},{"value":"București","key":"CountyName"}]},"MapReference":{"ReferenceId":"833033179","SideOfStreet":"neither","CountryId":"20656215","CountyId":"20658062","CityId":"20658063","DistrictId":"20658065"}}},{"Relevance":1.0,"Distance":10.7,"MatchLevel":"houseNumber","MatchQuality":{"Country":1.0,"County":1.0,"City":1.0,"District":1.0,"Street":[1.0],"HouseNumber":1.0,"PostalCode":1.0},"MatchType":"interpolated","Location":{"LocationId":"NT_Nigd73vo-.OvkGbqe6-DzD_l_1148464434_L_1A","LocationType":"point","DisplayPosition":{"Latitude":44.4794065,"Longitude":26.1113979},"MapView":{"TopLeft":{"Latitude":44.4805307,"Longitude":26.1098223},"BottomRight":{"Latitude":44.4782824,"Longitude":26.1129734}},"Address":{"Label":"Bulevardul Prof. Dimitrie Pompeiu 5, 023571 București, România","Country":"ROU","County":"București","City":"București","District":"Sectorul 2","Street":"Bulevardul Prof. Dimitrie Pompeiu","HouseNumber":"5","PostalCode":"023571","AdditionalData":[{"value":"România","key":"CountryName"},{"value":"București","key":"CountyName"}]},"MapReference":{"ReferenceId":"1148464434","Spot":0.49,"SideOfStreet":"left","CountryId":"20656215","CountyId":"20658062","CityId":"20658063","DistrictId":"20658065"}}},{"Relevance":1.0,"Distance":29.8,"MatchLevel":"street","MatchQuality":{"Country":1.0,"County":1.0,"City":1.0,"District":1.0,"Street":[1.0],"PostalCode":1.0},"Location":{"LocationId":"NT_Nigd73vo-.OvkGbqe6-DzD_l_1148464435_L","LocationType":"point","DisplayPosition":{"Latitude":44.47951,"Longitude":26.11173},"MapView":{"TopLeft":{"Latitude":44.47963,"Longitude":26.11173},"BottomRight":{"Latitude":44.47951,"Longitude":26.1121}},"Address":{"Label":"Bulevardul Prof. Dimitrie Pompeiu, 023571 București, România","Country":"ROU","County":"București","City":"București","District":"Sectorul 2","Street":"Bulevardul Prof. Dimitrie Pompeiu","PostalCode":"023571","AdditionalData":[{"value":"România","key":"CountryName"},{"value":"București","key":"CountyName"}]},"MapReference":{"ReferenceId":"1148464435","Spot":0.0,"SideOfStreet":"left","CountryId":"20656215","CountyId":"20658062","CityId":"20658063","DistrictId":"20658065"}}},{"Relevance":1.0,"Distance":29.8,"MatchLevel":"street","MatchQuality":{"Country":1.0,"County":1.0,"City":1.0,"District":1.0,"PostalCode":1.0},"Location":{"LocationId":"NT_YKT5iB1nI8RHoSBj8dAa7A_l_1148464433_L","LocationType":"point","DisplayPosition":{"Latitude":44.47951,"Longitude":26.11173},"MapView":{"TopLeft":{"Latitude":44.47951,"Longitude":26.11173},"BottomRight":{"Latitude":44.47932,"Longitude":26.11185}},"Address":{"Label":"020337 București, România","Country":"ROU","County":"București","City":"București","District":"Sectorul 2","PostalCode":"020337","AdditionalData":[{"value":"România","key":"CountryName"},{"value":"București","key":"CountyName"}]},"MapReference":{"ReferenceId":"1148464433","Spot":1.0,"SideOfStreet":"left","CountryId":"20656215","CountyId":"20658062","CityId":"20658063","DistrictId":"20658065"}}},{"Relevance":1.0,"Distance":42.9,"MatchLevel":"houseNumber","MatchQuality":{"Country":1.0,"County":1.0,"City":1.0,"District":1.0,"Street":[1.0],"HouseNumber":1.0,"PostalCode":1.0},"MatchType":"interpolated","Location":{"LocationId":"NT_Nigd73vo-.OvkGbqe6-DzD_l_1062214539_L_1A","LocationType":"point","DisplayPosition":{"Latitude":44.4792933,"Longitude":26.1109764},"MapView":{"TopLeft":{"Latitude":44.4804174,"Longitude":26.1094009},"BottomRight":{"Latitude":44.4781691,"Longitude":26.1125519}},"Address":{"Label":"Bulevardul Prof. Dimitrie Pompeiu 5, 023571 București, România","Country":"ROU","County":"București","City":"București","District":"Sectorul 2","Street":"Bulevardul Prof. Dimitrie Pompeiu","HouseNumber":"5","PostalCode":"023571","AdditionalData":[{"value":"România","key":"CountryName"},{"value":"București","key":"CountyName"}]},"MapReference":{"ReferenceId":"1062214539","Spot":0.55,"SideOfStreet":"left","CountryId":"20656215","CountyId":"20658062","CityId":"20658063","DistrictId":"20658065"}}},{"Relevance":1.0,"Distance":43.2,"MatchLevel":"street","MatchQuality":{"Country":1.0,"County":1.0,"City":1.0,"District":1.0,"Street":[1.0],"PostalCode":1.0},"Location":{"LocationId":"NT_Nigd73vo-.OvkGbqe6-DzD_l_859256615_R","LocationType":"point","DisplayPosition":{"Latitude":44.47932,"Longitude":26.11107},"MapView":{"TopLeft":{"Latitude":44.47999,"Longitude":26.11005},"BottomRight":{"Latitude":44.47932,"Longitude":26.11107}},"Address":{"Label":"Bulevardul Prof. Dimitrie Pompeiu, 020335 București, România","Country":"ROU","County":"București","City":"București","District":"Sectorul 2","Street":"Bulevardul Prof. Dimitrie Pompeiu","PostalCode":"020335","AdditionalData":[{"value":"România","key":"CountryName"},{"value":"București","key":"CountyName"}]},"MapReference":{"ReferenceId":"859256615","Spot":0.0,"SideOfStreet":"right","CountryId":"20656215","CountyId":"20658062","CityId":"20658063","DistrictId":"20658065"}}},{"Relevance":1.0,"Distance":50.0,"MatchLevel":"street","MatchQuality":{"Country":1.0,"County":1.0,"City":1.0,"District":1.0,"PostalCode":1.0},"Location":{"LocationId":"NT_YKT5iB1nI8RHoSBj8dAa7A_l_1194943547_L","LocationType":"point","DisplayPosition":{"Latitude":44.47932,"Longitude":26.11185},"MapView":{"TopLeft":{"Latitude":44.47946,"Longitude":26.11185},"BottomRight":{"Latitude":44.47932,"Longitude":26.11235}},"Address":{"Label":"020337 București, România","Country":"ROU","County":"București","City":"București","District":"Sectorul 2","PostalCode":"020337","AdditionalData":[{"value":"România","key":"CountryName"},{"value":"București","key":"CountyName"}]},"MapReference":{"ReferenceId":"1194943547","Spot":0.0,"SideOfStreet":"left","CountryId":"20656215","CountyId":"20658062","CityId":"20658063","DistrictId":"20658065"}}},{"Relevance":1.0,"Distance":50.0,"MatchLevel":"street","MatchQuality":{"Country":1.0,"County":1.0,"City":1.0,"District":1.0,"PostalCode":1.0},"Location":{"LocationId":"NT_YKT5iB1nI8RHoSBj8dAa7A_l_1148384907_L","LocationType":"point","DisplayPosition":{"Latitude":44.47932,"Longitude":26.11185},"MapView":{"TopLeft":{"Latitude":44.47932,"Longitude":26.11185},"BottomRight":{"Latitude":44.47858,"Longitude":26.11224}},"Address":{"Label":"020337 București, România","Country":"ROU","County":"București","City":"București","District":"Sectorul 2","PostalCode":"020337","AdditionalData":[{"value":"România","key":"CountryName"},{"value":"București","key":"CountyName"}]},"MapReference":{"ReferenceId":"1148384907","Spot":1.0,"SideOfStreet":"left","CountryId":"20656215","CountyId":"20658062","CityId":"20658063","DistrictId":"20658065"}}},{"Relevance":1.0,"Distance":62.4,"MatchLevel":"houseNumber","MatchQuality":{"Country":1.0,"County":1.0,"City":1.0,"District":1.0,"Street":[1.0],"HouseNumber":1.0,"PostalCode":1.0},"MatchType":"interpolated","Location":{"LocationId":"NT_Nigd73vo-.OvkGbqe6-DzD_l_1062214537_L_1A","LocationType":"point","DisplayPosition":{"Latitude":44.4796584,"Longitude":26.1121907},"MapView":{"TopLeft":{"Latitude":44.4807825,"Longitude":26.1106152},"BottomRight":{"Latitude":44.4785342,"Longitude":26.1137663}},"Address":{"Label":"Bulevardul Prof. Dimitrie Pompeiu 5, 023571 București, România","Country":"ROU","County":"București","City":"București","District":"Sectorul 2","Street":"Bulevardul Prof. Dimitrie Pompeiu","HouseNumber":"5","PostalCode":"023571","AdditionalData":[{"value":"România","key":"CountryName"},{"value":"București","key":"CountyName"}]},"MapReference":{"ReferenceId":"1062214537","Spot":0.57,"SideOfStreet":"left","CountryId":"20656215","CountyId":"20658062","CityId":"20658063","DistrictId":"20658065"}}},{"Relevance":1.0,"Distance":68.8,"MatchLevel":"street","MatchQuality":{"Country":1.0,"County":1.0,"City":1.0,"District":1.0,"Street":[1.0],"PostalCode":1.0},"Location":{"LocationId":"NT_IvHjbNBOvaJdtfhUiWyfNA_l_1155706969_L","LocationType":"point","DisplayPosition":{"Latitude":44.47968,"Longitude":26.11226},"MapView":{"TopLeft":{"Latitude":44.47969,"Longitude":26.11226},"BottomRight":{"Latitude":44.47968,"Longitude":26.11229}},"Address":{"Label":"Bulevardul Prof. Dimitrie Pompeiu, 020336 București, România","Country":"ROU","County":"București","City":"București","District":"Sectorul 2","Street":"Bulevardul Prof. Dimitrie Pompeiu","PostalCode":"020336","AdditionalData":[{"value":"România","key":"CountryName"},{"value":"București","key":"CountyName"}]},"MapReference":{"ReferenceId":"1155706969","Spot":0.0,"SideOfStreet":"left","CountryId":"20656215","CountyId":"20658062","CityId":"20658063","DistrictId":"20658065"}}}]}]}}