{"Response":{"MetaInfo":{"Timestamp":"2020-03-28T11:24:17.712+0000","NextPageInformation":"2"},"View":[{"_type":"SearchResultsViewType","ViewId":0,"Result":[{"Relevance":1.0,"Distance":0.0,"Direction":0.0,"MatchLevel":"district","MatchQuality":{"Country":1.0,"State":1.0,"County":1.0,"City":1.0,"District":1.0,"PostalCode":1.0},"Location":{"LocationId":"NT_4Cg5dC93xpvcdWcoWEKldA","LocationType":"point","DisplayPosition":{"Latitude":44.4142921,"Longitude":8.942673},"MapView":{"TopLeft":{"Latitude":44.43225,"Longitude":8.9252},"BottomRight":{"Latitude":44.40977,"Longitude":8.94919}},"Address":{"Label":"Castelletto, Genova, Liguria, Italia","Country":"ITA","State":"Liguria","County":"GE","City":"Genova","District":"Castelletto","PostalCode":"16125","AdditionalData":[{"value":"Italia","key":"CountryName"},{"value":"Liguria","key":"StateName"},{"value":"Genova","key":"CountyName"}]},"MapReference":{"ReferenceId":"55259476","SideOfStreet":"neither","CountryId":"20110484","StateId":"20114100","CountyId":"20114536","CityId":"20114618"}}},{"Relevance":1.0,"Distance":7.0,"MatchLevel":"houseNumber","MatchQuality":{"Country":1.0,"State":1.0,"County":1.0,"City":1.0,"District":1.0,"Street":[1.0],"HouseNumber":1.0,"PostalCode":1.0},"MatchType":"interpolated","Location":{"LocationId":"NT_fe1F01fHdVsI9MabO7TqLD_xAD","LocationType":"point","DisplayPosition":{"Latitude":44.41439,"Longitude":8.94278},"MapView":{"TopLeft":{"Latitude":44.4155142,"Longitude":8.9412062},"BottomRight":{"Latitude":44.4132658,"Longitude":8.9443538}},"Address":{"Label":"Passo Barnabiti, 10, 16122 Genova GE, Italia","Country":"ITA","State":"Liguria","County":"GE","City":"Genova","District":"Castelletto","Street":"Passo Barnabiti","HouseNumber":"10","PostalCode":"16122","AdditionalData":[{"value":"Italia","key":"CountryName"},{"value":"Liguria","key":"StateName"},{"value":"Genova","key":"CountyName"}]},"MapReference":{"ReferenceId":"55266333","Spot":0.35,"SideOfStreet":"left","CountryId":"20110484","StateId":"20114100","CountyId":"20114536","CityId":"20114618","AddressId":"717130834","RoadLinkId":"55163141"}}},{"Relevance":1.0,"Distance":32.7,"MatchLevel":"houseNumber","MatchQuality":{"Country":1.0,"State":1.0,"County":1.0,"City":1.0,"District":1.0,"Street":[1.0],"HouseNumber":1.0,"PostalCode":1.0},"MatchType":"interpolated","Location":{"LocationId":"NT_XZXirsJZdgc1fJQDtjUD5A_zETQ","LocationType":"point","DisplayPosition":{"Latitude":44.41382,"Longitude":8.94227},"MapView":{"TopLeft":{"Latitude":44.4149442,"Longitude":8.9406962},"BottomRight":{"Latitude":44.4126958,"Longitude":8.9438438}},"Address":{"Label":"Salita Superiore San Rocchino, 31A, 16122 Genova GE, Italia","Country":"ITA","State":"Liguria","County":"GE","City":"Genova","District":"Castelletto","Street":"Salita Superiore San Rocchino","HouseNumber":"31A","PostalCode":"16122","AdditionalData":[{"value":"Italia","key":"CountryName"},{"value":"Liguria","key":"StateName"},{"value":"Genova","key":"CountyName"}]},"MapReference":{"ReferenceId":"55260460","Spot":1.0,"SideOfStreet":"left","CountryId":"20110484","StateId":"20114100","CountyId":"20114536","CityId":"20114618","AddressId":"717187533","RoadLinkId":"55662315"}}},{"Relevance":1.0,"Distance":44.4,"MatchLevel":"houseNumber","MatchQuality":{"Country":1.0,"State":1.0,"County":1.0,"City":1.0,"District":1.0,"Street":[1.0],"HouseNumber":1.0,"PostalCode":1.0},"MatchType":"interpolated","Location":{"LocationId":"NT_XZXirsJZdgc1fJQDtjUD5A_zkTQ","LocationType":"point","DisplayPosition":{"Latitude":44.41438,"Longitude":8.94195},"MapView":{"TopLeft":{"Latitude":44.4155042,"Longitude":8.9403762},"BottomRight":{"Latitude":44.4132558,"Longitude":8.9435238}},"Address":{"Label":"Salita Superiore San Rocchino, 39A, 16122 Genova GE, Italia","Country":"ITA","State":"Liguria","County":"GE","City":"Genova","District":"Castelletto","Street":"Salita Superiore San Rocchino","HouseNumber":"39A","PostalCode":"16122","AdditionalData":[{"value":"Italia","key":"CountryName"},{"value":"Liguria","key":"StateName"},{"value":"Genova","key":"CountyName"}]},"MapReference":{"ReferenceId":"55266332","Spot":0.5,"SideOfStreet":"right","CountryId":"20110484","StateId":"20114100","CountyId":"20114536","CityId":"20114618","AddressId":"373117365","RoadLinkId":"55824542"}}},{"Relevance":1.0,"Distance":50.7,"MatchLevel":"houseNumber","MatchQuality":{"Country":1.0,"State":1.0,"County":1.0,"City":1.0,"District":1.0,"Street":[1.0],"HouseNumber":1.0,"PostalCode":1.0},"MatchType":"interpolated","Location":{"LocationId":"NT_9GQhSCG3CaAs8uZVWa5.GB_xED","LocationType":"point","DisplayPosition":{"Latitude":44.41423,"Longitude":8.94333},"MapView":{"TopLeft":{"Latitude":44.4153542,"Longitude":8.9417562},"BottomRight":{"Latitude":44.4131058,"Longitude":8.9449038}},"Address":{"Label":"Via Bracelli, 11, 16122 Genova GE, Italia","Country":"ITA","State":"Liguria","County":"GE","City":"Genova","District":"Castelletto","Street":"Via Bracelli","HouseNumber":"11","PostalCode":"16122","AdditionalData":[{"value":"Italia","key":"CountryName"},{"value":"Liguria","key":"StateName"},{"value":"Genova","key":"CountyName"}]},"MapReference":{"ReferenceId":"55266335","Spot":0.93,"SideOfStreet":"right","CountryId":"20110484","StateId":"20114100","CountyId":"20114536","CityId":"20114618","AddressId":"373127306","RoadLinkId":"55050191"}}},{"Relevance":1.0,"Distance":52.4,"MatchLevel":"houseNumber","MatchQuality":{"Country":1.0,"State":1.0,"County":1.0,"City":1.0,"District":1.0,"Street":[1.0],"HouseNumber":1.0,"PostalCode":1.0},"MatchType":"interpolated","Location":{"LocationId":"NT_XZXirsJZdgc1fJQDtjUD5A_zMD","LocationType":"point","DisplayPosition":{"Latitude":44.41384,"Longitude":8.94212},"MapView":{"TopLeft":{"Latitude":44.4149642,"Longitude":8.9405462},"BottomRight":{"Latitude":44.4127158,"Longitude":8.9436938}},"Address":{"Label":"Salita Superiore San Rocchino, 33, 16122 Genova GE, Italia","Country":"ITA","State":"Liguria","County":"GE","City":"Genova","District":"Castelletto","Street":"Salita Superiore San Rocchino","HouseNumber":"33","PostalCode":"16122","AdditionalData":[{"value":"Italia","key":"CountryName"},{"value":"Liguria","key":"StateName"},{"value":"Genova","key":"CountyName"}]},"MapReference":{"ReferenceId":"55260461","Spot":1.0,"SideOfStreet":"right","CountryId":"20110484","StateId":"20114100","CountyId":"20114536","CityId":"20114618","AddressId":"373089214","RoadLinkId":"55125464"}}},{"Relevance":1.0,"Distance":53.7,"MatchLevel":"houseNumber","MatchQuality":{"Country":1.0,"State":1.0,"County":1.0,"City":1.0,"District":1.0,"Street":[1.0],"HouseNumber":1.0,"PostalCode":1.0},"MatchType":"interpolated","Location":{"LocationId":"NT_XZXirsJZdgc1fJQDtjUD5A_3A","LocationType":"point","DisplayPosition":{"Latitude":44.41459,"Longitude":8.94205},"MapView":{"TopLeft":{"Latitude":44.4157142,"Longitude":8.9404762},"BottomRight":{"Latitude":44.4134658,"Longitude":8.9436238}},"Address":{"Label":"Salita Superiore San Rocchino, 7, 16122 Genova GE, Italia","Country":"ITA","State":"Liguria","County":"GE","City":"Genova","District":"Castelletto","Street":"Salita Superiore San Rocchino","HouseNumber":"7","PostalCode":"16122","AdditionalData":[{"value":"Italia","key":"CountryName"},{"value":"Liguria","key":"StateName"},{"value":"Genova","key":"CountyName"}]},"MapReference":{"ReferenceId":"55260297","Spot":0.61,"SideOfStreet":"right","CountryId":"20110484","StateId":"20114100","CountyId":"20114536","CityId":"20114618","AddressId":"717162767","RoadLinkId":"54969369"}}},{"Relevance":1.0,"Distance":55.5,"MatchLevel":"houseNumber","MatchQuality":{"Country":1.0,"State":1.0,"County":1.0,"City":1.0,"District":1.0,"Street":[1.0],"HouseNumber":1.0,"PostalCode":1.0},"MatchType":"interpolated","Location":{"LocationId":"NT_rQK-7EgVwu7a.rZcS-nblB_xcD","LocationType":"point","DisplayPosition":{"Latitude":44.41399,"Longitude":8.94323},"MapView":{"TopLeft":{"Latitude":44.4151142,"Longitude":8.9416562},"BottomRight":{"Latitude":44.4128658,"Longitude":8.9448038}},"Address":{"Label":"Vico Barnabiti, 17, 16122 Genova GE, Italia","Country":"ITA","State":"Liguria","County":"GE","City":"Genova","District":"Castelletto","Street":"Vico Barnabiti","HouseNumber":"17","PostalCode":"16122","AdditionalData":[{"value":"Italia","key":"CountryName"},{"value":"Liguria","key":"StateName"},{"value":"Genova","key":"CountyName"}]},"MapReference":{"ReferenceId":"55456244","Spot":0.29,"SideOfStreet":"right","CountryId":"20110484","StateId":"20114100","CountyId":"20114536","CityId":"20114618","AddressId":"373065389","RoadLinkId":"55299975"}}},{"Relevance":1.0,"Distance":59.2,"MatchLevel":"houseNumber","MatchQuality":{"Country":1.0,"State":1.0,"County":1.0,"City":1.0,"District":1.0,"Street":[1.0],"HouseNumber":1.0,"PostalCode":1.0},"MatchType":"interpolated","Location":{"LocationId":"NT_rQK-7EgVwu7a.rZcS-nblB_yQD","LocationType":"point","DisplayPosition":{"Latitude":44.41483,"Longitude":8.94277},"MapView":{"TopLeft":{"Latitude":44.4159542,"Longitude":8.9411962},"BottomRight":{"Latitude":44.4137058,"Longitude":8.9443438}},"Address":{"Label":"Vico Barnabiti, 24, 16122 Genova GE, Italia","Country":"ITA","State":"Liguria","County":"GE","City":"Genova","District":"Castelletto","Street":"Vico Barnabiti","HouseNumber":"24","PostalCode":"16122","AdditionalData":[{"value":"Italia","key":"CountryName"},{"value":"Liguria","key":"StateName"},{"value":"Genova","key":"CountyName"}]},"MapReference":{"ReferenceId":"55260227","Spot":0.66,"SideOfStreet":"right","CountryId":"20110484","StateId":"20114100","CountyId":"20114536","CityId":"20114618","AddressId":"775872909","RoadLinkId":"54741462"}}},{"Relevance":1.0,"Distance":63.0,"MatchLevel":"houseNumber","MatchQuality":{"Country":1.0,"State":1.0,"County":1.0,"City":1.0,"District":1.0,"Street":[1.0],"HouseNumber":1.0,"PostalCode":1.0},"MatchType":"interpolated","Location":{"LocationId":"NT_rQK-7EgVwu7a.rZcS-nblB_1A","LocationType":"point","DisplayPosition":{"Latitude":44.41479,"Longitude":8.94319},"MapView":{"TopLeft":{"Latitude":44.4159142,"Longitude":8.9416162},"BottomRight":{"Latitude":44.4136658,"Longitude":8.9447638}},"Address":{"Label":"Vico Barnabiti, 5, 16122 Genova GE, Italia","Country":"ITA","State":"Liguria","County":"GE","City":"Genova","District":"Castelletto","Street":"Vico Barnabiti","HouseNumber":"5","PostalCode":"16122","AdditionalData":[{"value":"Italia","key":"CountryName"},{"value":"Liguria","key":"StateName"},{"value":"Genova","key":"CountyName"}]},"MapReference":{"ReferenceId":"55266334","Spot":0.89,"SideOfStreet":"left","CountryId":"20110484","StateId":"20114100","CountyId":"20114536","CityId":"20114618","AddressId":"775782663","RoadLinkId":"55594337"}}}]}]}}