{"Response":{"MetaInfo":{"Timestamp":"2020-03-28T11:26:36.177+0000","NextPageInformation":"2"},"View":[{"_type":"SearchResultsViewType","ViewId":0,"Result":[{"Relevance":1.0,"Distance":0.0,"Direction":0.0,"MatchLevel":"city","MatchQuality":{"Country":1.0,"State":1.0,"County":1.0,"City":1.0,"PostalCode":1.0},"Location":{"LocationId":"NT_pKRerZaEAD9zYWTdjyNeWC","LocationType":"point","DisplayPosition":{"Latitude":44.5354044,"Longitude":11.5345868},"MapView":{"TopLeft":{"Latitude":44.64627,"Longitude":11.45904},"BottomRight":{"Latitude":44.48218,"Longitude":11.63067}},"Address":{"Label":"Budrio, Emilia Romagna, Italia","Country":"ITA","State":"Emilia Romagna","County":"BO","City":"Budrio","PostalCode":"40054","AdditionalData":[{"value":"Italia","key":"CountryName"},{"value":"Emilia Romagna","key":"StateName"},{"value":"Bologna","key":"CountyName"}]},"MapReference":{"ReferenceId":"989058332","SideOfStreet":"neither","CountryId":"20110484","StateId":"20123512","CountyId":"20125557","CityId":"20125589"}}},{"Relevance":1.0,"Distance":7.2,"MatchLevel":"landmark","MatchQuality":{"Country":1.0,"State":1.0,"County":1.0,"City":1.0,"Street":[1.0],"PostalCode":1.0,"Name":1.0},"Location":{"LocationId":"NT_09youqpUZWLYrmC9IWLU1B_p_Ql44nyiPQOxvEQyWtc5woC","LocationType":"hospital","Name":"Ospedale di Budrio","DisplayPosition":{"Latitude":44.53514,"Longitude":11.53552},"MapView":{"TopLeft":{"Latitude":44.53584,"Longitude":11.53456},"BottomRight":{"Latitude":44.53511,"Longitude":11.5356}},"Address":{"Label":"Viale Benni, 40054 Budrio BO, Italia","Country":"ITA","State":"Emilia Romagna","County":"BO","City":"Budrio","Street":"Viale Benni","PostalCode":"40054","AdditionalData":[{"value":"Italia","key":"CountryName"},{"value":"Emilia Romagna","key":"StateName"},{"value":"Bologna","key":"CountyName"}]},"MapReference":{"CountryId":"20110484","StateId":"20123512","CountyId":"20125557","CityId":"20125589","PlaceId":"552736166"}}},{"Relevance":1.0,"Distance":8.7,"MatchLevel":"street","MatchQuality":{"Country":1.0,"State":1.0,"County":1.0,"City":1.0,"Street":[1.0],"PostalCode":1.0},"Location":{"LocationId":"NT_ABCptFPEM6TDBsuZVpx0ID_l_786362991_R","LocationType":"point","DisplayPosition":{"Latitude":44.5354599,"Longitude":11.5345096},"MapView":{"TopLeft":{"Latitude":44.53553,"Longitude":11.5341},"BottomRight":{"Latitude":44.53489,"Longitude":11.53456}},"Address":{"Label":"Viale Benni, 40054 Budrio BO, Italia","Country":"ITA","State":"Emilia Romagna","County":"BO","City":"Budrio","Street":"Viale Benni","PostalCode":"40054","AdditionalData":[{"value":"Italia","key":"CountryName"},{"value":"Emilia Romagna","key":"StateName"},{"value":"Bologna","key":"CountyName"}]},"MapReference":{"ReferenceId":"786362991","Spot":0.89,"SideOfStreet":"right","CountryId":"20110484","StateId":"20123512","CountyId":"20125557","CityId":"20125589"}}},{"Relevance":1.0,"Distance":32.2,"MatchLevel":"houseNumber","MatchQuality":{"Country":1.0,"State":1.0,"County":1.0,"City":1.0,"Street":[1.0],"HouseNumber":1.0,"PostalCode":1.0},"MatchType":"interpolated","Location":{"LocationId":"NT_ABCptFPEM6TDBsuZVpx0ID_0QD","LocationType":"point","DisplayPosition":{"Latitude":44.53525,"Longitude":11.53492},"MapView":{"TopLeft":{"Latitude":44.5363742,"Longitude":11.5333429},"BottomRight":{"Latitude":44.5341258,"Longitude":11.5364971}},"Address":{"Label":"Viale Benni, 44, 40054 Budrio BO, Italia","Country":"ITA","State":"Emilia Romagna","County":"BO","City":"Budrio","Street":"Viale Benni","HouseNumber":"44","PostalCode":"40054","AdditionalData":[{"value":"Italia","key":"CountryName"},{"value":"Emilia Romagna","key":"StateName"},{"value":"Bologna","key":"CountyName"}]},"MapReference":{"ReferenceId":"786362992","Spot":0.5,"SideOfStreet":"left","CountryId":"20110484","StateId":"20123512","CountyId":"20125557","CityId":"20125589","AddressId":"777150685","RoadLinkId":"179013175"}}},{"Relevance":1.0,"Distance":37.7,"MatchLevel":"houseNumber","MatchQuality":{"Country":1.0,"State":1.0,"County":1.0,"City":1.0,"Street":[1.0],"HouseNumber":1.0,"PostalCode":1.0},"MatchType":"interpolated","Location":{"LocationId":"NT_BlUYEdDc2o0JllHc0zMNLD_xA","LocationType":"point","DisplayPosition":{"Latitude":44.53589,"Longitude":11.53375},"MapView":{"TopLeft":{"Latitude":44.5370142,"Longitude":11.5321729},"BottomRight":{"Latitude":44.5347658,"Longitude":11.5353271}},"Address":{"Label":"Viale 1 Maggio, 1, 40054 Budrio BO, Italia","Country":"ITA","State":"Emilia Romagna","County":"BO","City":"Budrio","Street":"Viale 1 Maggio","HouseNumber":"1","PostalCode":"40054","AdditionalData":[{"value":"Italia","key":"CountryName"},{"value":"Emilia Romagna","key":"StateName"},{"value":"Bologna","key":"CountyName"}]},"MapReference":{"ReferenceId":"543314455","Spot":0.56,"SideOfStreet":"right","CountryId":"20110484","StateId":"20123512","CountyId":"20125557","CityId":"20125589","AddressId":"365104071","RoadLinkId":"58723289"}}},{"Relevance":1.0,"Distance":53.3,"MatchLevel":"houseNumber","MatchQuality":{"Country":1.0,"State":1.0,"County":1.0,"City":1.0,"Street":[1.0],"HouseNumber":1.0,"PostalCode":1.0},"MatchType":"interpolated","Location":{"LocationId":"NT_qqe.v2E4ejz.W6bEwwT.pC_0A","LocationType":"point","DisplayPosition":{"Latitude":44.53592,"Longitude":11.53462},"MapView":{"TopLeft":{"Latitude":44.5370442,"Longitude":11.5330429},"BottomRight":{"Latitude":44.5347958,"Longitude":11.5361971}},"Address":{"Label":"Via Capestrara, 4, 40054 Budrio BO, Italia","Country":"ITA","State":"Emilia Romagna","County":"BO","City":"Budrio","Street":"Via Capestrara","HouseNumber":"4","PostalCode":"40054","AdditionalData":[{"value":"Italia","key":"CountryName"},{"value":"Emilia Romagna","key":"StateName"},{"value":"Bologna","key":"CountyName"}]},"MapReference":{"ReferenceId":"543314325","Spot":0.0,"SideOfStreet":"left","CountryId":"20110484","StateId":"20123512","CountyId":"20125557","CityId":"20125589","AddressId":"365108348","RoadLinkId":"59093531"}}},{"Relevance":1.0,"Distance":63.3,"MatchLevel":"street","MatchQuality":{"Country":1.0,"State":1.0,"County":1.0,"City":1.0,"Street":[1.0],"PostalCode":1.0},"Location":{"LocationId":"NT_ABCptFPEM6TDBsuZVpx0ID_l_786295515_L","LocationType":"point","DisplayPosition":{"Latitude":44.53563,"Longitude":11.53532},"MapView":{"TopLeft":{"Latitude":44.53571,"Longitude":11.53531},"BottomRight":{"Latitude":44.53525,"Longitude":11.5356}},"Address":{"Label":"Viale Benni, 40054 Budrio BO, Italia","Country":"ITA","State":"Emilia Romagna","County":"BO","City":"Budrio","Street":"Viale Benni","PostalCode":"40054","AdditionalData":[{"value":"Italia","key":"CountryName"},{"value":"Emilia Romagna","key":"StateName"},{"value":"Bologna","key":"CountyName"}]},"MapReference":{"ReferenceId":"786295515","Spot":0.86,"SideOfStreet":"left","CountryId":"20110484","StateId":"20123512","CountyId":"20125557","CityId":"20125589"}}},{"Relevance":1.0,"Distance":66.6,"MatchLevel":"street","MatchQuality":{"Country":1.0,"State":1.0,"County":1.0,"City":1.0,"Street":[1.0],"PostalCode":1.0},"Location":{"LocationId":"NT_ABCptFPEM6TDBsuZVpx0ID_l_786295511_L","LocationType":"point","DisplayPosition":{"Latitude":44.53571,"Longitude":11.53531},"MapView":{"TopLeft":{"Latitude":44.53571,"Longitude":11.53531},"BottomRight":{"Latitude":44.53553,"Longitude":11.53577}},"Address":{"Label":"Viale Benni, 40054 Budrio BO, Italia","Country":"ITA","State":"Emilia Romagna","County":"BO","City":"Budrio","Street":"Viale Benni","PostalCode":"40054","AdditionalData":[{"value":"Italia","key":"CountryName"},{"value":"Emilia Romagna","key":"StateName"},{"value":"Bologna","key":"CountyName"}]},"MapReference":{"ReferenceId":"786295511","Spot":1.0,"SideOfStreet":"left","CountryId":"20110484","StateId":"20123512","CountyId":"20125557","CityId":"20125589"}}},{"Relevance":1.0,"Distance":66.6,"MatchLevel":"street","MatchQuality":{"Country":1.0,"State":1.0,"County":1.0,"City":1.0,"Street":[1.0],"PostalCode":1.0},"Location":{"LocationId":"NT_ABCptFPEM6TDBsuZVpx0ID_l_786295512_L","LocationType":"point","DisplayPosition":{"Latitude":44.53571,"Longitude":11.53531},"MapView":{"TopLeft":{"Latitude":44.53584,"Longitude":11.53527},"BottomRight":{"Latitude":44.53571,"Longitude":11.53531}},"Address":{"Label":"Viale Benni, 40054 Budrio BO, Italia","Country":"ITA","State":"Emilia Romagna","County":"BO","City":"Budrio","Street":"Viale Benni","PostalCode":"40054","AdditionalData":[{"value":"Italia","key":"CountryName"},{"value":"Emilia Romagna","key":"StateName"},{"value":"Bologna","key":"CountyName"}]},"MapReference":{"ReferenceId":"786295512","Spot":0.0,"SideOfStreet":"left","CountryId":"20110484","StateId":"20123512","CountyId":"20125557","CityId":"20125589"}}},{"Relevance":1.0,"Distance":69.0,"MatchLevel":"street","MatchQuality":{"Country":1.0,"State":1.0,"County":1.0,"City":1.0,"PostalCode":1.0},"Location":{"LocationId":"NT_tUXWd4tO7Jn5mVpk0R.NzB_l_543314599_R","LocationType":"point","DisplayPosition":{"Latitude":44.53489,"Longitude":11.5341},"MapView":{"TopLeft":{"Latitude":44.53489,"Longitude":11.53388},"BottomRight":{"Latitude":44.53457,"Longitude":11.5341}},"Address":{"Label":"40054 Budrio BO, Italia","Country":"ITA","State":"Emilia Romagna","County":"BO","City":"Budrio","PostalCode":"40054","AdditionalData":[{"value":"Italia","key":"CountryName"},{"value":"Emilia Romagna","key":"StateName"},{"value":"Bologna","key":"CountyName"}]},"MapReference":{"ReferenceId":"543314599","Spot":1.0,"SideOfStreet":"right","CountryId":"20110484","StateId":"20123512","CountyId":"20125557","CityId":"20125589"}}}]}]}}