{"Response":{"MetaInfo":{"Timestamp":"2020-03-28T11:53:27.186+0000","NextPageInformation":"2"},"View":[{"_type":"SearchResultsViewType","ViewId":0,"Result":[{"Relevance":1.0,"Distance":0.0,"Direction":0.0,"MatchLevel":"city","MatchQuality":{"Country":1.0,"State":1.0,"County":1.0,"City":1.0,"PostalCode":1.0},"Location":{"LocationId":"NT_upsV7rqmn74fvNwtdlrzXC","LocationType":"point","DisplayPosition":{"Latitude":44.571976,"Longitude":-0.191136},"MapView":{"TopLeft":{"Latitude":44.59596,"Longitude":-0.20902},"BottomRight":{"Latitude":44.5653,"Longitude":-0.17466}},"Address":{"Label":"Saint-Pierre-d'Aurillac, Nouvelle-Aquitaine, France","Country":"FRA","State":"Nouvelle-Aquitaine","County":"Gironde","City":"Saint-Pierre-d'Aurillac","PostalCode":"33490","AdditionalData":[{"value":"France","key":"CountryName"},{"value":"Nouvelle-Aquitaine","key":"StateName"},{"value":"Gironde","key":"CountyName"}]},"MapReference":{"ReferenceId":"546906830","SideOfStreet":"neither","CountryId":"20000001","StateId":"20000383","CountyId":"20000384","CityId":"20001773"}}},{"Relevance":1.0,"Distance":20.7,"MatchLevel":"houseNumber","MatchQuality":{"Country":1.0,"State":1.0,"County":1.0,"City":1.0,"Street":[1.0],"HouseNumber":1.0,"PostalCode":1.0},"MatchType":"interpolated","Location":{"LocationId":"NT_.oAjys4aBiBror.LWUSobA_xADM","LocationType":"point","DisplayPosition":{"Latitude":44.57175,"Longitude":-0.19112},"MapView":{"TopLeft":{"Latitude":44.5728742,"Longitude":-0.192698},"BottomRight":{"Latitude":44.5706258,"Longitude":-0.189542}},"Address":{"Label":"100 Avenue de la Libération, 33490 Saint-Pierre-d'Aurillac, France","Country":"FRA","State":"Nouvelle-Aquitaine","County":"Gironde","City":"Saint-Pierre-d'Aurillac","Street":"Avenue de la Libération","HouseNumber":"100","PostalCode":"33490","AdditionalData":[{"value":"France","key":"CountryName"},{"value":"Nouvelle-Aquitaine","key":"StateName"},{"value":"Gironde","key":"CountyName"}]},"MapReference":{"ReferenceId":"546906830","Spot":0.08,"SideOfStreet":"left","CountryId":"20000001","StateId":"20000383","CountyId":"20000384","CityId":"20001773","AddressId":"417172122","RoadLinkId":"50275381"}}},{"Relevance":1.0,"Distance":25.4,"MatchLevel":"houseNumber","MatchQuality":{"Country":1.0,"State":1.0,"County":1.0,"City":1.0,"Street":[1.0],"HouseNumber":1.0,"PostalCode":1.0},"MatchType":"interpolated","Location":{"LocationId":"NT_.oAjys4aBiBror.LWUSobA_xAjM","LocationType":"point","DisplayPosition":{"Latitude":44.57175,"Longitude":-0.1913},"MapView":{"TopLeft":{"Latitude":44.5728742,"Longitude":-0.192878},"BottomRight":{"Latitude":44.5706258,"Longitude":-0.189722}},"Address":{"Label":"102 Avenue de la Libération, 33490 Saint-Pierre-d'Aurillac, France","Country":"FRA","State":"Nouvelle-Aquitaine","County":"Gironde","City":"Saint-Pierre-d'Aurillac","Street":"Avenue de la Libération","HouseNumber":"102","PostalCode":"33490","AdditionalData":[{"value":"France","key":"CountryName"},{"value":"Nouvelle-Aquitaine","key":"StateName"},{"value":"Gironde","key":"CountyName"}]},"MapReference":{"ReferenceId":"546906829","Spot":0.99,"SideOfStreet":"left","CountryId":"20000001","StateId":"20000383","CountyId":"20000384","CityId":"20001773","AddressId":"417281979","RoadLinkId":"50943928"}}},{"Relevance":1.0,"Distance":52.2,"MatchLevel":"houseNumber","MatchQuality":{"Country":1.0,"State":1.0,"County":1.0,"City":1.0,"Street":[1.0],"HouseNumber":1.0,"PostalCode":1.0},"MatchType":"interpolated","Location":{"LocationId":"NT_3Cu1hhIGzZhVDkhUo08syA_1A","LocationType":"point","DisplayPosition":{"Latitude":44.57219,"Longitude":-0.19178},"MapView":{"TopLeft":{"Latitude":44.5733142,"Longitude":-0.1933581},"BottomRight":{"Latitude":44.5710658,"Longitude":-0.1902019}},"Address":{"Label":"5 Rue de la Mane, 33490 Saint-Pierre-d'Aurillac, France","Country":"FRA","State":"Nouvelle-Aquitaine","County":"Gironde","City":"Saint-Pierre-d'Aurillac","Street":"Rue de la Mane","HouseNumber":"5","PostalCode":"33490","AdditionalData":[{"value":"France","key":"CountryName"},{"value":"Nouvelle-Aquitaine","key":"StateName"},{"value":"Gironde","key":"CountyName"}]},"MapReference":{"ReferenceId":"546906856","Spot":0.27,"SideOfStreet":"right","CountryId":"20000001","StateId":"20000383","CountyId":"20000384","CityId":"20001773","AddressId":"417187032","RoadLinkId":"50265187"}}},{"Relevance":1.0,"Distance":62.1,"MatchLevel":"houseNumber","MatchQuality":{"Country":1.0,"State":1.0,"County":1.0,"City":1.0,"Street":[1.0],"HouseNumber":1.0,"PostalCode":1.0},"MatchType":"interpolated","Location":{"LocationId":"NT_Qswnph02gcuUhsbKAOD86D_yA","LocationType":"point","DisplayPosition":{"Latitude":44.57142,"Longitude":-0.19124},"MapView":{"TopLeft":{"Latitude":44.5725442,"Longitude":-0.192818},"BottomRight":{"Latitude":44.5702958,"Longitude":-0.189662}},"Address":{"Label":"2 Rue du Port, 33490 Saint-Pierre-d'Aurillac, France","Country":"FRA","State":"Nouvelle-Aquitaine","County":"Gironde","City":"Saint-Pierre-d'Aurillac","Street":"Rue du Port","HouseNumber":"2","PostalCode":"33490","AdditionalData":[{"value":"France","key":"CountryName"},{"value":"Nouvelle-Aquitaine","key":"StateName"},{"value":"Gironde","key":"CountyName"}]},"MapReference":{"ReferenceId":"546906833","Spot":0.84,"SideOfStreet":"right","CountryId":"20000001","StateId":"20000383","CountyId":"20000384","CityId":"20001773","AddressId":"417276794","RoadLinkId":"50321791"}}},{"Relevance":1.0,"Distance":80.0,"MatchLevel":"houseNumber","MatchQuality":{"Country":1.0,"State":1.0,"County":1.0,"City":1.0,"Street":[1.0],"HouseNumber":1.0,"PostalCode":1.0},"MatchType":"interpolated","Location":{"LocationId":"NT_.oAjys4aBiBror.LWUSobA_4QD","LocationType":"point","DisplayPosition":{"Latitude":44.57169,"Longitude":-0.19208},"MapView":{"TopLeft":{"Latitude":44.5728142,"Longitude":-0.193658},"BottomRight":{"Latitude":44.5705658,"Longitude":-0.190502}},"Address":{"Label":"84 Avenue de la Libération, 33490 Saint-Pierre-d'Aurillac, France","Country":"FRA","State":"Nouvelle-Aquitaine","County":"Gironde","City":"Saint-Pierre-d'Aurillac","Street":"Avenue de la Libération","HouseNumber":"84","PostalCode":"33490","AdditionalData":[{"value":"France","key":"CountryName"},{"value":"Nouvelle-Aquitaine","key":"StateName"},{"value":"Gironde","key":"CountyName"}]},"MapReference":{"ReferenceId":"542670584","Spot":0.91,"SideOfStreet":"left","CountryId":"20000001","StateId":"20000383","CountyId":"20000384","CityId":"20001773","AddressId":"417148353","RoadLinkId":"50543983"}}},{"Relevance":1.0,"Distance":159.6,"MatchLevel":"houseNumber","MatchQuality":{"Country":1.0,"State":1.0,"County":1.0,"City":1.0,"Street":[1.0],"HouseNumber":1.0,"PostalCode":1.0},"MatchType":"interpolated","Location":{"LocationId":"NT_3Cu1hhIGzZhVDkhUo08syA_l_546906861_L_xUD","LocationType":"point","DisplayPosition":{"Latitude":44.5734426,"Longitude":-0.1905331},"MapView":{"TopLeft":{"Latitude":44.5745668,"Longitude":-0.1921111},"BottomRight":{"Latitude":44.5723185,"Longitude":-0.188955}},"Address":{"Label":"15 Rue de la Mane, 33490 Saint-Pierre-d'Aurillac, France","Country":"FRA","State":"Nouvelle-Aquitaine","County":"Gironde","City":"Saint-Pierre-d'Aurillac","Street":"Rue de la Mane","HouseNumber":"15","PostalCode":"33490","AdditionalData":[{"value":"France","key":"CountryName"},{"value":"Nouvelle-Aquitaine","key":"StateName"},{"value":"Gironde","key":"CountyName"}]},"MapReference":{"ReferenceId":"546906861","Spot":0.43,"SideOfStreet":"left","CountryId":"20000001","StateId":"20000383","CountyId":"20000384","CityId":"20001773"}}},{"Relevance":1.0,"Distance":161.6,"MatchLevel":"houseNumber","MatchQuality":{"Country":1.0,"State":1.0,"County":1.0,"City":1.0,"Street":[1.0],"HouseNumber":1.0,"PostalCode":1.0},"MatchType":"interpolated","Location":{"LocationId":"NT_.oAjys4aBiBror.LWUSobA_xMjN","LocationType":"point","DisplayPosition":{"Latitude":44.57186,"Longitude":-0.1891},"MapView":{"TopLeft":{"Latitude":44.5729842,"Longitude":-0.190678},"BottomRight":{"Latitude":44.5707358,"Longitude":-0.187522}},"Address":{"Label":"136 Avenue de la Libération, 33490 Saint-Pierre-d'Aurillac, France","Country":"FRA","State":"Nouvelle-Aquitaine","County":"Gironde","City":"Saint-Pierre-d'Aurillac","Street":"Avenue de la Libération","HouseNumber":"136","PostalCode":"33490","AdditionalData":[{"value":"France","key":"CountryName"},{"value":"Nouvelle-Aquitaine","key":"StateName"},{"value":"Gironde","key":"CountyName"}]},"MapReference":{"ReferenceId":"57634710","Spot":0.89,"SideOfStreet":"right","CountryId":"20000001","StateId":"20000383","CountyId":"20000384","CityId":"20001773","AddressId":"417150056","RoadLinkId":"50675951"}}},{"Relevance":1.0,"Distance":164.6,"MatchLevel":"houseNumber","MatchQuality":{"Country":1.0,"State":1.0,"County":1.0,"City":1.0,"Street":[1.0],"HouseNumber":1.0,"PostalCode":1.0},"MatchType":"interpolated","Location":{"LocationId":"NT_4M1HN39T6eeTgWoRpX0BtA_yA","LocationType":"point","DisplayPosition":{"Latitude":44.57225,"Longitude":-0.18904},"MapView":{"TopLeft":{"Latitude":44.5733742,"Longitude":-0.1906181},"BottomRight":{"Latitude":44.5711258,"Longitude":-0.1874619}},"Address":{"Label":"2 Rue de la Gare, 33490 Saint-Pierre-d'Aurillac, France","Country":"FRA","State":"Nouvelle-Aquitaine","County":"Gironde","City":"Saint-Pierre-d'Aurillac","Street":"Rue de la Gare","HouseNumber":"2","PostalCode":"33490","AdditionalData":[{"value":"France","key":"CountryName"},{"value":"Nouvelle-Aquitaine","key":"StateName"},{"value":"Gironde","key":"CountyName"}]},"MapReference":{"ReferenceId":"57634706","Spot":0.56,"SideOfStreet":"left","CountryId":"20000001","StateId":"20000383","CountyId":"20000384","CityId":"20001773","AddressId":"417245291","RoadLinkId":"51428619"}}},{"Relevance":1.0,"Distance":169.4,"MatchLevel":"street","MatchQuality":{"Country":1.0,"State":1.0,"County":1.0,"City":1.0,"PostalCode":1.0},"Location":{"LocationId":"NT_SePIbVkVlWv8jqn0Cy4DTB_l_1168039986_L","LocationType":"point","DisplayPosition":{"Latitude":44.57061,"Longitude":-0.19019},"MapView":{"TopLeft":{"Latitude":44.57061,"Longitude":-0.19072},"BottomRight":{"Latitude":44.56766,"Longitude":-0.19019}},"Address":{"Label":"33490 Saint-Pierre-d'Aurillac, France","Country":"FRA","State":"Nouvelle-Aquitaine","County":"Gironde","City":"Saint-Pierre-d'Aurillac","PostalCode":"33490","AdditionalData":[{"value":"France","key":"CountryName"},{"value":"Nouvelle-Aquitaine","key":"StateName"},{"value":"Gironde","key":"CountyName"}]},"MapReference":{"ReferenceId":"1168039986","Spot":1.0,"SideOfStreet":"left","CountryId":"20000001","StateId":"20000383","CountyId":"20000384","CityId":"20001773"}}}]}]}}