{"Response":{"MetaInfo":{"Timestamp":"2020-03-28T11:35:46.330+0000","NextPageInformation":"2"},"View":[{"_type":"SearchResultsViewType","ViewId":0,"Result":[{"Relevance":1.0,"Distance":0.0,"Direction":0.0,"MatchLevel":"district","MatchQuality":{"Country":1.0,"County":1.0,"City":1.0,"District":1.0,"PostalCode":1.0},"Location":{"LocationId":"NT_qRgoRjNdlhhnkarIQqwr-B","LocationType":"point","DisplayPosition":{"Latitude":44.6594166,"Longitude":24.2611988},"MapView":{"TopLeft":{"Latitude":44.68403,"Longitude":24.22708},"BottomRight":{"Latitude":44.62062,"Longitude":24.28256}},"Address":{"Label":"Drăgășani, România","Country":"ROU","County":"Vâlcea","City":"Drăgășani","District":"Drăgășani","PostalCode":"245700","AdditionalData":[{"value":"România","key":"CountryName"},{"value":"Vâlcea","key":"CountyName"}]},"MapReference":{"ReferenceId":"837358432","SideOfStreet":"neither","CountryId":"20656215","CountyId":"20663330","CityId":"23770615","DistrictId":"23772732"}}},{"Relevance":1.0,"Distance":9.8,"MatchLevel":"street","MatchQuality":{"Country":1.0,"County":1.0,"City":1.0,"District":1.0,"Street":[1.0],"PostalCode":1.0},"Location":{"LocationId":"NT_VDmOgYLky4lwx8TXvcvUQB_l_1132122854_R","LocationType":"point","DisplayPosition":{"Latitude":44.6595026,"Longitude":24.2611742},"MapView":{"TopLeft":{"Latitude":44.65957,"Longitude":24.26087},"BottomRight":{"Latitude":44.65944,"Longitude":24.26141}},"Address":{"Label":"Aleea Școlii, 245700 Drăgășani, România","Country":"ROU","County":"Vâlcea","City":"Drăgășani","District":"Drăgășani","Street":"Aleea Școlii","PostalCode":"245700","AdditionalData":[{"value":"România","key":"CountryName"},{"value":"Vâlcea","key":"CountyName"}]},"MapReference":{"ReferenceId":"1132122854","Spot":0.56,"SideOfStreet":"right","CountryId":"20656215","CountyId":"20663330","CityId":"23770615","DistrictId":"23772732"}}},{"Relevance":1.0,"Distance":12.4,"MatchLevel":"houseNumber","MatchQuality":{"Country":1.0,"County":1.0,"City":1.0,"District":1.0,"Street":[1.0],"HouseNumber":1.0,"PostalCode":1.0},"MatchType":"interpolated","Location":{"LocationId":"NT_0Lx2COwd1pKGWSutqOu-jC_0AjM","LocationType":"point","DisplayPosition":{"Latitude":44.65953,"Longitude":24.26145},"MapView":{"TopLeft":{"Latitude":44.6606542,"Longitude":24.2598696},"BottomRight":{"Latitude":44.6584058,"Longitude":24.2630304}},"Address":{"Label":"Strada Tudor Vladimirescu 402, 245700 Drăgășani, România","Country":"ROU","County":"Vâlcea","City":"Drăgășani","District":"Drăgășani","Street":"Strada Tudor Vladimirescu","HouseNumber":"402","PostalCode":"245700","AdditionalData":[{"value":"România","key":"CountryName"},{"value":"Vâlcea","key":"CountyName"}]},"MapReference":{"ReferenceId":"920049778","Spot":0.82,"SideOfStreet":"left","CountryId":"20656215","CountyId":"20663330","CityId":"23770615","DistrictId":"23772732","AddressId":"722159901","RoadLinkId":"276867896"}}},{"Relevance":1.0,"Distance":26.1,"MatchLevel":"street","MatchQuality":{"Country":1.0,"County":1.0,"City":1.0,"District":1.0,"Street":[1.0],"PostalCode":1.0},"Location":{"LocationId":"NT_VDmOgYLky4lwx8TXvcvUQB_l_1133036312_R","LocationType":"point","DisplayPosition":{"Latitude":44.65944,"Longitude":24.26087},"MapView":{"TopLeft":{"Latitude":44.65944,"Longitude":24.26026},"BottomRight":{"Latitude":44.65935,"Longitude":24.26087}},"Address":{"Label":"Aleea Școlii, 245700 Drăgășani, România","Country":"ROU","County":"Vâlcea","City":"Drăgășani","District":"Drăgășani","Street":"Aleea Școlii","PostalCode":"245700","AdditionalData":[{"value":"România","key":"CountryName"},{"value":"Vâlcea","key":"CountyName"}]},"MapReference":{"ReferenceId":"1133036312","Spot":1.0,"SideOfStreet":"right","CountryId":"20656215","CountyId":"20663330","CityId":"23770615","DistrictId":"23772732"}}},{"Relevance":1.0,"Distance":26.1,"MatchLevel":"street","MatchQuality":{"Country":1.0,"County":1.0,"City":1.0,"District":1.0,"PostalCode":1.0},"Location":{"LocationId":"NT_HEAtPcPpgC5uUJKtwokz3B_l_1132122855_R","LocationType":"point","DisplayPosition":{"Latitude":44.65944,"Longitude":24.26087},"MapView":{"TopLeft":{"Latitude":44.65966,"Longitude":24.26048},"BottomRight":{"Latitude":44.65944,"Longitude":24.26087}},"Address":{"Label":"245700 Drăgășani, România","Country":"ROU","County":"Vâlcea","City":"Drăgășani","District":"Drăgășani","PostalCode":"245700","AdditionalData":[{"value":"România","key":"CountryName"},{"value":"Vâlcea","key":"CountyName"}]},"MapReference":{"ReferenceId":"1132122855","Spot":0.0,"SideOfStreet":"right","CountryId":"20656215","CountyId":"20663330","CityId":"23770615","DistrictId":"23772732"}}},{"Relevance":1.0,"Distance":35.8,"MatchLevel":"street","MatchQuality":{"Country":1.0,"County":1.0,"City":1.0,"District":1.0,"PostalCode":1.0},"Location":{"LocationId":"NT_HEAtPcPpgC5uUJKtwokz3B_l_1132122851_L","LocationType":"point","DisplayPosition":{"Latitude":44.659095,"Longitude":24.2612223},"MapView":{"TopLeft":{"Latitude":44.65937,"Longitude":24.26068},"BottomRight":{"Latitude":44.65907,"Longitude":24.26166}},"Address":{"Label":"245700 Drăgășani, România","Country":"ROU","County":"Vâlcea","City":"Drăgășani","District":"Drăgășani","PostalCode":"245700","AdditionalData":[{"value":"România","key":"CountryName"},{"value":"Vâlcea","key":"CountyName"}]},"MapReference":{"ReferenceId":"1132122851","Spot":0.51,"SideOfStreet":"left","CountryId":"20656215","CountyId":"20663330","CityId":"23770615","DistrictId":"23772732"}}},{"Relevance":1.0,"Distance":41.9,"MatchLevel":"houseNumber","MatchQuality":{"Country":1.0,"County":1.0,"City":1.0,"District":1.0,"Street":[1.0],"HouseNumber":1.0,"PostalCode":1.0},"MatchType":"interpolated","Location":{"LocationId":"NT_0Lx2COwd1pKGWSutqOu-jC_l_920049777_L_0AjN","LocationType":"point","DisplayPosition":{"Latitude":44.6593254,"Longitude":24.2617224},"MapView":{"TopLeft":{"Latitude":44.6604495,"Longitude":24.260142},"BottomRight":{"Latitude":44.6582012,"Longitude":24.2633029}},"Address":{"Label":"Strada Tudor Vladimirescu 406, 245700 Drăgășani, România","Country":"ROU","County":"Vâlcea","City":"Drăgășani","District":"Drăgășani","Street":"Strada Tudor Vladimirescu","HouseNumber":"406","PostalCode":"245700","AdditionalData":[{"value":"România","key":"CountryName"},{"value":"Vâlcea","key":"CountyName"}]},"MapReference":{"ReferenceId":"920049777","Spot":0.55,"SideOfStreet":"left","CountryId":"20656215","CountyId":"20663330","CityId":"23770615","DistrictId":"23772732"}}},{"Relevance":1.0,"Distance":50.0,"MatchLevel":"street","MatchQuality":{"Country":1.0,"County":1.0,"City":1.0,"District":1.0,"PostalCode":1.0},"Location":{"LocationId":"NT_HEAtPcPpgC5uUJKtwokz3B_l_1132122850_R","LocationType":"point","DisplayPosition":{"Latitude":44.65916,"Longitude":24.26068},"MapView":{"TopLeft":{"Latitude":44.65916,"Longitude":24.26068},"BottomRight":{"Latitude":44.65908,"Longitude":24.26068}},"Address":{"Label":"245700 Drăgășani, România","Country":"ROU","County":"Vâlcea","City":"Drăgășani","District":"Drăgășani","PostalCode":"245700","AdditionalData":[{"value":"România","key":"CountryName"},{"value":"Vâlcea","key":"CountyName"}]},"MapReference":{"ReferenceId":"1132122850","Spot":1.0,"SideOfStreet":"right","CountryId":"20656215","CountyId":"20663330","CityId":"23770615","DistrictId":"23772732"}}},{"Relevance":1.0,"Distance":50.0,"MatchLevel":"street","MatchQuality":{"Country":1.0,"County":1.0,"City":1.0,"District":1.0,"PostalCode":1.0},"Location":{"LocationId":"NT_HEAtPcPpgC5uUJKtwokz3B_l_1132122852_L","LocationType":"point","DisplayPosition":{"Latitude":44.65916,"Longitude":24.26068},"MapView":{"TopLeft":{"Latitude":44.65916,"Longitude":24.26036},"BottomRight":{"Latitude":44.65916,"Longitude":24.26068}},"Address":{"Label":"245700 Drăgășani, România","Country":"ROU","County":"Vâlcea","City":"Drăgășani","District":"Drăgășani","PostalCode":"245700","AdditionalData":[{"value":"România","key":"CountryName"},{"value":"Vâlcea","key":"CountyName"}]},"MapReference":{"ReferenceId":"1132122852","Spot":1.0,"SideOfStreet":"left","CountryId":"20656215","CountyId":"20663330","CityId":"23770615","DistrictId":"23772732"}}},{"Relevance":1.0,"Distance":62.1,"MatchLevel":"houseNumber","MatchQuality":{"Country":1.0,"County":1.0,"City":1.0,"District":1.0,"Street":[1.0],"HouseNumber":1.0,"PostalCode":1.0},"MatchType":"interpolated","Location":{"LocationId":"NT_NFlUilI3-Ef.o6QgRXlH3B_yA","LocationType":"point","DisplayPosition":{"Latitude":44.65884,"Longitude":24.26113},"MapView":{"TopLeft":{"Latitude":44.6599642,"Longitude":24.2595496},"BottomRight":{"Latitude":44.6577158,"Longitude":24.2627104}},"Address":{"Label":"Strada Dobrogeanu Gherea 2, 245700 Drăgășani, România","Country":"ROU","County":"Vâlcea","City":"Drăgășani","District":"Drăgășani","Street":"Strada Dobrogeanu Gherea","HouseNumber":"2","PostalCode":"245700","AdditionalData":[{"value":"România","key":"CountryName"},{"value":"Vâlcea","key":"CountyName"}]},"MapReference":{"ReferenceId":"1132160988","Spot":0.66,"SideOfStreet":"left","CountryId":"20656215","CountyId":"20663330","CityId":"23770615","DistrictId":"23772732","AddressId":"687092608","RoadLinkId":"442082730"}}}]}]}}