{"Response":{"MetaInfo":{"Timestamp":"2020-03-28T11:35:04.544+0000","NextPageInformation":"2"},"View":[{"_type":"SearchResultsViewType","ViewId":0,"Result":[{"Relevance":1.0,"Distance":0.0,"Direction":0.0,"MatchLevel":"district","MatchQuality":{"Country":1.0,"County":1.0,"City":1.0,"District":1.0,"PostalCode":1.0},"Location":{"LocationId":"NT_x3w59SXe06RknHnQo5lnpB","LocationType":"point","DisplayPosition":{"Latitude":44.6249812,"Longitude":22.6416235},"MapView":{"TopLeft":{"Latitude":44.65407,"Longitude":22.6235},"BottomRight":{"Latitude":44.61821,"Longitude":22.69816}},"Address":{"Label":"Drobeta-Turnu Severin, România","Country":"ROU","County":"Mehedinti","City":"Drobeta-Turnu Severin","District":"Drobeta-Turnu Severin","PostalCode":"220099","AdditionalData":[{"value":"România","key":"CountryName"},{"value":"Mehedinti","key":"CountyName"}]},"MapReference":{"ReferenceId":"1196444042","SideOfStreet":"neither","CountryId":"20656215","CountyId":"20660946","CityId":"20660985","DistrictId":"20660986"}}},{"Relevance":1.0,"Distance":11.3,"MatchLevel":"houseNumber","MatchQuality":{"Country":1.0,"County":1.0,"City":1.0,"District":1.0,"Street":[1.0],"HouseNumber":1.0,"PostalCode":1.0},"MatchType":"interpolated","Location":{"LocationId":"NT_KMEZC2NItRKWgIyBqAS96D_zA","LocationType":"point","DisplayPosition":{"Latitude":44.62489,"Longitude":22.6417},"MapView":{"TopLeft":{"Latitude":44.6260142,"Longitude":22.6401205},"BottomRight":{"Latitude":44.6237658,"Longitude":22.6432795}},"Address":{"Label":"Strada Carol Davilla 3, 220099 Drobeta-Turnu Severin, România","Country":"ROU","County":"Mehedinti","City":"Drobeta-Turnu Severin","District":"Drobeta-Turnu Severin","Street":"Strada Carol Davilla","HouseNumber":"3","PostalCode":"220099","AdditionalData":[{"value":"România","key":"CountryName"},{"value":"Mehedinti","key":"CountyName"}]},"MapReference":{"ReferenceId":"588469691","Spot":0.3,"SideOfStreet":"left","CountryId":"20656215","CountyId":"20660946","CityId":"20660985","DistrictId":"20660986","AddressId":"686861193","RoadLinkId":"77308909"}}},{"Relevance":1.0,"Distance":27.6,"MatchLevel":"houseNumber","MatchQuality":{"Country":1.0,"County":1.0,"City":1.0,"District":1.0,"Street":[1.0],"HouseNumber":1.0},"MatchType":"interpolated","Location":{"LocationId":"NT_y6AWduXu3w2heDCjkiO48A_l_1037056995_L_0A","LocationType":"point","DisplayPosition":{"Latitude":44.624671,"Longitude":22.6419038},"MapView":{"TopLeft":{"Latitude":44.6257952,"Longitude":22.6403243},"BottomRight":{"Latitude":44.6235469,"Longitude":22.6434833}},"Address":{"Label":"Strada Traian 4, Drobeta-Turnu Severin, România","Country":"ROU","County":"Mehedinti","City":"Drobeta-Turnu Severin","District":"Drobeta-Turnu Severin","Street":"Strada Traian","HouseNumber":"4","AdditionalData":[{"value":"România","key":"CountryName"},{"value":"Mehedinti","key":"CountyName"}]},"MapReference":{"ReferenceId":"1037056995","Spot":0.52,"SideOfStreet":"left","CountryId":"20656215","CountyId":"20660946","CityId":"20660985","DistrictId":"20660986"}}},{"Relevance":1.0,"Distance":36.5,"MatchLevel":"houseNumber","MatchQuality":{"Country":1.0,"County":1.0,"City":1.0,"District":1.0,"Street":[1.0],"HouseNumber":1.0},"MatchType":"interpolated","Location":{"LocationId":"NT_yeczfMrO3RLw3Q-ZZuyAQD_zA","LocationType":"point","DisplayPosition":{"Latitude":44.62504,"Longitude":22.64217},"MapView":{"TopLeft":{"Latitude":44.6261642,"Longitude":22.6405905},"BottomRight":{"Latitude":44.6239158,"Longitude":22.6437495}},"Address":{"Label":"Strada Bolintineanu 3, Drobeta-Turnu Severin, România","Country":"ROU","County":"Mehedinti","City":"Drobeta-Turnu Severin","District":"Drobeta-Turnu Severin","Street":"Strada Bolintineanu","HouseNumber":"3","AdditionalData":[{"value":"România","key":"CountryName"},{"value":"Mehedinti","key":"CountyName"}]},"MapReference":{"ReferenceId":"588469682","Spot":0.37,"SideOfStreet":"left","CountryId":"20656215","CountyId":"20660946","CityId":"20660985","DistrictId":"20660986","AddressId":"686861180","RoadLinkId":"77478134"}}},{"Relevance":1.0,"Distance":43.7,"MatchLevel":"street","MatchQuality":{"Country":1.0,"County":1.0,"City":1.0,"District":1.0,"Street":[1.0]},"Location":{"LocationId":"NT_y6AWduXu3w2heDCjkiO48A_l_1037056996_L","LocationType":"point","DisplayPosition":{"Latitude":44.6247,"Longitude":22.64201},"MapView":{"TopLeft":{"Latitude":44.62475,"Longitude":22.64201},"BottomRight":{"Latitude":44.6247,"Longitude":22.64226}},"Address":{"Label":"Strada Traian, Drobeta-Turnu Severin, România","Country":"ROU","County":"Mehedinti","City":"Drobeta-Turnu Severin","District":"Drobeta-Turnu Severin","Street":"Strada Traian","AdditionalData":[{"value":"România","key":"CountryName"},{"value":"Mehedinti","key":"CountyName"}]},"MapReference":{"ReferenceId":"1037056996","Spot":0.0,"SideOfStreet":"left","CountryId":"20656215","CountyId":"20660946","CityId":"20660985","DistrictId":"20660986"}}},{"Relevance":1.0,"Distance":48.8,"MatchLevel":"houseNumber","MatchQuality":{"Country":1.0,"County":1.0,"City":1.0,"District":1.0,"Street":[1.0],"HouseNumber":1.0},"MatchType":"interpolated","Location":{"LocationId":"NT_Y9Bd12UQHTN.9vgFZj4V7B_l_1037056994_R_yA","LocationType":"point","DisplayPosition":{"Latitude":44.6255105,"Longitude":22.6418737},"MapView":{"TopLeft":{"Latitude":44.6266347,"Longitude":22.6402942},"BottomRight":{"Latitude":44.6243864,"Longitude":22.6434532}},"Address":{"Label":"Strada Unirii 2, Drobeta-Turnu Severin, România","Country":"ROU","County":"Mehedinti","City":"Drobeta-Turnu Severin","District":"Drobeta-Turnu Severin","Street":"Strada Unirii","HouseNumber":"2","AdditionalData":[{"value":"România","key":"CountryName"},{"value":"Mehedinti","key":"CountyName"}]},"MapReference":{"ReferenceId":"1037056994","Spot":0.51,"SideOfStreet":"right","CountryId":"20656215","CountyId":"20660946","CityId":"20660985","DistrictId":"20660986"}}},{"Relevance":1.0,"Distance":49.3,"MatchLevel":"houseNumber","MatchQuality":{"Country":1.0,"County":1.0,"City":1.0,"District":1.0,"Street":[1.0],"HouseNumber":1.0,"PostalCode":1.0},"MatchType":"interpolated","Location":{"LocationId":"NT_Mhi.Yz9lYNvXvuKX-xr.lC_0A","LocationType":"point","DisplayPosition":{"Latitude":44.62455,"Longitude":22.64148},"MapView":{"TopLeft":{"Latitude":44.6256742,"Longitude":22.6399005},"BottomRight":{"Latitude":44.6234258,"Longitude":22.6430595}},"Address":{"Label":"Strada Traian 4, 220100 Drobeta-Turnu Severin, România","Country":"ROU","County":"Mehedinti","City":"Drobeta-Turnu Severin","District":"Drobeta-Turnu Severin","Street":"Strada Traian","HouseNumber":"4","PostalCode":"220100","AdditionalData":[{"value":"România","key":"CountryName"},{"value":"Mehedinti","key":"CountyName"}]},"MapReference":{"ReferenceId":"588469724","Spot":0.84,"SideOfStreet":"right","CountryId":"20656215","CountyId":"20660946","CityId":"20660985","DistrictId":"20660986","AddressId":"686861139","RoadLinkId":"77359329"}}},{"Relevance":1.0,"Distance":55.1,"MatchLevel":"street","MatchQuality":{"Country":1.0,"County":1.0,"City":1.0,"District":1.0,"Street":[1.0]},"Location":{"LocationId":"NT_Y9Bd12UQHTN.9vgFZj4V7B_l_1037056993_R","LocationType":"point","DisplayPosition":{"Latitude":44.6254754,"Longitude":22.6415764},"MapView":{"TopLeft":{"Latitude":44.62549,"Longitude":22.64152},"BottomRight":{"Latitude":44.62547,"Longitude":22.64173}},"Address":{"Label":"Strada Unirii, Drobeta-Turnu Severin, România","Country":"ROU","County":"Mehedinti","City":"Drobeta-Turnu Severin","District":"Drobeta-Turnu Severin","Street":"Strada Unirii","AdditionalData":[{"value":"România","key":"CountryName"},{"value":"Mehedinti","key":"CountyName"}]},"MapReference":{"ReferenceId":"1037056993","Spot":0.27,"SideOfStreet":"right","CountryId":"20656215","CountyId":"20660946","CityId":"20660985","DistrictId":"20660986"}}},{"Relevance":1.0,"Distance":72.1,"MatchLevel":"houseNumber","MatchQuality":{"Country":1.0,"County":1.0,"City":1.0,"District":1.0,"Street":[1.0],"HouseNumber":1.0,"PostalCode":1.0},"MatchType":"interpolated","Location":{"LocationId":"NT_oWXwzK75gP5UTEZ3o3fqVB_yA","LocationType":"point","DisplayPosition":{"Latitude":44.62555,"Longitude":22.64214},"MapView":{"TopLeft":{"Latitude":44.6266742,"Longitude":22.6405605},"BottomRight":{"Latitude":44.6244258,"Longitude":22.6437195}},"Address":{"Label":"Strada Unirii 2, 220100 Drobeta-Turnu Severin, România","Country":"ROU","County":"Mehedinti","City":"Drobeta-Turnu Severin","District":"Drobeta-Turnu Severin","Street":"Strada Unirii","HouseNumber":"2","PostalCode":"220100","AdditionalData":[{"value":"România","key":"CountryName"},{"value":"Mehedinti","key":"CountyName"}]},"MapReference":{"ReferenceId":"588469590","Spot":0.07,"SideOfStreet":"right","CountryId":"20656215","CountyId":"20660946","CityId":"20660985","DistrictId":"20660986","AddressId":"686861348","RoadLinkId":"77366850"}}},{"Relevance":1.0,"Distance":78.9,"MatchLevel":"houseNumber","MatchQuality":{"Country":1.0,"County":1.0,"City":1.0,"District":1.0,"Street":[1.0],"HouseNumber":1.0,"PostalCode":1.0},"MatchType":"interpolated","Location":{"LocationId":"NT_KMEZC2NItRKWgIyBqAS96D_1A","LocationType":"point","DisplayPosition":{"Latitude":44.62568,"Longitude":22.64145},"MapView":{"TopLeft":{"Latitude":44.6268042,"Longitude":22.6398705},"BottomRight":{"Latitude":44.6245558,"Longitude":22.6430295}},"Address":{"Label":"Strada Carol Davilla 5, 220099 Drobeta-Turnu Severin, România","Country":"ROU","County":"Mehedinti","City":"Drobeta-Turnu Severin","District":"Drobeta-Turnu Severin","Street":"Strada Carol Davilla","HouseNumber":"5","PostalCode":"220099","AdditionalData":[{"value":"România","key":"CountryName"},{"value":"Mehedinti","key":"CountyName"}]},"MapReference":{"ReferenceId":"1081007253","Spot":0.35,"SideOfStreet":"left","CountryId":"20656215","CountyId":"20660946","CityId":"20660985","DistrictId":"20660986","AddressId":"686865885","RoadLinkId":"398421660"}}}]}]}}