{"Response":{"MetaInfo":{"Timestamp":"2020-03-28T11:47:26.359+0000","NextPageInformation":"2"},"View":[{"_type":"SearchResultsViewType","ViewId":0,"Result":[{"Relevance":1.0,"Distance":0.0,"Direction":0.0,"MatchLevel":"city","MatchQuality":{"Country":1.0,"State":1.0,"County":1.0,"City":1.0,"PostalCode":1.0},"Location":{"LocationId":"NT_CzWSsZrbzvI.Ch8OSerI-A","LocationType":"point","DisplayPosition":{"Latitude":44.7341558,"Longitude":-0.2628669},"MapView":{"TopLeft":{"Latitude":44.76918,"Longitude":-0.31125},"BottomRight":{"Latitude":44.70552,"Longitude":-0.22695}},"Address":{"Label":"Targon, Nouvelle-Aquitaine, France","Country":"FRA","State":"Nouvelle-Aquitaine","County":"Gironde","City":"Targon","PostalCode":"33760","AdditionalData":[{"value":"France","key":"CountryName"},{"value":"Nouvelle-Aquitaine","key":"StateName"},{"value":"Gironde","key":"CountyName"}]},"MapReference":{"ReferenceId":"549103060","SideOfStreet":"neither","CountryId":"20000001","StateId":"20000383","CountyId":"20000384","CityId":"20001947"}}},{"Relevance":1.0,"Distance":3.8,"MatchLevel":"houseNumber","MatchQuality":{"Country":1.0,"State":1.0,"County":1.0,"City":1.0,"Street":[1.0],"HouseNumber":1.0,"PostalCode":1.0},"MatchType":"interpolated","Location":{"LocationId":"NT_YZKUxGTy3iyS9XXbB0kUqA_xA","LocationType":"point","DisplayPosition":{"Latitude":44.7342,"Longitude":-0.2629},"MapView":{"TopLeft":{"Latitude":44.7353242,"Longitude":-0.2644825},"BottomRight":{"Latitude":44.7330758,"Longitude":-0.2613175}},"Address":{"Label":"1 Grand'Rue, 33760 Targon, France","Country":"FRA","State":"Nouvelle-Aquitaine","County":"Gironde","City":"Targon","Street":"Grand'Rue","HouseNumber":"1","PostalCode":"33760","AdditionalData":[{"value":"France","key":"CountryName"},{"value":"Nouvelle-Aquitaine","key":"StateName"},{"value":"Gironde","key":"CountyName"}]},"MapReference":{"ReferenceId":"542663052","Spot":1.0,"SideOfStreet":"right","CountryId":"20000001","StateId":"20000383","CountyId":"20000384","CityId":"20001947","AddressId":"344567836","RoadLinkId":"50416067"}}},{"Relevance":1.0,"Distance":8.4,"MatchLevel":"houseNumber","MatchQuality":{"Country":1.0,"State":1.0,"County":1.0,"City":1.0,"Street":[1.0],"HouseNumber":1.0,"PostalCode":1.0},"MatchType":"interpolated","Location":{"LocationId":"NT_SUWPUAke25oFlvMdnUW1YD_2A","LocationType":"point","DisplayPosition":{"Latitude":44.73422,"Longitude":-0.26281},"MapView":{"TopLeft":{"Latitude":44.7353442,"Longitude":-0.2643925},"BottomRight":{"Latitude":44.7330958,"Longitude":-0.2612275}},"Address":{"Label":"6 Rue Jacques Froment, 33760 Targon, France","Country":"FRA","State":"Nouvelle-Aquitaine","County":"Gironde","City":"Targon","Street":"Rue Jacques Froment","HouseNumber":"6","PostalCode":"33760","AdditionalData":[{"value":"France","key":"CountryName"},{"value":"Nouvelle-Aquitaine","key":"StateName"},{"value":"Gironde","key":"CountyName"}]},"MapReference":{"ReferenceId":"1198821215","Spot":0.17,"SideOfStreet":"left","CountryId":"20000001","StateId":"20000383","CountyId":"20000384","CityId":"20001947","AddressId":"344577153","RoadLinkId":"510345281"}}},{"Relevance":1.0,"Distance":9.4,"MatchLevel":"houseNumber","MatchQuality":{"Country":1.0,"State":1.0,"County":1.0,"City":1.0,"Street":[1.0],"HouseNumber":1.0,"PostalCode":1.0},"MatchType":"interpolated","Location":{"LocationId":"NT_P019UXwTLBSv92.fEEBIiD_0A","LocationType":"point","DisplayPosition":{"Latitude":44.73414,"Longitude":-0.26275},"MapView":{"TopLeft":{"Latitude":44.7352642,"Longitude":-0.2643325},"BottomRight":{"Latitude":44.7330158,"Longitude":-0.2611675}},"Address":{"Label":"4 Rue de la Gendarmerie, 33760 Targon, France","Country":"FRA","State":"Nouvelle-Aquitaine","County":"Gironde","City":"Targon","Street":"Rue de la Gendarmerie","HouseNumber":"4","PostalCode":"33760","AdditionalData":[{"value":"France","key":"CountryName"},{"value":"Nouvelle-Aquitaine","key":"StateName"},{"value":"Gironde","key":"CountyName"}]},"MapReference":{"ReferenceId":"863047105","Spot":0.9,"SideOfStreet":"right","CountryId":"20000001","StateId":"20000383","CountyId":"20000384","CityId":"20001947","AddressId":"375315373","RoadLinkId":"237027015"}}},{"Relevance":1.0,"Distance":26.4,"MatchLevel":"houseNumber","MatchQuality":{"Country":1.0,"State":1.0,"County":1.0,"City":1.0,"Street":[1.0],"HouseNumber":1.0,"PostalCode":1.0},"MatchType":"interpolated","Location":{"LocationId":"NT_YZKUxGTy3iyS9XXbB0kUqA_2IE","LocationType":"point","DisplayPosition":{"Latitude":44.7342,"Longitude":-0.26342},"MapView":{"TopLeft":{"Latitude":44.7353242,"Longitude":-0.2650025},"BottomRight":{"Latitude":44.7330758,"Longitude":-0.2618375}},"Address":{"Label":"6B Grand'Rue, 33760 Targon, France","Country":"FRA","State":"Nouvelle-Aquitaine","County":"Gironde","City":"Targon","Street":"Grand'Rue","HouseNumber":"6B","PostalCode":"33760","AdditionalData":[{"value":"France","key":"CountryName"},{"value":"Nouvelle-Aquitaine","key":"StateName"},{"value":"Gironde","key":"CountyName"}]},"MapReference":{"ReferenceId":"57632041","Spot":0.51,"SideOfStreet":"right","CountryId":"20000001","StateId":"20000383","CountyId":"20000384","CityId":"20001947","AddressId":"344563680","RoadLinkId":"50311527"}}},{"Relevance":1.0,"Distance":33.8,"MatchLevel":"houseNumber","MatchQuality":{"Country":1.0,"State":1.0,"County":1.0,"City":1.0,"Street":[1.0],"HouseNumber":1.0,"PostalCode":1.0},"MatchType":"interpolated","Location":{"LocationId":"NT_GOAskInvMmPWseaZsYOEQD_xMjQ","LocationType":"point","DisplayPosition":{"Latitude":44.73444,"Longitude":-0.26308},"MapView":{"TopLeft":{"Latitude":44.7355642,"Longitude":-0.2646625},"BottomRight":{"Latitude":44.7333158,"Longitude":-0.2614975}},"Address":{"Label":"13B Place de l'Église, 33760 Targon, France","Country":"FRA","State":"Nouvelle-Aquitaine","County":"Gironde","City":"Targon","Street":"Place de l'Église","HouseNumber":"13B","PostalCode":"33760","AdditionalData":[{"value":"France","key":"CountryName"},{"value":"Nouvelle-Aquitaine","key":"StateName"},{"value":"Gironde","key":"CountyName"}]},"MapReference":{"ReferenceId":"57632040","Spot":0.65,"SideOfStreet":"right","CountryId":"20000001","StateId":"20000383","CountyId":"20000384","CityId":"20001947","AddressId":"417229799","RoadLinkId":"149914652"}}},{"Relevance":1.0,"Distance":42.2,"MatchLevel":"houseNumber","MatchQuality":{"Country":1.0,"State":1.0,"County":1.0,"City":1.0,"Street":[1.0],"HouseNumber":1.0,"PostalCode":1.0},"MatchType":"interpolated","Location":{"LocationId":"NT_ukYioUUUzMuh8yNNL3M7rA_xA","LocationType":"point","DisplayPosition":{"Latitude":44.73455,"Longitude":-0.26281},"MapView":{"TopLeft":{"Latitude":44.7356742,"Longitude":-0.2643925},"BottomRight":{"Latitude":44.7334258,"Longitude":-0.2612275}},"Address":{"Label":"1 Allée d'Amour, 33760 Targon, France","Country":"FRA","State":"Nouvelle-Aquitaine","County":"Gironde","City":"Targon","Street":"Allée d'Amour","HouseNumber":"1","PostalCode":"33760","AdditionalData":[{"value":"France","key":"CountryName"},{"value":"Nouvelle-Aquitaine","key":"StateName"},{"value":"Gironde","key":"CountyName"}]},"MapReference":{"ReferenceId":"1115220036","Spot":0.0,"SideOfStreet":"left","CountryId":"20000001","StateId":"20000383","CountyId":"20000384","CityId":"20001947","AddressId":"375302987","RoadLinkId":"425331698"}}},{"Relevance":1.0,"Distance":44.1,"MatchLevel":"houseNumber","MatchQuality":{"Country":1.0,"State":1.0,"County":1.0,"City":1.0,"Street":[1.0],"HouseNumber":1.0,"PostalCode":1.0},"MatchType":"interpolated","Location":{"LocationId":"NT_ukYioUUUzMuh8yNNL3M7rA_0A","LocationType":"point","DisplayPosition":{"Latitude":44.73454,"Longitude":-0.26273},"MapView":{"TopLeft":{"Latitude":44.7356642,"Longitude":-0.2643125},"BottomRight":{"Latitude":44.7334158,"Longitude":-0.2611475}},"Address":{"Label":"4 Allée d'Amour, 33760 Targon, France","Country":"FRA","State":"Nouvelle-Aquitaine","County":"Gironde","City":"Targon","Street":"Allée d'Amour","HouseNumber":"4","PostalCode":"33760","AdditionalData":[{"value":"France","key":"CountryName"},{"value":"Nouvelle-Aquitaine","key":"StateName"},{"value":"Gironde","key":"CountyName"}]},"MapReference":{"ReferenceId":"1115220035","Spot":0.89,"SideOfStreet":"right","CountryId":"20000001","StateId":"20000383","CountyId":"20000384","CityId":"20001947","AddressId":"375302985","RoadLinkId":"425331697"}}},{"Relevance":1.0,"Distance":48.3,"MatchLevel":"houseNumber","MatchQuality":{"Country":1.0,"State":1.0,"County":1.0,"City":1.0,"Street":[1.0],"HouseNumber":1.0,"PostalCode":1.0},"MatchType":"interpolated","Location":{"LocationId":"NT_YZKUxGTy3iyS9XXbB0kUqA_l_1198821216_R_xA","LocationType":"point","DisplayPosition":{"Latitude":44.7343858,"Longitude":-0.2623179},"MapView":{"TopLeft":{"Latitude":44.7355099,"Longitude":-0.2639003},"BottomRight":{"Latitude":44.7332616,"Longitude":-0.2607354}},"Address":{"Label":"1 Grand'Rue, 33760 Targon, France","Country":"FRA","State":"Nouvelle-Aquitaine","County":"Gironde","City":"Targon","Street":"Grand'Rue","HouseNumber":"1","PostalCode":"33760","AdditionalData":[{"value":"France","key":"CountryName"},{"value":"Nouvelle-Aquitaine","key":"StateName"},{"value":"Gironde","key":"CountyName"}]},"MapReference":{"ReferenceId":"1198821216","Spot":0.52,"SideOfStreet":"right","CountryId":"20000001","StateId":"20000383","CountyId":"20000384","CityId":"20001947"}}},{"Relevance":1.0,"Distance":49.0,"MatchLevel":"houseNumber","MatchQuality":{"Country":1.0,"State":1.0,"County":1.0,"City":1.0,"Street":[1.0],"HouseNumber":1.0,"PostalCode":1.0},"MatchType":"interpolated","Location":{"LocationId":"NT_GOAskInvMmPWseaZsYOEQD_xAjQ","LocationType":"point","DisplayPosition":{"Latitude":44.73457,"Longitude":-0.26308},"MapView":{"TopLeft":{"Latitude":44.7356942,"Longitude":-0.2646625},"BottomRight":{"Latitude":44.7334458,"Longitude":-0.2614975}},"Address":{"Label":"10B Place de l'Église, 33760 Targon, France","Country":"FRA","State":"Nouvelle-Aquitaine","County":"Gironde","City":"Targon","Street":"Place de l'Église","HouseNumber":"10B","PostalCode":"33760","AdditionalData":[{"value":"France","key":"CountryName"},{"value":"Nouvelle-Aquitaine","key":"StateName"},{"value":"Gironde","key":"CountyName"}]},"MapReference":{"ReferenceId":"57632034","Spot":0.0,"SideOfStreet":"right","CountryId":"20000001","StateId":"20000383","CountyId":"20000384","CityId":"20001947","AddressId":"417220908","RoadLinkId":"149915211"}}}]}]}}