{"Response":{"MetaInfo":{"Timestamp":"2020-03-28T12:07:13.726+0000","NextPageInformation":"2"},"View":[{"_type":"SearchResultsViewType","ViewId":0,"Result":[{"Relevance":1.0,"Distance":-79.8,"MatchLevel":"landmark","MatchQuality":{"Country":1.0,"County":1.0,"City":1.0,"District":1.0,"PostalCode":1.0,"Name":1.0},"Location":{"LocationId":"NT_y7pKDKJE5b.4-lNV4dW7qD_p_HR1Wu1dbemMZqusPk9XM8D","LocationType":"park","Name":"Parcul Natural Porțile de Fier","DisplayPosition":{"Latitude":44.49838,"Longitude":22.0994},"MapView":{"TopLeft":{"Latitude":44.85785,"Longitude":21.35294},"BottomRight":{"Latitude":44.47267,"Longitude":22.60335}},"Address":{"Label":"227440 Svinița, România","Country":"ROU","County":"Mehedinti","City":"Svinița","District":"Svinița","PostalCode":"227440","AdditionalData":[{"value":"România","key":"CountryName"},{"value":"Mehedinti","key":"CountyName"}]},"MapReference":{"CountryId":"20656215","CountyId":"20660946","CityId":"23765472","DistrictId":"23767543","PlaceId":"1159535267"}}},{"Relevance":1.0,"Distance":0.0,"Direction":0.0,"MatchLevel":"district","MatchQuality":{"Country":1.0,"County":1.0,"City":1.0,"District":1.0,"PostalCode":1.0},"Location":{"LocationId":"NT_e9CszI0LYy8fWzexNY6K-A","LocationType":"point","DisplayPosition":{"Latitude":44.7297437,"Longitude":22.4009601},"MapView":{"TopLeft":{"Latitude":44.74611,"Longitude":22.37437},"BottomRight":{"Latitude":44.69748,"Longitude":22.42664}},"Address":{"Label":"Orșova, România","Country":"ROU","County":"Mehedinti","City":"Orșova","District":"Orșova","PostalCode":"225200","AdditionalData":[{"value":"România","key":"CountryName"},{"value":"Mehedinti","key":"CountyName"}]},"MapReference":{"ReferenceId":"1115255476","SideOfStreet":"neither","CountryId":"20656215","CountyId":"20660946","CityId":"23765544","DistrictId":"23766774"}}},{"Relevance":1.0,"Distance":10.3,"MatchLevel":"street","MatchQuality":{"Country":1.0,"County":1.0,"City":1.0,"District":1.0,"PostalCode":1.0},"Location":{"LocationId":"NT_-g0m-W-91HYYNQG03j56VA_l_1049267160_R","LocationType":"point","DisplayPosition":{"Latitude":44.72967,"Longitude":22.40104},"MapView":{"TopLeft":{"Latitude":44.72967,"Longitude":22.40104},"BottomRight":{"Latitude":44.72947,"Longitude":22.40162}},"Address":{"Label":"225200 Orșova, România","Country":"ROU","County":"Mehedinti","City":"Orșova","District":"Orșova","PostalCode":"225200","AdditionalData":[{"value":"România","key":"CountryName"},{"value":"Mehedinti","key":"CountyName"}]},"MapReference":{"ReferenceId":"1049267160","Spot":1.0,"SideOfStreet":"right","CountryId":"20656215","CountyId":"20660946","CityId":"23765544","DistrictId":"23766774"}}},{"Relevance":1.0,"Distance":37.6,"MatchLevel":"houseNumber","MatchQuality":{"Country":1.0,"County":1.0,"City":1.0,"District":1.0,"Street":[1.0],"HouseNumber":1.0,"PostalCode":1.0},"MatchType":"interpolated","Location":{"LocationId":"NT_hTYlkLygHcfORMLlfDN-yD_1A","LocationType":"point","DisplayPosition":{"Latitude":44.73009,"Longitude":22.40084},"MapView":{"TopLeft":{"Latitude":44.7312142,"Longitude":22.3992576},"BottomRight":{"Latitude":44.7289658,"Longitude":22.4024224}},"Address":{"Label":"Strada Crizantemelor 5, 225200 Orșova, România","Country":"ROU","County":"Mehedinti","City":"Orșova","District":"Orșova","Street":"Strada Crizantemelor","HouseNumber":"5","PostalCode":"225200","AdditionalData":[{"value":"România","key":"CountryName"},{"value":"Mehedinti","key":"CountyName"}]},"MapReference":{"ReferenceId":"845095866","Spot":0.72,"SideOfStreet":"right","CountryId":"20656215","CountyId":"20660946","CityId":"23765544","DistrictId":"23766774","AddressId":"368236899","RoadLinkId":"226507469"}}},{"Relevance":1.0,"Distance":40.8,"MatchLevel":"street","MatchQuality":{"Country":1.0,"County":1.0,"City":1.0,"District":1.0,"Street":[1.0],"PostalCode":1.0},"Location":{"LocationId":"NT_YBym4baCC1b51SD6.6BDvD_l_1049267157_R","LocationType":"point","DisplayPosition":{"Latitude":44.72954,"Longitude":22.40053},"MapView":{"TopLeft":{"Latitude":44.72963,"Longitude":22.40016},"BottomRight":{"Latitude":44.72954,"Longitude":22.40053}},"Address":{"Label":"Strada Bujorului, 225200 Orșova, România","Country":"ROU","County":"Mehedinti","City":"Orșova","District":"Orșova","Street":"Strada Bujorului","PostalCode":"225200","AdditionalData":[{"value":"România","key":"CountryName"},{"value":"Mehedinti","key":"CountyName"}]},"MapReference":{"ReferenceId":"1049267157","Spot":0.0,"SideOfStreet":"right","CountryId":"20656215","CountyId":"20660946","CityId":"23765544","DistrictId":"23766774"}}},{"Relevance":1.0,"Distance":40.9,"MatchLevel":"houseNumber","MatchQuality":{"Country":1.0,"County":1.0,"City":1.0,"District":1.0,"Street":[1.0],"HouseNumber":1.0,"PostalCode":1.0},"MatchType":"interpolated","Location":{"LocationId":"NT_-DPB4qXL8DY1-4NNRT4mYD_3A","LocationType":"point","DisplayPosition":{"Latitude":44.72933,"Longitude":22.40153},"MapView":{"TopLeft":{"Latitude":44.7304542,"Longitude":22.3999477},"BottomRight":{"Latitude":44.7282058,"Longitude":22.4031123}},"Address":{"Label":"Bulevardul 1 Decembrie 1918 7, 225200 Orșova, România","Country":"ROU","County":"Mehedinti","City":"Orșova","District":"Orșova","Street":"Bulevardul 1 Decembrie 1918","HouseNumber":"7","PostalCode":"225200","AdditionalData":[{"value":"România","key":"CountryName"},{"value":"Mehedinti","key":"CountyName"}]},"MapReference":{"ReferenceId":"1115248213","Spot":0.86,"SideOfStreet":"left","CountryId":"20656215","CountyId":"20660946","CityId":"23765544","DistrictId":"23766774","AddressId":"757620413","RoadLinkId":"425356726"}}},{"Relevance":1.0,"Distance":44.1,"MatchLevel":"houseNumber","MatchQuality":{"Country":1.0,"County":1.0,"City":1.0,"District":1.0,"Street":[1.0],"HouseNumber":1.0,"PostalCode":1.0},"MatchType":"interpolated","Location":{"LocationId":"NT_CAuD9WSs0Lcwu9jawuMnbA_l_835780588_L_yA","LocationType":"point","DisplayPosition":{"Latitude":44.730098,"Longitude":22.4014723},"MapView":{"TopLeft":{"Latitude":44.7312222,"Longitude":22.39989},"BottomRight":{"Latitude":44.7289739,"Longitude":22.4030547}},"Address":{"Label":"Strada Primăverii 2, 225200 Orșova, România","Country":"ROU","County":"Mehedinti","City":"Orșova","District":"Orșova","Street":"Strada Primăverii","HouseNumber":"2","PostalCode":"225200","AdditionalData":[{"value":"România","key":"CountryName"},{"value":"Mehedinti","key":"CountyName"}]},"MapReference":{"ReferenceId":"835780588","Spot":0.51,"SideOfStreet":"left","CountryId":"20656215","CountyId":"20660946","CityId":"23765544","DistrictId":"23766774"}}},{"Relevance":1.0,"Distance":54.2,"MatchLevel":"houseNumber","MatchQuality":{"Country":1.0,"County":1.0,"City":1.0,"District":1.0,"Street":[1.0],"HouseNumber":1.0,"PostalCode":1.0},"MatchType":"interpolated","Location":{"LocationId":"NT_hTYlkLygHcfORMLlfDN-yD_zA","LocationType":"point","DisplayPosition":{"Latitude":44.72938,"Longitude":22.40045},"MapView":{"TopLeft":{"Latitude":44.7305042,"Longitude":22.3988677},"BottomRight":{"Latitude":44.7282558,"Longitude":22.4020323}},"Address":{"Label":"Strada Crizantemelor 3, 225200 Orșova, România","Country":"ROU","County":"Mehedinti","City":"Orșova","District":"Orșova","Street":"Strada Crizantemelor","HouseNumber":"3","PostalCode":"225200","AdditionalData":[{"value":"România","key":"CountryName"},{"value":"Mehedinti","key":"CountyName"}]},"MapReference":{"ReferenceId":"845095868","Spot":0.76,"SideOfStreet":"right","CountryId":"20656215","CountyId":"20660946","CityId":"23765544","DistrictId":"23766774","AddressId":"368138190","RoadLinkId":"226507471"}}},{"Relevance":1.0,"Distance":60.4,"MatchLevel":"street","MatchQuality":{"Country":1.0,"County":1.0,"City":1.0,"District":1.0,"Street":[1.0],"PostalCode":1.0},"Location":{"LocationId":"NT_YaAcZ6rN3PLhtKR3YOcQNC_l_1115563333_L","LocationType":"point","DisplayPosition":{"Latitude":44.72947,"Longitude":22.40162},"MapView":{"TopLeft":{"Latitude":44.72994,"Longitude":22.40162},"BottomRight":{"Latitude":44.72947,"Longitude":22.40194}},"Address":{"Label":"Bulevardul 1 Decembrie 1918, 225200 Orșova, România","Country":"ROU","County":"Mehedinti","City":"Orșova","District":"Orșova","Street":"Bulevardul 1 Decembrie 1918","PostalCode":"225200","AdditionalData":[{"value":"România","key":"CountryName"},{"value":"Mehedinti","key":"CountyName"}]},"MapReference":{"ReferenceId":"1115563333","Spot":0.0,"SideOfStreet":"left","CountryId":"20656215","CountyId":"20660946","CityId":"23765544","DistrictId":"23766774"}}},{"Relevance":1.0,"Distance":75.1,"MatchLevel":"houseNumber","MatchQuality":{"Country":1.0,"County":1.0,"City":1.0,"District":1.0,"Street":[1.0],"HouseNumber":1.0,"PostalCode":1.0},"MatchType":"interpolated","Location":{"LocationId":"NT_CAuD9WSs0Lcwu9jawuMnbA_zA","LocationType":"point","DisplayPosition":{"Latitude":44.7305,"Longitude":22.40041},"MapView":{"TopLeft":{"Latitude":44.7316242,"Longitude":22.3988276},"BottomRight":{"Latitude":44.7293758,"Longitude":22.4019924}},"Address":{"Label":"Strada Primăverii 3, 225200 Orșova, România","Country":"ROU","County":"Mehedinti","City":"Orșova","District":"Orșova","Street":"Strada Primăverii","HouseNumber":"3","PostalCode":"225200","AdditionalData":[{"value":"România","key":"CountryName"},{"value":"Mehedinti","key":"CountyName"}]},"MapReference":{"ReferenceId":"835780589","Spot":0.65,"SideOfStreet":"left","CountryId":"20656215","CountyId":"20660946","CityId":"23765544","DistrictId":"23766774","AddressId":"711209150","RoadLinkId":"218985941"}}}]}]}}