{"Response":{"MetaInfo":{"Timestamp":"2020-03-28T11:26:54.160+0000","NextPageInformation":"2"},"View":[{"_type":"SearchResultsViewType","ViewId":0,"Result":[{"Relevance":1.0,"Distance":0.0,"Direction":0.0,"MatchLevel":"district","MatchQuality":{"Country":1.0,"State":1.0,"County":1.0,"City":1.0,"District":1.0,"PostalCode":1.0},"Location":{"LocationId":"NT_qhSGnEyZrd6J1YtSe-1xJA","LocationType":"point","DisplayPosition":{"Latitude":44.7985321,"Longitude":10.3096043},"MapView":{"TopLeft":{"Latitude":44.80055,"Longitude":10.25632},"BottomRight":{"Latitude":44.7608,"Longitude":10.32308}},"Address":{"Label":"Molinetto, Parma, Emilia Romagna, Italia","Country":"ITA","State":"Emilia Romagna","County":"PR","City":"Parma","District":"Molinetto","PostalCode":"43126","AdditionalData":[{"value":"Italia","key":"CountryName"},{"value":"Emilia Romagna","key":"StateName"},{"value":"Parma","key":"CountyName"}]},"MapReference":{"ReferenceId":"956464426","SideOfStreet":"neither","CountryId":"20110484","StateId":"20123512","CountyId":"20123516","CityId":"20125085"}}},{"Relevance":1.0,"Distance":8.0,"MatchLevel":"street","MatchQuality":{"Country":1.0,"State":1.0,"County":1.0,"City":1.0,"District":1.0,"PostalCode":1.0},"Location":{"LocationId":"NT_o6oDdxOUM27MTJXzDLjCZC_l_1218253488_L","LocationType":"point","DisplayPosition":{"Latitude":44.7986,"Longitude":10.30957},"MapView":{"TopLeft":{"Latitude":44.79892,"Longitude":10.30936},"BottomRight":{"Latitude":44.7986,"Longitude":10.30957}},"Address":{"Label":"43125 Parma PR, Italia","Country":"ITA","State":"Emilia Romagna","County":"PR","City":"Parma","District":"Molinetto","PostalCode":"43125","AdditionalData":[{"value":"Italia","key":"CountryName"},{"value":"Emilia Romagna","key":"StateName"},{"value":"Parma","key":"CountyName"}]},"MapReference":{"ReferenceId":"1218253488","Spot":0.0,"SideOfStreet":"left","CountryId":"20110484","StateId":"20123512","CountyId":"20123516","CityId":"20125085"}}},{"Relevance":1.0,"Distance":8.1,"MatchLevel":"street","MatchQuality":{"Country":1.0,"State":1.0,"County":1.0,"City":1.0,"District":1.0,"PostalCode":1.0},"Location":{"LocationId":"NT_o6oDdxOUM27MTJXzDLjCZC_l_1218253501_R","LocationType":"point","DisplayPosition":{"Latitude":44.798604,"Longitude":10.3095847},"MapView":{"TopLeft":{"Latitude":44.79863,"Longitude":10.30957},"BottomRight":{"Latitude":44.7986,"Longitude":10.30968}},"Address":{"Label":"43125 Parma PR, Italia","Country":"ITA","State":"Emilia Romagna","County":"PR","City":"Parma","District":"Molinetto","PostalCode":"43125","AdditionalData":[{"value":"Italia","key":"CountryName"},{"value":"Emilia Romagna","key":"StateName"},{"value":"Parma","key":"CountyName"}]},"MapReference":{"ReferenceId":"1218253501","Spot":0.13,"SideOfStreet":"right","CountryId":"20110484","StateId":"20123512","CountyId":"20123516","CityId":"20125085"}}},{"Relevance":1.0,"Distance":12.4,"MatchLevel":"street","MatchQuality":{"Country":1.0,"State":1.0,"County":1.0,"City":1.0,"District":1.0,"PostalCode":1.0},"Location":{"LocationId":"NT_o6oDdxOUM27MTJXzDLjCZC_l_1218253400_L","LocationType":"point","DisplayPosition":{"Latitude":44.79863,"Longitude":10.30968},"MapView":{"TopLeft":{"Latitude":44.79902,"Longitude":10.3096},"BottomRight":{"Latitude":44.79863,"Longitude":10.30987}},"Address":{"Label":"43125 Parma PR, Italia","Country":"ITA","State":"Emilia Romagna","County":"PR","City":"Parma","District":"Molinetto","PostalCode":"43125","AdditionalData":[{"value":"Italia","key":"CountryName"},{"value":"Emilia Romagna","key":"StateName"},{"value":"Parma","key":"CountyName"}]},"MapReference":{"ReferenceId":"1218253400","Spot":0.0,"SideOfStreet":"left","CountryId":"20110484","StateId":"20123512","CountyId":"20123516","CityId":"20125085"}}},{"Relevance":1.0,"Distance":12.4,"MatchLevel":"street","MatchQuality":{"Country":1.0,"State":1.0,"County":1.0,"City":1.0,"District":1.0,"PostalCode":1.0},"Location":{"LocationId":"NT_o6oDdxOUM27MTJXzDLjCZC_l_1218253620_R","LocationType":"point","DisplayPosition":{"Latitude":44.79863,"Longitude":10.30968},"MapView":{"TopLeft":{"Latitude":44.79868,"Longitude":10.30968},"BottomRight":{"Latitude":44.79863,"Longitude":10.30989}},"Address":{"Label":"43125 Parma PR, Italia","Country":"ITA","State":"Emilia Romagna","County":"PR","City":"Parma","District":"Molinetto","PostalCode":"43125","AdditionalData":[{"value":"Italia","key":"CountryName"},{"value":"Emilia Romagna","key":"StateName"},{"value":"Parma","key":"CountyName"}]},"MapReference":{"ReferenceId":"1218253620","Spot":0.0,"SideOfStreet":"right","CountryId":"20110484","StateId":"20123512","CountyId":"20123516","CityId":"20125085"}}},{"Relevance":1.0,"Distance":47.2,"MatchLevel":"street","MatchQuality":{"Country":1.0,"State":1.0,"County":1.0,"City":1.0,"District":1.0,"PostalCode":1.0},"Location":{"LocationId":"NT_o6oDdxOUM27MTJXzDLjCZC_l_1218253475_R","LocationType":"point","DisplayPosition":{"Latitude":44.79892,"Longitude":10.30936},"MapView":{"TopLeft":{"Latitude":44.79892,"Longitude":10.3092},"BottomRight":{"Latitude":44.79891,"Longitude":10.30936}},"Address":{"Label":"43125 Parma PR, Italia","Country":"ITA","State":"Emilia Romagna","County":"PR","City":"Parma","District":"Molinetto","PostalCode":"43125","AdditionalData":[{"value":"Italia","key":"CountryName"},{"value":"Emilia Romagna","key":"StateName"},{"value":"Parma","key":"CountyName"}]},"MapReference":{"ReferenceId":"1218253475","Spot":1.0,"SideOfStreet":"right","CountryId":"20110484","StateId":"20123512","CountyId":"20123516","CityId":"20125085"}}},{"Relevance":1.0,"Distance":47.2,"MatchLevel":"street","MatchQuality":{"Country":1.0,"State":1.0,"County":1.0,"City":1.0,"District":1.0,"PostalCode":1.0},"Location":{"LocationId":"NT_o6oDdxOUM27MTJXzDLjCZC_l_1218253445_R","LocationType":"point","DisplayPosition":{"Latitude":44.79892,"Longitude":10.30936},"MapView":{"TopLeft":{"Latitude":44.79911,"Longitude":10.30934},"BottomRight":{"Latitude":44.79892,"Longitude":10.30936}},"Address":{"Label":"43125 Parma PR, Italia","Country":"ITA","State":"Emilia Romagna","County":"PR","City":"Parma","District":"Molinetto","PostalCode":"43125","AdditionalData":[{"value":"Italia","key":"CountryName"},{"value":"Emilia Romagna","key":"StateName"},{"value":"Parma","key":"CountyName"}]},"MapReference":{"ReferenceId":"1218253445","Spot":0.0,"SideOfStreet":"right","CountryId":"20110484","StateId":"20123512","CountyId":"20123516","CityId":"20125085"}}},{"Relevance":1.0,"Distance":52.8,"MatchLevel":"street","MatchQuality":{"Country":1.0,"State":1.0,"County":1.0,"City":1.0,"District":1.0,"PostalCode":1.0},"Location":{"LocationId":"NT_o6oDdxOUM27MTJXzDLjCZC_l_1218253462_R","LocationType":"point","DisplayPosition":{"Latitude":44.79891,"Longitude":10.3092},"MapView":{"TopLeft":{"Latitude":44.7991,"Longitude":10.30917},"BottomRight":{"Latitude":44.79891,"Longitude":10.3092}},"Address":{"Label":"43125 Parma PR, Italia","Country":"ITA","State":"Emilia Romagna","County":"PR","City":"Parma","District":"Molinetto","PostalCode":"43125","AdditionalData":[{"value":"Italia","key":"CountryName"},{"value":"Emilia Romagna","key":"StateName"},{"value":"Parma","key":"CountyName"}]},"MapReference":{"ReferenceId":"1218253462","Spot":0.0,"SideOfStreet":"right","CountryId":"20110484","StateId":"20123512","CountyId":"20123516","CityId":"20125085"}}},{"Relevance":1.0,"Distance":58.2,"MatchLevel":"street","MatchQuality":{"Country":1.0,"State":1.0,"County":1.0,"City":1.0,"District":1.0,"PostalCode":1.0},"Location":{"LocationId":"NT_o6oDdxOUM27MTJXzDLjCZC_l_1218740399_L","LocationType":"point","DisplayPosition":{"Latitude":44.79902,"Longitude":10.30987},"MapView":{"TopLeft":{"Latitude":44.79917,"Longitude":10.30982},"BottomRight":{"Latitude":44.79902,"Longitude":10.30987}},"Address":{"Label":"43125 Parma PR, Italia","Country":"ITA","State":"Emilia Romagna","County":"PR","City":"Parma","District":"Molinetto","PostalCode":"43125","AdditionalData":[{"value":"Italia","key":"CountryName"},{"value":"Emilia Romagna","key":"StateName"},{"value":"Parma","key":"CountyName"}]},"MapReference":{"ReferenceId":"1218740399","Spot":0.0,"SideOfStreet":"left","CountryId":"20110484","StateId":"20123512","CountyId":"20123516","CityId":"20125085"}}},{"Relevance":1.0,"Distance":58.2,"MatchLevel":"street","MatchQuality":{"Country":1.0,"State":1.0,"County":1.0,"City":1.0,"District":1.0,"PostalCode":1.0},"Location":{"LocationId":"NT_o6oDdxOUM27MTJXzDLjCZC_l_1218253518_R","LocationType":"point","DisplayPosition":{"Latitude":44.79902,"Longitude":10.30987},"MapView":{"TopLeft":{"Latitude":44.79912,"Longitude":10.30987},"BottomRight":{"Latitude":44.79902,"Longitude":10.31023}},"Address":{"Label":"43125 Parma PR, Italia","Country":"ITA","State":"Emilia Romagna","County":"PR","City":"Parma","District":"Molinetto","PostalCode":"43125","AdditionalData":[{"value":"Italia","key":"CountryName"},{"value":"Emilia Romagna","key":"StateName"},{"value":"Parma","key":"CountyName"}]},"MapReference":{"ReferenceId":"1218253518","Spot":0.0,"SideOfStreet":"right","CountryId":"20110484","StateId":"20123512","CountyId":"20123516","CityId":"20125085"}}}]}]}}