{"Response":{"MetaInfo":{"Timestamp":"2020-03-28T10:06:33.835+0000","NextPageInformation":"2"},"View":[{"_type":"SearchResultsViewType","ViewId":0,"Result":[{"Relevance":1.0,"Distance":0.0,"Direction":0.0,"MatchLevel":"city","MatchQuality":{"Country":1.0,"State":1.0,"County":1.0,"City":1.0,"PostalCode":1.0},"Location":{"LocationId":"NT_wCbdBeV-4UbsjgycKsY47B","LocationType":"point","DisplayPosition":{"Latitude":44.77237,"Longitude":-0.345404},"MapView":{"TopLeft":{"Latitude":44.78762,"Longitude":-0.36739},"BottomRight":{"Latitude":44.74993,"Longitude":-0.32111}},"Address":{"Label":"Créon, Nouvelle-Aquitaine, France","Country":"FRA","State":"Nouvelle-Aquitaine","County":"Gironde","City":"Créon","PostalCode":"33670","AdditionalData":[{"value":"France","key":"CountryName"},{"value":"Nouvelle-Aquitaine","key":"StateName"},{"value":"Gironde","key":"CountyName"}]},"MapReference":{"ReferenceId":"549104268","SideOfStreet":"neither","CountryId":"20000001","StateId":"20000383","CountyId":"20000384","CityId":"20000808"}}},{"Relevance":1.0,"Distance":5.6,"MatchLevel":"houseNumber","MatchQuality":{"Country":1.0,"State":1.0,"County":1.0,"City":1.0,"Street":[1.0],"HouseNumber":1.0,"PostalCode":1.0},"MatchType":"interpolated","Location":{"LocationId":"NT_YRnzQ1PkhGWvcqoHKArvFD_3A","LocationType":"point","DisplayPosition":{"Latitude":44.77249,"Longitude":-0.34518},"MapView":{"TopLeft":{"Latitude":44.7736142,"Longitude":-0.3467635},"BottomRight":{"Latitude":44.7713658,"Longitude":-0.3435965}},"Address":{"Label":"7 Avenue de l'Entre-Deux Mers, 33670 Créon, France","Country":"FRA","State":"Nouvelle-Aquitaine","County":"Gironde","City":"Créon","Street":"Avenue de l'Entre-Deux Mers","HouseNumber":"7","PostalCode":"33670","AdditionalData":[{"value":"France","key":"CountryName"},{"value":"Nouvelle-Aquitaine","key":"StateName"},{"value":"Gironde","key":"CountyName"}]},"MapReference":{"ReferenceId":"851907959","Spot":0.77,"SideOfStreet":"left","CountryId":"20000001","StateId":"20000383","CountyId":"20000384","CityId":"20000808","AddressId":"417157961","RoadLinkId":"284076781"}}},{"Relevance":1.0,"Distance":33.8,"MatchLevel":"houseNumber","MatchQuality":{"Country":1.0,"State":1.0,"County":1.0,"City":1.0,"Street":[1.0],"HouseNumber":1.0,"PostalCode":1.0},"MatchType":"interpolated","Location":{"LocationId":"NT_AyDE8Xl44H5.XnvkHibwWA_3A","LocationType":"point","DisplayPosition":{"Latitude":44.77262,"Longitude":-0.34516},"MapView":{"TopLeft":{"Latitude":44.7737442,"Longitude":-0.3467435},"BottomRight":{"Latitude":44.7714958,"Longitude":-0.3435765}},"Address":{"Label":"7 Rue Copernic, 33670 Créon, France","Country":"FRA","State":"Nouvelle-Aquitaine","County":"Gironde","City":"Créon","Street":"Rue Copernic","HouseNumber":"7","PostalCode":"33670","AdditionalData":[{"value":"France","key":"CountryName"},{"value":"Nouvelle-Aquitaine","key":"StateName"},{"value":"Gironde","key":"CountyName"}]},"MapReference":{"ReferenceId":"549103986","Spot":0.74,"SideOfStreet":"right","CountryId":"20000001","StateId":"20000383","CountyId":"20000384","CityId":"20000808","AddressId":"318400698","RoadLinkId":"50299520"}}},{"Relevance":1.0,"Distance":40.8,"MatchLevel":"houseNumber","MatchQuality":{"Country":1.0,"State":1.0,"County":1.0,"City":1.0,"Street":[1.0],"HouseNumber":1.0,"PostalCode":1.0},"MatchType":"interpolated","Location":{"LocationId":"NT_YRnzQ1PkhGWvcqoHKArvFD_l_851907957_L_xMD","LocationType":"point","DisplayPosition":{"Latitude":44.7727892,"Longitude":-0.3456002},"MapView":{"TopLeft":{"Latitude":44.7739134,"Longitude":-0.3471837},"BottomRight":{"Latitude":44.7716651,"Longitude":-0.3440167}},"Address":{"Label":"13 Avenue de l'Entre-Deux Mers, 33670 Créon, France","Country":"FRA","State":"Nouvelle-Aquitaine","County":"Gironde","City":"Créon","Street":"Avenue de l'Entre-Deux Mers","HouseNumber":"13","PostalCode":"33670","AdditionalData":[{"value":"France","key":"CountryName"},{"value":"Nouvelle-Aquitaine","key":"StateName"},{"value":"Gironde","key":"CountyName"}]},"MapReference":{"ReferenceId":"851907957","Spot":0.55,"SideOfStreet":"left","CountryId":"20000001","StateId":"20000383","CountyId":"20000384","CityId":"20000808"}}},{"Relevance":1.0,"Distance":54.7,"MatchLevel":"street","MatchQuality":{"Country":1.0,"State":1.0,"County":1.0,"City":1.0,"PostalCode":1.0},"Location":{"LocationId":"NT_RbVLVE3dHUjDQ0fBdEo0xD_l_786373837_R","LocationType":"point","DisplayPosition":{"Latitude":44.77283,"Longitude":-0.34565},"MapView":{"TopLeft":{"Latitude":44.77283,"Longitude":-0.34583},"BottomRight":{"Latitude":44.7728,"Longitude":-0.34565}},"Address":{"Label":"33670 Créon, France","Country":"FRA","State":"Nouvelle-Aquitaine","County":"Gironde","City":"Créon","PostalCode":"33670","AdditionalData":[{"value":"France","key":"CountryName"},{"value":"Nouvelle-Aquitaine","key":"StateName"},{"value":"Gironde","key":"CountyName"}]},"MapReference":{"ReferenceId":"786373837","Spot":1.0,"SideOfStreet":"right","CountryId":"20000001","StateId":"20000383","CountyId":"20000384","CityId":"20000808"}}},{"Relevance":1.0,"Distance":54.7,"MatchLevel":"street","MatchQuality":{"Country":1.0,"State":1.0,"County":1.0,"City":1.0,"PostalCode":1.0},"Location":{"LocationId":"NT_RbVLVE3dHUjDQ0fBdEo0xD_l_786373836_R","LocationType":"point","DisplayPosition":{"Latitude":44.77283,"Longitude":-0.34565},"MapView":{"TopLeft":{"Latitude":44.77299,"Longitude":-0.34569},"BottomRight":{"Latitude":44.77283,"Longitude":-0.34562}},"Address":{"Label":"33670 Créon, France","Country":"FRA","State":"Nouvelle-Aquitaine","County":"Gironde","City":"Créon","PostalCode":"33670","AdditionalData":[{"value":"France","key":"CountryName"},{"value":"Nouvelle-Aquitaine","key":"StateName"},{"value":"Gironde","key":"CountyName"}]},"MapReference":{"ReferenceId":"786373836","Spot":0.0,"SideOfStreet":"right","CountryId":"20000001","StateId":"20000383","CountyId":"20000384","CityId":"20000808"}}},{"Relevance":1.0,"Distance":59.4,"MatchLevel":"street","MatchQuality":{"Country":1.0,"State":1.0,"County":1.0,"City":1.0,"PostalCode":1.0},"Location":{"LocationId":"NT_RbVLVE3dHUjDQ0fBdEo0xD_l_786373838_L","LocationType":"point","DisplayPosition":{"Latitude":44.77281,"Longitude":-0.34583},"MapView":{"TopLeft":{"Latitude":44.77295,"Longitude":-0.3459},"BottomRight":{"Latitude":44.77281,"Longitude":-0.34583}},"Address":{"Label":"33670 Créon, France","Country":"FRA","State":"Nouvelle-Aquitaine","County":"Gironde","City":"Créon","PostalCode":"33670","AdditionalData":[{"value":"France","key":"CountryName"},{"value":"Nouvelle-Aquitaine","key":"StateName"},{"value":"Gironde","key":"CountyName"}]},"MapReference":{"ReferenceId":"786373838","Spot":0.0,"SideOfStreet":"left","CountryId":"20000001","StateId":"20000383","CountyId":"20000384","CityId":"20000808"}}},{"Relevance":1.0,"Distance":72.5,"MatchLevel":"street","MatchQuality":{"Country":1.0,"State":1.0,"County":1.0,"City":1.0,"Street":[1.0],"PostalCode":1.0},"Location":{"LocationId":"NT_AyDE8Xl44H5.XnvkHibwWA_l_549103984_R","LocationType":"point","DisplayPosition":{"Latitude":44.77299,"Longitude":-0.34569},"MapView":{"TopLeft":{"Latitude":44.77309,"Longitude":-0.34569},"BottomRight":{"Latitude":44.77299,"Longitude":-0.34567}},"Address":{"Label":"Rue Copernic, 33670 Créon, France","Country":"FRA","State":"Nouvelle-Aquitaine","County":"Gironde","City":"Créon","Street":"Rue Copernic","PostalCode":"33670","AdditionalData":[{"value":"France","key":"CountryName"},{"value":"Nouvelle-Aquitaine","key":"StateName"},{"value":"Gironde","key":"CountyName"}]},"MapReference":{"ReferenceId":"549103984","Spot":0.0,"SideOfStreet":"right","CountryId":"20000001","StateId":"20000383","CountyId":"20000384","CityId":"20000808"}}},{"Relevance":1.0,"Distance":72.5,"MatchLevel":"street","MatchQuality":{"Country":1.0,"State":1.0,"County":1.0,"City":1.0,"PostalCode":1.0},"Location":{"LocationId":"NT_RbVLVE3dHUjDQ0fBdEo0xD_l_786373835_R","LocationType":"point","DisplayPosition":{"Latitude":44.77299,"Longitude":-0.34569},"MapView":{"TopLeft":{"Latitude":44.773,"Longitude":-0.34589},"BottomRight":{"Latitude":44.77295,"Longitude":-0.34569}},"Address":{"Label":"33670 Créon, France","Country":"FRA","State":"Nouvelle-Aquitaine","County":"Gironde","City":"Créon","PostalCode":"33670","AdditionalData":[{"value":"France","key":"CountryName"},{"value":"Nouvelle-Aquitaine","key":"StateName"},{"value":"Gironde","key":"CountyName"}]},"MapReference":{"ReferenceId":"786373835","Spot":1.0,"SideOfStreet":"right","CountryId":"20000001","StateId":"20000383","CountyId":"20000384","CityId":"20000808"}}},{"Relevance":1.0,"Distance":79.1,"MatchLevel":"houseNumber","MatchQuality":{"Country":1.0,"State":1.0,"County":1.0,"City":1.0,"Street":[1.0],"HouseNumber":1.0,"PostalCode":1.0},"MatchType":"interpolated","Location":{"LocationId":"NT_YRnzQ1PkhGWvcqoHKArvFD_1A","LocationType":"point","DisplayPosition":{"Latitude":44.77299,"Longitude":-0.34598},"MapView":{"TopLeft":{"Latitude":44.7741142,"Longitude":-0.3475635},"BottomRight":{"Latitude":44.7718658,"Longitude":-0.3443965}},"Address":{"Label":"5 Avenue de l'Entre-Deux Mers, 33670 Créon, France","Country":"FRA","State":"Nouvelle-Aquitaine","County":"Gironde","City":"Créon","Street":"Avenue de l'Entre-Deux Mers","HouseNumber":"5","PostalCode":"33670","AdditionalData":[{"value":"France","key":"CountryName"},{"value":"Nouvelle-Aquitaine","key":"StateName"},{"value":"Gironde","key":"CountyName"}]},"MapReference":{"ReferenceId":"851907955","Spot":0.82,"SideOfStreet":"left","CountryId":"20000001","StateId":"20000383","CountyId":"20000384","CityId":"20000808","AddressId":"569964694","RoadLinkId":"231302656"}}}]}]}}