{"Response":{"MetaInfo":{"Timestamp":"2020-03-28T11:21:45.601+0000","NextPageInformation":"2"},"View":[{"_type":"SearchResultsViewType","ViewId":0,"Result":[{"Relevance":1.0,"Distance":-1069.6,"MatchLevel":"landmark","MatchQuality":{"Country":1.0,"County":1.0,"Name":1.0},"Location":{"LocationId":"NT_e1dLPlsB79j6W8T1PzR8WD","LocationType":"island","Name":"Rab","DisplayPosition":{"Latitude":44.77652,"Longitude":14.73317},"MapView":{"TopLeft":{"Latitude":44.85414,"Longitude":14.65466},"BottomRight":{"Latitude":44.69889,"Longitude":14.86955}},"Address":{"Label":"Hrvatska","Country":"HRV","County":"Primorsko-goranska županija","AdditionalData":[{"value":"Hrvatska","key":"CountryName"},{"value":"Primorsko-goranska županija","key":"CountyName"}]},"MapReference":{"CountryId":"20633739","CountyId":"20641997","PlaceId":"556859502"}}},{"Relevance":1.0,"Distance":0.0,"Direction":0.0,"MatchLevel":"district","MatchQuality":{"Country":1.0,"County":1.0,"City":1.0,"District":1.0,"PostalCode":1.0},"Location":{"LocationId":"NT_EyP3aRbVQe8lyUSgvZuYaD","LocationType":"point","DisplayPosition":{"Latitude":44.7805069,"Longitude":14.7191002},"MapView":{"TopLeft":{"Latitude":44.78171,"Longitude":14.7168},"BottomRight":{"Latitude":44.77375,"Longitude":14.72989}},"Address":{"Label":"Kampor, Rab, Hrvatska","Country":"HRV","County":"Primorsko-goranska županija","City":"Rab","District":"Kampor","PostalCode":"51280","AdditionalData":[{"value":"Hrvatska","key":"CountryName"},{"value":"Primorsko-goranska županija","key":"CountyName"}]},"MapReference":{"ReferenceId":"779014455","SideOfStreet":"neither","CountryId":"20633739","CountyId":"20641997","CityId":"22871642","DistrictId":"22877861"}}},{"Relevance":1.0,"Distance":45.3,"MatchLevel":"houseNumber","MatchQuality":{"Country":1.0,"County":1.0,"City":1.0,"District":1.0,"Street":[1.0],"HouseNumber":1.0,"PostalCode":1.0},"MatchType":"interpolated","Location":{"LocationId":"NT_1LAzpW-1Td9i8se10TxArD_yYDM","LocationType":"point","DisplayPosition":{"Latitude":44.781,"Longitude":14.71938},"MapView":{"TopLeft":{"Latitude":44.7821242,"Longitude":14.7177963},"BottomRight":{"Latitude":44.7798758,"Longitude":14.7209637}},"Address":{"Label":"Kampor 260, HR-51280 Rab, Hrvatska","Country":"HRV","County":"Primorsko-goranska županija","City":"Rab","District":"Kampor","Street":"Kampor","HouseNumber":"260","PostalCode":"51280","AdditionalData":[{"value":"Hrvatska","key":"CountryName"},{"value":"Primorsko-goranska županija","key":"CountyName"}]},"MapReference":{"ReferenceId":"910370411","Spot":0.8,"SideOfStreet":"left","CountryId":"20633739","CountyId":"20641997","CityId":"22871642","DistrictId":"22877861","AddressId":"623572786","RoadLinkId":"269900039"}}},{"Relevance":1.0,"Distance":159.4,"MatchLevel":"street","MatchQuality":{"Country":1.0,"County":1.0,"City":1.0,"District":1.0,"PostalCode":1.0},"Location":{"LocationId":"NT_zG7wXDovh5FdiEBHgRqodB_l_1027272491_L","LocationType":"point","DisplayPosition":{"Latitude":44.77987,"Longitude":14.72091},"MapView":{"TopLeft":{"Latitude":44.77987,"Longitude":14.72091},"BottomRight":{"Latitude":44.77974,"Longitude":14.72117}},"Address":{"Label":"HR-51280 Rab, Hrvatska","Country":"HRV","County":"Primorsko-goranska županija","City":"Rab","District":"Kampor","PostalCode":"51280","AdditionalData":[{"value":"Hrvatska","key":"CountryName"},{"value":"Primorsko-goranska županija","key":"CountyName"}]},"MapReference":{"ReferenceId":"1027272491","Spot":1.0,"SideOfStreet":"left","CountryId":"20633739","CountyId":"20641997","CityId":"22871642","DistrictId":"22877861"}}},{"Relevance":1.0,"Distance":164.4,"MatchLevel":"street","MatchQuality":{"Country":1.0,"County":1.0,"City":1.0,"District":1.0,"PostalCode":1.0},"Location":{"LocationId":"NT_zG7wXDovh5FdiEBHgRqodB_l_1027272490_L","LocationType":"point","DisplayPosition":{"Latitude":44.7792477,"Longitude":14.7201931},"MapView":{"TopLeft":{"Latitude":44.77987,"Longitude":14.71985},"BottomRight":{"Latitude":44.77895,"Longitude":14.72091}},"Address":{"Label":"HR-51280 Rab, Hrvatska","Country":"HRV","County":"Primorsko-goranska županija","City":"Rab","District":"Kampor","PostalCode":"51280","AdditionalData":[{"value":"Hrvatska","key":"CountryName"},{"value":"Primorsko-goranska županija","key":"CountyName"}]},"MapReference":{"ReferenceId":"1027272490","Spot":0.32,"SideOfStreet":"left","CountryId":"20633739","CountyId":"20641997","CityId":"22871642","DistrictId":"22877861"}}},{"Relevance":1.0,"Distance":168.9,"MatchLevel":"houseNumber","MatchQuality":{"Country":1.0,"County":1.0,"City":1.0,"District":1.0,"Street":[1.0],"HouseNumber":1.0,"PostalCode":1.0},"MatchType":"interpolated","Location":{"LocationId":"NT_-b2gMFRgcpxxHgcoZCs.zA_yYDN","LocationType":"point","DisplayPosition":{"Latitude":44.78218,"Longitude":14.71839},"MapView":{"TopLeft":{"Latitude":44.7833042,"Longitude":14.7168062},"BottomRight":{"Latitude":44.7810558,"Longitude":14.7199738}},"Address":{"Label":"Kampor 264, HR-51280 Rab, Hrvatska","Country":"HRV","County":"Primorsko-goranska županija","City":"Rab","District":"Kampor","Street":"Kampor","HouseNumber":"264","PostalCode":"51280","AdditionalData":[{"value":"Hrvatska","key":"CountryName"},{"value":"Primorsko-goranska županija","key":"CountyName"}]},"MapReference":{"ReferenceId":"910370413","Spot":0.34,"SideOfStreet":"right","CountryId":"20633739","CountyId":"20641997","CityId":"22871642","DistrictId":"22877861","AddressId":"623595677","RoadLinkId":"269900093"}}},{"Relevance":1.0,"Distance":170.6,"MatchLevel":"houseNumber","MatchQuality":{"Country":1.0,"County":1.0,"City":1.0,"District":1.0,"Street":[1.0],"HouseNumber":1.0,"PostalCode":1.0},"MatchType":"interpolated","Location":{"LocationId":"NT_-b2gMFRgcpxxHgcoZCs.zA_yYTM","LocationType":"point","DisplayPosition":{"Latitude":44.78184,"Longitude":14.71803},"MapView":{"TopLeft":{"Latitude":44.7829642,"Longitude":14.7164462},"BottomRight":{"Latitude":44.7807158,"Longitude":14.7196138}},"Address":{"Label":"Kampor 261, HR-51280 Rab, Hrvatska","Country":"HRV","County":"Primorsko-goranska županija","City":"Rab","District":"Kampor","Street":"Kampor","HouseNumber":"261","PostalCode":"51280","AdditionalData":[{"value":"Hrvatska","key":"CountryName"},{"value":"Primorsko-goranska županija","key":"CountyName"}]},"MapReference":{"ReferenceId":"910370412","Spot":0.97,"SideOfStreet":"left","CountryId":"20633739","CountyId":"20641997","CityId":"22871642","DistrictId":"22877861","AddressId":"623581405","RoadLinkId":"269900040"}}},{"Relevance":1.0,"Distance":183.0,"MatchLevel":"street","MatchQuality":{"Country":1.0,"County":1.0,"City":1.0,"District":1.0,"PostalCode":1.0},"Location":{"LocationId":"NT_zG7wXDovh5FdiEBHgRqodB_l_779014449_R","LocationType":"point","DisplayPosition":{"Latitude":44.77895,"Longitude":14.71985},"MapView":{"TopLeft":{"Latitude":44.77974,"Longitude":14.71984},"BottomRight":{"Latitude":44.77877,"Longitude":14.72117}},"Address":{"Label":"HR-51280 Rab, Hrvatska","Country":"HRV","County":"Primorsko-goranska županija","City":"Rab","District":"Kampor","PostalCode":"51280","AdditionalData":[{"value":"Hrvatska","key":"CountryName"},{"value":"Primorsko-goranska županija","key":"CountyName"}]},"MapReference":{"ReferenceId":"779014449","Spot":0.0,"SideOfStreet":"right","CountryId":"20633739","CountyId":"20641997","CityId":"22871642","DistrictId":"22877861"}}},{"Relevance":1.0,"Distance":202.8,"MatchLevel":"houseNumber","MatchQuality":{"Country":1.0,"County":1.0,"City":1.0,"District":1.0,"Street":[1.0],"HouseNumber":1.0,"PostalCode":1.0},"MatchType":"interpolated","Location":{"LocationId":"NT_1LAzpW-1Td9i8se10TxArD_yUTO","LocationType":"point","DisplayPosition":{"Latitude":44.78042,"Longitude":14.72175},"MapView":{"TopLeft":{"Latitude":44.7815442,"Longitude":14.7201663},"BottomRight":{"Latitude":44.7792958,"Longitude":14.7233337}},"Address":{"Label":"Kampor 259, HR-51280 Rab, Hrvatska","Country":"HRV","County":"Primorsko-goranska županija","City":"Rab","District":"Kampor","Street":"Kampor","HouseNumber":"259","PostalCode":"51280","AdditionalData":[{"value":"Hrvatska","key":"CountryName"},{"value":"Primorsko-goranska županija","key":"CountyName"}]},"MapReference":{"ReferenceId":"910370410","Spot":0.69,"SideOfStreet":"left","CountryId":"20633739","CountyId":"20641997","CityId":"22871642","DistrictId":"22877861","AddressId":"623574599","RoadLinkId":"269900094"}}},{"Relevance":1.0,"Distance":220.4,"MatchLevel":"houseNumber","MatchQuality":{"Country":1.0,"County":1.0,"City":1.0,"District":1.0,"Street":[1.0],"HouseNumber":1.0,"PostalCode":1.0},"MatchType":"interpolated","Location":{"LocationId":"NT_-b2gMFRgcpxxHgcoZCs.zA_ycjM","LocationType":"point","DisplayPosition":{"Latitude":44.78216,"Longitude":14.71741},"MapView":{"TopLeft":{"Latitude":44.7832842,"Longitude":14.7158262},"BottomRight":{"Latitude":44.7810358,"Longitude":14.7189938}},"Address":{"Label":"Kampor 272, HR-51280 Rab, Hrvatska","Country":"HRV","County":"Primorsko-goranska županija","City":"Rab","District":"Kampor","Street":"Kampor","HouseNumber":"272","PostalCode":"51280","AdditionalData":[{"value":"Hrvatska","key":"CountryName"},{"value":"Primorsko-goranska županija","key":"CountyName"}]},"MapReference":{"ReferenceId":"910370415","Spot":0.29,"SideOfStreet":"left","CountryId":"20633739","CountyId":"20641997","CityId":"22871642","DistrictId":"22877861","AddressId":"623579762","RoadLinkId":"269900041"}}}]}]}}