{"Response":{"MetaInfo":{"Timestamp":"2020-03-28T11:49:11.651+0000","NextPageInformation":"2"},"View":[{"_type":"SearchResultsViewType","ViewId":0,"Result":[{"Relevance":1.0,"Distance":0.0,"Direction":0.0,"MatchLevel":"city","MatchQuality":{"Country":1.0,"State":1.0,"County":1.0,"City":1.0,"PostalCode":1.0},"Location":{"LocationId":"NT_cjg76ijqNN9eDqvQrJcrbD","LocationType":"point","DisplayPosition":{"Latitude":44.7246106,"Longitude":3.8615471},"MapView":{"TopLeft":{"Latitude":44.75489,"Longitude":3.79032},"BottomRight":{"Latitude":44.68742,"Longitude":3.87762}},"Address":{"Label":"Langogne, Occitanie, France","Country":"FRA","State":"Occitanie","County":"Lozère","City":"Langogne","PostalCode":"48300","AdditionalData":[{"value":"France","key":"CountryName"},{"value":"Occitanie","key":"StateName"},{"value":"Lozère","key":"CountyName"}]},"MapReference":{"ReferenceId":"584979926","SideOfStreet":"neither","CountryId":"20000001","StateId":"20050212","CountyId":"20052818","CityId":"20102838"}}},{"Relevance":1.0,"Distance":48.6,"MatchLevel":"street","MatchQuality":{"Country":1.0,"State":1.0,"County":1.0,"City":1.0,"PostalCode":1.0},"Location":{"LocationId":"NT_WsvyjOQO7qEd9MyUKaJNAA_l_584979850_R","LocationType":"point","DisplayPosition":{"Latitude":44.72441,"Longitude":3.861},"MapView":{"TopLeft":{"Latitude":44.72445,"Longitude":3.86057},"BottomRight":{"Latitude":44.72441,"Longitude":3.861}},"Address":{"Label":"48300 Langogne, France","Country":"FRA","State":"Occitanie","County":"Lozère","City":"Langogne","PostalCode":"48300","AdditionalData":[{"value":"France","key":"CountryName"},{"value":"Occitanie","key":"StateName"},{"value":"Lozère","key":"CountyName"}]},"MapReference":{"ReferenceId":"584979850","Spot":0.0,"SideOfStreet":"right","CountryId":"20000001","StateId":"20050212","CountyId":"20052818","CityId":"20102838"}}},{"Relevance":1.0,"Distance":64.1,"MatchLevel":"street","MatchQuality":{"Country":1.0,"State":1.0,"County":1.0,"City":1.0,"PostalCode":1.0},"Location":{"LocationId":"NT_WsvyjOQO7qEd9MyUKaJNAA_l_584979847_L","LocationType":"point","DisplayPosition":{"Latitude":44.72516,"Longitude":3.8613},"MapView":{"TopLeft":{"Latitude":44.7252,"Longitude":3.86077},"BottomRight":{"Latitude":44.72516,"Longitude":3.8613}},"Address":{"Label":"48300 Langogne, France","Country":"FRA","State":"Occitanie","County":"Lozère","City":"Langogne","PostalCode":"48300","AdditionalData":[{"value":"France","key":"CountryName"},{"value":"Occitanie","key":"StateName"},{"value":"Lozère","key":"CountyName"}]},"MapReference":{"ReferenceId":"584979847","Spot":0.0,"SideOfStreet":"left","CountryId":"20000001","StateId":"20050212","CountyId":"20052818","CityId":"20102838"}}},{"Relevance":1.0,"Distance":72.2,"MatchLevel":"houseNumber","MatchQuality":{"Country":1.0,"State":1.0,"County":1.0,"City":1.0,"Street":[1.0],"HouseNumber":1.0,"PostalCode":1.0},"MatchType":"interpolated","Location":{"LocationId":"NT_iZXo4NPW49pvDcpnJinZ9D_5A","LocationType":"point","DisplayPosition":{"Latitude":44.72454,"Longitude":3.86059},"MapView":{"TopLeft":{"Latitude":44.7256642,"Longitude":3.8590078},"BottomRight":{"Latitude":44.7234158,"Longitude":3.8621722}},"Address":{"Label":"9 Avenue Jean Moulin, 48300 Langogne, France","Country":"FRA","State":"Occitanie","County":"Lozère","City":"Langogne","Street":"Avenue Jean Moulin","HouseNumber":"9","PostalCode":"48300","AdditionalData":[{"value":"France","key":"CountryName"},{"value":"Occitanie","key":"StateName"},{"value":"Lozère","key":"CountyName"}]},"MapReference":{"ReferenceId":"584979849","Spot":0.12,"SideOfStreet":"right","CountryId":"20000001","StateId":"20050212","CountyId":"20052818","CityId":"20102838","AddressId":"317220360","RoadLinkId":"51420261"}}},{"Relevance":1.0,"Distance":79.2,"MatchLevel":"street","MatchQuality":{"Country":1.0,"State":1.0,"County":1.0,"City":1.0,"Street":[1.0],"PostalCode":1.0},"Location":{"LocationId":"NT_iZXo4NPW49pvDcpnJinZ9D_l_584979848_R","LocationType":"point","DisplayPosition":{"Latitude":44.72445,"Longitude":3.86057},"MapView":{"TopLeft":{"Latitude":44.72445,"Longitude":3.86043},"BottomRight":{"Latitude":44.72408,"Longitude":3.86057}},"Address":{"Label":"Avenue Jean Moulin, 48300 Langogne, France","Country":"FRA","State":"Occitanie","County":"Lozère","City":"Langogne","Street":"Avenue Jean Moulin","PostalCode":"48300","AdditionalData":[{"value":"France","key":"CountryName"},{"value":"Occitanie","key":"StateName"},{"value":"Lozère","key":"CountyName"}]},"MapReference":{"ReferenceId":"584979848","Spot":1.0,"SideOfStreet":"right","CountryId":"20000001","StateId":"20050212","CountyId":"20052818","CityId":"20102838"}}},{"Relevance":1.0,"Distance":89.8,"MatchLevel":"street","MatchQuality":{"Country":1.0,"State":1.0,"County":1.0,"City":1.0,"Street":[1.0],"PostalCode":1.0},"Location":{"LocationId":"NT_iZXo4NPW49pvDcpnJinZ9D_l_584979846_R","LocationType":"point","DisplayPosition":{"Latitude":44.7252,"Longitude":3.86077},"MapView":{"TopLeft":{"Latitude":44.72573,"Longitude":3.86077},"BottomRight":{"Latitude":44.7252,"Longitude":3.8609}},"Address":{"Label":"Avenue Jean Moulin, 48300 Langogne, France","Country":"FRA","State":"Occitanie","County":"Lozère","City":"Langogne","Street":"Avenue Jean Moulin","PostalCode":"48300","AdditionalData":[{"value":"France","key":"CountryName"},{"value":"Occitanie","key":"StateName"},{"value":"Lozère","key":"CountyName"}]},"MapReference":{"ReferenceId":"584979846","Spot":0.0,"SideOfStreet":"right","CountryId":"20000001","StateId":"20050212","CountyId":"20052818","CityId":"20102838"}}},{"Relevance":1.0,"Distance":98.5,"MatchLevel":"houseNumber","MatchQuality":{"Country":1.0,"State":1.0,"County":1.0,"City":1.0,"Street":[1.0],"HouseNumber":1.0,"PostalCode":1.0},"MatchType":"interpolated","Location":{"LocationId":"NT_ltm9zagnnVCiloKNg-gvaB_5A","LocationType":"point","DisplayPosition":{"Latitude":44.72461,"Longitude":3.86018},"MapView":{"TopLeft":{"Latitude":44.7257342,"Longitude":3.8585978},"BottomRight":{"Latitude":44.7234858,"Longitude":3.8617622}},"Address":{"Label":"9 Rue de l'Arc-en-Ciel, 48300 Langogne, France","Country":"FRA","State":"Occitanie","County":"Lozère","City":"Langogne","Street":"Rue de l'Arc-en-Ciel","HouseNumber":"9","PostalCode":"48300","AdditionalData":[{"value":"France","key":"CountryName"},{"value":"Occitanie","key":"StateName"},{"value":"Lozère","key":"CountyName"}]},"MapReference":{"ReferenceId":"584979838","Spot":0.36,"SideOfStreet":"right","CountryId":"20000001","StateId":"20050212","CountyId":"20052818","CityId":"20102838","AddressId":"317052232","RoadLinkId":"50313226"}}},{"Relevance":1.0,"Distance":119.8,"MatchLevel":"houseNumber","MatchQuality":{"Country":1.0,"State":1.0,"County":1.0,"City":1.0,"Street":[1.0],"HouseNumber":1.0,"PostalCode":1.0},"MatchType":"interpolated","Location":{"LocationId":"NT_uwOvEX1bBrS0aC5NRqU5hC_xA","LocationType":"point","DisplayPosition":{"Latitude":44.72413,"Longitude":3.86019},"MapView":{"TopLeft":{"Latitude":44.7252542,"Longitude":3.8586078},"BottomRight":{"Latitude":44.7230058,"Longitude":3.8617722}},"Address":{"Label":"1 Rue des Allemandous, 48300 Langogne, France","Country":"FRA","State":"Occitanie","County":"Lozère","City":"Langogne","Street":"Rue des Allemandous","HouseNumber":"1","PostalCode":"48300","AdditionalData":[{"value":"France","key":"CountryName"},{"value":"Occitanie","key":"StateName"},{"value":"Lozère","key":"CountyName"}]},"MapReference":{"ReferenceId":"584979836","Spot":0.45,"SideOfStreet":"left","CountryId":"20000001","StateId":"20050212","CountyId":"20052818","CityId":"20102838","AddressId":"317023822","RoadLinkId":"51169487"}}},{"Relevance":1.0,"Distance":121.7,"MatchLevel":"houseNumber","MatchQuality":{"Country":1.0,"State":1.0,"County":1.0,"City":1.0,"Street":[1.0],"HouseNumber":1.0,"PostalCode":1.0},"MatchType":"interpolated","Location":{"LocationId":"NT_iZXo4NPW49pvDcpnJinZ9D_xED","LocationType":"point","DisplayPosition":{"Latitude":44.72389,"Longitude":3.86035},"MapView":{"TopLeft":{"Latitude":44.7250142,"Longitude":3.8587678},"BottomRight":{"Latitude":44.7227658,"Longitude":3.8619322}},"Address":{"Label":"11 Avenue Jean Moulin, 48300 Langogne, France","Country":"FRA","State":"Occitanie","County":"Lozère","City":"Langogne","Street":"Avenue Jean Moulin","HouseNumber":"11","PostalCode":"48300","AdditionalData":[{"value":"France","key":"CountryName"},{"value":"Occitanie","key":"StateName"},{"value":"Lozère","key":"CountyName"}]},"MapReference":{"ReferenceId":"584979831","Spot":0.73,"SideOfStreet":"right","CountryId":"20000001","StateId":"20050212","CountyId":"20052818","CityId":"20102838","AddressId":"590515026","RoadLinkId":"51284946"}}},{"Relevance":1.0,"Distance":134.6,"MatchLevel":"street","MatchQuality":{"Country":1.0,"State":1.0,"County":1.0,"City":1.0,"Street":[1.0],"PostalCode":1.0},"Location":{"LocationId":"NT_ltm9zagnnVCiloKNg-gvaB_l_584979839_R","LocationType":"point","DisplayPosition":{"Latitude":44.72573,"Longitude":3.8609},"MapView":{"TopLeft":{"Latitude":44.72573,"Longitude":3.86056},"BottomRight":{"Latitude":44.72567,"Longitude":3.8609}},"Address":{"Label":"Rue de l'Arc-en-Ciel, 48300 Langogne, France","Country":"FRA","State":"Occitanie","County":"Lozère","City":"Langogne","Street":"Rue de l'Arc-en-Ciel","PostalCode":"48300","AdditionalData":[{"value":"France","key":"CountryName"},{"value":"Occitanie","key":"StateName"},{"value":"Lozère","key":"CountyName"}]},"MapReference":{"ReferenceId":"584979839","Spot":1.0,"SideOfStreet":"right","CountryId":"20000001","StateId":"20050212","CountyId":"20052818","CityId":"20102838"}}}]}]}}