{"Response":{"MetaInfo":{"Timestamp":"2020-03-28T11:46:38.737+0000","NextPageInformation":"2"},"View":[{"_type":"SearchResultsViewType","ViewId":0,"Result":[{"Relevance":1.0,"Distance":-29.6,"MatchLevel":"landmark","MatchQuality":{"Country":1.0,"State":1.0,"County":1.0,"City":1.0,"PostalCode":1.0,"Name":1.0},"Location":{"LocationId":"NT_2sA-xSrBO0I09TLax9fqEA","LocationType":"industrialComplex","Name":"Z.A. des Quatre Pavillons","DisplayPosition":{"Latitude":44.87081,"Longitude":-0.50857},"MapView":{"TopLeft":{"Latitude":44.87508,"Longitude":-0.51324},"BottomRight":{"Latitude":44.86654,"Longitude":-0.50542}},"Address":{"Label":"33310 Lormont, France","Country":"FRA","State":"Nouvelle-Aquitaine","County":"Gironde","City":"Lormont","PostalCode":"33310","AdditionalData":[{"value":"France","key":"CountryName"},{"value":"Nouvelle-Aquitaine","key":"StateName"},{"value":"Gironde","key":"CountyName"}]},"MapReference":{"CountryId":"20000001","StateId":"20000383","CountyId":"20000384","CityId":"20001136","PlaceId":"554732873"}}},{"Relevance":1.0,"Distance":0.0,"Direction":0.0,"MatchLevel":"city","MatchQuality":{"Country":1.0,"State":1.0,"County":1.0,"City":1.0,"PostalCode":1.0},"Location":{"LocationId":"NT_5UeHVYLUlmF13xtKsgL-xB","LocationType":"point","DisplayPosition":{"Latitude":44.869686,"Longitude":-0.511716},"MapView":{"TopLeft":{"Latitude":44.88926,"Longitude":-0.54115},"BottomRight":{"Latitude":44.86102,"Longitude":-0.49426}},"Address":{"Label":"Lormont, Nouvelle-Aquitaine, France","Country":"FRA","State":"Nouvelle-Aquitaine","County":"Gironde","City":"Lormont","PostalCode":"33310","AdditionalData":[{"value":"France","key":"CountryName"},{"value":"Nouvelle-Aquitaine","key":"StateName"},{"value":"Gironde","key":"CountyName"}]},"MapReference":{"ReferenceId":"1062019369","SideOfStreet":"neither","CountryId":"20000001","StateId":"20000383","CountyId":"20000384","CityId":"20001136"}}},{"Relevance":1.0,"Distance":15.1,"MatchLevel":"street","MatchQuality":{"Country":1.0,"State":1.0,"County":1.0,"City":1.0,"PostalCode":1.0},"Location":{"LocationId":"NT_nFVsl3e5QUTjdzh8Wf6CbC_l_940145627_R","LocationType":"point","DisplayPosition":{"Latitude":44.8698,"Longitude":-0.51182},"MapView":{"TopLeft":{"Latitude":44.8699,"Longitude":-0.51212},"BottomRight":{"Latitude":44.86948,"Longitude":-0.51181}},"Address":{"Label":"33310 Lormont, France","Country":"FRA","State":"Nouvelle-Aquitaine","County":"Gironde","City":"Lormont","PostalCode":"33310","AdditionalData":[{"value":"France","key":"CountryName"},{"value":"Nouvelle-Aquitaine","key":"StateName"},{"value":"Gironde","key":"CountyName"}]},"MapReference":{"ReferenceId":"940145627","Spot":0.84,"SideOfStreet":"right","CountryId":"20000001","StateId":"20000383","CountyId":"20000384","CityId":"20001136"}}},{"Relevance":1.0,"Distance":16.2,"MatchLevel":"houseNumber","MatchQuality":{"Country":1.0,"State":1.0,"County":1.0,"City":1.0,"Street":[1.0],"HouseNumber":1.0,"PostalCode":1.0},"MatchType":"interpolated","Location":{"LocationId":"NT_2S.90uLVm-nKTSUEXx2V9B_0A","LocationType":"point","DisplayPosition":{"Latitude":44.87001,"Longitude":-0.51166},"MapView":{"TopLeft":{"Latitude":44.8711342,"Longitude":-0.5132462},"BottomRight":{"Latitude":44.8688858,"Longitude":-0.5100738}},"Address":{"Label":"4 Allée René Cassagne, 33310 Lormont, France","Country":"FRA","State":"Nouvelle-Aquitaine","County":"Gironde","City":"Lormont","Street":"Allée René Cassagne","HouseNumber":"4","PostalCode":"33310","AdditionalData":[{"value":"France","key":"CountryName"},{"value":"Nouvelle-Aquitaine","key":"StateName"},{"value":"Gironde","key":"CountyName"}]},"MapReference":{"ReferenceId":"940073552","Spot":0.82,"SideOfStreet":"left","CountryId":"20000001","StateId":"20000383","CountyId":"20000384","CityId":"20001136","AddressId":"417179853","RoadLinkId":"290064724"}}},{"Relevance":1.0,"Distance":24.9,"MatchLevel":"street","MatchQuality":{"Country":1.0,"State":1.0,"County":1.0,"City":1.0,"PostalCode":1.0},"Location":{"LocationId":"NT_nFVsl3e5QUTjdzh8Wf6CbC_l_940124766_R","LocationType":"point","DisplayPosition":{"Latitude":44.8699,"Longitude":-0.51181},"MapView":{"TopLeft":{"Latitude":44.87004,"Longitude":-0.51181},"BottomRight":{"Latitude":44.8699,"Longitude":-0.5118}},"Address":{"Label":"33310 Lormont, France","Country":"FRA","State":"Nouvelle-Aquitaine","County":"Gironde","City":"Lormont","PostalCode":"33310","AdditionalData":[{"value":"France","key":"CountryName"},{"value":"Nouvelle-Aquitaine","key":"StateName"},{"value":"Gironde","key":"CountyName"}]},"MapReference":{"ReferenceId":"940124766","Spot":0.0,"SideOfStreet":"right","CountryId":"20000001","StateId":"20000383","CountyId":"20000384","CityId":"20001136"}}},{"Relevance":1.0,"Distance":29.7,"MatchLevel":"street","MatchQuality":{"Country":1.0,"State":1.0,"County":1.0,"City":1.0,"PostalCode":1.0},"Location":{"LocationId":"NT_nFVsl3e5QUTjdzh8Wf6CbC_l_940145626_R","LocationType":"point","DisplayPosition":{"Latitude":44.8694212,"Longitude":-0.5117675},"MapView":{"TopLeft":{"Latitude":44.86948,"Longitude":-0.51207},"BottomRight":{"Latitude":44.86941,"Longitude":-0.51171}},"Address":{"Label":"33310 Lormont, France","Country":"FRA","State":"Nouvelle-Aquitaine","County":"Gironde","City":"Lormont","PostalCode":"33310","AdditionalData":[{"value":"France","key":"CountryName"},{"value":"Nouvelle-Aquitaine","key":"StateName"},{"value":"Gironde","key":"CountyName"}]},"MapReference":{"ReferenceId":"940145626","Spot":0.16,"SideOfStreet":"right","CountryId":"20000001","StateId":"20000383","CountyId":"20000384","CityId":"20001136"}}},{"Relevance":1.0,"Distance":39.9,"MatchLevel":"street","MatchQuality":{"Country":1.0,"State":1.0,"County":1.0,"City":1.0,"Street":[1.0],"PostalCode":1.0},"Location":{"LocationId":"NT_CttaTpNJzMW19TQ2ZzaXqA_l_913050781_R","LocationType":"point","DisplayPosition":{"Latitude":44.87004,"Longitude":-0.5118},"MapView":{"TopLeft":{"Latitude":44.87014,"Longitude":-0.5118},"BottomRight":{"Latitude":44.87004,"Longitude":-0.51165}},"Address":{"Label":"Rue Jean-Raymond Guyon, 33310 Lormont, France","Country":"FRA","State":"Nouvelle-Aquitaine","County":"Gironde","City":"Lormont","Street":"Rue Jean-Raymond Guyon","PostalCode":"33310","AdditionalData":[{"value":"France","key":"CountryName"},{"value":"Nouvelle-Aquitaine","key":"StateName"},{"value":"Gironde","key":"CountyName"}]},"MapReference":{"ReferenceId":"913050781","Spot":0.0,"SideOfStreet":"right","CountryId":"20000001","StateId":"20000383","CountyId":"20000384","CityId":"20001136"}}},{"Relevance":1.0,"Distance":39.9,"MatchLevel":"street","MatchQuality":{"Country":1.0,"State":1.0,"County":1.0,"City":1.0,"Street":[1.0],"PostalCode":1.0},"Location":{"LocationId":"NT_2S.90uLVm-nKTSUEXx2V9B_l_57897935_L","LocationType":"point","DisplayPosition":{"Latitude":44.87004,"Longitude":-0.5118},"MapView":{"TopLeft":{"Latitude":44.87016,"Longitude":-0.51228},"BottomRight":{"Latitude":44.87004,"Longitude":-0.5118}},"Address":{"Label":"Allée René Cassagne, 33310 Lormont, France","Country":"FRA","State":"Nouvelle-Aquitaine","County":"Gironde","City":"Lormont","Street":"Allée René Cassagne","PostalCode":"33310","AdditionalData":[{"value":"France","key":"CountryName"},{"value":"Nouvelle-Aquitaine","key":"StateName"},{"value":"Gironde","key":"CountyName"}]},"MapReference":{"ReferenceId":"57897935","Spot":0.0,"SideOfStreet":"left","CountryId":"20000001","StateId":"20000383","CountyId":"20000384","CityId":"20001136"}}},{"Relevance":1.0,"Distance":45.4,"MatchLevel":"street","MatchQuality":{"Country":1.0,"State":1.0,"County":1.0,"City":1.0,"PostalCode":1.0},"Location":{"LocationId":"NT_nFVsl3e5QUTjdzh8Wf6CbC_l_940073553_L","LocationType":"point","DisplayPosition":{"Latitude":44.8694569,"Longitude":-0.5112387},"MapView":{"TopLeft":{"Latitude":44.86985,"Longitude":-0.51129},"BottomRight":{"Latitude":44.86935,"Longitude":-0.51105}},"Address":{"Label":"33310 Lormont, France","Country":"FRA","State":"Nouvelle-Aquitaine","County":"Gironde","City":"Lormont","PostalCode":"33310","AdditionalData":[{"value":"France","key":"CountryName"},{"value":"Nouvelle-Aquitaine","key":"StateName"},{"value":"Gironde","key":"CountyName"}]},"MapReference":{"ReferenceId":"940073553","Spot":0.21,"SideOfStreet":"left","CountryId":"20000001","StateId":"20000383","CountyId":"20000384","CityId":"20001136"}}},{"Relevance":1.0,"Distance":50.7,"MatchLevel":"street","MatchQuality":{"Country":1.0,"State":1.0,"County":1.0,"City":1.0,"Street":[1.0],"PostalCode":1.0},"Location":{"LocationId":"NT_CttaTpNJzMW19TQ2ZzaXqA_l_833235734_R","LocationType":"point","DisplayPosition":{"Latitude":44.87014,"Longitude":-0.51165},"MapView":{"TopLeft":{"Latitude":44.87031,"Longitude":-0.51165},"BottomRight":{"Latitude":44.87014,"Longitude":-0.51158}},"Address":{"Label":"Rue Jean-Raymond Guyon, 33310 Lormont, France","Country":"FRA","State":"Nouvelle-Aquitaine","County":"Gironde","City":"Lormont","Street":"Rue Jean-Raymond Guyon","PostalCode":"33310","AdditionalData":[{"value":"France","key":"CountryName"},{"value":"Nouvelle-Aquitaine","key":"StateName"},{"value":"Gironde","key":"CountyName"}]},"MapReference":{"ReferenceId":"833235734","Spot":0.0,"SideOfStreet":"right","CountryId":"20000001","StateId":"20000383","CountyId":"20000384","CityId":"20001136"}}}]}]}}