{"Response":{"MetaInfo":{"Timestamp":"2020-03-28T11:52:15.554+0000","NextPageInformation":"2"},"View":[{"_type":"SearchResultsViewType","ViewId":0,"Result":[{"Relevance":1.0,"Distance":0.0,"Direction":0.0,"MatchLevel":"city","MatchQuality":{"Country":1.0,"State":1.0,"County":1.0,"City":1.0,"PostalCode":1.0},"Location":{"LocationId":"NT_KhSyrPjl6LDOf1KgQceBlA","LocationType":"point","DisplayPosition":{"Latitude":44.841939,"Longitude":0.2158008},"MapView":{"TopLeft":{"Latitude":44.84463,"Longitude":0.20957},"BottomRight":{"Latitude":44.83676,"Longitude":0.22418}},"Address":{"Label":"Sainte-Foy-la-Grande, Nouvelle-Aquitaine, France","Country":"FRA","State":"Nouvelle-Aquitaine","County":"Gironde","City":"Sainte-Foy-la-Grande","PostalCode":"33220","AdditionalData":[{"value":"France","key":"CountryName"},{"value":"Nouvelle-Aquitaine","key":"StateName"},{"value":"Gironde","key":"CountyName"}]},"MapReference":{"ReferenceId":"840346357","SideOfStreet":"neither","CountryId":"20000001","StateId":"20000383","CountyId":"20000384","CityId":"20001596"}}},{"Relevance":1.0,"Distance":24.3,"MatchLevel":"houseNumber","MatchQuality":{"Country":1.0,"State":1.0,"County":1.0,"City":1.0,"Street":[1.0],"HouseNumber":1.0,"PostalCode":1.0},"MatchType":"interpolated","Location":{"LocationId":"NT_6n4iWNrI4-IUkQmSl0S6LD_yUD","LocationType":"point","DisplayPosition":{"Latitude":44.84218,"Longitude":0.2157},"MapView":{"TopLeft":{"Latitude":44.8433042,"Longitude":0.2141146},"BottomRight":{"Latitude":44.8410558,"Longitude":0.2172854}},"Address":{"Label":"25 Rue Jean-Louis Faure, 33220 Sainte-Foy-la-Grande, France","Country":"FRA","State":"Nouvelle-Aquitaine","County":"Gironde","City":"Sainte-Foy-la-Grande","Street":"Rue Jean-Louis Faure","HouseNumber":"25","PostalCode":"33220","AdditionalData":[{"value":"France","key":"CountryName"},{"value":"Nouvelle-Aquitaine","key":"StateName"},{"value":"Gironde","key":"CountyName"}]},"MapReference":{"ReferenceId":"82377700","Spot":0.35,"SideOfStreet":"right","CountryId":"20000001","StateId":"20000383","CountyId":"20000384","CityId":"20001596","AddressId":"318225470","RoadLinkId":"50429912"}}},{"Relevance":1.0,"Distance":26.6,"MatchLevel":"houseNumber","MatchQuality":{"Country":1.0,"State":1.0,"County":1.0,"City":1.0,"Street":[1.0],"HouseNumber":1.0,"PostalCode":1.0},"MatchType":"interpolated","Location":{"LocationId":"NT_Zwzga.Qyowv9U6qXEV1AqB_zgD","LocationType":"point","DisplayPosition":{"Latitude":44.84167,"Longitude":0.21583},"MapView":{"TopLeft":{"Latitude":44.8427942,"Longitude":0.2142446},"BottomRight":{"Latitude":44.8405458,"Longitude":0.2174154}},"Address":{"Label":"38 Rue de la République, 33220 Sainte-Foy-la-Grande, France","Country":"FRA","State":"Nouvelle-Aquitaine","County":"Gironde","City":"Sainte-Foy-la-Grande","Street":"Rue de la République","HouseNumber":"38","PostalCode":"33220","AdditionalData":[{"value":"France","key":"CountryName"},{"value":"Nouvelle-Aquitaine","key":"StateName"},{"value":"Gironde","key":"CountyName"}]},"MapReference":{"ReferenceId":"82376885","Spot":0.16,"SideOfStreet":"left","CountryId":"20000001","StateId":"20000383","CountyId":"20000384","CityId":"20001596","AddressId":"378965812","RoadLinkId":"51105053"}}},{"Relevance":1.0,"Distance":31.8,"MatchLevel":"houseNumber","MatchQuality":{"Country":1.0,"State":1.0,"County":1.0,"City":1.0,"Street":[1.0],"HouseNumber":1.0,"PostalCode":1.0},"MatchType":"interpolated","Location":{"LocationId":"NT_3o7wSub4GDp4ws1oNc6jeD_yAD","LocationType":"point","DisplayPosition":{"Latitude":44.84187,"Longitude":0.21538},"MapView":{"TopLeft":{"Latitude":44.8429942,"Longitude":0.2137946},"BottomRight":{"Latitude":44.8407458,"Longitude":0.2169654}},"Address":{"Label":"20 Rue des Frères Reclus, 33220 Sainte-Foy-la-Grande, France","Country":"FRA","State":"Nouvelle-Aquitaine","County":"Gironde","City":"Sainte-Foy-la-Grande","Street":"Rue des Frères Reclus","HouseNumber":"20","PostalCode":"33220","AdditionalData":[{"value":"France","key":"CountryName"},{"value":"Nouvelle-Aquitaine","key":"StateName"},{"value":"Gironde","key":"CountyName"}]},"MapReference":{"ReferenceId":"82377693","Spot":0.6,"SideOfStreet":"right","CountryId":"20000001","StateId":"20000383","CountyId":"20000384","CityId":"20001596","AddressId":"360139708","RoadLinkId":"50901802"}}},{"Relevance":1.0,"Distance":36.1,"MatchLevel":"street","MatchQuality":{"Country":1.0,"State":1.0,"County":1.0,"City":1.0,"PostalCode":1.0},"Location":{"LocationId":"NT_9DGpagg9P2Rzx1mp4HffoB_l_82377682_R","LocationType":"point","DisplayPosition":{"Latitude":44.84163,"Longitude":0.21566},"MapView":{"TopLeft":{"Latitude":44.84163,"Longitude":0.21566},"BottomRight":{"Latitude":44.84139,"Longitude":0.21576}},"Address":{"Label":"33220 Sainte-Foy-la-Grande, France","Country":"FRA","State":"Nouvelle-Aquitaine","County":"Gironde","City":"Sainte-Foy-la-Grande","PostalCode":"33220","AdditionalData":[{"value":"France","key":"CountryName"},{"value":"Nouvelle-Aquitaine","key":"StateName"},{"value":"Gironde","key":"CountyName"}]},"MapReference":{"ReferenceId":"82377682","Spot":1.0,"SideOfStreet":"right","CountryId":"20000001","StateId":"20000383","CountyId":"20000384","CityId":"20001596"}}},{"Relevance":1.0,"Distance":37.9,"MatchLevel":"houseNumber","MatchQuality":{"Country":1.0,"State":1.0,"County":1.0,"City":1.0,"Street":[1.0],"HouseNumber":1.0,"PostalCode":1.0},"MatchType":"interpolated","Location":{"LocationId":"NT_Zwzga.Qyowv9U6qXEV1AqB_zID","LocationType":"point","DisplayPosition":{"Latitude":44.84162,"Longitude":0.21558},"MapView":{"TopLeft":{"Latitude":44.8427442,"Longitude":0.2139946},"BottomRight":{"Latitude":44.8404958,"Longitude":0.2171654}},"Address":{"Label":"32 Rue de la République, 33220 Sainte-Foy-la-Grande, France","Country":"FRA","State":"Nouvelle-Aquitaine","County":"Gironde","City":"Sainte-Foy-la-Grande","Street":"Rue de la République","HouseNumber":"32","PostalCode":"33220","AdditionalData":[{"value":"France","key":"CountryName"},{"value":"Nouvelle-Aquitaine","key":"StateName"},{"value":"Gironde","key":"CountyName"}]},"MapReference":{"ReferenceId":"82376884","Spot":0.56,"SideOfStreet":"left","CountryId":"20000001","StateId":"20000383","CountyId":"20000384","CityId":"20001596","AddressId":"378982303","RoadLinkId":"50372936"}}},{"Relevance":1.0,"Distance":39.9,"MatchLevel":"street","MatchQuality":{"Country":1.0,"State":1.0,"County":1.0,"City":1.0,"Street":[1.0],"PostalCode":1.0},"Location":{"LocationId":"NT_6n4iWNrI4-IUkQmSl0S6LD_l_82377647_R","LocationType":"point","DisplayPosition":{"Latitude":44.84205,"Longitude":0.21532},"MapView":{"TopLeft":{"Latitude":44.8421,"Longitude":0.21529},"BottomRight":{"Latitude":44.84205,"Longitude":0.21532}},"Address":{"Label":"Rue Jean-Louis Faure, 33220 Sainte-Foy-la-Grande, France","Country":"FRA","State":"Nouvelle-Aquitaine","County":"Gironde","City":"Sainte-Foy-la-Grande","Street":"Rue Jean-Louis Faure","PostalCode":"33220","AdditionalData":[{"value":"France","key":"CountryName"},{"value":"Nouvelle-Aquitaine","key":"StateName"},{"value":"Gironde","key":"CountyName"}]},"MapReference":{"ReferenceId":"82377647","Spot":0.0,"SideOfStreet":"right","CountryId":"20000001","StateId":"20000383","CountyId":"20000384","CityId":"20001596"}}},{"Relevance":1.0,"Distance":47.1,"MatchLevel":"houseNumber","MatchQuality":{"Country":1.0,"State":1.0,"County":1.0,"City":1.0,"Street":[1.0],"HouseNumber":1.0,"PostalCode":1.0},"MatchType":"interpolated","Location":{"LocationId":"NT_3o7wSub4GDp4ws1oNc6jeD_xQD","LocationType":"point","DisplayPosition":{"Latitude":44.84217,"Longitude":0.21526},"MapView":{"TopLeft":{"Latitude":44.8432942,"Longitude":0.2136746},"BottomRight":{"Latitude":44.8410458,"Longitude":0.2168454}},"Address":{"Label":"14 Rue des Frères Reclus, 33220 Sainte-Foy-la-Grande, France","Country":"FRA","State":"Nouvelle-Aquitaine","County":"Gironde","City":"Sainte-Foy-la-Grande","Street":"Rue des Frères Reclus","HouseNumber":"14","PostalCode":"33220","AdditionalData":[{"value":"France","key":"CountryName"},{"value":"Nouvelle-Aquitaine","key":"StateName"},{"value":"Gironde","key":"CountyName"}]},"MapReference":{"ReferenceId":"82377745","Spot":0.15,"SideOfStreet":"right","CountryId":"20000001","StateId":"20000383","CountyId":"20000384","CityId":"20001596","AddressId":"417221304","RoadLinkId":"51388650"}}},{"Relevance":1.0,"Distance":51.0,"MatchLevel":"houseNumber","MatchQuality":{"Country":1.0,"State":1.0,"County":1.0,"City":1.0,"Street":[1.0],"HouseNumber":1.0,"PostalCode":1.0},"MatchType":"interpolated","Location":{"LocationId":"NT_6n4iWNrI4-IUkQmSl0S6LD_zAD","LocationType":"point","DisplayPosition":{"Latitude":44.842,"Longitude":0.21516},"MapView":{"TopLeft":{"Latitude":44.8431242,"Longitude":0.2135746},"BottomRight":{"Latitude":44.8408758,"Longitude":0.2167454}},"Address":{"Label":"30 Rue Jean-Louis Faure, 33220 Sainte-Foy-la-Grande, France","Country":"FRA","State":"Nouvelle-Aquitaine","County":"Gironde","City":"Sainte-Foy-la-Grande","Street":"Rue Jean-Louis Faure","HouseNumber":"30","PostalCode":"33220","AdditionalData":[{"value":"France","key":"CountryName"},{"value":"Nouvelle-Aquitaine","key":"StateName"},{"value":"Gironde","key":"CountyName"}]},"MapReference":{"ReferenceId":"82377652","Spot":0.73,"SideOfStreet":"left","CountryId":"20000001","StateId":"20000383","CountyId":"20000384","CityId":"20001596","AddressId":"318171221","RoadLinkId":"50440416"}}},{"Relevance":1.0,"Distance":54.6,"MatchLevel":"houseNumber","MatchQuality":{"Country":1.0,"State":1.0,"County":1.0,"City":1.0,"Street":[1.0],"HouseNumber":1.0,"PostalCode":1.0},"MatchType":"interpolated","Location":{"LocationId":"NT_3o7wSub4GDp4ws1oNc6jeD_xcD","LocationType":"point","DisplayPosition":{"Latitude":44.84149,"Longitude":0.21552},"MapView":{"TopLeft":{"Latitude":44.8426142,"Longitude":0.2139346},"BottomRight":{"Latitude":44.8403658,"Longitude":0.2171054}},"Address":{"Label":"17 Rue des Frères Reclus, 33220 Sainte-Foy-la-Grande, France","Country":"FRA","State":"Nouvelle-Aquitaine","County":"Gironde","City":"Sainte-Foy-la-Grande","Street":"Rue des Frères Reclus","HouseNumber":"17","PostalCode":"33220","AdditionalData":[{"value":"France","key":"CountryName"},{"value":"Nouvelle-Aquitaine","key":"StateName"},{"value":"Gironde","key":"CountyName"}]},"MapReference":{"ReferenceId":"82377741","Spot":0.54,"SideOfStreet":"left","CountryId":"20000001","StateId":"20000383","CountyId":"20000384","CityId":"20001596","AddressId":"360155522","RoadLinkId":"50968460"}}}]}]}}