{"Response":{"MetaInfo":{"Timestamp":"2020-03-28T11:53:13.439+0000","NextPageInformation":"2"},"View":[{"_type":"SearchResultsViewType","ViewId":0,"Result":[{"Relevance":1.0,"Distance":0.0,"Direction":0.0,"MatchLevel":"city","MatchQuality":{"Country":1.0,"State":1.0,"County":1.0,"City":1.0,"PostalCode":1.0},"Location":{"LocationId":"NT_U8F8uUhNpxFHSh3YNoG5CB","LocationType":"point","DisplayPosition":{"Latitude":44.832989,"Longitude":-0.646201},"MapView":{"TopLeft":{"Latitude":44.86279,"Longitude":-0.75704},"BottomRight":{"Latitude":44.79976,"Longitude":-0.6068}},"Address":{"Label":"Mérignac, Nouvelle-Aquitaine, France","Country":"FRA","State":"Nouvelle-Aquitaine","County":"Gironde","City":"Mérignac","PostalCode":"33700","AdditionalData":[{"value":"France","key":"CountryName"},{"value":"Nouvelle-Aquitaine","key":"StateName"},{"value":"Gironde","key":"CountyName"}]},"MapReference":{"ReferenceId":"57903101","SideOfStreet":"neither","CountryId":"20000001","StateId":"20000383","CountyId":"20000384","CityId":"20001233"}}},{"Relevance":1.0,"Distance":10.0,"MatchLevel":"houseNumber","MatchQuality":{"Country":1.0,"State":1.0,"County":1.0,"City":1.0,"Street":[1.0],"HouseNumber":1.0,"PostalCode":1.0},"MatchType":"interpolated","Location":{"LocationId":"NT_g2wqa6kp11TcDNMjwlyElB_yUTN","LocationType":"point","DisplayPosition":{"Latitude":44.83267,"Longitude":-0.64613},"MapView":{"TopLeft":{"Latitude":44.8337942,"Longitude":-0.6477152},"BottomRight":{"Latitude":44.8315458,"Longitude":-0.6445448}},"Address":{"Label":"255 Avenue de la Marne, 33700 Mérignac, France","Country":"FRA","State":"Nouvelle-Aquitaine","County":"Gironde","City":"Mérignac","Street":"Avenue de la Marne","HouseNumber":"255","PostalCode":"33700","AdditionalData":[{"value":"France","key":"CountryName"},{"value":"Nouvelle-Aquitaine","key":"StateName"},{"value":"Gironde","key":"CountyName"}]},"MapReference":{"ReferenceId":"724240141","Spot":0.43,"SideOfStreet":"right","CountryId":"20000001","StateId":"20000383","CountyId":"20000384","CityId":"20001233","AddressId":"417164822","RoadLinkId":"127511360"}}},{"Relevance":1.0,"Distance":21.3,"MatchLevel":"houseNumber","MatchQuality":{"Country":1.0,"State":1.0,"County":1.0,"City":1.0,"Street":[1.0],"HouseNumber":1.0,"PostalCode":1.0},"MatchType":"interpolated","Location":{"LocationId":"NT_g2wqa6kp11TcDNMjwlyElB_yUzN","LocationType":"point","DisplayPosition":{"Latitude":44.83269,"Longitude":-0.64642},"MapView":{"TopLeft":{"Latitude":44.8338142,"Longitude":-0.6480052},"BottomRight":{"Latitude":44.8315658,"Longitude":-0.6448348}},"Address":{"Label":"257 Avenue de la Marne, 33700 Mérignac, France","Country":"FRA","State":"Nouvelle-Aquitaine","County":"Gironde","City":"Mérignac","Street":"Avenue de la Marne","HouseNumber":"257","PostalCode":"33700","AdditionalData":[{"value":"France","key":"CountryName"},{"value":"Nouvelle-Aquitaine","key":"StateName"},{"value":"Gironde","key":"CountyName"}]},"MapReference":{"ReferenceId":"57905359","Spot":0.15,"SideOfStreet":"right","CountryId":"20000001","StateId":"20000383","CountyId":"20000384","CityId":"20001233","AddressId":"318333762","RoadLinkId":"51161590"}}},{"Relevance":1.0,"Distance":26.7,"MatchLevel":"houseNumber","MatchQuality":{"Country":1.0,"State":1.0,"County":1.0,"City":1.0,"Street":[1.0],"HouseNumber":1.0,"PostalCode":1.0},"MatchType":"interpolated","Location":{"LocationId":"NT_EGd1K7oAp4H4zYz3UG-ceD_1A","LocationType":"point","DisplayPosition":{"Latitude":44.83294,"Longitude":-0.64664},"MapView":{"TopLeft":{"Latitude":44.8340642,"Longitude":-0.6482252},"BottomRight":{"Latitude":44.8318158,"Longitude":-0.6450548}},"Address":{"Label":"5 Allée des Colibris, 33700 Mérignac, France","Country":"FRA","State":"Nouvelle-Aquitaine","County":"Gironde","City":"Mérignac","Street":"Allée des Colibris","HouseNumber":"5","PostalCode":"33700","AdditionalData":[{"value":"France","key":"CountryName"},{"value":"Nouvelle-Aquitaine","key":"StateName"},{"value":"Gironde","key":"CountyName"}]},"MapReference":{"ReferenceId":"57928671","Spot":0.0,"SideOfStreet":"right","CountryId":"20000001","StateId":"20000383","CountyId":"20000384","CityId":"20001233","AddressId":"417170194","RoadLinkId":"51345062"}}},{"Relevance":1.0,"Distance":38.5,"MatchLevel":"street","MatchQuality":{"Country":1.0,"State":1.0,"County":1.0,"City":1.0,"Street":[1.0],"PostalCode":1.0},"Location":{"LocationId":"NT_g2wqa6kp11TcDNMjwlyElB_l_724240142_L","LocationType":"point","DisplayPosition":{"Latitude":44.83267,"Longitude":-0.64601},"MapView":{"TopLeft":{"Latitude":44.83267,"Longitude":-0.64601},"BottomRight":{"Latitude":44.83267,"Longitude":-0.64575}},"Address":{"Label":"Avenue de la Marne, 33700 Mérignac, France","Country":"FRA","State":"Nouvelle-Aquitaine","County":"Gironde","City":"Mérignac","Street":"Avenue de la Marne","PostalCode":"33700","AdditionalData":[{"value":"France","key":"CountryName"},{"value":"Nouvelle-Aquitaine","key":"StateName"},{"value":"Gironde","key":"CountyName"}]},"MapReference":{"ReferenceId":"724240142","Spot":0.0,"SideOfStreet":"left","CountryId":"20000001","StateId":"20000383","CountyId":"20000384","CityId":"20001233"}}},{"Relevance":1.0,"Distance":50.2,"MatchLevel":"street","MatchQuality":{"Country":1.0,"State":1.0,"County":1.0,"City":1.0,"Street":[1.0],"PostalCode":1.0},"Location":{"LocationId":"NT_tajlNgChJ0iyK.JvZsAAsC_l_940146494_L","LocationType":"point","DisplayPosition":{"Latitude":44.83267,"Longitude":-0.64575},"MapView":{"TopLeft":{"Latitude":44.83268,"Longitude":-0.64575},"BottomRight":{"Latitude":44.83267,"Longitude":-0.64549}},"Address":{"Label":"Avenue de la Marne, 33700 Mérignac, France","Country":"FRA","State":"Nouvelle-Aquitaine","County":"Gironde","City":"Mérignac","Street":"Avenue de la Marne","PostalCode":"33700","AdditionalData":[{"value":"France","key":"CountryName"},{"value":"Nouvelle-Aquitaine","key":"StateName"},{"value":"Gironde","key":"CountyName"}]},"MapReference":{"ReferenceId":"940146494","Spot":0.0,"SideOfStreet":"left","CountryId":"20000001","StateId":"20000383","CountyId":"20000384","CityId":"20001233"}}},{"Relevance":1.0,"Distance":52.4,"MatchLevel":"houseNumber","MatchQuality":{"Country":1.0,"State":1.0,"County":1.0,"City":1.0,"Street":[1.0],"HouseNumber":1.0,"PostalCode":1.0},"MatchType":"interpolated","Location":{"LocationId":"NT_EGd1K7oAp4H4zYz3UG-ceD_xUD","LocationType":"point","DisplayPosition":{"Latitude":44.83364,"Longitude":-0.64632},"MapView":{"TopLeft":{"Latitude":44.8347642,"Longitude":-0.6479052},"BottomRight":{"Latitude":44.8325158,"Longitude":-0.6447348}},"Address":{"Label":"15 Allée des Colibris, 33700 Mérignac, France","Country":"FRA","State":"Nouvelle-Aquitaine","County":"Gironde","City":"Mérignac","Street":"Allée des Colibris","HouseNumber":"15","PostalCode":"33700","AdditionalData":[{"value":"France","key":"CountryName"},{"value":"Nouvelle-Aquitaine","key":"StateName"},{"value":"Gironde","key":"CountyName"}]},"MapReference":{"ReferenceId":"57928670","Spot":0.88,"SideOfStreet":"right","CountryId":"20000001","StateId":"20000383","CountyId":"20000384","CityId":"20001233","AddressId":"417170192","RoadLinkId":"50875174"}}},{"Relevance":1.0,"Distance":54.4,"MatchLevel":"street","MatchQuality":{"Country":1.0,"State":1.0,"County":1.0,"City":1.0,"Street":[1.0],"PostalCode":1.0},"Location":{"LocationId":"NT_g2wqa6kp11TcDNMjwlyElB_l_780251696_L","LocationType":"point","DisplayPosition":{"Latitude":44.8325,"Longitude":-0.646201},"MapView":{"TopLeft":{"Latitude":44.8325,"Longitude":-0.6463},"BottomRight":{"Latitude":44.8325,"Longitude":-0.646}},"Address":{"Label":"Avenue de la Marne, 33700 Mérignac, France","Country":"FRA","State":"Nouvelle-Aquitaine","County":"Gironde","City":"Mérignac","Street":"Avenue de la Marne","PostalCode":"33700","AdditionalData":[{"value":"France","key":"CountryName"},{"value":"Nouvelle-Aquitaine","key":"StateName"},{"value":"Gironde","key":"CountyName"}]},"MapReference":{"ReferenceId":"780251696","Spot":0.33,"SideOfStreet":"left","CountryId":"20000001","StateId":"20000383","CountyId":"20000384","CityId":"20001233"}}},{"Relevance":1.0,"Distance":54.9,"MatchLevel":"street","MatchQuality":{"Country":1.0,"State":1.0,"County":1.0,"City":1.0,"Street":[1.0],"PostalCode":1.0},"Location":{"LocationId":"NT_tajlNgChJ0iyK.JvZsAAsC_l_766582404_R","LocationType":"point","DisplayPosition":{"Latitude":44.8325,"Longitude":-0.6463},"MapView":{"TopLeft":{"Latitude":44.8326,"Longitude":-0.64713},"BottomRight":{"Latitude":44.8325,"Longitude":-0.6463}},"Address":{"Label":"Avenue de la Marne, 33700 Mérignac, France","Country":"FRA","State":"Nouvelle-Aquitaine","County":"Gironde","City":"Mérignac","Street":"Avenue de la Marne","PostalCode":"33700","AdditionalData":[{"value":"France","key":"CountryName"},{"value":"Nouvelle-Aquitaine","key":"StateName"},{"value":"Gironde","key":"CountyName"}]},"MapReference":{"ReferenceId":"766582404","Spot":0.0,"SideOfStreet":"right","CountryId":"20000001","StateId":"20000383","CountyId":"20000384","CityId":"20001233"}}},{"Relevance":1.0,"Distance":61.4,"MatchLevel":"houseNumber","MatchQuality":{"Country":1.0,"State":1.0,"County":1.0,"City":1.0,"Street":[1.0],"HouseNumber":1.0,"PostalCode":1.0},"MatchType":"interpolated","Location":{"LocationId":"NT_g2wqa6kp11TcDNMjwlyElB_yUDOCB","LocationType":"point","DisplayPosition":{"Latitude":44.8325,"Longitude":-0.64584},"MapView":{"TopLeft":{"Latitude":44.8336242,"Longitude":-0.6474252},"BottomRight":{"Latitude":44.8313758,"Longitude":-0.6442548}},"Address":{"Label":"258B Avenue de la Marne, 33700 Mérignac, France","Country":"FRA","State":"Nouvelle-Aquitaine","County":"Gironde","City":"Mérignac","Street":"Avenue de la Marne","HouseNumber":"258B","PostalCode":"33700","AdditionalData":[{"value":"France","key":"CountryName"},{"value":"Nouvelle-Aquitaine","key":"StateName"},{"value":"Gironde","key":"CountyName"}]},"MapReference":{"ReferenceId":"826867112","Spot":0.31,"SideOfStreet":"right","CountryId":"20000001","StateId":"20000383","CountyId":"20000384","CityId":"20001233","AddressId":"318306684","RoadLinkId":"212117503"}}}]}]}}