{"Response":{"MetaInfo":{"Timestamp":"2020-03-28T11:14:30.014+0000","NextPageInformation":"2"},"View":[{"_type":"SearchResultsViewType","ViewId":0,"Result":[{"Relevance":1.0,"Distance":0.0,"Direction":0.0,"MatchLevel":"city","MatchQuality":{"Country":1.0,"State":1.0,"County":1.0,"City":1.0,"PostalCode":1.0},"Location":{"LocationId":"NT_5UeHVYLUlmF13xtKsgL-xB","LocationType":"point","DisplayPosition":{"Latitude":44.8652669,"Longitude":-0.5230774},"MapView":{"TopLeft":{"Latitude":44.88926,"Longitude":-0.54115},"BottomRight":{"Latitude":44.86102,"Longitude":-0.49426}},"Address":{"Label":"Lormont, Nouvelle-Aquitaine, France","Country":"FRA","State":"Nouvelle-Aquitaine","County":"Gironde","City":"Lormont","PostalCode":"33310","AdditionalData":[{"value":"France","key":"CountryName"},{"value":"Nouvelle-Aquitaine","key":"StateName"},{"value":"Gironde","key":"CountyName"}]},"MapReference":{"ReferenceId":"1062019369","SideOfStreet":"neither","CountryId":"20000001","StateId":"20000383","CountyId":"20000384","CityId":"20001136"}}},{"Relevance":1.0,"Distance":5.8,"MatchLevel":"landmark","MatchQuality":{"Country":1.0,"State":1.0,"County":1.0,"City":1.0,"PostalCode":1.0,"Name":1.0},"Location":{"LocationId":"NT_vYhJXcBmCVE5A70qSXnXtB_p_jJbofesNn7rL3g4nbP39FD","LocationType":"hospital","Name":"Polyclinique Bordeaux Rive Droite","DisplayPosition":{"Latitude":44.86468,"Longitude":-0.5224},"MapView":{"TopLeft":{"Latitude":44.86535,"Longitude":-0.52312},"BottomRight":{"Latitude":44.86391,"Longitude":-0.52067}},"Address":{"Label":"33310 Lormont, France","Country":"FRA","State":"Nouvelle-Aquitaine","County":"Gironde","City":"Lormont","PostalCode":"33310","AdditionalData":[{"value":"France","key":"CountryName"},{"value":"Nouvelle-Aquitaine","key":"StateName"},{"value":"Gironde","key":"CountyName"}]},"MapReference":{"CountryId":"20000001","StateId":"20000383","CountyId":"20000384","CityId":"20001136","PlaceId":"1069867967"}}},{"Relevance":1.0,"Distance":12.1,"MatchLevel":"street","MatchQuality":{"Country":1.0,"State":1.0,"County":1.0,"City":1.0,"PostalCode":1.0},"Location":{"LocationId":"NT_nFVsl3e5QUTjdzh8Wf6CbC_l_1154877095_L","LocationType":"point","DisplayPosition":{"Latitude":44.8651687,"Longitude":-0.5230119},"MapView":{"TopLeft":{"Latitude":44.86518,"Longitude":-0.52306},"BottomRight":{"Latitude":44.8651,"Longitude":-0.52292}},"Address":{"Label":"33310 Lormont, France","Country":"FRA","State":"Nouvelle-Aquitaine","County":"Gironde","City":"Lormont","PostalCode":"33310","AdditionalData":[{"value":"France","key":"CountryName"},{"value":"Nouvelle-Aquitaine","key":"StateName"},{"value":"Gironde","key":"CountyName"}]},"MapReference":{"ReferenceId":"1154877095","Spot":0.5,"SideOfStreet":"left","CountryId":"20000001","StateId":"20000383","CountyId":"20000384","CityId":"20001136"}}},{"Relevance":1.0,"Distance":15.4,"MatchLevel":"street","MatchQuality":{"Country":1.0,"State":1.0,"County":1.0,"City":1.0,"Street":[1.0],"PostalCode":1.0},"Location":{"LocationId":"NT_1dbHpeUpEs4aqe9L2-q7EA_l_57898861_L","LocationType":"point","DisplayPosition":{"Latitude":44.865405,"Longitude":-0.5230601},"MapView":{"TopLeft":{"Latitude":44.86541,"Longitude":-0.52334},"BottomRight":{"Latitude":44.86535,"Longitude":-0.52283}},"Address":{"Label":"Rue des Cavailles, 33310 Lormont, France","Country":"FRA","State":"Nouvelle-Aquitaine","County":"Gironde","City":"Lormont","Street":"Rue des Cavailles","PostalCode":"33310","AdditionalData":[{"value":"France","key":"CountryName"},{"value":"Nouvelle-Aquitaine","key":"StateName"},{"value":"Gironde","key":"CountyName"}]},"MapReference":{"ReferenceId":"57898861","Spot":0.46,"SideOfStreet":"left","CountryId":"20000001","StateId":"20000383","CountyId":"20000384","CityId":"20001136"}}},{"Relevance":1.0,"Distance":15.7,"MatchLevel":"street","MatchQuality":{"Country":1.0,"State":1.0,"County":1.0,"City":1.0,"PostalCode":1.0},"Location":{"LocationId":"NT_nFVsl3e5QUTjdzh8Wf6CbC_l_1154877094_R","LocationType":"point","DisplayPosition":{"Latitude":44.86518,"Longitude":-0.52292},"MapView":{"TopLeft":{"Latitude":44.86518,"Longitude":-0.52292},"BottomRight":{"Latitude":44.86493,"Longitude":-0.5223}},"Address":{"Label":"33310 Lormont, France","Country":"FRA","State":"Nouvelle-Aquitaine","County":"Gironde","City":"Lormont","PostalCode":"33310","AdditionalData":[{"value":"France","key":"CountryName"},{"value":"Nouvelle-Aquitaine","key":"StateName"},{"value":"Gironde","key":"CountyName"}]},"MapReference":{"ReferenceId":"1154877094","Spot":1.0,"SideOfStreet":"right","CountryId":"20000001","StateId":"20000383","CountyId":"20000384","CityId":"20001136"}}},{"Relevance":1.0,"Distance":18.7,"MatchLevel":"street","MatchQuality":{"Country":1.0,"State":1.0,"County":1.0,"City":1.0,"PostalCode":1.0},"Location":{"LocationId":"NT_nFVsl3e5QUTjdzh8Wf6CbC_l_1154877093_R","LocationType":"point","DisplayPosition":{"Latitude":44.8651,"Longitude":-0.52305},"MapView":{"TopLeft":{"Latitude":44.8651,"Longitude":-0.52305},"BottomRight":{"Latitude":44.86398,"Longitude":-0.52149}},"Address":{"Label":"33310 Lormont, France","Country":"FRA","State":"Nouvelle-Aquitaine","County":"Gironde","City":"Lormont","PostalCode":"33310","AdditionalData":[{"value":"France","key":"CountryName"},{"value":"Nouvelle-Aquitaine","key":"StateName"},{"value":"Gironde","key":"CountyName"}]},"MapReference":{"ReferenceId":"1154877093","Spot":1.0,"SideOfStreet":"right","CountryId":"20000001","StateId":"20000383","CountyId":"20000384","CityId":"20001136"}}},{"Relevance":1.0,"Distance":21.2,"MatchLevel":"street","MatchQuality":{"Country":1.0,"State":1.0,"County":1.0,"City":1.0,"PostalCode":1.0},"Location":{"LocationId":"NT_nFVsl3e5QUTjdzh8Wf6CbC_l_542267054_R","LocationType":"point","DisplayPosition":{"Latitude":44.8653187,"Longitude":-0.5233363},"MapView":{"TopLeft":{"Latitude":44.8654,"Longitude":-0.52341},"BottomRight":{"Latitude":44.8652,"Longitude":-0.52333}},"Address":{"Label":"33310 Lormont, France","Country":"FRA","State":"Nouvelle-Aquitaine","County":"Gironde","City":"Lormont","PostalCode":"33310","AdditionalData":[{"value":"France","key":"CountryName"},{"value":"Nouvelle-Aquitaine","key":"StateName"},{"value":"Gironde","key":"CountyName"}]},"MapReference":{"ReferenceId":"542267054","Spot":0.63,"SideOfStreet":"right","CountryId":"20000001","StateId":"20000383","CountyId":"20000384","CityId":"20001136"}}},{"Relevance":1.0,"Distance":21.6,"MatchLevel":"street","MatchQuality":{"Country":1.0,"State":1.0,"County":1.0,"City":1.0,"Street":[1.0],"PostalCode":1.0},"Location":{"LocationId":"NT_1dbHpeUpEs4aqe9L2-q7EA_l_1199113755_L","LocationType":"point","DisplayPosition":{"Latitude":44.86535,"Longitude":-0.52283},"MapView":{"TopLeft":{"Latitude":44.86535,"Longitude":-0.52283},"BottomRight":{"Latitude":44.86516,"Longitude":-0.52226}},"Address":{"Label":"Rue des Cavailles, 33310 Lormont, France","Country":"FRA","State":"Nouvelle-Aquitaine","County":"Gironde","City":"Lormont","Street":"Rue des Cavailles","PostalCode":"33310","AdditionalData":[{"value":"France","key":"CountryName"},{"value":"Nouvelle-Aquitaine","key":"StateName"},{"value":"Gironde","key":"CountyName"}]},"MapReference":{"ReferenceId":"1199113755","Spot":1.0,"SideOfStreet":"left","CountryId":"20000001","StateId":"20000383","CountyId":"20000384","CityId":"20001136"}}},{"Relevance":1.0,"Distance":25.4,"MatchLevel":"street","MatchQuality":{"Country":1.0,"State":1.0,"County":1.0,"City":1.0,"PostalCode":1.0},"Location":{"LocationId":"NT_nFVsl3e5QUTjdzh8Wf6CbC_l_542267050_R","LocationType":"point","DisplayPosition":{"Latitude":44.8654,"Longitude":-0.52334},"MapView":{"TopLeft":{"Latitude":44.86556,"Longitude":-0.52364},"BottomRight":{"Latitude":44.8654,"Longitude":-0.52334}},"Address":{"Label":"33310 Lormont, France","Country":"FRA","State":"Nouvelle-Aquitaine","County":"Gironde","City":"Lormont","PostalCode":"33310","AdditionalData":[{"value":"France","key":"CountryName"},{"value":"Nouvelle-Aquitaine","key":"StateName"},{"value":"Gironde","key":"CountyName"}]},"MapReference":{"ReferenceId":"542267050","Spot":0.0,"SideOfStreet":"right","CountryId":"20000001","StateId":"20000383","CountyId":"20000384","CityId":"20001136"}}},{"Relevance":1.0,"Distance":26.4,"MatchLevel":"street","MatchQuality":{"Country":1.0,"State":1.0,"County":1.0,"City":1.0,"Street":[1.0],"PostalCode":1.0},"Location":{"LocationId":"NT_ht1anLdk61inn8oSp6AosD_l_840362111_R","LocationType":"point","DisplayPosition":{"Latitude":44.8650913,"Longitude":-0.5233032},"MapView":{"TopLeft":{"Latitude":44.8652,"Longitude":-0.52341},"BottomRight":{"Latitude":44.86472,"Longitude":-0.52308}},"Address":{"Label":"Pont des Collines, 33310 Lormont, France","Country":"FRA","State":"Nouvelle-Aquitaine","County":"Gironde","City":"Lormont","Street":"Pont des Collines","PostalCode":"33310","AdditionalData":[{"value":"France","key":"CountryName"},{"value":"Nouvelle-Aquitaine","key":"StateName"},{"value":"Gironde","key":"CountyName"}]},"MapReference":{"ReferenceId":"840362111","Spot":0.74,"SideOfStreet":"right","CountryId":"20000001","StateId":"20000383","CountyId":"20000384","CityId":"20001136"}}}]}]}}