{"Response":{"MetaInfo":{"Timestamp":"2020-03-28T11:49:25.449+0000","NextPageInformation":"2"},"View":[{"_type":"SearchResultsViewType","ViewId":0,"Result":[{"Relevance":1.0,"Distance":0.0,"Direction":0.0,"MatchLevel":"city","MatchQuality":{"Country":1.0,"State":1.0,"County":1.0,"City":1.0,"PostalCode":1.0},"Location":{"LocationId":"NT_6rVvuyQwDCLhsVZ9YOYwIB","LocationType":"point","DisplayPosition":{"Latitude":44.8472543,"Longitude":0.4918583},"MapView":{"TopLeft":{"Latitude":44.90008,"Longitude":0.43109},"BottomRight":{"Latitude":44.80377,"Longitude":0.5455}},"Address":{"Label":"Bergerac, Nouvelle-Aquitaine, France","Country":"FRA","State":"Nouvelle-Aquitaine","County":"Dordogne","City":"Bergerac","PostalCode":"24100","AdditionalData":[{"value":"France","key":"CountryName"},{"value":"Nouvelle-Aquitaine","key":"StateName"},{"value":"Dordogne","key":"CountyName"}]},"MapReference":{"ReferenceId":"566497092","SideOfStreet":"neither","CountryId":"20000001","StateId":"20000383","CountyId":"20091910","CityId":"20092015"}}},{"Relevance":1.0,"Distance":8.5,"MatchLevel":"street","MatchQuality":{"Country":1.0,"State":1.0,"County":1.0,"City":1.0,"PostalCode":1.0},"Location":{"LocationId":"NT_Wf9luZFwD93IrEivk0Yr1B_l_737235215_L","LocationType":"point","DisplayPosition":{"Latitude":44.84728,"Longitude":0.49196},"MapView":{"TopLeft":{"Latitude":44.84757,"Longitude":0.49196},"BottomRight":{"Latitude":44.84665,"Longitude":0.49249}},"Address":{"Label":"24100 Bergerac, France","Country":"FRA","State":"Nouvelle-Aquitaine","County":"Dordogne","City":"Bergerac","PostalCode":"24100","AdditionalData":[{"value":"France","key":"CountryName"},{"value":"Nouvelle-Aquitaine","key":"StateName"},{"value":"Dordogne","key":"CountyName"}]},"MapReference":{"ReferenceId":"737235215","Spot":0.6,"SideOfStreet":"left","CountryId":"20000001","StateId":"20000383","CountyId":"20091910","CityId":"20092015"}}},{"Relevance":1.0,"Distance":11.8,"MatchLevel":"houseNumber","MatchQuality":{"Country":1.0,"State":1.0,"County":1.0,"City":1.0,"Street":[1.0],"HouseNumber":1.0,"PostalCode":1.0},"MatchType":"interpolated","Location":{"LocationId":"NT_e.JnRas62221edY6VoTo1B_yMD","LocationType":"point","DisplayPosition":{"Latitude":44.84738,"Longitude":0.4918},"MapView":{"TopLeft":{"Latitude":44.8485042,"Longitude":0.4902144},"BottomRight":{"Latitude":44.8462558,"Longitude":0.4933856}},"Address":{"Label":"23 Rue Jules Michelet, 24100 Bergerac, France","Country":"FRA","State":"Nouvelle-Aquitaine","County":"Dordogne","City":"Bergerac","Street":"Rue Jules Michelet","HouseNumber":"23","PostalCode":"24100","AdditionalData":[{"value":"France","key":"CountryName"},{"value":"Nouvelle-Aquitaine","key":"StateName"},{"value":"Dordogne","key":"CountyName"}]},"MapReference":{"ReferenceId":"590826499","Spot":0.66,"SideOfStreet":"right","CountryId":"20000001","StateId":"20000383","CountyId":"20091910","CityId":"20092015","AddressId":"318438325","RoadLinkId":"51037398"}}},{"Relevance":1.0,"Distance":15.9,"MatchLevel":"houseNumber","MatchQuality":{"Country":1.0,"State":1.0,"County":1.0,"City":1.0,"Street":[1.0],"HouseNumber":1.0,"PostalCode":1.0},"MatchType":"interpolated","Location":{"LocationId":"NT_e.JnRas62221edY6VoTo1B_l_566496280_R_yED","LocationType":"point","DisplayPosition":{"Latitude":44.84747,"Longitude":0.49193},"MapView":{"TopLeft":{"Latitude":44.8485942,"Longitude":0.4903444},"BottomRight":{"Latitude":44.8463459,"Longitude":0.4935156}},"Address":{"Label":"21 Rue Jules Michelet, 24100 Bergerac, France","Country":"FRA","State":"Nouvelle-Aquitaine","County":"Dordogne","City":"Bergerac","Street":"Rue Jules Michelet","HouseNumber":"21","PostalCode":"24100","AdditionalData":[{"value":"France","key":"CountryName"},{"value":"Nouvelle-Aquitaine","key":"StateName"},{"value":"Dordogne","key":"CountyName"}]},"MapReference":{"ReferenceId":"566496280","Spot":0.0,"SideOfStreet":"right","CountryId":"20000001","StateId":"20000383","CountyId":"20091910","CityId":"20092015"}}},{"Relevance":1.0,"Distance":26.5,"MatchLevel":"houseNumber","MatchQuality":{"Country":1.0,"State":1.0,"County":1.0,"City":1.0,"Street":[1.0],"HouseNumber":1.0,"PostalCode":1.0},"MatchType":"interpolated","Location":{"LocationId":"NT_8cwRrL31e3WyjBmhliJ3rD_0MD","LocationType":"point","DisplayPosition":{"Latitude":44.847,"Longitude":0.49175},"MapView":{"TopLeft":{"Latitude":44.8481242,"Longitude":0.4901644},"BottomRight":{"Latitude":44.8458758,"Longitude":0.4933356}},"Address":{"Label":"43 Rue de la Liberté, 24100 Bergerac, France","Country":"FRA","State":"Nouvelle-Aquitaine","County":"Dordogne","City":"Bergerac","Street":"Rue de la Liberté","HouseNumber":"43","PostalCode":"24100","AdditionalData":[{"value":"France","key":"CountryName"},{"value":"Nouvelle-Aquitaine","key":"StateName"},{"value":"Dordogne","key":"CountyName"}]},"MapReference":{"ReferenceId":"737235217","Spot":0.76,"SideOfStreet":"right","CountryId":"20000001","StateId":"20000383","CountyId":"20091910","CityId":"20092015","AddressId":"378986996","RoadLinkId":"136708919"}}},{"Relevance":1.0,"Distance":33.1,"MatchLevel":"houseNumber","MatchQuality":{"Country":1.0,"State":1.0,"County":1.0,"City":1.0,"Street":[1.0],"HouseNumber":1.0,"PostalCode":1.0},"MatchType":"interpolated","Location":{"LocationId":"NT_f8O0qkVOgPYxWG-bI9oIjD_l_709408712_L_xA","LocationType":"point","DisplayPosition":{"Latitude":44.8475808,"Longitude":0.4921907},"MapView":{"TopLeft":{"Latitude":44.848705,"Longitude":0.4906051},"BottomRight":{"Latitude":44.8464567,"Longitude":0.4937762}},"Address":{"Label":"1 Rue Berlioz, 24100 Bergerac, France","Country":"FRA","State":"Nouvelle-Aquitaine","County":"Dordogne","City":"Bergerac","Street":"Rue Berlioz","HouseNumber":"1","PostalCode":"24100","AdditionalData":[{"value":"France","key":"CountryName"},{"value":"Nouvelle-Aquitaine","key":"StateName"},{"value":"Dordogne","key":"CountyName"}]},"MapReference":{"ReferenceId":"709408712","Spot":0.54,"SideOfStreet":"left","CountryId":"20000001","StateId":"20000383","CountyId":"20091910","CityId":"20092015"}}},{"Relevance":1.0,"Distance":36.2,"MatchLevel":"street","MatchQuality":{"Country":1.0,"State":1.0,"County":1.0,"City":1.0,"Street":[1.0],"PostalCode":1.0},"Location":{"LocationId":"NT_e.JnRas62221edY6VoTo1B_l_566496283_L","LocationType":"point","DisplayPosition":{"Latitude":44.84755,"Longitude":0.49205},"MapView":{"TopLeft":{"Latitude":44.84778,"Longitude":0.49194},"BottomRight":{"Latitude":44.84755,"Longitude":0.49205}},"Address":{"Label":"Rue Jules Michelet, 24100 Bergerac, France","Country":"FRA","State":"Nouvelle-Aquitaine","County":"Dordogne","City":"Bergerac","Street":"Rue Jules Michelet","PostalCode":"24100","AdditionalData":[{"value":"France","key":"CountryName"},{"value":"Nouvelle-Aquitaine","key":"StateName"},{"value":"Dordogne","key":"CountyName"}]},"MapReference":{"ReferenceId":"566496283","Spot":0.0,"SideOfStreet":"left","CountryId":"20000001","StateId":"20000383","CountyId":"20091910","CityId":"20092015"}}},{"Relevance":1.0,"Distance":36.2,"MatchLevel":"street","MatchQuality":{"Country":1.0,"State":1.0,"County":1.0,"City":1.0,"Street":[1.0],"PostalCode":1.0},"Location":{"LocationId":"NT_NVCs99erNrk4NnYxeoM1IC_l_566496281_R","LocationType":"point","DisplayPosition":{"Latitude":44.84755,"Longitude":0.49205},"MapView":{"TopLeft":{"Latitude":44.84759,"Longitude":0.49205},"BottomRight":{"Latitude":44.84755,"Longitude":0.49209}},"Address":{"Label":"Boulevard Auguste Comte, 24100 Bergerac, France","Country":"FRA","State":"Nouvelle-Aquitaine","County":"Dordogne","City":"Bergerac","Street":"Boulevard Auguste Comte","PostalCode":"24100","AdditionalData":[{"value":"France","key":"CountryName"},{"value":"Nouvelle-Aquitaine","key":"StateName"},{"value":"Dordogne","key":"CountyName"}]},"MapReference":{"ReferenceId":"566496281","Spot":0.0,"SideOfStreet":"right","CountryId":"20000001","StateId":"20000383","CountyId":"20091910","CityId":"20092015"}}},{"Relevance":1.0,"Distance":38.8,"MatchLevel":"houseNumber","MatchQuality":{"Country":1.0,"State":1.0,"County":1.0,"City":1.0,"Street":[1.0],"HouseNumber":1.0,"PostalCode":1.0},"MatchType":"interpolated","Location":{"LocationId":"NT_e.JnRas62221edY6VoTo1B_xkD","LocationType":"point","DisplayPosition":{"Latitude":44.84709,"Longitude":0.4914},"MapView":{"TopLeft":{"Latitude":44.8482142,"Longitude":0.4898144},"BottomRight":{"Latitude":44.8459658,"Longitude":0.4929856}},"Address":{"Label":"19 Rue Jules Michelet, 24100 Bergerac, France","Country":"FRA","State":"Nouvelle-Aquitaine","County":"Dordogne","City":"Bergerac","Street":"Rue Jules Michelet","HouseNumber":"19","PostalCode":"24100","AdditionalData":[{"value":"France","key":"CountryName"},{"value":"Nouvelle-Aquitaine","key":"StateName"},{"value":"Dordogne","key":"CountyName"}]},"MapReference":{"ReferenceId":"590826498","Spot":0.93,"SideOfStreet":"right","CountryId":"20000001","StateId":"20000383","CountyId":"20091910","CityId":"20092015","AddressId":"318515542","RoadLinkId":"51202562"}}},{"Relevance":1.0,"Distance":55.1,"MatchLevel":"houseNumber","MatchQuality":{"Country":1.0,"State":1.0,"County":1.0,"City":1.0,"Street":[1.0],"HouseNumber":1.0,"PostalCode":1.0},"MatchType":"interpolated","Location":{"LocationId":"NT_ao34YHxWePArTZpa01sdZD_xED","LocationType":"point","DisplayPosition":{"Latitude":44.84769,"Longitude":0.49219},"MapView":{"TopLeft":{"Latitude":44.8488142,"Longitude":0.4906044},"BottomRight":{"Latitude":44.8465658,"Longitude":0.4937756}},"Address":{"Label":"11 Boulevard Auguste Comte, 24100 Bergerac, France","Country":"FRA","State":"Nouvelle-Aquitaine","County":"Dordogne","City":"Bergerac","Street":"Boulevard Auguste Comte","HouseNumber":"11","PostalCode":"24100","AdditionalData":[{"value":"France","key":"CountryName"},{"value":"Nouvelle-Aquitaine","key":"StateName"},{"value":"Dordogne","key":"CountyName"}]},"MapReference":{"ReferenceId":"566496285","Spot":0.45,"SideOfStreet":"right","CountryId":"20000001","StateId":"20000383","CountyId":"20091910","CityId":"20092015","AddressId":"318233812","RoadLinkId":"51015873"}}}]}]}}