{"Response":{"MetaInfo":{"Timestamp":"2020-03-28T11:10:05.587+0000","NextPageInformation":"2"},"View":[{"_type":"SearchResultsViewType","ViewId":0,"Result":[{"Relevance":1.0,"Distance":0.0,"Direction":0.0,"MatchLevel":"city","MatchQuality":{"Country":1.0,"State":1.0,"County":1.0,"City":1.0,"PostalCode":1.0},"Location":{"LocationId":"NT_KhSyrPjl6LDOf1KgQceBlA","LocationType":"point","DisplayPosition":{"Latitude":44.8425134,"Longitude":0.2214481},"MapView":{"TopLeft":{"Latitude":44.84463,"Longitude":0.20957},"BottomRight":{"Latitude":44.83676,"Longitude":0.22418}},"Address":{"Label":"Sainte-Foy-la-Grande, Nouvelle-Aquitaine, France","Country":"FRA","State":"Nouvelle-Aquitaine","County":"Gironde","City":"Sainte-Foy-la-Grande","PostalCode":"33220","AdditionalData":[{"value":"France","key":"CountryName"},{"value":"Nouvelle-Aquitaine","key":"StateName"},{"value":"Gironde","key":"CountyName"}]},"MapReference":{"ReferenceId":"840346357","SideOfStreet":"neither","CountryId":"20000001","StateId":"20000383","CountyId":"20000384","CityId":"20001596"}}},{"Relevance":1.0,"Distance":11.0,"MatchLevel":"street","MatchQuality":{"Country":1.0,"State":1.0,"County":1.0,"City":1.0,"Street":[1.0],"PostalCode":1.0},"Location":{"LocationId":"NT_D7yaGrPUqIwl-65273BN1A_l_1198971604_L","LocationType":"point","DisplayPosition":{"Latitude":44.84261,"Longitude":0.22142},"MapView":{"TopLeft":{"Latitude":44.84262,"Longitude":0.22126},"BottomRight":{"Latitude":44.84261,"Longitude":0.22142}},"Address":{"Label":"Avenue Charrier, 33220 Sainte-Foy-la-Grande, France","Country":"FRA","State":"Nouvelle-Aquitaine","County":"Gironde","City":"Sainte-Foy-la-Grande","Street":"Avenue Charrier","PostalCode":"33220","AdditionalData":[{"value":"France","key":"CountryName"},{"value":"Nouvelle-Aquitaine","key":"StateName"},{"value":"Gironde","key":"CountyName"}]},"MapReference":{"ReferenceId":"1198971604","Spot":0.0,"SideOfStreet":"left","CountryId":"20000001","StateId":"20000383","CountyId":"20000384","CityId":"20001596"}}},{"Relevance":1.0,"Distance":11.2,"MatchLevel":"houseNumber","MatchQuality":{"Country":1.0,"State":1.0,"County":1.0,"City":1.0,"Street":[1.0],"HouseNumber":1.0,"PostalCode":1.0},"MatchType":"interpolated","Location":{"LocationId":"NT_D7yaGrPUqIwl-65273BN1A_yEE","LocationType":"point","DisplayPosition":{"Latitude":44.8426,"Longitude":0.22152},"MapView":{"TopLeft":{"Latitude":44.8437242,"Longitude":0.2199346},"BottomRight":{"Latitude":44.8414758,"Longitude":0.2231054}},"Address":{"Label":"2A Avenue Charrier, 33220 Sainte-Foy-la-Grande, France","Country":"FRA","State":"Nouvelle-Aquitaine","County":"Gironde","City":"Sainte-Foy-la-Grande","Street":"Avenue Charrier","HouseNumber":"2A","PostalCode":"33220","AdditionalData":[{"value":"France","key":"CountryName"},{"value":"Nouvelle-Aquitaine","key":"StateName"},{"value":"Gironde","key":"CountyName"}]},"MapReference":{"ReferenceId":"1198971603","Spot":0.71,"SideOfStreet":"right","CountryId":"20000001","StateId":"20000383","CountyId":"20000384","CityId":"20001596","AddressId":"674025847","RoadLinkId":"510527928"}}},{"Relevance":1.0,"Distance":12.8,"MatchLevel":"houseNumber","MatchQuality":{"Country":1.0,"State":1.0,"County":1.0,"City":1.0,"Street":[1.0],"HouseNumber":1.0,"PostalCode":1.0},"MatchType":"interpolated","Location":{"LocationId":"NT_l9t87V.Tu2IuV.76VnOOLA_l_1198971648_R_zA","LocationType":"point","DisplayPosition":{"Latitude":44.8427442,"Longitude":0.2213216},"MapView":{"TopLeft":{"Latitude":44.8438684,"Longitude":0.2197362},"BottomRight":{"Latitude":44.8416201,"Longitude":0.2229071}},"Address":{"Label":"3 Avenue de la Résistance, 33220 Sainte-Foy-la-Grande, France","Country":"FRA","State":"Nouvelle-Aquitaine","County":"Gironde","City":"Sainte-Foy-la-Grande","Street":"Avenue de la Résistance","HouseNumber":"3","PostalCode":"33220","AdditionalData":[{"value":"France","key":"CountryName"},{"value":"Nouvelle-Aquitaine","key":"StateName"},{"value":"Gironde","key":"CountyName"}]},"MapReference":{"ReferenceId":"1198971648","Spot":0.49,"SideOfStreet":"right","CountryId":"20000001","StateId":"20000383","CountyId":"20000384","CityId":"20001596"}}},{"Relevance":1.0,"Distance":17.8,"MatchLevel":"street","MatchQuality":{"Country":1.0,"State":1.0,"County":1.0,"City":1.0,"PostalCode":1.0},"Location":{"LocationId":"NT_9DGpagg9P2Rzx1mp4HffoB_l_837329266_R","LocationType":"point","DisplayPosition":{"Latitude":44.84259,"Longitude":0.22125},"MapView":{"TopLeft":{"Latitude":44.84262,"Longitude":0.22107},"BottomRight":{"Latitude":44.84253,"Longitude":0.22126}},"Address":{"Label":"33220 Sainte-Foy-la-Grande, France","Country":"FRA","State":"Nouvelle-Aquitaine","County":"Gironde","City":"Sainte-Foy-la-Grande","PostalCode":"33220","AdditionalData":[{"value":"France","key":"CountryName"},{"value":"Nouvelle-Aquitaine","key":"StateName"},{"value":"Gironde","key":"CountyName"}]},"MapReference":{"ReferenceId":"837329266","Spot":0.87,"SideOfStreet":"right","CountryId":"20000001","StateId":"20000383","CountyId":"20000384","CityId":"20001596"}}},{"Relevance":1.0,"Distance":19.0,"MatchLevel":"street","MatchQuality":{"Country":1.0,"State":1.0,"County":1.0,"City":1.0,"PostalCode":1.0},"Location":{"LocationId":"NT_9DGpagg9P2Rzx1mp4HffoB_l_837329264_R","LocationType":"point","DisplayPosition":{"Latitude":44.84262,"Longitude":0.22126},"MapView":{"TopLeft":{"Latitude":44.84269,"Longitude":0.2212},"BottomRight":{"Latitude":44.84262,"Longitude":0.22126}},"Address":{"Label":"33220 Sainte-Foy-la-Grande, France","Country":"FRA","State":"Nouvelle-Aquitaine","County":"Gironde","City":"Sainte-Foy-la-Grande","PostalCode":"33220","AdditionalData":[{"value":"France","key":"CountryName"},{"value":"Nouvelle-Aquitaine","key":"StateName"},{"value":"Gironde","key":"CountyName"}]},"MapReference":{"ReferenceId":"837329264","Spot":0.0,"SideOfStreet":"right","CountryId":"20000001","StateId":"20000383","CountyId":"20000384","CityId":"20001596"}}},{"Relevance":1.0,"Distance":25.1,"MatchLevel":"landmark","MatchQuality":{"Country":1.0,"State":1.0,"County":1.0,"City":1.0,"PostalCode":1.0,"Name":1.0},"Location":{"LocationId":"NT_Opy.J4aqOyBCDIZpEFFnsD_p_NpGWqNqzCN0IXahyA1XZLA","LocationType":"hospital","Name":"CH de Sainte-Foy-la-Grande","DisplayPosition":{"Latitude":44.84249,"Longitude":0.22259},"MapView":{"TopLeft":{"Latitude":44.84259,"Longitude":0.22176},"BottomRight":{"Latitude":44.84046,"Longitude":0.22477}},"Address":{"Label":"33220 Sainte-Foy-la-Grande, France","Country":"FRA","State":"Nouvelle-Aquitaine","County":"Gironde","City":"Sainte-Foy-la-Grande","PostalCode":"33220","AdditionalData":[{"value":"France","key":"CountryName"},{"value":"Nouvelle-Aquitaine","key":"StateName"},{"value":"Gironde","key":"CountyName"}]},"MapReference":{"CountryId":"20000001","StateId":"20000383","CountyId":"20000384","CityId":"20001596","PlaceId":"51343317"}}},{"Relevance":1.0,"Distance":26.4,"MatchLevel":"houseNumber","MatchQuality":{"Country":1.0,"State":1.0,"County":1.0,"City":1.0,"Street":[1.0],"HouseNumber":1.0,"PostalCode":1.0},"MatchType":"interpolated","Location":{"LocationId":"NT_D7yaGrPUqIwl-65273BN1A_0A","LocationType":"point","DisplayPosition":{"Latitude":44.84258,"Longitude":0.22177},"MapView":{"TopLeft":{"Latitude":44.8437042,"Longitude":0.2201846},"BottomRight":{"Latitude":44.8414558,"Longitude":0.2233554}},"Address":{"Label":"4 Avenue Charrier, 33220 Sainte-Foy-la-Grande, France","Country":"FRA","State":"Nouvelle-Aquitaine","County":"Gironde","City":"Sainte-Foy-la-Grande","Street":"Avenue Charrier","HouseNumber":"4","PostalCode":"33220","AdditionalData":[{"value":"France","key":"CountryName"},{"value":"Nouvelle-Aquitaine","key":"StateName"},{"value":"Gironde","key":"CountyName"}]},"MapReference":{"ReferenceId":"1143019267","Spot":0.98,"SideOfStreet":"right","CountryId":"20000001","StateId":"20000383","CountyId":"20000384","CityId":"20001596","AddressId":"318281862","RoadLinkId":"448336635"}}},{"Relevance":1.0,"Distance":26.6,"MatchLevel":"houseNumber","MatchQuality":{"Country":1.0,"State":1.0,"County":1.0,"City":1.0,"Street":[1.0],"HouseNumber":1.0,"PostalCode":1.0},"MatchType":"interpolated","Location":{"LocationId":"NT_l9t87V.Tu2IuV.76VnOOLA_l_1198971649_R_1A","LocationType":"point","DisplayPosition":{"Latitude":44.84283,"Longitude":0.22163},"MapView":{"TopLeft":{"Latitude":44.8439542,"Longitude":0.2200446},"BottomRight":{"Latitude":44.8417059,"Longitude":0.2232155}},"Address":{"Label":"5 Avenue de la Résistance, 33220 Sainte-Foy-la-Grande, France","Country":"FRA","State":"Nouvelle-Aquitaine","County":"Gironde","City":"Sainte-Foy-la-Grande","Street":"Avenue de la Résistance","HouseNumber":"5","PostalCode":"33220","AdditionalData":[{"value":"France","key":"CountryName"},{"value":"Nouvelle-Aquitaine","key":"StateName"},{"value":"Gironde","key":"CountyName"}]},"MapReference":{"ReferenceId":"1198971649","Spot":0.24,"SideOfStreet":"right","CountryId":"20000001","StateId":"20000383","CountyId":"20000384","CityId":"20001596"}}},{"Relevance":1.0,"Distance":27.7,"MatchLevel":"street","MatchQuality":{"Country":1.0,"State":1.0,"County":1.0,"City":1.0,"PostalCode":1.0},"Location":{"LocationId":"NT_9DGpagg9P2Rzx1mp4HffoB_l_837329265_R","LocationType":"point","DisplayPosition":{"Latitude":44.84269,"Longitude":0.2212},"MapView":{"TopLeft":{"Latitude":44.8427,"Longitude":0.22103},"BottomRight":{"Latitude":44.84265,"Longitude":0.2212}},"Address":{"Label":"33220 Sainte-Foy-la-Grande, France","Country":"FRA","State":"Nouvelle-Aquitaine","County":"Gironde","City":"Sainte-Foy-la-Grande","PostalCode":"33220","AdditionalData":[{"value":"France","key":"CountryName"},{"value":"Nouvelle-Aquitaine","key":"StateName"},{"value":"Gironde","key":"CountyName"}]},"MapReference":{"ReferenceId":"837329265","Spot":1.0,"SideOfStreet":"right","CountryId":"20000001","StateId":"20000383","CountyId":"20000384","CityId":"20001596"}}}]}]}}