{"Response":{"MetaInfo":{"Timestamp":"2020-03-28T11:50:43.014+0000","NextPageInformation":"2"},"View":[{"_type":"SearchResultsViewType","ViewId":0,"Result":[{"Relevance":1.0,"Distance":0.0,"Direction":0.0,"MatchLevel":"district","MatchQuality":{"Country":1.0,"State":1.0,"County":1.0,"City":1.0,"District":1.0,"PostalCode":1.0},"Location":{"LocationId":"NT_23vHsdqkh1XIxK9bnHeKGB","LocationType":"point","DisplayPosition":{"Latitude":44.828222,"Longitude":-0.572274},"MapView":{"TopLeft":{"Latitude":44.83703,"Longitude":-0.58927},"BottomRight":{"Latitude":44.81265,"Longitude":-0.5606}},"Address":{"Label":"Saint-Michel Nansouty Saint-Genès, Bordeaux, Nouvelle-Aquitaine, France","Country":"FRA","State":"Nouvelle-Aquitaine","County":"Gironde","City":"Bordeaux","District":"Saint-Michel Nansouty Saint-Genès","PostalCode":"33000","AdditionalData":[{"value":"France","key":"CountryName"},{"value":"Nouvelle-Aquitaine","key":"StateName"},{"value":"Gironde","key":"CountyName"}]},"MapReference":{"ReferenceId":"57906701","SideOfStreet":"neither","CountryId":"20000001","StateId":"20000383","CountyId":"20000384","CityId":"20000575"}}},{"Relevance":1.0,"Distance":3.1,"MatchLevel":"houseNumber","MatchQuality":{"Country":1.0,"State":1.0,"County":1.0,"City":1.0,"District":1.0,"Street":[1.0],"HouseNumber":1.0,"PostalCode":1.0},"MatchType":"interpolated","Location":{"LocationId":"NT_g032T1JWYblDRE6V8UMyFB_2YD","LocationType":"point","DisplayPosition":{"Latitude":44.82825,"Longitude":-0.57238},"MapView":{"TopLeft":{"Latitude":44.8293742,"Longitude":-0.573965},"BottomRight":{"Latitude":44.8271258,"Longitude":-0.570795}},"Address":{"Label":"66 Cours de la Somme, 33800 Bordeaux, France","Country":"FRA","State":"Nouvelle-Aquitaine","County":"Gironde","City":"Bordeaux","District":"Bordeaux-Sud","Street":"Cours de la Somme","HouseNumber":"66","PostalCode":"33800","AdditionalData":[{"value":"France","key":"CountryName"},{"value":"Nouvelle-Aquitaine","key":"StateName"},{"value":"Gironde","key":"CountyName"}]},"MapReference":{"ReferenceId":"57906696","Spot":0.33,"SideOfStreet":"right","CountryId":"20000001","StateId":"20000383","CountyId":"20000384","CityId":"20000575","AddressId":"318461991","RoadLinkId":"50292485"}}},{"Relevance":1.0,"Distance":12.0,"MatchLevel":"houseNumber","MatchQuality":{"Country":1.0,"State":1.0,"County":1.0,"City":1.0,"District":1.0,"Street":[1.0],"HouseNumber":1.0,"PostalCode":1.0},"MatchType":"interpolated","Location":{"LocationId":"NT_avkhUnLaof0rTTv6vSympD_yA","LocationType":"point","DisplayPosition":{"Latitude":44.82815,"Longitude":-0.57215},"MapView":{"TopLeft":{"Latitude":44.8292742,"Longitude":-0.573735},"BottomRight":{"Latitude":44.8270258,"Longitude":-0.570565}},"Address":{"Label":"2 Rue Giner de los Rios, 33800 Bordeaux, France","Country":"FRA","State":"Nouvelle-Aquitaine","County":"Gironde","City":"Bordeaux","District":"Bordeaux-Sud","Street":"Rue Giner de los Rios","HouseNumber":"2","PostalCode":"33800","AdditionalData":[{"value":"France","key":"CountryName"},{"value":"Nouvelle-Aquitaine","key":"StateName"},{"value":"Gironde","key":"CountyName"}]},"MapReference":{"ReferenceId":"57906710","Spot":0.68,"SideOfStreet":"right","CountryId":"20000001","StateId":"20000383","CountyId":"20000384","CityId":"20000575","AddressId":"318455267","RoadLinkId":"50440866"}}},{"Relevance":1.0,"Distance":17.5,"MatchLevel":"houseNumber","MatchQuality":{"Country":1.0,"State":1.0,"County":1.0,"City":1.0,"District":1.0,"Street":[1.0],"HouseNumber":1.0,"PostalCode":1.0},"MatchType":"interpolated","Location":{"LocationId":"NT_g032T1JWYblDRE6V8UMyFB_3AD","LocationType":"point","DisplayPosition":{"Latitude":44.82807,"Longitude":-0.5724},"MapView":{"TopLeft":{"Latitude":44.8291942,"Longitude":-0.573985},"BottomRight":{"Latitude":44.8269458,"Longitude":-0.570815}},"Address":{"Label":"70 Cours de la Somme, 33800 Bordeaux, France","Country":"FRA","State":"Nouvelle-Aquitaine","County":"Gironde","City":"Bordeaux","District":"Bordeaux-Sud","Street":"Cours de la Somme","HouseNumber":"70","PostalCode":"33800","AdditionalData":[{"value":"France","key":"CountryName"},{"value":"Nouvelle-Aquitaine","key":"StateName"},{"value":"Gironde","key":"CountyName"}]},"MapReference":{"ReferenceId":"57906718","Spot":0.4,"SideOfStreet":"right","CountryId":"20000001","StateId":"20000383","CountyId":"20000384","CityId":"20000575","AddressId":"590114082","RoadLinkId":"50313771"}}},{"Relevance":1.0,"Distance":23.7,"MatchLevel":"houseNumber","MatchQuality":{"Country":1.0,"State":1.0,"County":1.0,"City":1.0,"District":1.0,"Street":[1.0],"HouseNumber":1.0,"PostalCode":1.0},"MatchType":"interpolated","Location":{"LocationId":"NT_g032T1JWYblDRE6V8UMyFB_3ID","LocationType":"point","DisplayPosition":{"Latitude":44.82801,"Longitude":-0.5724},"MapView":{"TopLeft":{"Latitude":44.8291342,"Longitude":-0.573985},"BottomRight":{"Latitude":44.8268858,"Longitude":-0.570815}},"Address":{"Label":"72 Cours de la Somme, 33800 Bordeaux, France","Country":"FRA","State":"Nouvelle-Aquitaine","County":"Gironde","City":"Bordeaux","District":"Bordeaux-Sud","Street":"Cours de la Somme","HouseNumber":"72","PostalCode":"33800","AdditionalData":[{"value":"France","key":"CountryName"},{"value":"Nouvelle-Aquitaine","key":"StateName"},{"value":"Gironde","key":"CountyName"}]},"MapReference":{"ReferenceId":"57906788","Spot":1.0,"SideOfStreet":"right","CountryId":"20000001","StateId":"20000383","CountyId":"20000384","CityId":"20000575","AddressId":"318525279","RoadLinkId":"50330282"}}},{"Relevance":1.0,"Distance":28.7,"MatchLevel":"houseNumber","MatchQuality":{"Country":1.0,"State":1.0,"County":1.0,"City":1.0,"District":1.0,"Street":[1.0],"HouseNumber":1.0,"PostalCode":1.0},"MatchType":"interpolated","Location":{"LocationId":"NT_VlnogvHoHRXD0eaXm5JXBC_ycD","LocationType":"point","DisplayPosition":{"Latitude":44.82843,"Longitude":-0.57255},"MapView":{"TopLeft":{"Latitude":44.8295542,"Longitude":-0.5741351},"BottomRight":{"Latitude":44.8273058,"Longitude":-0.5709649}},"Address":{"Label":"27 Rue Mercière, 33800 Bordeaux, France","Country":"FRA","State":"Nouvelle-Aquitaine","County":"Gironde","City":"Bordeaux","District":"Saint-Michel Nansouty Saint-Genès","Street":"Rue Mercière","HouseNumber":"27","PostalCode":"33800","AdditionalData":[{"value":"France","key":"CountryName"},{"value":"Nouvelle-Aquitaine","key":"StateName"},{"value":"Gironde","key":"CountyName"}]},"MapReference":{"ReferenceId":"57906657","Spot":0.11,"SideOfStreet":"left","CountryId":"20000001","StateId":"20000383","CountyId":"20000384","CityId":"20000575","AddressId":"756881593","RoadLinkId":"50509702"}}},{"Relevance":1.0,"Distance":28.7,"MatchLevel":"houseNumber","MatchQuality":{"Country":1.0,"State":1.0,"County":1.0,"City":1.0,"District":1.0,"Street":[1.0],"HouseNumber":1.0,"PostalCode":1.0},"MatchType":"interpolated","Location":{"LocationId":"NT_g032T1JWYblDRE6V8UMyFB_1gD","LocationType":"point","DisplayPosition":{"Latitude":44.82849,"Longitude":-0.57236},"MapView":{"TopLeft":{"Latitude":44.8296142,"Longitude":-0.5739451},"BottomRight":{"Latitude":44.8273658,"Longitude":-0.5707749}},"Address":{"Label":"58 Cours de la Somme, 33800 Bordeaux, France","Country":"FRA","State":"Nouvelle-Aquitaine","County":"Gironde","City":"Bordeaux","District":"Bordeaux-Sud","Street":"Cours de la Somme","HouseNumber":"58","PostalCode":"33800","AdditionalData":[{"value":"France","key":"CountryName"},{"value":"Nouvelle-Aquitaine","key":"StateName"},{"value":"Gironde","key":"CountyName"}]},"MapReference":{"ReferenceId":"57906656","Spot":0.25,"SideOfStreet":"right","CountryId":"20000001","StateId":"20000383","CountyId":"20000384","CityId":"20000575","AddressId":"318268765","RoadLinkId":"50544192"}}},{"Relevance":1.0,"Distance":37.9,"MatchLevel":"houseNumber","MatchQuality":{"Country":1.0,"State":1.0,"County":1.0,"City":1.0,"District":1.0,"Street":[1.0],"HouseNumber":1.0,"PostalCode":1.0},"MatchType":"interpolated","Location":{"LocationId":"NT_F1HK0h6ILH2KiQWNFWXHXC_xQD","LocationType":"point","DisplayPosition":{"Latitude":44.82802,"Longitude":-0.57268},"MapView":{"TopLeft":{"Latitude":44.8291442,"Longitude":-0.574265},"BottomRight":{"Latitude":44.8268958,"Longitude":-0.571095}},"Address":{"Label":"14 Rue Dublan, 33800 Bordeaux, France","Country":"FRA","State":"Nouvelle-Aquitaine","County":"Gironde","City":"Bordeaux","District":"Saint-Michel Nansouty Saint-Genès","Street":"Rue Dublan","HouseNumber":"14","PostalCode":"33800","AdditionalData":[{"value":"France","key":"CountryName"},{"value":"Nouvelle-Aquitaine","key":"StateName"},{"value":"Gironde","key":"CountyName"}]},"MapReference":{"ReferenceId":"57906719","Spot":0.18,"SideOfStreet":"right","CountryId":"20000001","StateId":"20000383","CountyId":"20000384","CityId":"20000575","AddressId":"417232936","RoadLinkId":"50886229"}}},{"Relevance":1.0,"Distance":45.3,"MatchLevel":"houseNumber","MatchQuality":{"Country":1.0,"State":1.0,"County":1.0,"City":1.0,"District":1.0,"Street":[1.0],"HouseNumber":1.0,"PostalCode":1.0},"MatchType":"interpolated","Location":{"LocationId":"NT_HcBbsJwgHdmrPvHNn6o8RC_xA","LocationType":"point","DisplayPosition":{"Latitude":44.82866,"Longitude":-0.57215},"MapView":{"TopLeft":{"Latitude":44.8297842,"Longitude":-0.5737351},"BottomRight":{"Latitude":44.8275358,"Longitude":-0.5705649}},"Address":{"Label":"1 Rue Monadey, 33800 Bordeaux, France","Country":"FRA","State":"Nouvelle-Aquitaine","County":"Gironde","City":"Bordeaux","District":"Bordeaux-Sud","Street":"Rue Monadey","HouseNumber":"1","PostalCode":"33800","AdditionalData":[{"value":"France","key":"CountryName"},{"value":"Nouvelle-Aquitaine","key":"StateName"},{"value":"Gironde","key":"CountyName"}]},"MapReference":{"ReferenceId":"57906639","Spot":0.91,"SideOfStreet":"left","CountryId":"20000001","StateId":"20000383","CountyId":"20000384","CityId":"20000575","AddressId":"417159268","RoadLinkId":"50513225"}}},{"Relevance":1.0,"Distance":57.7,"MatchLevel":"houseNumber","MatchQuality":{"Country":1.0,"State":1.0,"County":1.0,"City":1.0,"District":1.0,"Street":[1.0],"HouseNumber":1.0,"PostalCode":1.0},"MatchType":"interpolated","Location":{"LocationId":"NT_g032T1JWYblDRE6V8UMyFB_1AD","LocationType":"point","DisplayPosition":{"Latitude":44.82874,"Longitude":-0.57235},"MapView":{"TopLeft":{"Latitude":44.8298642,"Longitude":-0.5739351},"BottomRight":{"Latitude":44.8276158,"Longitude":-0.5707649}},"Address":{"Label":"50 Cours de la Somme, 33800 Bordeaux, France","Country":"FRA","State":"Nouvelle-Aquitaine","County":"Gironde","City":"Bordeaux","District":"Bordeaux-Sud","Street":"Cours de la Somme","HouseNumber":"50","PostalCode":"33800","AdditionalData":[{"value":"France","key":"CountryName"},{"value":"Nouvelle-Aquitaine","key":"StateName"},{"value":"Gironde","key":"CountyName"}]},"MapReference":{"ReferenceId":"1268389444","Spot":0.37,"SideOfStreet":"right","CountryId":"20000001","StateId":"20000383","CountyId":"20000384","CityId":"20000575","AddressId":"318221611","RoadLinkId":"595437738"}}}]}]}}