{"Response":{"MetaInfo":{"Timestamp":"2020-03-28T11:14:49.421+0000","NextPageInformation":"2"},"View":[{"_type":"SearchResultsViewType","ViewId":0,"Result":[{"Relevance":1.0,"Distance":0.0,"Direction":0.0,"MatchLevel":"city","MatchQuality":{"Country":1.0,"State":1.0,"County":1.0,"City":1.0,"PostalCode":1.0},"Location":{"LocationId":"NT_6rVvuyQwDCLhsVZ9YOYwIB","LocationType":"point","DisplayPosition":{"Latitude":44.8544447,"Longitude":0.5009642},"MapView":{"TopLeft":{"Latitude":44.90008,"Longitude":0.43109},"BottomRight":{"Latitude":44.80377,"Longitude":0.5455}},"Address":{"Label":"Bergerac, Nouvelle-Aquitaine, France","Country":"FRA","State":"Nouvelle-Aquitaine","County":"Dordogne","City":"Bergerac","PostalCode":"24100","AdditionalData":[{"value":"France","key":"CountryName"},{"value":"Nouvelle-Aquitaine","key":"StateName"},{"value":"Dordogne","key":"CountyName"}]},"MapReference":{"ReferenceId":"566497092","SideOfStreet":"neither","CountryId":"20000001","StateId":"20000383","CountyId":"20091910","CityId":"20092015"}}},{"Relevance":1.0,"Distance":16.8,"MatchLevel":"houseNumber","MatchQuality":{"Country":1.0,"State":1.0,"County":1.0,"City":1.0,"Street":[1.0],"HouseNumber":1.0,"PostalCode":1.0},"MatchType":"interpolated","Location":{"LocationId":"NT_.UBy8PT7dFSNej82JA.UPA_2ED","LocationType":"point","DisplayPosition":{"Latitude":44.85456,"Longitude":0.5008},"MapView":{"TopLeft":{"Latitude":44.8556842,"Longitude":0.4992142},"BottomRight":{"Latitude":44.8534358,"Longitude":0.5023858}},"Address":{"Label":"61 Rue Rodolphe Bruzac, 24100 Bergerac, France","Country":"FRA","State":"Nouvelle-Aquitaine","County":"Dordogne","City":"Bergerac","Street":"Rue Rodolphe Bruzac","HouseNumber":"61","PostalCode":"24100","AdditionalData":[{"value":"France","key":"CountryName"},{"value":"Nouvelle-Aquitaine","key":"StateName"},{"value":"Dordogne","key":"CountyName"}]},"MapReference":{"ReferenceId":"956481458","Spot":0.72,"SideOfStreet":"left","CountryId":"20000001","StateId":"20000383","CountyId":"20091910","CityId":"20092015","AddressId":"318242497","RoadLinkId":"299425988"}}},{"Relevance":1.0,"Distance":36.1,"MatchLevel":"houseNumber","MatchQuality":{"Country":1.0,"State":1.0,"County":1.0,"City":1.0,"Street":[1.0],"HouseNumber":1.0,"PostalCode":1.0},"MatchType":"interpolated","Location":{"LocationId":"NT_.UBy8PT7dFSNej82JA.UPA_1kD","LocationType":"point","DisplayPosition":{"Latitude":44.85461,"Longitude":0.50057},"MapView":{"TopLeft":{"Latitude":44.8557342,"Longitude":0.4989842},"BottomRight":{"Latitude":44.8534858,"Longitude":0.5021558}},"Address":{"Label":"59 Rue Rodolphe Bruzac, 24100 Bergerac, France","Country":"FRA","State":"Nouvelle-Aquitaine","County":"Dordogne","City":"Bergerac","Street":"Rue Rodolphe Bruzac","HouseNumber":"59","PostalCode":"24100","AdditionalData":[{"value":"France","key":"CountryName"},{"value":"Nouvelle-Aquitaine","key":"StateName"},{"value":"Dordogne","key":"CountyName"}]},"MapReference":{"ReferenceId":"956481459","Spot":0.66,"SideOfStreet":"left","CountryId":"20000001","StateId":"20000383","CountyId":"20091910","CityId":"20092015","AddressId":"318242500","RoadLinkId":"299425989"}}},{"Relevance":1.0,"Distance":38.7,"MatchLevel":"street","MatchQuality":{"Country":1.0,"State":1.0,"County":1.0,"City":1.0,"Street":[1.0],"PostalCode":1.0},"Location":{"LocationId":"NT_.UBy8PT7dFSNej82JA.UPA_l_566496633_L","LocationType":"point","DisplayPosition":{"Latitude":44.85462,"Longitude":0.50054},"MapView":{"TopLeft":{"Latitude":44.85465,"Longitude":0.50042},"BottomRight":{"Latitude":44.85462,"Longitude":0.50054}},"Address":{"Label":"Rue Rodolphe Bruzac, 24100 Bergerac, France","Country":"FRA","State":"Nouvelle-Aquitaine","County":"Dordogne","City":"Bergerac","Street":"Rue Rodolphe Bruzac","PostalCode":"24100","AdditionalData":[{"value":"France","key":"CountryName"},{"value":"Nouvelle-Aquitaine","key":"StateName"},{"value":"Dordogne","key":"CountyName"}]},"MapReference":{"ReferenceId":"566496633","Spot":0.0,"SideOfStreet":"left","CountryId":"20000001","StateId":"20000383","CountyId":"20091910","CityId":"20092015"}}},{"Relevance":1.0,"Distance":47.6,"MatchLevel":"houseNumber","MatchQuality":{"Country":1.0,"State":1.0,"County":1.0,"City":1.0,"Street":[1.0],"HouseNumber":1.0,"PostalCode":1.0},"MatchType":"interpolated","Location":{"LocationId":"NT_P0lMJ.nyLuqNMH3WcnJxAB_xcD","LocationType":"point","DisplayPosition":{"Latitude":44.8548,"Longitude":0.50132},"MapView":{"TopLeft":{"Latitude":44.8559242,"Longitude":0.4997342},"BottomRight":{"Latitude":44.8536758,"Longitude":0.5029058}},"Address":{"Label":"17 Rue de la Pommeraie, 24100 Bergerac, France","Country":"FRA","State":"Nouvelle-Aquitaine","County":"Dordogne","City":"Bergerac","Street":"Rue de la Pommeraie","HouseNumber":"17","PostalCode":"24100","AdditionalData":[{"value":"France","key":"CountryName"},{"value":"Nouvelle-Aquitaine","key":"StateName"},{"value":"Dordogne","key":"CountyName"}]},"MapReference":{"ReferenceId":"566494978","Spot":0.32,"SideOfStreet":"left","CountryId":"20000001","StateId":"20000383","CountyId":"20091910","CityId":"20092015","AddressId":"318195003","RoadLinkId":"50825462"}}},{"Relevance":1.0,"Distance":54.7,"MatchLevel":"houseNumber","MatchQuality":{"Country":1.0,"State":1.0,"County":1.0,"City":1.0,"Street":[1.0],"HouseNumber":1.0,"PostalCode":1.0},"MatchType":"interpolated","Location":{"LocationId":"NT_P0lMJ.nyLuqNMH3WcnJxAB_zA","LocationType":"point","DisplayPosition":{"Latitude":44.85488,"Longitude":0.50061},"MapView":{"TopLeft":{"Latitude":44.8560042,"Longitude":0.4990242},"BottomRight":{"Latitude":44.8537558,"Longitude":0.5021958}},"Address":{"Label":"3 Rue de la Pommeraie, 24100 Bergerac, France","Country":"FRA","State":"Nouvelle-Aquitaine","County":"Dordogne","City":"Bergerac","Street":"Rue de la Pommeraie","HouseNumber":"3","PostalCode":"24100","AdditionalData":[{"value":"France","key":"CountryName"},{"value":"Nouvelle-Aquitaine","key":"StateName"},{"value":"Dordogne","key":"CountyName"}]},"MapReference":{"ReferenceId":"566494979","Spot":0.17,"SideOfStreet":"right","CountryId":"20000001","StateId":"20000383","CountyId":"20091910","CityId":"20092015","AddressId":"318380878","RoadLinkId":"50891471"}}},{"Relevance":1.0,"Distance":57.8,"MatchLevel":"houseNumber","MatchQuality":{"Country":1.0,"State":1.0,"County":1.0,"City":1.0,"Street":[1.0],"HouseNumber":1.0,"PostalCode":1.0},"MatchType":"interpolated","Location":{"LocationId":"NT_.UBy8PT7dFSNej82JA.UPA_yYD","LocationType":"point","DisplayPosition":{"Latitude":44.85437,"Longitude":0.50169},"MapView":{"TopLeft":{"Latitude":44.8554942,"Longitude":0.5001042},"BottomRight":{"Latitude":44.8532458,"Longitude":0.5032758}},"Address":{"Label":"26 Rue Rodolphe Bruzac, 24100 Bergerac, France","Country":"FRA","State":"Nouvelle-Aquitaine","County":"Dordogne","City":"Bergerac","Street":"Rue Rodolphe Bruzac","HouseNumber":"26","PostalCode":"24100","AdditionalData":[{"value":"France","key":"CountryName"},{"value":"Nouvelle-Aquitaine","key":"StateName"},{"value":"Dordogne","key":"CountyName"}]},"MapReference":{"ReferenceId":"566495073","Spot":0.47,"SideOfStreet":"right","CountryId":"20000001","StateId":"20000383","CountyId":"20091910","CityId":"20092015","AddressId":"318302290","RoadLinkId":"51274751"}}},{"Relevance":1.0,"Distance":67.3,"MatchLevel":"houseNumber","MatchQuality":{"Country":1.0,"State":1.0,"County":1.0,"City":1.0,"Street":[1.0],"HouseNumber":1.0,"PostalCode":1.0},"MatchType":"interpolated","Location":{"LocationId":"NT_.UBy8PT7dFSNej82JA.UPA_1UTU","LocationType":"point","DisplayPosition":{"Latitude":44.8547,"Longitude":0.50019},"MapView":{"TopLeft":{"Latitude":44.8558242,"Longitude":0.4986042},"BottomRight":{"Latitude":44.8535758,"Longitude":0.5017758}},"Address":{"Label":"55Q Rue Rodolphe Bruzac, 24100 Bergerac, France","Country":"FRA","State":"Nouvelle-Aquitaine","County":"Dordogne","City":"Bergerac","Street":"Rue Rodolphe Bruzac","HouseNumber":"55Q","PostalCode":"24100","AdditionalData":[{"value":"France","key":"CountryName"},{"value":"Nouvelle-Aquitaine","key":"StateName"},{"value":"Dordogne","key":"CountyName"}]},"MapReference":{"ReferenceId":"566496634","Spot":0.34,"SideOfStreet":"left","CountryId":"20000001","StateId":"20000383","CountyId":"20091910","CityId":"20092015","AddressId":"569892358","RoadLinkId":"51284254"}}},{"Relevance":1.0,"Distance":87.4,"MatchLevel":"houseNumber","MatchQuality":{"Country":1.0,"State":1.0,"County":1.0,"City":1.0,"Street":[1.0],"HouseNumber":1.0,"PostalCode":1.0},"MatchType":"interpolated","Location":{"LocationId":"NT_.UBy8PT7dFSNej82JA.UPA_1cD","LocationType":"point","DisplayPosition":{"Latitude":44.85399,"Longitude":0.50006},"MapView":{"TopLeft":{"Latitude":44.8551142,"Longitude":0.4984742},"BottomRight":{"Latitude":44.8528658,"Longitude":0.5016458}},"Address":{"Label":"57 Rue Rodolphe Bruzac, 24100 Bergerac, France","Country":"FRA","State":"Nouvelle-Aquitaine","County":"Dordogne","City":"Bergerac","Street":"Rue Rodolphe Bruzac","HouseNumber":"57","PostalCode":"24100","AdditionalData":[{"value":"France","key":"CountryName"},{"value":"Nouvelle-Aquitaine","key":"StateName"},{"value":"Dordogne","key":"CountyName"}]},"MapReference":{"ReferenceId":"566496635","Spot":0.0,"SideOfStreet":"right","CountryId":"20000001","StateId":"20000383","CountyId":"20091910","CityId":"20092015","AddressId":"370722507","RoadLinkId":"50541228"}}},{"Relevance":1.0,"Distance":88.8,"MatchLevel":"houseNumber","MatchQuality":{"Country":1.0,"State":1.0,"County":1.0,"City":1.0,"Street":[1.0],"HouseNumber":1.0,"PostalCode":1.0},"MatchType":"interpolated","Location":{"LocationId":"NT_qPDzXSIFE1vCKakwoHXr7D_yA","LocationType":"point","DisplayPosition":{"Latitude":44.85446,"Longitude":0.50214},"MapView":{"TopLeft":{"Latitude":44.8555842,"Longitude":0.5005542},"BottomRight":{"Latitude":44.8533358,"Longitude":0.5037258}},"Address":{"Label":"2 Rue Maillebois, 24100 Bergerac, France","Country":"FRA","State":"Nouvelle-Aquitaine","County":"Dordogne","City":"Bergerac","Street":"Rue Maillebois","HouseNumber":"2","PostalCode":"24100","AdditionalData":[{"value":"France","key":"CountryName"},{"value":"Nouvelle-Aquitaine","key":"StateName"},{"value":"Dordogne","key":"CountyName"}]},"MapReference":{"ReferenceId":"566495057","Spot":0.13,"SideOfStreet":"left","CountryId":"20000001","StateId":"20000383","CountyId":"20091910","CityId":"20092015","AddressId":"569853038","RoadLinkId":"51031566"}}}]}]}}