{"Response":{"MetaInfo":{"Timestamp":"2020-03-28T11:23:40.721+0000","NextPageInformation":"2"},"View":[{"_type":"SearchResultsViewType","ViewId":0,"Result":[{"Relevance":1.0,"Distance":0.0,"Direction":0.0,"MatchLevel":"district","MatchQuality":{"Country":1.0,"State":1.0,"County":1.0,"City":1.0,"District":1.0,"PostalCode":1.0},"Location":{"LocationId":"NT_Yw607OiOrddENu3I9I-AdA","LocationType":"point","DisplayPosition":{"Latitude":44.8922017,"Longitude":11.6110905},"MapView":{"TopLeft":{"Latitude":44.92133,"Longitude":11.59574},"BottomRight":{"Latitude":44.8897,"Longitude":11.62203}},"Address":{"Label":"Santa Maria Maddalena, Occhiobello, Veneto, Italia","Country":"ITA","State":"Veneto","County":"RO","City":"Occhiobello","District":"Santa Maria Maddalena","PostalCode":"45030","AdditionalData":[{"value":"Italia","key":"CountryName"},{"value":"Veneto","key":"StateName"},{"value":"Rovigo","key":"CountyName"}]},"MapReference":{"ReferenceId":"1160780301","SideOfStreet":"neither","CountryId":"20110484","StateId":"20120537","CountyId":"20122657","CityId":"20122769","DistrictId":"20122772"}}},{"Relevance":1.0,"Distance":6.5,"MatchLevel":"houseNumber","MatchQuality":{"Country":1.0,"State":1.0,"County":1.0,"City":1.0,"District":1.0,"Street":[1.0],"HouseNumber":1.0,"PostalCode":1.0},"MatchType":"interpolated","Location":{"LocationId":"NT_WSV4PM4kb4ivZzI8CfR3bD_xA","LocationType":"point","DisplayPosition":{"Latitude":44.89232,"Longitude":11.61099},"MapView":{"TopLeft":{"Latitude":44.8934442,"Longitude":11.6094032},"BottomRight":{"Latitude":44.8911958,"Longitude":11.6125768}},"Address":{"Label":"Via Ospedale, 1, 45030 Occhiobello RO, Italia","Country":"ITA","State":"Veneto","County":"RO","City":"Occhiobello","District":"Santa Maria Maddalena","Street":"Via Ospedale","HouseNumber":"1","PostalCode":"45030","AdditionalData":[{"value":"Italia","key":"CountryName"},{"value":"Veneto","key":"StateName"},{"value":"Rovigo","key":"CountyName"}]},"MapReference":{"ReferenceId":"577148830","Spot":0.42,"SideOfStreet":"right","CountryId":"20110484","StateId":"20120537","CountyId":"20122657","CityId":"20122769","DistrictId":"20122772","AddressId":"388045685","RoadLinkId":"58625499"}}},{"Relevance":1.0,"Distance":35.4,"MatchLevel":"houseNumber","MatchQuality":{"Country":1.0,"State":1.0,"County":1.0,"City":1.0,"District":1.0,"Street":[1.0],"HouseNumber":1.0,"PostalCode":1.0},"MatchType":"interpolated","Location":{"LocationId":"NT_KUXHVMMtTvHwhmFw-cxUxA_xA","LocationType":"point","DisplayPosition":{"Latitude":44.89189,"Longitude":11.611},"MapView":{"TopLeft":{"Latitude":44.8930142,"Longitude":11.6094132},"BottomRight":{"Latitude":44.8907658,"Longitude":11.6125868}},"Address":{"Label":"Via Gorizia, 1, 45030 Occhiobello RO, Italia","Country":"ITA","State":"Veneto","County":"RO","City":"Occhiobello","District":"Santa Maria Maddalena","Street":"Via Gorizia","HouseNumber":"1","PostalCode":"45030","AdditionalData":[{"value":"Italia","key":"CountryName"},{"value":"Veneto","key":"StateName"},{"value":"Rovigo","key":"CountyName"}]},"MapReference":{"ReferenceId":"577148831","Spot":0.36,"SideOfStreet":"left","CountryId":"20110484","StateId":"20120537","CountyId":"20122657","CityId":"20122769","DistrictId":"20122772","AddressId":"387744099","RoadLinkId":"59440030"}}},{"Relevance":1.0,"Distance":41.0,"MatchLevel":"houseNumber","MatchQuality":{"Country":1.0,"State":1.0,"County":1.0,"City":1.0,"District":1.0,"Street":[1.0],"HouseNumber":1.0,"PostalCode":1.0},"MatchType":"interpolated","Location":{"LocationId":"NT_KUXHVMMtTvHwhmFw-cxUxA_xED","LocationType":"point","DisplayPosition":{"Latitude":44.8922,"Longitude":11.61057},"MapView":{"TopLeft":{"Latitude":44.8933242,"Longitude":11.6089832},"BottomRight":{"Latitude":44.8910758,"Longitude":11.6121568}},"Address":{"Label":"Via Gorizia, 11, 45030 Occhiobello RO, Italia","Country":"ITA","State":"Veneto","County":"RO","City":"Occhiobello","District":"Santa Maria Maddalena","Street":"Via Gorizia","HouseNumber":"11","PostalCode":"45030","AdditionalData":[{"value":"Italia","key":"CountryName"},{"value":"Veneto","key":"StateName"},{"value":"Rovigo","key":"CountyName"}]},"MapReference":{"ReferenceId":"577148835","Spot":0.26,"SideOfStreet":"left","CountryId":"20110484","StateId":"20120537","CountyId":"20122657","CityId":"20122769","DistrictId":"20122772","AddressId":"583569658","RoadLinkId":"58827733"}}},{"Relevance":1.0,"Distance":48.5,"MatchLevel":"street","MatchQuality":{"Country":1.0,"State":1.0,"County":1.0,"City":1.0,"District":1.0,"Street":[1.0],"PostalCode":1.0},"Location":{"LocationId":"NT_KUXHVMMtTvHwhmFw-cxUxA_l_577149003_R","LocationType":"point","DisplayPosition":{"Latitude":44.89177,"Longitude":11.61118},"MapView":{"TopLeft":{"Latitude":44.89177,"Longitude":11.61118},"BottomRight":{"Latitude":44.89153,"Longitude":11.61149}},"Address":{"Label":"Via Gorizia, 45030 Occhiobello RO, Italia","Country":"ITA","State":"Veneto","County":"RO","City":"Occhiobello","District":"Santa Maria Maddalena","Street":"Via Gorizia","PostalCode":"45030","AdditionalData":[{"value":"Italia","key":"CountryName"},{"value":"Veneto","key":"StateName"},{"value":"Rovigo","key":"CountyName"}]},"MapReference":{"ReferenceId":"577149003","Spot":1.0,"SideOfStreet":"right","CountryId":"20110484","StateId":"20120537","CountyId":"20122657","CityId":"20122769","DistrictId":"20122772"}}},{"Relevance":1.0,"Distance":48.5,"MatchLevel":"street","MatchQuality":{"Country":1.0,"State":1.0,"County":1.0,"City":1.0,"District":1.0,"PostalCode":1.0},"Location":{"LocationId":"NT_.pWh.czyvIhlkEzWYnQckD_l_577149001_L","LocationType":"point","DisplayPosition":{"Latitude":44.89177,"Longitude":11.61118},"MapView":{"TopLeft":{"Latitude":44.89177,"Longitude":11.61089},"BottomRight":{"Latitude":44.89152,"Longitude":11.61118}},"Address":{"Label":"45030 Occhiobello RO, Italia","Country":"ITA","State":"Veneto","County":"RO","City":"Occhiobello","District":"Santa Maria Maddalena","PostalCode":"45030","AdditionalData":[{"value":"Italia","key":"CountryName"},{"value":"Veneto","key":"StateName"},{"value":"Rovigo","key":"CountyName"}]},"MapReference":{"ReferenceId":"577149001","Spot":1.0,"SideOfStreet":"left","CountryId":"20110484","StateId":"20120537","CountyId":"20122657","CityId":"20122769","DistrictId":"20122772"}}},{"Relevance":1.0,"Distance":50.3,"MatchLevel":"houseNumber","MatchQuality":{"Country":1.0,"State":1.0,"County":1.0,"City":1.0,"District":1.0,"Street":[1.0],"HouseNumber":1.0,"PostalCode":1.0},"MatchType":"interpolated","Location":{"LocationId":"NT_mE6ZY7Nj0gtv7fxdP-i7LC_ygTO","LocationType":"point","DisplayPosition":{"Latitude":44.89258,"Longitude":11.61144},"MapView":{"TopLeft":{"Latitude":44.8937042,"Longitude":11.6098532},"BottomRight":{"Latitude":44.8914558,"Longitude":11.6130268}},"Address":{"Label":"Via Eridania, 289, 45030 Occhiobello RO, Italia","Country":"ITA","State":"Veneto","County":"RO","City":"Occhiobello","District":"Santa Maria Maddalena","Street":"Via Eridania","HouseNumber":"289","PostalCode":"45030","AdditionalData":[{"value":"Italia","key":"CountryName"},{"value":"Veneto","key":"StateName"},{"value":"Rovigo","key":"CountyName"}]},"MapReference":{"ReferenceId":"841147714","Spot":0.62,"SideOfStreet":"right","CountryId":"20110484","StateId":"20120537","CountyId":"20122657","CityId":"20122769","DistrictId":"20122772","AddressId":"388033154","RoadLinkId":"223062883"}}},{"Relevance":1.0,"Distance":52.1,"MatchLevel":"houseNumber","MatchQuality":{"Country":1.0,"State":1.0,"County":1.0,"City":1.0,"District":1.0,"Street":[1.0],"HouseNumber":1.0,"PostalCode":1.0},"MatchType":"interpolated","Location":{"LocationId":"NT_mE6ZY7Nj0gtv7fxdP-i7LC_ykTM","LocationType":"point","DisplayPosition":{"Latitude":44.89244,"Longitude":11.61166},"MapView":{"TopLeft":{"Latitude":44.8935642,"Longitude":11.6100732},"BottomRight":{"Latitude":44.8913158,"Longitude":11.6132468}},"Address":{"Label":"Via Eridania, 291, 45030 Occhiobello RO, Italia","Country":"ITA","State":"Veneto","County":"RO","City":"Occhiobello","District":"Santa Maria Maddalena","Street":"Via Eridania","HouseNumber":"291","PostalCode":"45030","AdditionalData":[{"value":"Italia","key":"CountryName"},{"value":"Veneto","key":"StateName"},{"value":"Rovigo","key":"CountyName"}]},"MapReference":{"ReferenceId":"841151299","Spot":0.07,"SideOfStreet":"right","CountryId":"20110484","StateId":"20120537","CountyId":"20122657","CityId":"20122769","DistrictId":"20122772","AddressId":"388033153","RoadLinkId":"223067153"}}},{"Relevance":1.0,"Distance":53.2,"MatchLevel":"houseNumber","MatchQuality":{"Country":1.0,"State":1.0,"County":1.0,"City":1.0,"District":1.0,"Street":[1.0],"HouseNumber":1.0,"PostalCode":1.0},"MatchType":"interpolated","Location":{"LocationId":"NT_mE6ZY7Nj0gtv7fxdP-i7LC_zIjN","LocationType":"point","DisplayPosition":{"Latitude":44.8927,"Longitude":11.61127},"MapView":{"TopLeft":{"Latitude":44.8938242,"Longitude":11.6096832},"BottomRight":{"Latitude":44.8915758,"Longitude":11.6128568}},"Address":{"Label":"Via Eridania, 326, 45030 Occhiobello RO, Italia","Country":"ITA","State":"Veneto","County":"RO","City":"Occhiobello","District":"Santa Maria Maddalena","Street":"Via Eridania","HouseNumber":"326","PostalCode":"45030","AdditionalData":[{"value":"Italia","key":"CountryName"},{"value":"Veneto","key":"StateName"},{"value":"Rovigo","key":"CountyName"}]},"MapReference":{"ReferenceId":"577148820","Spot":0.36,"SideOfStreet":"left","CountryId":"20110484","StateId":"20120537","CountyId":"20122657","CityId":"20122769","DistrictId":"20122772","AddressId":"387646783","RoadLinkId":"58855597"}}},{"Relevance":1.0,"Distance":56.7,"MatchLevel":"houseNumber","MatchQuality":{"Country":1.0,"State":1.0,"County":1.0,"City":1.0,"District":1.0,"Street":[1.0],"HouseNumber":1.0,"PostalCode":1.0},"MatchType":"interpolated","Location":{"LocationId":"NT_mE6ZY7Nj0gtv7fxdP-i7LC_ykzM","LocationType":"point","DisplayPosition":{"Latitude":44.89237,"Longitude":11.61177},"MapView":{"TopLeft":{"Latitude":44.8934942,"Longitude":11.6101832},"BottomRight":{"Latitude":44.8912458,"Longitude":11.6133568}},"Address":{"Label":"Via Eridania, 293, 45030 Occhiobello RO, Italia","Country":"ITA","State":"Veneto","County":"RO","City":"Occhiobello","District":"Santa Maria Maddalena","Street":"Via Eridania","HouseNumber":"293","PostalCode":"45030","AdditionalData":[{"value":"Italia","key":"CountryName"},{"value":"Veneto","key":"StateName"},{"value":"Rovigo","key":"CountyName"}]},"MapReference":{"ReferenceId":"841151298","Spot":0.62,"SideOfStreet":"right","CountryId":"20110484","StateId":"20120537","CountyId":"20122657","CityId":"20122769","DistrictId":"20122772","AddressId":"387823346","RoadLinkId":"223067152"}}}]}]}}