{"Response":{"MetaInfo":{"Timestamp":"2020-03-28T10:28:34.902+0000","NextPageInformation":"2"},"View":[{"_type":"SearchResultsViewType","ViewId":0,"Result":[{"Relevance":1.0,"Distance":-6.4,"MatchLevel":"landmark","MatchQuality":{"Country":1.0,"State":1.0,"County":1.0,"City":1.0,"PostalCode":1.0,"Name":1.0},"Location":{"LocationId":"NT_RLtztmg3A96xUsSNXPbR0B_p_pNPArauWvsKPRN0jQGoW2B","LocationType":"hospital","Name":"Hôpital Privé Drôme-Ardèche","DisplayPosition":{"Latitude":44.93415,"Longitude":4.88289},"MapView":{"TopLeft":{"Latitude":44.93541,"Longitude":4.8817},"BottomRight":{"Latitude":44.93324,"Longitude":4.88361}},"Address":{"Label":"07500 Guilherand-Granges, France","Country":"FRA","State":"Auvergne-Rhône-Alpes","County":"Ardèche","City":"Guilherand-Granges","PostalCode":"07500","AdditionalData":[{"value":"France","key":"CountryName"},{"value":"Auvergne-Rhône-Alpes","key":"StateName"},{"value":"Ardèche","key":"CountyName"}]},"MapReference":{"CountryId":"20000001","StateId":"20006029","CountyId":"20047276","CityId":"20047572","PlaceId":"1098599239"}}},{"Relevance":1.0,"Distance":0.0,"Direction":0.0,"MatchLevel":"city","MatchQuality":{"Country":1.0,"State":1.0,"County":1.0,"City":1.0,"PostalCode":1.0},"Location":{"LocationId":"NT_pW4VjFlfTL4rbV23yY02HA","LocationType":"point","DisplayPosition":{"Latitude":44.9344645,"Longitude":4.8818069},"MapView":{"TopLeft":{"Latitude":44.94475,"Longitude":4.8448},"BottomRight":{"Latitude":44.91549,"Longitude":4.88688}},"Address":{"Label":"Guilherand-Granges, Auvergne-Rhône-Alpes, France","Country":"FRA","State":"Auvergne-Rhône-Alpes","County":"Ardèche","City":"Guilherand-Granges","PostalCode":"07500","AdditionalData":[{"value":"France","key":"CountryName"},{"value":"Auvergne-Rhône-Alpes","key":"StateName"},{"value":"Ardèche","key":"CountyName"}]},"MapReference":{"ReferenceId":"1181780110","SideOfStreet":"neither","CountryId":"20000001","StateId":"20006029","CountyId":"20047276","CityId":"20047572"}}},{"Relevance":1.0,"Distance":4.4,"MatchLevel":"houseNumber","MatchQuality":{"Country":1.0,"State":1.0,"County":1.0,"City":1.0,"Street":[1.0],"HouseNumber":1.0,"PostalCode":1.0},"MatchType":"interpolated","Location":{"LocationId":"NT_yNowzxn21CchgOA7OSGXpB_xYDM","LocationType":"point","DisplayPosition":{"Latitude":44.93442,"Longitude":4.88173},"MapView":{"TopLeft":{"Latitude":44.9355442,"Longitude":4.880142},"BottomRight":{"Latitude":44.9332958,"Longitude":4.883318}},"Address":{"Label":"160 Rue Pierre Curie, 07500 Guilherand-Granges, France","Country":"FRA","State":"Auvergne-Rhône-Alpes","County":"Ardèche","City":"Guilherand-Granges","Street":"Rue Pierre Curie","HouseNumber":"160","PostalCode":"07500","AdditionalData":[{"value":"France","key":"CountryName"},{"value":"Auvergne-Rhône-Alpes","key":"StateName"},{"value":"Ardèche","key":"CountyName"}]},"MapReference":{"ReferenceId":"894238142","Spot":0.25,"SideOfStreet":"right","CountryId":"20000001","StateId":"20006029","CountyId":"20047276","CityId":"20047572","AddressId":"319979806","RoadLinkId":"256797746"}}},{"Relevance":1.0,"Distance":18.3,"MatchLevel":"street","MatchQuality":{"Country":1.0,"State":1.0,"County":1.0,"City":1.0,"PostalCode":1.0},"Location":{"LocationId":"NT_kdU51QkVhkq3sehWaRxLzD_l_894238145_L","LocationType":"point","DisplayPosition":{"Latitude":44.9343,"Longitude":4.8818069},"MapView":{"TopLeft":{"Latitude":44.9347,"Longitude":4.88174},"BottomRight":{"Latitude":44.9343,"Longitude":4.88216}},"Address":{"Label":"07500 Guilherand-Granges, France","Country":"FRA","State":"Auvergne-Rhône-Alpes","County":"Ardèche","City":"Guilherand-Granges","PostalCode":"07500","AdditionalData":[{"value":"France","key":"CountryName"},{"value":"Auvergne-Rhône-Alpes","key":"StateName"},{"value":"Ardèche","key":"CountyName"}]},"MapReference":{"ReferenceId":"894238145","Spot":0.1,"SideOfStreet":"left","CountryId":"20000001","StateId":"20006029","CountyId":"20047276","CityId":"20047572"}}},{"Relevance":1.0,"Distance":19.0,"MatchLevel":"street","MatchQuality":{"Country":1.0,"State":1.0,"County":1.0,"City":1.0,"Street":[1.0],"PostalCode":1.0},"Location":{"LocationId":"NT_yNowzxn21CchgOA7OSGXpB_l_894238141_R","LocationType":"point","DisplayPosition":{"Latitude":44.9343,"Longitude":4.88174},"MapView":{"TopLeft":{"Latitude":44.9343,"Longitude":4.88172},"BottomRight":{"Latitude":44.93399,"Longitude":4.88174}},"Address":{"Label":"Rue Pierre Curie, 07500 Guilherand-Granges, France","Country":"FRA","State":"Auvergne-Rhône-Alpes","County":"Ardèche","City":"Guilherand-Granges","Street":"Rue Pierre Curie","PostalCode":"07500","AdditionalData":[{"value":"France","key":"CountryName"},{"value":"Auvergne-Rhône-Alpes","key":"StateName"},{"value":"Ardèche","key":"CountyName"}]},"MapReference":{"ReferenceId":"894238141","Spot":1.0,"SideOfStreet":"right","CountryId":"20000001","StateId":"20006029","CountyId":"20047276","CityId":"20047572"}}},{"Relevance":1.0,"Distance":31.8,"MatchLevel":"houseNumber","MatchQuality":{"Country":1.0,"State":1.0,"County":1.0,"City":1.0,"Street":[1.0],"HouseNumber":1.0,"PostalCode":1.0},"MatchType":"interpolated","Location":{"LocationId":"NT_yNowzxn21CchgOA7OSGXpB_yEDN","LocationType":"point","DisplayPosition":{"Latitude":44.93477,"Longitude":4.88174},"MapView":{"TopLeft":{"Latitude":44.9358942,"Longitude":4.880152},"BottomRight":{"Latitude":44.9336458,"Longitude":4.883328}},"Address":{"Label":"214 Rue Pierre Curie, 07500 Guilherand-Granges, France","Country":"FRA","State":"Auvergne-Rhône-Alpes","County":"Ardèche","City":"Guilherand-Granges","Street":"Rue Pierre Curie","HouseNumber":"214","PostalCode":"07500","AdditionalData":[{"value":"France","key":"CountryName"},{"value":"Auvergne-Rhône-Alpes","key":"StateName"},{"value":"Ardèche","key":"CountyName"}]},"MapReference":{"ReferenceId":"62920569","Spot":0.0,"SideOfStreet":"right","CountryId":"20000001","StateId":"20006029","CountyId":"20047276","CityId":"20047572","AddressId":"319959311","RoadLinkId":"45816624"}}},{"Relevance":1.0,"Distance":35.5,"MatchLevel":"street","MatchQuality":{"Country":1.0,"State":1.0,"County":1.0,"City":1.0,"PostalCode":1.0},"Location":{"LocationId":"NT_kdU51QkVhkq3sehWaRxLzD_l_894238144_L","LocationType":"point","DisplayPosition":{"Latitude":44.9347786,"Longitude":4.8818854},"MapView":{"TopLeft":{"Latitude":44.93481,"Longitude":4.88176},"BottomRight":{"Latitude":44.9347,"Longitude":4.88216}},"Address":{"Label":"07500 Guilherand-Granges, France","Country":"FRA","State":"Auvergne-Rhône-Alpes","County":"Ardèche","City":"Guilherand-Granges","PostalCode":"07500","AdditionalData":[{"value":"France","key":"CountryName"},{"value":"Auvergne-Rhône-Alpes","key":"StateName"},{"value":"Ardèche","key":"CountyName"}]},"MapReference":{"ReferenceId":"894238144","Spot":0.69,"SideOfStreet":"left","CountryId":"20000001","StateId":"20006029","CountyId":"20047276","CityId":"20047572"}}},{"Relevance":1.0,"Distance":38.2,"MatchLevel":"street","MatchQuality":{"Country":1.0,"State":1.0,"County":1.0,"City":1.0,"PostalCode":1.0},"Location":{"LocationId":"NT_kdU51QkVhkq3sehWaRxLzD_l_894238143_L","LocationType":"point","DisplayPosition":{"Latitude":44.9347,"Longitude":4.88216},"MapView":{"TopLeft":{"Latitude":44.9347,"Longitude":4.88216},"BottomRight":{"Latitude":44.9342,"Longitude":4.88313}},"Address":{"Label":"07500 Guilherand-Granges, France","Country":"FRA","State":"Auvergne-Rhône-Alpes","County":"Ardèche","City":"Guilherand-Granges","PostalCode":"07500","AdditionalData":[{"value":"France","key":"CountryName"},{"value":"Auvergne-Rhône-Alpes","key":"StateName"},{"value":"Ardèche","key":"CountyName"}]},"MapReference":{"ReferenceId":"894238143","Spot":1.0,"SideOfStreet":"left","CountryId":"20000001","StateId":"20006029","CountyId":"20047276","CityId":"20047572"}}},{"Relevance":1.0,"Distance":41.1,"MatchLevel":"houseNumber","MatchQuality":{"Country":1.0,"State":1.0,"County":1.0,"City":1.0,"Street":[1.0],"HouseNumber":1.0,"PostalCode":1.0},"MatchType":"interpolated","Location":{"LocationId":"NT_n-6Qwf4Brep3WUDTtUKjOB_xEjN","LocationType":"point","DisplayPosition":{"Latitude":44.93423,"Longitude":4.88127},"MapView":{"TopLeft":{"Latitude":44.9353542,"Longitude":4.879682},"BottomRight":{"Latitude":44.9331058,"Longitude":4.882858}},"Address":{"Label":"116 Rue du Bac, 07500 Guilherand-Granges, France","Country":"FRA","State":"Auvergne-Rhône-Alpes","County":"Ardèche","City":"Guilherand-Granges","Street":"Rue du Bac","HouseNumber":"116","PostalCode":"07500","AdditionalData":[{"value":"France","key":"CountryName"},{"value":"Auvergne-Rhône-Alpes","key":"StateName"},{"value":"Ardèche","key":"CountyName"}]},"MapReference":{"ReferenceId":"62920609","Spot":0.24,"SideOfStreet":"right","CountryId":"20000001","StateId":"20006029","CountyId":"20047276","CityId":"20047572","AddressId":"627349014","RoadLinkId":"45209080"}}},{"Relevance":1.0,"Distance":45.8,"MatchLevel":"houseNumber","MatchQuality":{"Country":1.0,"State":1.0,"County":1.0,"City":1.0,"Street":[1.0],"HouseNumber":1.0,"PostalCode":1.0},"MatchType":"interpolated","Location":{"LocationId":"NT_0EhPmvvCL1F1f6H5WwE1aA_xUD","LocationType":"point","DisplayPosition":{"Latitude":44.9348,"Longitude":4.88145},"MapView":{"TopLeft":{"Latitude":44.9359242,"Longitude":4.879862},"BottomRight":{"Latitude":44.9336758,"Longitude":4.883038}},"Address":{"Label":"15 Impasse des Glycines, 07500 Guilherand-Granges, France","Country":"FRA","State":"Auvergne-Rhône-Alpes","County":"Ardèche","City":"Guilherand-Granges","Street":"Impasse des Glycines","HouseNumber":"15","PostalCode":"07500","AdditionalData":[{"value":"France","key":"CountryName"},{"value":"Auvergne-Rhône-Alpes","key":"StateName"},{"value":"Ardèche","key":"CountyName"}]},"MapReference":{"ReferenceId":"62920570","Spot":0.47,"SideOfStreet":"left","CountryId":"20000001","StateId":"20006029","CountyId":"20047276","CityId":"20047572","AddressId":"345460658","RoadLinkId":"45117013"}}}]}]}}