{"Response":{"MetaInfo":{"Timestamp":"2020-03-28T11:25:33.778+0000","NextPageInformation":"2"},"View":[{"_type":"SearchResultsViewType","ViewId":0,"Result":[{"Relevance":1.0,"Distance":0.0,"Direction":0.0,"MatchLevel":"city","MatchQuality":{"Country":1.0,"State":1.0,"County":1.0,"City":1.0,"PostalCode":1.0},"Location":{"LocationId":"NT_3Q0p0OSXN5DD1io5vi6fgD","LocationType":"point","DisplayPosition":{"Latitude":44.9158899,"Longitude":8.6249342},"MapView":{"TopLeft":{"Latitude":44.98963,"Longitude":8.50293},"BottomRight":{"Latitude":44.84287,"Longitude":8.79}},"Address":{"Label":"Alessandria, Piemonte, Italia","Country":"ITA","State":"Piemonte","County":"AL","City":"Alessandria","PostalCode":"15121","AdditionalData":[{"value":"Italia","key":"CountryName"},{"value":"Piemonte","key":"StateName"},{"value":"Alessandria","key":"CountyName"}]},"MapReference":{"ReferenceId":"1056301023","SideOfStreet":"neither","CountryId":"20110484","StateId":"20110485","CountyId":"20113250","CityId":"20113260"}}},{"Relevance":1.0,"Distance":10.6,"MatchLevel":"street","MatchQuality":{"Country":1.0,"State":1.0,"County":1.0,"City":1.0,"PostalCode":1.0},"Location":{"LocationId":"NT_LUGK3nzINlM7jks9tGIySC_l_59936510_R","LocationType":"point","DisplayPosition":{"Latitude":44.91588,"Longitude":8.6248},"MapView":{"TopLeft":{"Latitude":44.91588,"Longitude":8.62467},"BottomRight":{"Latitude":44.91568,"Longitude":8.6248}},"Address":{"Label":"15121 Alessandria AL, Italia","Country":"ITA","State":"Piemonte","County":"AL","City":"Alessandria","PostalCode":"15121","AdditionalData":[{"value":"Italia","key":"CountryName"},{"value":"Piemonte","key":"StateName"},{"value":"Alessandria","key":"CountyName"}]},"MapReference":{"ReferenceId":"59936510","Spot":1.0,"SideOfStreet":"right","CountryId":"20110484","StateId":"20110485","CountyId":"20113250","CityId":"20113260"}}},{"Relevance":1.0,"Distance":40.0,"MatchLevel":"houseNumber","MatchQuality":{"Country":1.0,"State":1.0,"County":1.0,"City":1.0,"Street":[1.0],"HouseNumber":1.0,"PostalCode":1.0},"MatchType":"interpolated","Location":{"LocationId":"NT_6O8LkJMogWv-bYiWgA59nA_2UD","LocationType":"point","DisplayPosition":{"Latitude":44.91553,"Longitude":8.62492},"MapView":{"TopLeft":{"Latitude":44.9166542,"Longitude":8.6233325},"BottomRight":{"Latitude":44.9144058,"Longitude":8.6265075}},"Address":{"Label":"Spalto Marengo, 65, 15121 Alessandria AL, Italia","Country":"ITA","State":"Piemonte","County":"AL","City":"Alessandria","Street":"Spalto Marengo","HouseNumber":"65","PostalCode":"15121","AdditionalData":[{"value":"Italia","key":"CountryName"},{"value":"Piemonte","key":"StateName"},{"value":"Alessandria","key":"CountyName"}]},"MapReference":{"ReferenceId":"822698796","Spot":0.41,"SideOfStreet":"left","CountryId":"20110484","StateId":"20110485","CountyId":"20113250","CityId":"20113260","AddressId":"595315831","RoadLinkId":"209127835"}}},{"Relevance":1.0,"Distance":42.0,"MatchLevel":"houseNumber","MatchQuality":{"Country":1.0,"State":1.0,"County":1.0,"City":1.0,"Street":[1.0],"HouseNumber":1.0,"PostalCode":1.0},"MatchType":"interpolated","Location":{"LocationId":"NT_6O8LkJMogWv-bYiWgA59nA_2MD","LocationType":"point","DisplayPosition":{"Latitude":44.91582,"Longitude":8.62441},"MapView":{"TopLeft":{"Latitude":44.9169442,"Longitude":8.6228225},"BottomRight":{"Latitude":44.9146958,"Longitude":8.6259975}},"Address":{"Label":"Spalto Marengo, 63, 15121 Alessandria AL, Italia","Country":"ITA","State":"Piemonte","County":"AL","City":"Alessandria","Street":"Spalto Marengo","HouseNumber":"63","PostalCode":"15121","AdditionalData":[{"value":"Italia","key":"CountryName"},{"value":"Piemonte","key":"StateName"},{"value":"Alessandria","key":"CountyName"}]},"MapReference":{"ReferenceId":"68947891","Spot":0.22,"SideOfStreet":"left","CountryId":"20110484","StateId":"20110485","CountyId":"20113250","CityId":"20113260","AddressId":"595290628","RoadLinkId":"55437236"}}},{"Relevance":1.0,"Distance":46.6,"MatchLevel":"houseNumber","MatchQuality":{"Country":1.0,"State":1.0,"County":1.0,"City":1.0,"Street":[1.0],"HouseNumber":1.0,"PostalCode":1.0},"MatchType":"interpolated","Location":{"LocationId":"NT_KPLNW4VVpx9tQXibMxn7sB_5A","LocationType":"point","DisplayPosition":{"Latitude":44.91554,"Longitude":8.62458},"MapView":{"TopLeft":{"Latitude":44.9166642,"Longitude":8.6229925},"BottomRight":{"Latitude":44.9144158,"Longitude":8.6261675}},"Address":{"Label":"Via Don Francesco Gasparolo, 9, 15121 Alessandria AL, Italia","Country":"ITA","State":"Piemonte","County":"AL","City":"Alessandria","Street":"Via Don Francesco Gasparolo","HouseNumber":"9","PostalCode":"15121","AdditionalData":[{"value":"Italia","key":"CountryName"},{"value":"Piemonte","key":"StateName"},{"value":"Alessandria","key":"CountyName"}]},"MapReference":{"ReferenceId":"59936509","Spot":0.84,"SideOfStreet":"right","CountryId":"20110484","StateId":"20110485","CountyId":"20113250","CityId":"20113260","AddressId":"595301975","RoadLinkId":"55786764"}}},{"Relevance":1.0,"Distance":47.1,"MatchLevel":"houseNumber","MatchQuality":{"Country":1.0,"State":1.0,"County":1.0,"City":1.0,"Street":[1.0],"HouseNumber":1.0,"PostalCode":1.0},"MatchType":"interpolated","Location":{"LocationId":"NT_6O8LkJMogWv-bYiWgA59nA_0YD","LocationType":"point","DisplayPosition":{"Latitude":44.91556,"Longitude":8.62531},"MapView":{"TopLeft":{"Latitude":44.9166842,"Longitude":8.6237225},"BottomRight":{"Latitude":44.9144358,"Longitude":8.6268975}},"Address":{"Label":"Spalto Marengo, 46, 15121 Alessandria AL, Italia","Country":"ITA","State":"Piemonte","County":"AL","City":"Alessandria","Street":"Spalto Marengo","HouseNumber":"46","PostalCode":"15121","AdditionalData":[{"value":"Italia","key":"CountryName"},{"value":"Piemonte","key":"StateName"},{"value":"Alessandria","key":"CountyName"}]},"MapReference":{"ReferenceId":"822698798","Spot":0.01,"SideOfStreet":"right","CountryId":"20110484","StateId":"20110485","CountyId":"20113250","CityId":"20113260","AddressId":"595296984","RoadLinkId":"209127843"}}},{"Relevance":1.0,"Distance":47.6,"MatchLevel":"street","MatchQuality":{"Country":1.0,"State":1.0,"County":1.0,"City":1.0,"Street":[1.0],"PostalCode":1.0},"Location":{"LocationId":"NT_6O8LkJMogWv-bYiWgA59nA_l_822698797_R","LocationType":"point","DisplayPosition":{"Latitude":44.91556,"Longitude":8.62532},"MapView":{"TopLeft":{"Latitude":44.91556,"Longitude":8.62532},"BottomRight":{"Latitude":44.91515,"Longitude":8.62605}},"Address":{"Label":"Spalto Marengo, 15121 Alessandria AL, Italia","Country":"ITA","State":"Piemonte","County":"AL","City":"Alessandria","Street":"Spalto Marengo","PostalCode":"15121","AdditionalData":[{"value":"Italia","key":"CountryName"},{"value":"Piemonte","key":"StateName"},{"value":"Alessandria","key":"CountyName"}]},"MapReference":{"ReferenceId":"822698797","Spot":1.0,"SideOfStreet":"right","CountryId":"20110484","StateId":"20110485","CountyId":"20113250","CityId":"20113260"}}},{"Relevance":1.0,"Distance":71.0,"MatchLevel":"houseNumber","MatchQuality":{"Country":1.0,"State":1.0,"County":1.0,"City":1.0,"Street":[1.0],"HouseNumber":1.0,"PostalCode":1.0},"MatchType":"interpolated","Location":{"LocationId":"NT_6O8LkJMogWv-bYiWgA59nA_0QD","LocationType":"point","DisplayPosition":{"Latitude":44.91622,"Longitude":8.62422},"MapView":{"TopLeft":{"Latitude":44.9173442,"Longitude":8.6226325},"BottomRight":{"Latitude":44.9150958,"Longitude":8.6258075}},"Address":{"Label":"Spalto Marengo, 44, 15121 Alessandria AL, Italia","Country":"ITA","State":"Piemonte","County":"AL","City":"Alessandria","Street":"Spalto Marengo","HouseNumber":"44","PostalCode":"15121","AdditionalData":[{"value":"Italia","key":"CountryName"},{"value":"Piemonte","key":"StateName"},{"value":"Alessandria","key":"CountyName"}]},"MapReference":{"ReferenceId":"1056610284","Spot":0.45,"SideOfStreet":"right","CountryId":"20110484","StateId":"20110485","CountyId":"20113250","CityId":"20113260","AddressId":"595289031","RoadLinkId":"374899740"}}},{"Relevance":1.0,"Distance":97.6,"MatchLevel":"houseNumber","MatchQuality":{"Country":1.0,"State":1.0,"County":1.0,"City":1.0,"Street":[1.0],"HouseNumber":1.0,"PostalCode":1.0},"MatchType":"interpolated","Location":{"LocationId":"NT_6O8LkJMogWv-bYiWgA59nA_3ED","LocationType":"point","DisplayPosition":{"Latitude":44.91515,"Longitude":8.6256},"MapView":{"TopLeft":{"Latitude":44.9162742,"Longitude":8.6240126},"BottomRight":{"Latitude":44.9140258,"Longitude":8.6271874}},"Address":{"Label":"Spalto Marengo, 71, 15121 Alessandria AL, Italia","Country":"ITA","State":"Piemonte","County":"AL","City":"Alessandria","Street":"Spalto Marengo","HouseNumber":"71","PostalCode":"15121","AdditionalData":[{"value":"Italia","key":"CountryName"},{"value":"Piemonte","key":"StateName"},{"value":"Alessandria","key":"CountyName"}]},"MapReference":{"ReferenceId":"822698795","Spot":0.37,"SideOfStreet":"left","CountryId":"20110484","StateId":"20110485","CountyId":"20113250","CityId":"20113260","AddressId":"595312385","RoadLinkId":"209127834"}}},{"Relevance":1.0,"Distance":107.7,"MatchLevel":"houseNumber","MatchQuality":{"Country":1.0,"State":1.0,"County":1.0,"City":1.0,"Street":[1.0],"HouseNumber":1.0,"PostalCode":1.0},"MatchType":"interpolated","Location":{"LocationId":"NT_WZO3ksiNHXyvk3RzfgETyC_xA","LocationType":"point","DisplayPosition":{"Latitude":44.91679,"Longitude":8.62544},"MapView":{"TopLeft":{"Latitude":44.9179142,"Longitude":8.6238525},"BottomRight":{"Latitude":44.9156658,"Longitude":8.6270275}},"Address":{"Label":"Via Giuseppe Di Vittorio, 1, 15121 Alessandria AL, Italia","Country":"ITA","State":"Piemonte","County":"AL","City":"Alessandria","Street":"Via Giuseppe Di Vittorio","HouseNumber":"1","PostalCode":"15121","AdditionalData":[{"value":"Italia","key":"CountryName"},{"value":"Piemonte","key":"StateName"},{"value":"Alessandria","key":"CountyName"}]},"MapReference":{"ReferenceId":"573419394","Spot":0.69,"SideOfStreet":"right","CountryId":"20110484","StateId":"20110485","CountyId":"20113250","CityId":"20113260","AddressId":"595310288","RoadLinkId":"55565740"}}}]}]}}