{"Response":{"MetaInfo":{"Timestamp":"2020-03-28T11:23:55.381+0000","NextPageInformation":"2"},"View":[{"_type":"SearchResultsViewType","ViewId":0,"Result":[{"Relevance":1.0,"Distance":0.0,"Direction":0.0,"MatchLevel":"city","MatchQuality":{"Country":1.0,"State":1.0,"County":1.0,"City":1.0,"PostalCode":1.0},"Location":{"LocationId":"NT_3Q0p0OSXN5DD1io5vi6fgD","LocationType":"point","DisplayPosition":{"Latitude":44.9416714,"Longitude":8.6181536},"MapView":{"TopLeft":{"Latitude":44.98963,"Longitude":8.50293},"BottomRight":{"Latitude":44.84287,"Longitude":8.79}},"Address":{"Label":"Alessandria, Piemonte, Italia","Country":"ITA","State":"Piemonte","County":"AL","City":"Alessandria","PostalCode":"15121","AdditionalData":[{"value":"Italia","key":"CountryName"},{"value":"Piemonte","key":"StateName"},{"value":"Alessandria","key":"CountyName"}]},"MapReference":{"ReferenceId":"1056301023","SideOfStreet":"neither","CountryId":"20110484","StateId":"20110485","CountyId":"20113250","CityId":"20113260"}}},{"Relevance":1.0,"Distance":64.3,"MatchLevel":"houseNumber","MatchQuality":{"Country":1.0,"State":1.0,"County":1.0,"City":1.0,"Street":[1.0],"HouseNumber":1.0,"PostalCode":1.0},"MatchType":"interpolated","Location":{"LocationId":"NT_UWl1FEVNDbagCSm3yVwCGB_xUD","LocationType":"point","DisplayPosition":{"Latitude":44.94225,"Longitude":8.61816},"MapView":{"TopLeft":{"Latitude":44.9433742,"Longitude":8.6165718},"BottomRight":{"Latitude":44.9411258,"Longitude":8.6197482}},"Address":{"Label":"Strada Carlo Forlanini, 15, 15122 Alessandria AL, Italia","Country":"ITA","State":"Piemonte","County":"AL","City":"Alessandria","Street":"Strada Carlo Forlanini","HouseNumber":"15","PostalCode":"15122","AdditionalData":[{"value":"Italia","key":"CountryName"},{"value":"Piemonte","key":"StateName"},{"value":"Alessandria","key":"CountyName"}]},"MapReference":{"ReferenceId":"759742203","Spot":0.36,"SideOfStreet":"right","CountryId":"20110484","StateId":"20110485","CountyId":"20113250","CityId":"20113260","AddressId":"595299523","RoadLinkId":"154314405"}}},{"Relevance":1.0,"Distance":104.7,"MatchLevel":"houseNumber","MatchQuality":{"Country":1.0,"State":1.0,"County":1.0,"City":1.0,"Street":[1.0],"HouseNumber":1.0,"PostalCode":1.0},"MatchType":"interpolated","Location":{"LocationId":"NT_UWl1FEVNDbagCSm3yVwCGB_1YD","LocationType":"point","DisplayPosition":{"Latitude":44.94247,"Longitude":8.61745},"MapView":{"TopLeft":{"Latitude":44.9435942,"Longitude":8.6158618},"BottomRight":{"Latitude":44.9413458,"Longitude":8.6190382}},"Address":{"Label":"Strada Carlo Forlanini, 56, 15122 Alessandria AL, Italia","Country":"ITA","State":"Piemonte","County":"AL","City":"Alessandria","Street":"Strada Carlo Forlanini","HouseNumber":"56","PostalCode":"15122","AdditionalData":[{"value":"Italia","key":"CountryName"},{"value":"Piemonte","key":"StateName"},{"value":"Alessandria","key":"CountyName"}]},"MapReference":{"ReferenceId":"62285901","Spot":0.76,"SideOfStreet":"left","CountryId":"20110484","StateId":"20110485","CountyId":"20113250","CityId":"20113260","AddressId":"595295169","RoadLinkId":"55152627"}}},{"Relevance":1.0,"Distance":132.8,"MatchLevel":"houseNumber","MatchQuality":{"Country":1.0,"State":1.0,"County":1.0,"City":1.0,"Street":[1.0],"HouseNumber":1.0,"PostalCode":1.0},"MatchType":"interpolated","Location":{"LocationId":"NT_UWl1FEVNDbagCSm3yVwCGB_0YD","LocationType":"point","DisplayPosition":{"Latitude":44.94083,"Longitude":8.61939},"MapView":{"TopLeft":{"Latitude":44.9419542,"Longitude":8.6178018},"BottomRight":{"Latitude":44.9397058,"Longitude":8.6209782}},"Address":{"Label":"Strada Carlo Forlanini, 46, 15122 Alessandria AL, Italia","Country":"ITA","State":"Piemonte","County":"AL","City":"Alessandria","Street":"Strada Carlo Forlanini","HouseNumber":"46","PostalCode":"15122","AdditionalData":[{"value":"Italia","key":"CountryName"},{"value":"Piemonte","key":"StateName"},{"value":"Alessandria","key":"CountyName"}]},"MapReference":{"ReferenceId":"1078745682","Spot":0.25,"SideOfStreet":"left","CountryId":"20110484","StateId":"20110485","CountyId":"20113250","CityId":"20113260","AddressId":"595297007","RoadLinkId":"397321145"}}},{"Relevance":1.0,"Distance":143.6,"MatchLevel":"street","MatchQuality":{"Country":1.0,"State":1.0,"County":1.0,"City":1.0,"Street":[1.0],"PostalCode":1.0},"Location":{"LocationId":"NT_UWl1FEVNDbagCSm3yVwCGB_l_1157089776_L","LocationType":"point","DisplayPosition":{"Latitude":44.94038,"Longitude":8.61817},"MapView":{"TopLeft":{"Latitude":44.94038,"Longitude":8.61654},"BottomRight":{"Latitude":44.93927,"Longitude":8.61847}},"Address":{"Label":"Strada Carlo Forlanini, 15122 Alessandria AL, Italia","Country":"ITA","State":"Piemonte","County":"AL","City":"Alessandria","Street":"Strada Carlo Forlanini","PostalCode":"15122","AdditionalData":[{"value":"Italia","key":"CountryName"},{"value":"Piemonte","key":"StateName"},{"value":"Alessandria","key":"CountyName"}]},"MapReference":{"ReferenceId":"1157089776","Spot":0.81,"SideOfStreet":"left","CountryId":"20110484","StateId":"20110485","CountyId":"20113250","CityId":"20113260"}}},{"Relevance":1.0,"Distance":149.7,"MatchLevel":"street","MatchQuality":{"Country":1.0,"State":1.0,"County":1.0,"City":1.0,"Street":[1.0],"PostalCode":1.0},"Location":{"LocationId":"NT_UWl1FEVNDbagCSm3yVwCGB_l_1078745681_L","LocationType":"point","DisplayPosition":{"Latitude":44.94072,"Longitude":8.6195},"MapView":{"TopLeft":{"Latitude":44.94072,"Longitude":8.6195},"BottomRight":{"Latitude":44.94057,"Longitude":8.61966}},"Address":{"Label":"Strada Carlo Forlanini, 15122 Alessandria AL, Italia","Country":"ITA","State":"Piemonte","County":"AL","City":"Alessandria","Street":"Strada Carlo Forlanini","PostalCode":"15122","AdditionalData":[{"value":"Italia","key":"CountryName"},{"value":"Piemonte","key":"StateName"},{"value":"Alessandria","key":"CountyName"}]},"MapReference":{"ReferenceId":"1078745681","Spot":1.0,"SideOfStreet":"left","CountryId":"20110484","StateId":"20110485","CountyId":"20113250","CityId":"20113260"}}},{"Relevance":1.0,"Distance":164.9,"MatchLevel":"street","MatchQuality":{"Country":1.0,"State":1.0,"County":1.0,"City":1.0,"Street":[1.0],"PostalCode":1.0},"Location":{"LocationId":"NT_NWnj2DoAQXcXPqcf5yjoFC_l_807470640_R","LocationType":"point","DisplayPosition":{"Latitude":44.9431503,"Longitude":8.6180027},"MapView":{"TopLeft":{"Latitude":44.94468,"Longitude":8.60415},"BottomRight":{"Latitude":44.94191,"Longitude":8.63811}},"Address":{"Label":"Autostrada dei Vini, 15122 Alessandria AL, Italia","Country":"ITA","State":"Piemonte","County":"AL","City":"Alessandria","Street":"Autostrada dei Vini","PostalCode":"15122","AdditionalData":[{"value":"Italia","key":"CountryName"},{"value":"Piemonte","key":"StateName"},{"value":"Alessandria","key":"CountyName"}]},"MapReference":{"ReferenceId":"807470640","Spot":0.41,"SideOfStreet":"right","CountryId":"20110484","StateId":"20110485","CountyId":"20113250","CityId":"20113260"}}},{"Relevance":1.0,"Distance":173.1,"MatchLevel":"street","MatchQuality":{"Country":1.0,"State":1.0,"County":1.0,"City":1.0,"Street":[1.0],"PostalCode":1.0},"Location":{"LocationId":"NT_HyLALQG-1IMNIljNVxXmbB_l_1258355104_R","LocationType":"point","DisplayPosition":{"Latitude":44.9432238,"Longitude":8.6179984},"MapView":{"TopLeft":{"Latitude":44.94473,"Longitude":8.60415},"BottomRight":{"Latitude":44.942,"Longitude":8.63505}},"Address":{"Label":"Autostrada dei Vini, 15122 Alessandria AL, Italia","Country":"ITA","State":"Piemonte","County":"AL","City":"Alessandria","Street":"Autostrada dei Vini","PostalCode":"15122","AdditionalData":[{"value":"Italia","key":"CountryName"},{"value":"Piemonte","key":"StateName"},{"value":"Alessandria","key":"CountyName"}]},"MapReference":{"ReferenceId":"1258355104","Spot":0.45,"SideOfStreet":"right","CountryId":"20110484","StateId":"20110485","CountyId":"20113250","CityId":"20113260"}}},{"Relevance":1.0,"Distance":197.4,"MatchLevel":"street","MatchQuality":{"Country":1.0,"State":1.0,"County":1.0,"City":1.0,"Street":[1.0],"PostalCode":1.0},"Location":{"LocationId":"NT_UWl1FEVNDbagCSm3yVwCGB_l_1157090007_L","LocationType":"point","DisplayPosition":{"Latitude":44.93991,"Longitude":8.61847},"MapView":{"TopLeft":{"Latitude":44.93991,"Longitude":8.61779},"BottomRight":{"Latitude":44.93978,"Longitude":8.61847}},"Address":{"Label":"Strada Carlo Forlanini, 15122 Alessandria AL, Italia","Country":"ITA","State":"Piemonte","County":"AL","City":"Alessandria","Street":"Strada Carlo Forlanini","PostalCode":"15122","AdditionalData":[{"value":"Italia","key":"CountryName"},{"value":"Piemonte","key":"StateName"},{"value":"Alessandria","key":"CountyName"}]},"MapReference":{"ReferenceId":"1157090007","Spot":1.0,"SideOfStreet":"left","CountryId":"20110484","StateId":"20110485","CountyId":"20113250","CityId":"20113260"}}},{"Relevance":1.0,"Distance":197.4,"MatchLevel":"street","MatchQuality":{"Country":1.0,"State":1.0,"County":1.0,"City":1.0,"Street":[1.0],"PostalCode":1.0},"Location":{"LocationId":"NT_UWl1FEVNDbagCSm3yVwCGB_l_1157089466_R","LocationType":"point","DisplayPosition":{"Latitude":44.93991,"Longitude":8.61847},"MapView":{"TopLeft":{"Latitude":44.93991,"Longitude":8.61789},"BottomRight":{"Latitude":44.93951,"Longitude":8.61856}},"Address":{"Label":"Strada Carlo Forlanini, 15122 Alessandria AL, Italia","Country":"ITA","State":"Piemonte","County":"AL","City":"Alessandria","Street":"Strada Carlo Forlanini","PostalCode":"15122","AdditionalData":[{"value":"Italia","key":"CountryName"},{"value":"Piemonte","key":"StateName"},{"value":"Alessandria","key":"CountyName"}]},"MapReference":{"ReferenceId":"1157089466","Spot":1.0,"SideOfStreet":"right","CountryId":"20110484","StateId":"20110485","CountyId":"20113250","CityId":"20113260"}}}]}]}}