{"Response":{"MetaInfo":{"Timestamp":"2020-03-28T11:35:38.099+0000","NextPageInformation":"2"},"View":[{"_type":"SearchResultsViewType","ViewId":0,"Result":[{"Relevance":1.0,"Distance":0.0,"Direction":0.0,"MatchLevel":"district","MatchQuality":{"Country":1.0,"County":1.0,"City":1.0,"District":1.0,"PostalCode":1.0},"Location":{"LocationId":"NT_IZnSB-p1Sua3LaGKJ1iv4C","LocationType":"point","DisplayPosition":{"Latitude":44.9196511,"Longitude":25.4577661},"MapView":{"TopLeft":{"Latitude":44.94964,"Longitude":25.41905},"BottomRight":{"Latitude":44.89621,"Longitude":25.50374}},"Address":{"Label":"Târgoviște, România","Country":"ROU","County":"Dâmbovița","City":"Târgoviște","District":"Târgoviște","PostalCode":"130007","AdditionalData":[{"value":"România","key":"CountryName"},{"value":"Dâmbovița","key":"CountyName"}]},"MapReference":{"ReferenceId":"1195934676","SideOfStreet":"neither","CountryId":"20656215","CountyId":"20659026","CityId":"20659194","DistrictId":"20659195"}}},{"Relevance":1.0,"Distance":37.5,"MatchLevel":"street","MatchQuality":{"Country":1.0,"County":1.0,"City":1.0,"District":1.0,"Street":[1.0],"PostalCode":1.0},"Location":{"LocationId":"NT_zS6o5gxfKmnbeIGA4MeqED_l_997113691_L","LocationType":"point","DisplayPosition":{"Latitude":44.9199738,"Longitude":25.4579044},"MapView":{"TopLeft":{"Latitude":44.91998,"Longitude":25.45789},"BottomRight":{"Latitude":44.91971,"Longitude":25.45852}},"Address":{"Label":"Bulevardul Ion Constantin Brătianu, 130048 Târgoviște, România","Country":"ROU","County":"Dâmbovița","City":"Târgoviște","District":"Târgoviște","Street":"Bulevardul Ion Constantin Brătianu","PostalCode":"130048","AdditionalData":[{"value":"România","key":"CountryName"},{"value":"Dâmbovița","key":"CountyName"}]},"MapReference":{"ReferenceId":"997113691","Spot":0.98,"SideOfStreet":"left","CountryId":"20656215","CountyId":"20659026","CityId":"20659194","DistrictId":"20659195"}}},{"Relevance":1.0,"Distance":37.9,"MatchLevel":"street","MatchQuality":{"Country":1.0,"County":1.0,"City":1.0,"District":1.0,"Street":[1.0],"PostalCode":1.0},"Location":{"LocationId":"NT_fD1gwMvdVyYEaBRSjjUdOC_l_1195946701_L","LocationType":"point","DisplayPosition":{"Latitude":44.91998,"Longitude":25.45789},"MapView":{"TopLeft":{"Latitude":44.92011,"Longitude":25.4576},"BottomRight":{"Latitude":44.91998,"Longitude":25.45789}},"Address":{"Label":"Bulevardul Ion Constantin Brătianu, 130007 Târgoviște, România","Country":"ROU","County":"Dâmbovița","City":"Târgoviște","District":"Târgoviște","Street":"Bulevardul Ion Constantin Brătianu","PostalCode":"130007","AdditionalData":[{"value":"România","key":"CountryName"},{"value":"Dâmbovița","key":"CountyName"}]},"MapReference":{"ReferenceId":"1195946701","Spot":0.0,"SideOfStreet":"left","CountryId":"20656215","CountyId":"20659026","CityId":"20659194","DistrictId":"20659195"}}},{"Relevance":1.0,"Distance":37.9,"MatchLevel":"street","MatchQuality":{"Country":1.0,"County":1.0,"City":1.0,"District":1.0,"Street":[1.0],"PostalCode":1.0},"Location":{"LocationId":"NT_cM.aAWiK4O.WFMwl6Kz3lA_l_1034066874_R","LocationType":"point","DisplayPosition":{"Latitude":44.91998,"Longitude":25.45789},"MapView":{"TopLeft":{"Latitude":44.92022,"Longitude":25.45789},"BottomRight":{"Latitude":44.91998,"Longitude":25.45808}},"Address":{"Label":"Strada Ion Constantin Brătianu, 130007 Târgoviște, România","Country":"ROU","County":"Dâmbovița","City":"Târgoviște","District":"Târgoviște","Street":"Strada Ion Constantin Brătianu","PostalCode":"130007","AdditionalData":[{"value":"România","key":"CountryName"},{"value":"Dâmbovița","key":"CountyName"}]},"MapReference":{"ReferenceId":"1034066874","Spot":0.0,"SideOfStreet":"right","CountryId":"20656215","CountyId":"20659026","CityId":"20659194","DistrictId":"20659195"}}},{"Relevance":1.0,"Distance":52.7,"MatchLevel":"street","MatchQuality":{"Country":1.0,"County":1.0,"City":1.0,"District":1.0,"Street":[1.0],"PostalCode":1.0},"Location":{"LocationId":"NT_fD1gwMvdVyYEaBRSjjUdOC_l_1195946702_L","LocationType":"point","DisplayPosition":{"Latitude":44.92011,"Longitude":25.4576},"MapView":{"TopLeft":{"Latitude":44.92026,"Longitude":25.45725},"BottomRight":{"Latitude":44.92011,"Longitude":25.4576}},"Address":{"Label":"Bulevardul Ion Constantin Brătianu, 130007 Târgoviște, România","Country":"ROU","County":"Dâmbovița","City":"Târgoviște","District":"Târgoviște","Street":"Bulevardul Ion Constantin Brătianu","PostalCode":"130007","AdditionalData":[{"value":"România","key":"CountryName"},{"value":"Dâmbovița","key":"CountyName"}]},"MapReference":{"ReferenceId":"1195946702","Spot":0.0,"SideOfStreet":"left","CountryId":"20656215","CountyId":"20659026","CityId":"20659194","DistrictId":"20659195"}}},{"Relevance":1.0,"Distance":59.7,"MatchLevel":"street","MatchQuality":{"Country":1.0,"County":1.0,"City":1.0,"District":1.0,"Street":[1.0],"PostalCode":1.0},"Location":{"LocationId":"NT_fD1gwMvdVyYEaBRSjjUdOC_l_1196115758_L","LocationType":"point","DisplayPosition":{"Latitude":44.91971,"Longitude":25.45852},"MapView":{"TopLeft":{"Latitude":44.91971,"Longitude":25.45852},"BottomRight":{"Latitude":44.91961,"Longitude":25.45875}},"Address":{"Label":"Bulevardul Ion Constantin Brătianu, 130007 Târgoviște, România","Country":"ROU","County":"Dâmbovița","City":"Târgoviște","District":"Târgoviște","Street":"Bulevardul Ion Constantin Brătianu","PostalCode":"130007","AdditionalData":[{"value":"România","key":"CountryName"},{"value":"Dâmbovița","key":"CountyName"}]},"MapReference":{"ReferenceId":"1196115758","Spot":1.0,"SideOfStreet":"left","CountryId":"20656215","CountyId":"20659026","CityId":"20659194","DistrictId":"20659195"}}},{"Relevance":1.0,"Distance":67.9,"MatchLevel":"street","MatchQuality":{"Country":1.0,"County":1.0,"City":1.0,"District":1.0,"Street":[1.0],"PostalCode":1.0},"Location":{"LocationId":"NT_PEW6TQu88s5WPaZE.7IhzC_l_1034066877_L","LocationType":"point","DisplayPosition":{"Latitude":44.92022,"Longitude":25.45808},"MapView":{"TopLeft":{"Latitude":44.92022,"Longitude":25.45808},"BottomRight":{"Latitude":44.9201,"Longitude":25.45837}},"Address":{"Label":"Strada Ion Constantin Brătianu, 130048 Târgoviște, România","Country":"ROU","County":"Dâmbovița","City":"Târgoviște","District":"Târgoviște","Street":"Strada Ion Constantin Brătianu","PostalCode":"130048","AdditionalData":[{"value":"România","key":"CountryName"},{"value":"Dâmbovița","key":"CountyName"}]},"MapReference":{"ReferenceId":"1034066877","Spot":1.0,"SideOfStreet":"left","CountryId":"20656215","CountyId":"20659026","CityId":"20659194","DistrictId":"20659195"}}},{"Relevance":1.0,"Distance":68.9,"MatchLevel":"street","MatchQuality":{"Country":1.0,"County":1.0,"City":1.0,"District":1.0,"Street":[1.0],"PostalCode":1.0},"Location":{"LocationId":"NT_cM.aAWiK4O.WFMwl6Kz3lA_l_1195946710_L","LocationType":"point","DisplayPosition":{"Latitude":44.9201,"Longitude":25.45837},"MapView":{"TopLeft":{"Latitude":44.92047,"Longitude":25.45798},"BottomRight":{"Latitude":44.9201,"Longitude":25.45849}},"Address":{"Label":"Strada Ion Constantin Brătianu, 130007 Târgoviște, România","Country":"ROU","County":"Dâmbovița","City":"Târgoviște","District":"Târgoviște","Street":"Strada Ion Constantin Brătianu","PostalCode":"130007","AdditionalData":[{"value":"România","key":"CountryName"},{"value":"Dâmbovița","key":"CountyName"}]},"MapReference":{"ReferenceId":"1195946710","Spot":0.0,"SideOfStreet":"left","CountryId":"20656215","CountyId":"20659026","CityId":"20659194","DistrictId":"20659195"}}},{"Relevance":1.0,"Distance":69.2,"MatchLevel":"street","MatchQuality":{"Country":1.0,"County":1.0,"City":1.0,"District":1.0,"Street":[1.0],"PostalCode":1.0},"Location":{"LocationId":"NT_cM.aAWiK4O.WFMwl6Kz3lA_l_1034066875_L","LocationType":"point","DisplayPosition":{"Latitude":44.9202484,"Longitude":25.4580105},"MapView":{"TopLeft":{"Latitude":44.92047,"Longitude":25.45786},"BottomRight":{"Latitude":44.92022,"Longitude":25.45808}},"Address":{"Label":"Strada Ion Constantin Brătianu, 130007 Târgoviște, România","Country":"ROU","County":"Dâmbovița","City":"Târgoviște","District":"Târgoviște","Street":"Strada Ion Constantin Brătianu","PostalCode":"130007","AdditionalData":[{"value":"România","key":"CountryName"},{"value":"Dâmbovița","key":"CountyName"}]},"MapReference":{"ReferenceId":"1034066875","Spot":0.17,"SideOfStreet":"left","CountryId":"20656215","CountyId":"20659026","CityId":"20659194","DistrictId":"20659195"}}},{"Relevance":1.0,"Distance":77.6,"MatchLevel":"street","MatchQuality":{"Country":1.0,"County":1.0,"City":1.0,"District":1.0,"Street":[1.0],"PostalCode":1.0},"Location":{"LocationId":"NT_fD1gwMvdVyYEaBRSjjUdOC_l_1196115757_L","LocationType":"point","DisplayPosition":{"Latitude":44.91961,"Longitude":25.45875},"MapView":{"TopLeft":{"Latitude":44.91961,"Longitude":25.45875},"BottomRight":{"Latitude":44.91943,"Longitude":25.4592}},"Address":{"Label":"Bulevardul Ion Constantin Brătianu, 130007 Târgoviște, România","Country":"ROU","County":"Dâmbovița","City":"Târgoviște","District":"Târgoviște","Street":"Bulevardul Ion Constantin Brătianu","PostalCode":"130007","AdditionalData":[{"value":"România","key":"CountryName"},{"value":"Dâmbovița","key":"CountyName"}]},"MapReference":{"ReferenceId":"1196115757","Spot":1.0,"SideOfStreet":"left","CountryId":"20656215","CountyId":"20659026","CityId":"20659194","DistrictId":"20659195"}}}]}]}}