{"Response":{"MetaInfo":{"Timestamp":"2020-03-28T11:34:52.082+0000","NextPageInformation":"2"},"View":[{"_type":"SearchResultsViewType","ViewId":0,"Result":[{"Relevance":1.0,"Distance":0.0,"Direction":0.0,"MatchLevel":"district","MatchQuality":{"Country":1.0,"County":1.0,"City":1.0,"District":1.0,"PostalCode":1.0},"Location":{"LocationId":"NT_IZnSB-p1Sua3LaGKJ1iv4C","LocationType":"point","DisplayPosition":{"Latitude":44.9269323,"Longitude":25.4563205},"MapView":{"TopLeft":{"Latitude":44.94964,"Longitude":25.41905},"BottomRight":{"Latitude":44.89621,"Longitude":25.50374}},"Address":{"Label":"Târgoviște, România","Country":"ROU","County":"Dâmbovița","City":"Târgoviște","District":"Târgoviște","PostalCode":"130007","AdditionalData":[{"value":"România","key":"CountryName"},{"value":"Dâmbovița","key":"CountyName"}]},"MapReference":{"ReferenceId":"1195934676","SideOfStreet":"neither","CountryId":"20656215","CountyId":"20659026","CityId":"20659194","DistrictId":"20659195"}}},{"Relevance":1.0,"Distance":33.4,"MatchLevel":"street","MatchQuality":{"Country":1.0,"County":1.0,"City":1.0,"District":1.0,"PostalCode":1.0},"Location":{"LocationId":"NT_S8LQckKczULpsqMXxm6C.B_l_588456380_R","LocationType":"point","DisplayPosition":{"Latitude":44.9272283,"Longitude":25.4562514},"MapView":{"TopLeft":{"Latitude":44.92734,"Longitude":25.45613},"BottomRight":{"Latitude":44.9272,"Longitude":25.45673}},"Address":{"Label":"130007 Târgoviște, România","Country":"ROU","County":"Dâmbovița","City":"Târgoviște","District":"Târgoviște","PostalCode":"130007","AdditionalData":[{"value":"România","key":"CountryName"},{"value":"Dâmbovița","key":"CountyName"}]},"MapReference":{"ReferenceId":"588456380","Spot":0.2,"SideOfStreet":"right","CountryId":"20656215","CountyId":"20659026","CityId":"20659194","DistrictId":"20659195"}}},{"Relevance":1.0,"Distance":37.0,"MatchLevel":"houseNumber","MatchQuality":{"Country":1.0,"County":1.0,"City":1.0,"District":1.0,"Street":[1.0],"HouseNumber":1.0,"PostalCode":1.0},"MatchType":"interpolated","Location":{"LocationId":"NT_hKWizLq4C4rCiC9V1I7G4B_5EE","LocationType":"point","DisplayPosition":{"Latitude":44.92705,"Longitude":25.45686},"MapView":{"TopLeft":{"Latitude":44.9281742,"Longitude":25.4552722},"BottomRight":{"Latitude":44.9259258,"Longitude":25.4584478}},"Address":{"Label":"Strada Poet Grigore Alexandrescu 9A, 130007 Târgoviște, România","Country":"ROU","County":"Dâmbovița","City":"Târgoviște","District":"Târgoviște","Street":"Strada Poet Grigore Alexandrescu","HouseNumber":"9A","PostalCode":"130007","AdditionalData":[{"value":"România","key":"CountryName"},{"value":"Dâmbovița","key":"CountyName"}]},"MapReference":{"ReferenceId":"1195934676","Spot":0.95,"SideOfStreet":"left","CountryId":"20656215","CountyId":"20659026","CityId":"20659194","DistrictId":"20659195","AddressId":"686731894","RoadLinkId":"506311351"}}},{"Relevance":1.0,"Distance":43.1,"MatchLevel":"street","MatchQuality":{"Country":1.0,"County":1.0,"City":1.0,"District":1.0,"PostalCode":1.0},"Location":{"LocationId":"NT_S8LQckKczULpsqMXxm6C.B_l_1196146857_R","LocationType":"point","DisplayPosition":{"Latitude":44.92655,"Longitude":25.45641},"MapView":{"TopLeft":{"Latitude":44.92667,"Longitude":25.45641},"BottomRight":{"Latitude":44.92644,"Longitude":25.45701}},"Address":{"Label":"130007 Târgoviște, România","Country":"ROU","County":"Dâmbovița","City":"Târgoviște","District":"Târgoviște","PostalCode":"130007","AdditionalData":[{"value":"România","key":"CountryName"},{"value":"Dâmbovița","key":"CountyName"}]},"MapReference":{"ReferenceId":"1196146857","Spot":0.16,"SideOfStreet":"right","CountryId":"20656215","CountyId":"20659026","CityId":"20659194","DistrictId":"20659195"}}},{"Relevance":1.0,"Distance":46.7,"MatchLevel":"street","MatchQuality":{"Country":1.0,"County":1.0,"City":1.0,"District":1.0,"Street":[1.0],"PostalCode":1.0},"Location":{"LocationId":"NT_hKWizLq4C4rCiC9V1I7G4B_l_1195934677_L","LocationType":"point","DisplayPosition":{"Latitude":44.9271574,"Longitude":25.4568207},"MapView":{"TopLeft":{"Latitude":44.92727,"Longitude":25.45677},"BottomRight":{"Latitude":44.92707,"Longitude":25.45686}},"Address":{"Label":"Strada Poet Grigore Alexandrescu, 130007 Târgoviște, România","Country":"ROU","County":"Dâmbovița","City":"Târgoviște","District":"Târgoviște","Street":"Strada Poet Grigore Alexandrescu","PostalCode":"130007","AdditionalData":[{"value":"România","key":"CountryName"},{"value":"Dâmbovița","key":"CountyName"}]},"MapReference":{"ReferenceId":"1195934677","Spot":0.44,"SideOfStreet":"left","CountryId":"20656215","CountyId":"20659026","CityId":"20659194","DistrictId":"20659195"}}},{"Relevance":1.0,"Distance":51.6,"MatchLevel":"street","MatchQuality":{"Country":1.0,"County":1.0,"City":1.0,"District":1.0,"Street":[1.0],"PostalCode":1.0},"Location":{"LocationId":"NT_hKWizLq4C4rCiC9V1I7G4B_l_588456378_L","LocationType":"point","DisplayPosition":{"Latitude":44.92727,"Longitude":25.45677},"MapView":{"TopLeft":{"Latitude":44.92734,"Longitude":25.45673},"BottomRight":{"Latitude":44.92727,"Longitude":25.45677}},"Address":{"Label":"Strada Poet Grigore Alexandrescu, 130007 Târgoviște, România","Country":"ROU","County":"Dâmbovița","City":"Târgoviște","District":"Târgoviște","Street":"Strada Poet Grigore Alexandrescu","PostalCode":"130007","AdditionalData":[{"value":"România","key":"CountryName"},{"value":"Dâmbovița","key":"CountyName"}]},"MapReference":{"ReferenceId":"588456378","Spot":0.0,"SideOfStreet":"left","CountryId":"20656215","CountyId":"20659026","CityId":"20659194","DistrictId":"20659195"}}},{"Relevance":1.0,"Distance":55.1,"MatchLevel":"houseNumber","MatchQuality":{"Country":1.0,"County":1.0,"City":1.0,"District":1.0,"Street":[1.0],"HouseNumber":1.0,"PostalCode":1.0},"MatchType":"interpolated","Location":{"LocationId":"NT_hKWizLq4C4rCiC9V1I7G4B_l_1196146855_L_5A","LocationType":"point","DisplayPosition":{"Latitude":44.9266072,"Longitude":25.4570157},"MapView":{"TopLeft":{"Latitude":44.9277313,"Longitude":25.455428},"BottomRight":{"Latitude":44.925483,"Longitude":25.4586035}},"Address":{"Label":"Strada Poet Grigore Alexandrescu 9, 130007 Târgoviște, România","Country":"ROU","County":"Dâmbovița","City":"Târgoviște","District":"Târgoviște","Street":"Strada Poet Grigore Alexandrescu","HouseNumber":"9","PostalCode":"130007","AdditionalData":[{"value":"România","key":"CountryName"},{"value":"Dâmbovița","key":"CountyName"}]},"MapReference":{"ReferenceId":"1196146855","Spot":0.55,"SideOfStreet":"left","CountryId":"20656215","CountyId":"20659026","CityId":"20659194","DistrictId":"20659195"}}},{"Relevance":1.0,"Distance":55.8,"MatchLevel":"street","MatchQuality":{"Country":1.0,"County":1.0,"City":1.0,"District":1.0,"PostalCode":1.0},"Location":{"LocationId":"NT_S8LQckKczULpsqMXxm6C.B_l_810665695_L","LocationType":"point","DisplayPosition":{"Latitude":44.92644,"Longitude":25.45646},"MapView":{"TopLeft":{"Latitude":44.92653,"Longitude":25.45646},"BottomRight":{"Latitude":44.92644,"Longitude":25.45702}},"Address":{"Label":"130007 Târgoviște, România","Country":"ROU","County":"Dâmbovița","City":"Târgoviște","District":"Târgoviște","PostalCode":"130007","AdditionalData":[{"value":"România","key":"CountryName"},{"value":"Dâmbovița","key":"CountyName"}]},"MapReference":{"ReferenceId":"810665695","Spot":0.0,"SideOfStreet":"left","CountryId":"20656215","CountyId":"20659026","CityId":"20659194","DistrictId":"20659195"}}},{"Relevance":1.0,"Distance":55.8,"MatchLevel":"street","MatchQuality":{"Country":1.0,"County":1.0,"City":1.0,"District":1.0,"PostalCode":1.0},"Location":{"LocationId":"NT_S8LQckKczULpsqMXxm6C.B_l_810665693_R","LocationType":"point","DisplayPosition":{"Latitude":44.92644,"Longitude":25.45646},"MapView":{"TopLeft":{"Latitude":44.92644,"Longitude":25.45627},"BottomRight":{"Latitude":44.92599,"Longitude":25.45657}},"Address":{"Label":"130007 Târgoviște, România","Country":"ROU","County":"Dâmbovița","City":"Târgoviște","District":"Târgoviște","PostalCode":"130007","AdditionalData":[{"value":"România","key":"CountryName"},{"value":"Dâmbovița","key":"CountyName"}]},"MapReference":{"ReferenceId":"810665693","Spot":1.0,"SideOfStreet":"right","CountryId":"20656215","CountyId":"20659026","CityId":"20659194","DistrictId":"20659195"}}},{"Relevance":1.0,"Distance":57.6,"MatchLevel":"street","MatchQuality":{"Country":1.0,"County":1.0,"City":1.0,"District":1.0,"Street":[1.0],"PostalCode":1.0},"Location":{"LocationId":"NT_hKWizLq4C4rCiC9V1I7G4B_l_1196146856_L","LocationType":"point","DisplayPosition":{"Latitude":44.92674,"Longitude":25.457},"MapView":{"TopLeft":{"Latitude":44.92674,"Longitude":25.457},"BottomRight":{"Latitude":44.92667,"Longitude":25.45701}},"Address":{"Label":"Strada Poet Grigore Alexandrescu, 130007 Târgoviște, România","Country":"ROU","County":"Dâmbovița","City":"Târgoviște","District":"Târgoviște","Street":"Strada Poet Grigore Alexandrescu","PostalCode":"130007","AdditionalData":[{"value":"România","key":"CountryName"},{"value":"Dâmbovița","key":"CountyName"}]},"MapReference":{"ReferenceId":"1196146856","Spot":1.0,"SideOfStreet":"left","CountryId":"20656215","CountyId":"20659026","CityId":"20659194","DistrictId":"20659195"}}}]}]}}