{"Response":{"MetaInfo":{"Timestamp":"2020-03-28T10:06:48.853+0000","NextPageInformation":"2"},"View":[{"_type":"SearchResultsViewType","ViewId":0,"Result":[{"Relevance":1.0,"Distance":0.0,"Direction":0.0,"MatchLevel":"city","MatchQuality":{"Country":1.0,"State":1.0,"County":1.0,"City":1.0,"PostalCode":1.0},"Location":{"LocationId":"NT_oePEPvKBjIVYE.itqmFAJB","LocationType":"point","DisplayPosition":{"Latitude":44.912303,"Longitude":-0.2428451},"MapView":{"TopLeft":{"Latitude":44.95214,"Longitude":-0.26332},"BottomRight":{"Latitude":44.8728,"Longitude":-0.20253}},"Address":{"Label":"Libourne, Nouvelle-Aquitaine, France","Country":"FRA","State":"Nouvelle-Aquitaine","County":"Gironde","City":"Libourne","PostalCode":"33500","AdditionalData":[{"value":"France","key":"CountryName"},{"value":"Nouvelle-Aquitaine","key":"StateName"},{"value":"Gironde","key":"CountyName"}]},"MapReference":{"ReferenceId":"1208978519","SideOfStreet":"neither","CountryId":"20000001","StateId":"20000383","CountyId":"20000384","CityId":"20001118"}}},{"Relevance":1.0,"Distance":6.4,"MatchLevel":"houseNumber","MatchQuality":{"Country":1.0,"State":1.0,"County":1.0,"City":1.0,"Street":[1.0],"HouseNumber":1.0,"PostalCode":1.0},"MatchType":"interpolated","Location":{"LocationId":"NT_EbNB8ylZnt9Cxqcmx6UNrA_l_560269079_R_5UD","LocationType":"point","DisplayPosition":{"Latitude":44.91226,"Longitude":-0.2429},"MapView":{"TopLeft":{"Latitude":44.9133842,"Longitude":-0.2444874},"BottomRight":{"Latitude":44.9111359,"Longitude":-0.2413127}},"Address":{"Label":"95 Rue Thiers, 33500 Libourne, France","Country":"FRA","State":"Nouvelle-Aquitaine","County":"Gironde","City":"Libourne","Street":"Rue Thiers","HouseNumber":"95","PostalCode":"33500","AdditionalData":[{"value":"France","key":"CountryName"},{"value":"Nouvelle-Aquitaine","key":"StateName"},{"value":"Gironde","key":"CountyName"}]},"MapReference":{"ReferenceId":"560269079","Spot":0.5,"SideOfStreet":"right","CountryId":"20000001","StateId":"20000383","CountyId":"20000384","CityId":"20001118"}}},{"Relevance":1.0,"Distance":10.3,"MatchLevel":"houseNumber","MatchQuality":{"Country":1.0,"State":1.0,"County":1.0,"City":1.0,"Street":[1.0],"HouseNumber":1.0,"PostalCode":1.0},"MatchType":"interpolated","Location":{"LocationId":"NT_6LmE.h.GxxsDnp15yR8SrA_3gD","LocationType":"point","DisplayPosition":{"Latitude":44.91221,"Longitude":-0.24284},"MapView":{"TopLeft":{"Latitude":44.9133342,"Longitude":-0.2444274},"BottomRight":{"Latitude":44.9110858,"Longitude":-0.2412526}},"Address":{"Label":"78 Rue Thiers, 33500 Libourne, France","Country":"FRA","State":"Nouvelle-Aquitaine","County":"Gironde","City":"Libourne","Street":"Rue Thiers","HouseNumber":"78","PostalCode":"33500","AdditionalData":[{"value":"France","key":"CountryName"},{"value":"Nouvelle-Aquitaine","key":"StateName"},{"value":"Gironde","key":"CountyName"}]},"MapReference":{"ReferenceId":"560269075","Spot":0.67,"SideOfStreet":"left","CountryId":"20000001","StateId":"20000383","CountyId":"20000384","CityId":"20001118","AddressId":"716413565","RoadLinkId":"50519994"}}},{"Relevance":1.0,"Distance":11.0,"MatchLevel":"houseNumber","MatchQuality":{"Country":1.0,"State":1.0,"County":1.0,"City":1.0,"Street":[1.0],"HouseNumber":1.0,"PostalCode":1.0},"MatchType":"interpolated","Location":{"LocationId":"NT_EbNB8ylZnt9Cxqcmx6UNrA_l_560269076_R_xAjN","LocationType":"point","DisplayPosition":{"Latitude":44.91223,"Longitude":-0.24294},"MapView":{"TopLeft":{"Latitude":44.9133542,"Longitude":-0.2445273},"BottomRight":{"Latitude":44.9111058,"Longitude":-0.2413526}},"Address":{"Label":"106 Rue Lamothe, 33500 Libourne, France","Country":"FRA","State":"Nouvelle-Aquitaine","County":"Gironde","City":"Libourne","Street":"Rue Lamothe","HouseNumber":"106","PostalCode":"33500","AdditionalData":[{"value":"France","key":"CountryName"},{"value":"Nouvelle-Aquitaine","key":"StateName"},{"value":"Gironde","key":"CountyName"}]},"MapReference":{"ReferenceId":"560269076","Spot":0.5,"SideOfStreet":"right","CountryId":"20000001","StateId":"20000383","CountyId":"20000384","CityId":"20001118"}}},{"Relevance":1.0,"Distance":15.6,"MatchLevel":"houseNumber","MatchQuality":{"Country":1.0,"State":1.0,"County":1.0,"City":1.0,"Street":[1.0],"HouseNumber":1.0,"PostalCode":1.0},"MatchType":"interpolated","Location":{"LocationId":"NT_6LmE.h.GxxsDnp15yR8SrA_5ED","LocationType":"point","DisplayPosition":{"Latitude":44.91237,"Longitude":-0.24302},"MapView":{"TopLeft":{"Latitude":44.9134942,"Longitude":-0.2446074},"BottomRight":{"Latitude":44.9112458,"Longitude":-0.2414326}},"Address":{"Label":"91 Rue Thiers, 33500 Libourne, France","Country":"FRA","State":"Nouvelle-Aquitaine","County":"Gironde","City":"Libourne","Street":"Rue Thiers","HouseNumber":"91","PostalCode":"33500","AdditionalData":[{"value":"France","key":"CountryName"},{"value":"Nouvelle-Aquitaine","key":"StateName"},{"value":"Gironde","key":"CountyName"}]},"MapReference":{"ReferenceId":"560269078","Spot":0.07,"SideOfStreet":"right","CountryId":"20000001","StateId":"20000383","CountyId":"20000384","CityId":"20001118","AddressId":"378980875","RoadLinkId":"51275786"}}},{"Relevance":1.0,"Distance":17.4,"MatchLevel":"houseNumber","MatchQuality":{"Country":1.0,"State":1.0,"County":1.0,"City":1.0,"Street":[1.0],"HouseNumber":1.0,"PostalCode":1.0},"MatchType":"interpolated","Location":{"LocationId":"NT_KW4PfroXtdys.EUBwPzcgC_xAjN","LocationType":"point","DisplayPosition":{"Latitude":44.91223,"Longitude":-0.24304},"MapView":{"TopLeft":{"Latitude":44.9133542,"Longitude":-0.2446274},"BottomRight":{"Latitude":44.9111058,"Longitude":-0.2414526}},"Address":{"Label":"106 Rue Lamothe, 33500 Libourne, France","Country":"FRA","State":"Nouvelle-Aquitaine","County":"Gironde","City":"Libourne","Street":"Rue Lamothe","HouseNumber":"106","PostalCode":"33500","AdditionalData":[{"value":"France","key":"CountryName"},{"value":"Nouvelle-Aquitaine","key":"StateName"},{"value":"Gironde","key":"CountyName"}]},"MapReference":{"ReferenceId":"1157246392","Spot":0.18,"SideOfStreet":"left","CountryId":"20000001","StateId":"20000383","CountyId":"20000384","CityId":"20001118","AddressId":"318288150","RoadLinkId":"463574490"}}},{"Relevance":1.0,"Distance":22.1,"MatchLevel":"houseNumber","MatchQuality":{"Country":1.0,"State":1.0,"County":1.0,"City":1.0,"Street":[1.0],"HouseNumber":1.0,"PostalCode":1.0},"MatchType":"interpolated","Location":{"LocationId":"NT_gQNQAEfGJTUDHOoZqLJcrA_xA","LocationType":"point","DisplayPosition":{"Latitude":44.91214,"Longitude":-0.24265},"MapView":{"TopLeft":{"Latitude":44.9132642,"Longitude":-0.2442374},"BottomRight":{"Latitude":44.9110158,"Longitude":-0.2410626}},"Address":{"Label":"1 Rue Roudier, 33500 Libourne, France","Country":"FRA","State":"Nouvelle-Aquitaine","County":"Gironde","City":"Libourne","Street":"Rue Roudier","HouseNumber":"1","PostalCode":"33500","AdditionalData":[{"value":"France","key":"CountryName"},{"value":"Nouvelle-Aquitaine","key":"StateName"},{"value":"Gironde","key":"CountyName"}]},"MapReference":{"ReferenceId":"560268108","Spot":0.84,"SideOfStreet":"right","CountryId":"20000001","StateId":"20000383","CountyId":"20000384","CityId":"20001118","AddressId":"318326453","RoadLinkId":"50450468"}}},{"Relevance":1.0,"Distance":30.3,"MatchLevel":"houseNumber","MatchQuality":{"Country":1.0,"State":1.0,"County":1.0,"City":1.0,"Street":[1.0],"HouseNumber":1.0,"PostalCode":1.0},"MatchType":"interpolated","Location":{"LocationId":"NT_KW4PfroXtdys.EUBwPzcgC_xADMUB","LocationType":"point","DisplayPosition":{"Latitude":44.91224,"Longitude":-0.24322},"MapView":{"TopLeft":{"Latitude":44.9133642,"Longitude":-0.2448074},"BottomRight":{"Latitude":44.9111158,"Longitude":-0.2416326}},"Address":{"Label":"100T Rue Lamothe, 33500 Libourne, France","Country":"FRA","State":"Nouvelle-Aquitaine","County":"Gironde","City":"Libourne","Street":"Rue Lamothe","HouseNumber":"100T","PostalCode":"33500","AdditionalData":[{"value":"France","key":"CountryName"},{"value":"Nouvelle-Aquitaine","key":"StateName"},{"value":"Gironde","key":"CountyName"}]},"MapReference":{"ReferenceId":"1157246393","Spot":0.5,"SideOfStreet":"right","CountryId":"20000001","StateId":"20000383","CountyId":"20000384","CityId":"20001118","AddressId":"318288149","RoadLinkId":"463574491"}}},{"Relevance":1.0,"Distance":32.7,"MatchLevel":"houseNumber","MatchQuality":{"Country":1.0,"State":1.0,"County":1.0,"City":1.0,"Street":[1.0],"HouseNumber":1.0,"PostalCode":1.0},"MatchType":"interpolated","Location":{"LocationId":"NT_6LmE.h.GxxsDnp15yR8SrA_5MD","LocationType":"point","DisplayPosition":{"Latitude":44.91203,"Longitude":-0.24267},"MapView":{"TopLeft":{"Latitude":44.9131542,"Longitude":-0.2442574},"BottomRight":{"Latitude":44.9109058,"Longitude":-0.2410826}},"Address":{"Label":"93 Rue Thiers, 33500 Libourne, France","Country":"FRA","State":"Nouvelle-Aquitaine","County":"Gironde","City":"Libourne","Street":"Rue Thiers","HouseNumber":"93","PostalCode":"33500","AdditionalData":[{"value":"France","key":"CountryName"},{"value":"Nouvelle-Aquitaine","key":"StateName"},{"value":"Gironde","key":"CountyName"}]},"MapReference":{"ReferenceId":"560269074","Spot":0.85,"SideOfStreet":"right","CountryId":"20000001","StateId":"20000383","CountyId":"20000384","CityId":"20001118","AddressId":"360175182","RoadLinkId":"50395868"}}},{"Relevance":1.0,"Distance":37.6,"MatchLevel":"houseNumber","MatchQuality":{"Country":1.0,"State":1.0,"County":1.0,"City":1.0,"Street":[1.0],"HouseNumber":1.0,"PostalCode":1.0},"MatchType":"interpolated","Location":{"LocationId":"NT_dAA81CchjLao4K3PuyhPbA_5QD","LocationType":"point","DisplayPosition":{"Latitude":44.91249,"Longitude":-0.24234},"MapView":{"TopLeft":{"Latitude":44.9136142,"Longitude":-0.2439274},"BottomRight":{"Latitude":44.9113658,"Longitude":-0.2407526}},"Address":{"Label":"94 Rue Michel Montaigne, 33500 Libourne, France","Country":"FRA","State":"Nouvelle-Aquitaine","County":"Gironde","City":"Libourne","Street":"Rue Michel Montaigne","HouseNumber":"94","PostalCode":"33500","AdditionalData":[{"value":"France","key":"CountryName"},{"value":"Nouvelle-Aquitaine","key":"StateName"},{"value":"Gironde","key":"CountyName"}]},"MapReference":{"ReferenceId":"560269073","Spot":0.29,"SideOfStreet":"left","CountryId":"20000001","StateId":"20000383","CountyId":"20000384","CityId":"20001118","AddressId":"417266566","RoadLinkId":"51049703"}}}]}]}}