{"Response":{"MetaInfo":{"Timestamp":"2020-03-28T11:52:14.572+0000","NextPageInformation":"2"},"View":[{"_type":"SearchResultsViewType","ViewId":0,"Result":[{"Relevance":1.0,"Distance":0.0,"Direction":0.0,"MatchLevel":"district","MatchQuality":{"Country":1.0,"State":1.0,"County":1.0,"City":1.0,"District":1.0,"PostalCode":1.0},"Location":{"LocationId":"NT_4nmgjyy03JXOPjJlUV5dbA","LocationType":"point","DisplayPosition":{"Latitude":44.9680587,"Longitude":5.0791324},"MapView":{"TopLeft":{"Latitude":44.98172,"Longitude":5.06061},"BottomRight":{"Latitude":44.95474,"Longitude":5.09875}},"Address":{"Label":"Les Malbâties, Bésayes, Auvergne-Rhône-Alpes, France","Country":"FRA","State":"Auvergne-Rhône-Alpes","County":"Drôme","City":"Bésayes","District":"Les Malbâties","PostalCode":"26300","AdditionalData":[{"value":"France","key":"CountryName"},{"value":"Auvergne-Rhône-Alpes","key":"StateName"},{"value":"Drôme","key":"CountyName"}]},"MapReference":{"ReferenceId":"1208923867","SideOfStreet":"neither","CountryId":"20000001","StateId":"20006029","CountyId":"20049094","CityId":"20049235"}}},{"Relevance":1.0,"Distance":24.3,"MatchLevel":"houseNumber","MatchQuality":{"Country":1.0,"State":1.0,"County":1.0,"City":1.0,"Street":[1.0],"HouseNumber":1.0,"PostalCode":1.0},"MatchType":"interpolated","Location":{"LocationId":"NT_2u6jols4ReGTbpz-Y1WccD_0AD","LocationType":"point","DisplayPosition":{"Latitude":44.96779,"Longitude":5.07884},"MapView":{"TopLeft":{"Latitude":44.9689142,"Longitude":5.0772511},"BottomRight":{"Latitude":44.9666658,"Longitude":5.0804289}},"Address":{"Label":"40 Rue du Stade, 26300 Bésayes, France","Country":"FRA","State":"Auvergne-Rhône-Alpes","County":"Drôme","City":"Bésayes","Street":"Rue du Stade","HouseNumber":"40","PostalCode":"26300","AdditionalData":[{"value":"France","key":"CountryName"},{"value":"Auvergne-Rhône-Alpes","key":"StateName"},{"value":"Drôme","key":"CountyName"}]},"MapReference":{"ReferenceId":"545476452","Spot":0.44,"SideOfStreet":"right","CountryId":"20000001","StateId":"20006029","CountyId":"20049094","CityId":"20049235","AddressId":"776945462","RoadLinkId":"555101888"}}},{"Relevance":1.0,"Distance":34.4,"MatchLevel":"street","MatchQuality":{"Country":1.0,"State":1.0,"County":1.0,"City":1.0,"PostalCode":1.0},"Location":{"LocationId":"NT_dO5YW2JXK-0NcK.eqhg9qC_l_545476453_L","LocationType":"point","DisplayPosition":{"Latitude":44.96777,"Longitude":5.07929},"MapView":{"TopLeft":{"Latitude":44.96777,"Longitude":5.0792},"BottomRight":{"Latitude":44.96765,"Longitude":5.07929}},"Address":{"Label":"26300 Bésayes, France","Country":"FRA","State":"Auvergne-Rhône-Alpes","County":"Drôme","City":"Bésayes","PostalCode":"26300","AdditionalData":[{"value":"France","key":"CountryName"},{"value":"Auvergne-Rhône-Alpes","key":"StateName"},{"value":"Drôme","key":"CountyName"}]},"MapReference":{"ReferenceId":"545476453","Spot":1.0,"SideOfStreet":"left","CountryId":"20000001","StateId":"20006029","CountyId":"20049094","CityId":"20049235"}}},{"Relevance":1.0,"Distance":37.6,"MatchLevel":"street","MatchQuality":{"Country":1.0,"State":1.0,"County":1.0,"City":1.0,"Street":[1.0],"PostalCode":1.0},"Location":{"LocationId":"NT_F9ax207BltfgxF7gHvw4sD_l_1208923867_L","LocationType":"point","DisplayPosition":{"Latitude":44.96794,"Longitude":5.07958},"MapView":{"TopLeft":{"Latitude":44.96851,"Longitude":5.07958},"BottomRight":{"Latitude":44.96794,"Longitude":5.07982}},"Address":{"Label":"D102, 26300 Bésayes, France","Country":"FRA","State":"Auvergne-Rhône-Alpes","County":"Drôme","City":"Bésayes","Street":"D102","PostalCode":"26300","AdditionalData":[{"value":"France","key":"CountryName"},{"value":"Auvergne-Rhône-Alpes","key":"StateName"},{"value":"Drôme","key":"CountyName"}]},"MapReference":{"ReferenceId":"1208923867","Spot":0.0,"SideOfStreet":"left","CountryId":"20000001","StateId":"20006029","CountyId":"20049094","CityId":"20049235"}}},{"Relevance":1.0,"Distance":39.2,"MatchLevel":"street","MatchQuality":{"Country":1.0,"State":1.0,"County":1.0,"City":1.0,"Street":[1.0],"PostalCode":1.0},"Location":{"LocationId":"NT_F9ax207BltfgxF7gHvw4sD_l_1208923866_L","LocationType":"point","DisplayPosition":{"Latitude":44.9678481,"Longitude":5.0795315},"MapView":{"TopLeft":{"Latitude":44.96794,"Longitude":5.07939},"BottomRight":{"Latitude":44.96758,"Longitude":5.07958}},"Address":{"Label":"D102, 26300 Bésayes, France","Country":"FRA","State":"Auvergne-Rhône-Alpes","County":"Drôme","City":"Bésayes","Street":"D102","PostalCode":"26300","AdditionalData":[{"value":"France","key":"CountryName"},{"value":"Auvergne-Rhône-Alpes","key":"StateName"},{"value":"Drôme","key":"CountyName"}]},"MapReference":{"ReferenceId":"1208923866","Spot":0.74,"SideOfStreet":"left","CountryId":"20000001","StateId":"20006029","CountyId":"20049094","CityId":"20049235"}}},{"Relevance":1.0,"Distance":45.8,"MatchLevel":"street","MatchQuality":{"Country":1.0,"State":1.0,"County":1.0,"City":1.0,"Street":[1.0],"PostalCode":1.0},"Location":{"LocationId":"NT_2u6jols4ReGTbpz-Y1WccD_l_545476451_R","LocationType":"point","DisplayPosition":{"Latitude":44.96765,"Longitude":5.0792},"MapView":{"TopLeft":{"Latitude":44.96765,"Longitude":5.0792},"BottomRight":{"Latitude":44.96758,"Longitude":5.07939}},"Address":{"Label":"Rue du Stade, 26300 Bésayes, France","Country":"FRA","State":"Auvergne-Rhône-Alpes","County":"Drôme","City":"Bésayes","Street":"Rue du Stade","PostalCode":"26300","AdditionalData":[{"value":"France","key":"CountryName"},{"value":"Auvergne-Rhône-Alpes","key":"StateName"},{"value":"Drôme","key":"CountyName"}]},"MapReference":{"ReferenceId":"545476451","Spot":1.0,"SideOfStreet":"right","CountryId":"20000001","StateId":"20006029","CountyId":"20049094","CityId":"20049235"}}},{"Relevance":1.0,"Distance":57.0,"MatchLevel":"street","MatchQuality":{"Country":1.0,"State":1.0,"County":1.0,"City":1.0,"Street":[1.0],"PostalCode":1.0},"Location":{"LocationId":"NT_3Ci.u1t5poGlp52jxwv7WA_l_545476346_L","LocationType":"point","DisplayPosition":{"Latitude":44.96758,"Longitude":5.07939},"MapView":{"TopLeft":{"Latitude":44.96758,"Longitude":5.07912},"BottomRight":{"Latitude":44.96708,"Longitude":5.07939}},"Address":{"Label":"D102, 26300 Bésayes, France","Country":"FRA","State":"Auvergne-Rhône-Alpes","County":"Drôme","City":"Bésayes","Street":"D102","PostalCode":"26300","AdditionalData":[{"value":"France","key":"CountryName"},{"value":"Auvergne-Rhône-Alpes","key":"StateName"},{"value":"Drôme","key":"CountyName"}]},"MapReference":{"ReferenceId":"545476346","Spot":1.0,"SideOfStreet":"left","CountryId":"20000001","StateId":"20006029","CountyId":"20049094","CityId":"20049235"}}},{"Relevance":1.0,"Distance":57.0,"MatchLevel":"street","MatchQuality":{"Country":1.0,"State":1.0,"County":1.0,"City":1.0,"Street":[1.0],"PostalCode":1.0},"Location":{"LocationId":"NT_HfESSZKrUhjzT97.iIF.ZD_l_985690751_R","LocationType":"point","DisplayPosition":{"Latitude":44.96758,"Longitude":5.07939},"MapView":{"TopLeft":{"Latitude":44.96759,"Longitude":5.07939},"BottomRight":{"Latitude":44.96743,"Longitude":5.08013}},"Address":{"Label":"Impasse Varlope, 26300 Bésayes, France","Country":"FRA","State":"Auvergne-Rhône-Alpes","County":"Drôme","City":"Bésayes","Street":"Impasse Varlope","PostalCode":"26300","AdditionalData":[{"value":"France","key":"CountryName"},{"value":"Auvergne-Rhône-Alpes","key":"StateName"},{"value":"Drôme","key":"CountyName"}]},"MapReference":{"ReferenceId":"985690751","Spot":1.0,"SideOfStreet":"right","CountryId":"20000001","StateId":"20006029","CountyId":"20049094","CityId":"20049235"}}},{"Relevance":1.0,"Distance":70.9,"MatchLevel":"street","MatchQuality":{"Country":1.0,"State":1.0,"County":1.0,"City":1.0,"Street":[1.0],"PostalCode":1.0},"Location":{"LocationId":"NT_3Ci.u1t5poGlp52jxwv7WA_l_58163157_L","LocationType":"point","DisplayPosition":{"Latitude":44.96865,"Longitude":5.07947},"MapView":{"TopLeft":{"Latitude":44.96865,"Longitude":5.07947},"BottomRight":{"Latitude":44.96851,"Longitude":5.07982}},"Address":{"Label":"D102, 26300 Bésayes, France","Country":"FRA","State":"Auvergne-Rhône-Alpes","County":"Drôme","City":"Bésayes","Street":"D102","PostalCode":"26300","AdditionalData":[{"value":"France","key":"CountryName"},{"value":"Auvergne-Rhône-Alpes","key":"StateName"},{"value":"Drôme","key":"CountyName"}]},"MapReference":{"ReferenceId":"58163157","Spot":1.0,"SideOfStreet":"left","CountryId":"20000001","StateId":"20006029","CountyId":"20049094","CityId":"20049235"}}},{"Relevance":1.0,"Distance":72.4,"MatchLevel":"street","MatchQuality":{"Country":1.0,"State":1.0,"County":1.0,"City":1.0,"Street":[1.0],"PostalCode":1.0},"Location":{"LocationId":"NT_3Ci.u1t5poGlp52jxwv7WA_l_840246315_L","LocationType":"point","DisplayPosition":{"Latitude":44.9686881,"Longitude":5.0793684},"MapView":{"TopLeft":{"Latitude":44.96871,"Longitude":5.07931},"BottomRight":{"Latitude":44.96865,"Longitude":5.07947}},"Address":{"Label":"D102, 26300 Bésayes, France","Country":"FRA","State":"Auvergne-Rhône-Alpes","County":"Drôme","City":"Bésayes","Street":"D102","PostalCode":"26300","AdditionalData":[{"value":"France","key":"CountryName"},{"value":"Auvergne-Rhône-Alpes","key":"StateName"},{"value":"Drôme","key":"CountyName"}]},"MapReference":{"ReferenceId":"840246315","Spot":0.63,"SideOfStreet":"left","CountryId":"20000001","StateId":"20006029","CountyId":"20049094","CityId":"20049235"}}}]}]}}