{"Response":{"MetaInfo":{"Timestamp":"2020-03-28T11:24:07.105+0000","NextPageInformation":"2"},"View":[{"_type":"SearchResultsViewType","ViewId":0,"Result":[{"Relevance":1.0,"Distance":0.0,"Direction":0.0,"MatchLevel":"city","MatchQuality":{"Country":1.0,"State":1.0,"County":1.0,"City":1.0,"PostalCode":1.0},"Location":{"LocationId":"NT_-Qs3IOWCY-u0BnYjbUMIkA","LocationType":"point","DisplayPosition":{"Latitude":44.9891836,"Longitude":10.4239116},"MapView":{"TopLeft":{"Latitude":45.04333,"Longitude":10.38193},"BottomRight":{"Latitude":44.93592,"Longitude":10.59667}},"Address":{"Label":"Casalmaggiore, Lombardia, Italia","Country":"ITA","State":"Lombardia","County":"CR","City":"Casalmaggiore","PostalCode":"26041","AdditionalData":[{"value":"Italia","key":"CountryName"},{"value":"Lombardia","key":"StateName"},{"value":"Cremona","key":"CountyName"}]},"MapReference":{"ReferenceId":"781655686","SideOfStreet":"neither","CountryId":"20110484","StateId":"20114907","CountyId":"20118799","CityId":"20118861"}}},{"Relevance":1.0,"Distance":20.7,"MatchLevel":"houseNumber","MatchQuality":{"Country":1.0,"State":1.0,"County":1.0,"City":1.0,"Street":[1.0],"HouseNumber":1.0,"PostalCode":1.0},"MatchType":"interpolated","Location":{"LocationId":"NT_7ac-s3aIJYQpdaWRLqfiiD_xYD","LocationType":"point","DisplayPosition":{"Latitude":44.98903,"Longitude":10.42345},"MapView":{"TopLeft":{"Latitude":44.9901542,"Longitude":10.4218605},"BottomRight":{"Latitude":44.9879058,"Longitude":10.4250395}},"Address":{"Label":"Via Fratelli Rosselli, 16, 26041 Casalmaggiore CR, Italia","Country":"ITA","State":"Lombardia","County":"CR","City":"Casalmaggiore","Street":"Via Fratelli Rosselli","HouseNumber":"16","PostalCode":"26041","AdditionalData":[{"value":"Italia","key":"CountryName"},{"value":"Lombardia","key":"StateName"},{"value":"Cremona","key":"CountyName"}]},"MapReference":{"ReferenceId":"574478883","Spot":0.2,"SideOfStreet":"right","CountryId":"20110484","StateId":"20114907","CountyId":"20118799","CityId":"20118861","AddressId":"725299417","RoadLinkId":"55723985"}}},{"Relevance":1.0,"Distance":35.3,"MatchLevel":"houseNumber","MatchQuality":{"Country":1.0,"State":1.0,"County":1.0,"City":1.0,"Street":[1.0],"HouseNumber":1.0,"PostalCode":1.0},"MatchType":"interpolated","Location":{"LocationId":"NT_VH2V7b4XStyhFAlnch7zuD_0ED","LocationType":"point","DisplayPosition":{"Latitude":44.98878,"Longitude":10.42382},"MapView":{"TopLeft":{"Latitude":44.9899042,"Longitude":10.4222305},"BottomRight":{"Latitude":44.9876558,"Longitude":10.4254095}},"Address":{"Label":"Via Francesco Maria Mazzola, 41, 26041 Casalmaggiore CR, Italia","Country":"ITA","State":"Lombardia","County":"CR","City":"Casalmaggiore","Street":"Via Francesco Maria Mazzola","HouseNumber":"41","PostalCode":"26041","AdditionalData":[{"value":"Italia","key":"CountryName"},{"value":"Lombardia","key":"StateName"},{"value":"Cremona","key":"CountyName"}]},"MapReference":{"ReferenceId":"592379946","Spot":0.65,"SideOfStreet":"right","CountryId":"20110484","StateId":"20114907","CountyId":"20118799","CityId":"20118861","AddressId":"725348489","RoadLinkId":"54792441"}}},{"Relevance":1.0,"Distance":54.3,"MatchLevel":"houseNumber","MatchQuality":{"Country":1.0,"State":1.0,"County":1.0,"City":1.0,"Street":[1.0],"HouseNumber":1.0,"PostalCode":1.0},"MatchType":"interpolated","Location":{"LocationId":"NT_R-nG51BVlzidDFKfxMbPVB_0gD","LocationType":"point","DisplayPosition":{"Latitude":44.98975,"Longitude":10.42393},"MapView":{"TopLeft":{"Latitude":44.9908742,"Longitude":10.4223405},"BottomRight":{"Latitude":44.9886258,"Longitude":10.4255195}},"Address":{"Label":"Via Don Paolo Antonini, 48, 26041 Casalmaggiore CR, Italia","Country":"ITA","State":"Lombardia","County":"CR","City":"Casalmaggiore","Street":"Via Don Paolo Antonini","HouseNumber":"48","PostalCode":"26041","AdditionalData":[{"value":"Italia","key":"CountryName"},{"value":"Lombardia","key":"StateName"},{"value":"Cremona","key":"CountyName"}]},"MapReference":{"ReferenceId":"1204779175","Spot":0.81,"SideOfStreet":"left","CountryId":"20110484","StateId":"20114907","CountyId":"20118799","CityId":"20118861","AddressId":"725321430","RoadLinkId":"518173746"}}},{"Relevance":1.0,"Distance":67.6,"MatchLevel":"houseNumber","MatchQuality":{"Country":1.0,"State":1.0,"County":1.0,"City":1.0,"Street":[1.0],"HouseNumber":1.0,"PostalCode":1.0},"MatchType":"interpolated","Location":{"LocationId":"NT_VH2V7b4XStyhFAlnch7zuD_zUD","LocationType":"point","DisplayPosition":{"Latitude":44.98871,"Longitude":10.4246},"MapView":{"TopLeft":{"Latitude":44.9898342,"Longitude":10.4230105},"BottomRight":{"Latitude":44.9875858,"Longitude":10.4261895}},"Address":{"Label":"Via Francesco Maria Mazzola, 35, 26041 Casalmaggiore CR, Italia","Country":"ITA","State":"Lombardia","County":"CR","City":"Casalmaggiore","Street":"Via Francesco Maria Mazzola","HouseNumber":"35","PostalCode":"26041","AdditionalData":[{"value":"Italia","key":"CountryName"},{"value":"Lombardia","key":"StateName"},{"value":"Cremona","key":"CountyName"}]},"MapReference":{"ReferenceId":"592379944","Spot":0.69,"SideOfStreet":"right","CountryId":"20110484","StateId":"20114907","CountyId":"20118799","CityId":"20118861","AddressId":"246629306","RoadLinkId":"55054703"}}},{"Relevance":1.0,"Distance":72.0,"MatchLevel":"houseNumber","MatchQuality":{"Country":1.0,"State":1.0,"County":1.0,"City":1.0,"Street":[1.0],"HouseNumber":1.0,"PostalCode":1.0},"MatchType":"interpolated","Location":{"LocationId":"NT_h1oBFGRQRoLHsuBozfPTSD_zED","LocationType":"point","DisplayPosition":{"Latitude":44.98853,"Longitude":10.4244},"MapView":{"TopLeft":{"Latitude":44.9896542,"Longitude":10.4228105},"BottomRight":{"Latitude":44.9874058,"Longitude":10.4259895}},"Address":{"Label":"Via Ticino, 31, 26041 Casalmaggiore CR, Italia","Country":"ITA","State":"Lombardia","County":"CR","City":"Casalmaggiore","Street":"Via Ticino","HouseNumber":"31","PostalCode":"26041","AdditionalData":[{"value":"Italia","key":"CountryName"},{"value":"Lombardia","key":"StateName"},{"value":"Cremona","key":"CountyName"}]},"MapReference":{"ReferenceId":"592379945","Spot":0.73,"SideOfStreet":"left","CountryId":"20110484","StateId":"20114907","CountyId":"20118799","CityId":"20118861","AddressId":"725343570","RoadLinkId":"55490812"}}},{"Relevance":1.0,"Distance":76.5,"MatchLevel":"houseNumber","MatchQuality":{"Country":1.0,"State":1.0,"County":1.0,"City":1.0,"Street":[1.0],"HouseNumber":1.0,"PostalCode":1.0},"MatchType":"interpolated","Location":{"LocationId":"NT_VH2V7b4XStyhFAlnch7zuD_xcD","LocationType":"point","DisplayPosition":{"Latitude":44.98885,"Longitude":10.42295},"MapView":{"TopLeft":{"Latitude":44.9899742,"Longitude":10.4213605},"BottomRight":{"Latitude":44.9877258,"Longitude":10.4245395}},"Address":{"Label":"Via Francesco Maria Mazzola, 17, 26041 Casalmaggiore CR, Italia","Country":"ITA","State":"Lombardia","County":"CR","City":"Casalmaggiore","Street":"Via Francesco Maria Mazzola","HouseNumber":"17","PostalCode":"26041","AdditionalData":[{"value":"Italia","key":"CountryName"},{"value":"Lombardia","key":"StateName"},{"value":"Cremona","key":"CountyName"}]},"MapReference":{"ReferenceId":"574478757","Spot":0.88,"SideOfStreet":"right","CountryId":"20110484","StateId":"20114907","CountyId":"20118799","CityId":"20118861","AddressId":"246611002","RoadLinkId":"55265990"}}},{"Relevance":1.0,"Distance":86.0,"MatchLevel":"houseNumber","MatchQuality":{"Country":1.0,"State":1.0,"County":1.0,"City":1.0,"Street":[1.0],"HouseNumber":1.0,"PostalCode":1.0},"MatchType":"interpolated","Location":{"LocationId":"NT_.s131pfpYmpHHkEKFsYQUA_xID","LocationType":"point","DisplayPosition":{"Latitude":44.98867,"Longitude":10.42285},"MapView":{"TopLeft":{"Latitude":44.9897942,"Longitude":10.4212605},"BottomRight":{"Latitude":44.9875458,"Longitude":10.4244395}},"Address":{"Label":"Via Giosuè Carducci, 12, 26041 Casalmaggiore CR, Italia","Country":"ITA","State":"Lombardia","County":"CR","City":"Casalmaggiore","Street":"Via Giosuè Carducci","HouseNumber":"12","PostalCode":"26041","AdditionalData":[{"value":"Italia","key":"CountryName"},{"value":"Lombardia","key":"StateName"},{"value":"Cremona","key":"CountyName"}]},"MapReference":{"ReferenceId":"574478838","Spot":0.69,"SideOfStreet":"right","CountryId":"20110484","StateId":"20114907","CountyId":"20118799","CityId":"20118861","AddressId":"725319740","RoadLinkId":"55502005"}}},{"Relevance":1.0,"Distance":90.6,"MatchLevel":"street","MatchQuality":{"Country":1.0,"State":1.0,"County":1.0,"City":1.0,"Street":[1.0],"PostalCode":1.0},"Location":{"LocationId":"NT_3HI2FP-gyQ5ccplkQ0nPdD_l_1205070002_L","LocationType":"point","DisplayPosition":{"Latitude":44.9897244,"Longitude":10.4247728},"MapView":{"TopLeft":{"Latitude":44.99044,"Longitude":10.42426},"BottomRight":{"Latitude":44.98914,"Longitude":10.42501}},"Address":{"Label":"Via dello Zuccherificio, 26041 Casalmaggiore CR, Italia","Country":"ITA","State":"Lombardia","County":"CR","City":"Casalmaggiore","Street":"Via dello Zuccherificio","PostalCode":"26041","AdditionalData":[{"value":"Italia","key":"CountryName"},{"value":"Lombardia","key":"StateName"},{"value":"Cremona","key":"CountyName"}]},"MapReference":{"ReferenceId":"1205070002","Spot":0.42,"SideOfStreet":"left","CountryId":"20110484","StateId":"20114907","CountyId":"20118799","CityId":"20118861"}}},{"Relevance":1.0,"Distance":91.9,"MatchLevel":"street","MatchQuality":{"Country":1.0,"State":1.0,"County":1.0,"City":1.0,"Street":[1.0],"PostalCode":1.0},"Location":{"LocationId":"NT_R-nG51BVlzidDFKfxMbPVB_l_1204779179_L","LocationType":"point","DisplayPosition":{"Latitude":44.99,"Longitude":10.42373},"MapView":{"TopLeft":{"Latitude":44.99001,"Longitude":10.42312},"BottomRight":{"Latitude":44.99,"Longitude":10.42373}},"Address":{"Label":"Via Don Paolo Antonini, 26041 Casalmaggiore CR, Italia","Country":"ITA","State":"Lombardia","County":"CR","City":"Casalmaggiore","Street":"Via Don Paolo Antonini","PostalCode":"26041","AdditionalData":[{"value":"Italia","key":"CountryName"},{"value":"Lombardia","key":"StateName"},{"value":"Cremona","key":"CountyName"}]},"MapReference":{"ReferenceId":"1204779179","Spot":0.0,"SideOfStreet":"left","CountryId":"20110484","StateId":"20114907","CountyId":"20118799","CityId":"20118861"}}}]}]}}