{"Response":{"MetaInfo":{"Timestamp":"2020-03-28T11:10:16.419+0000","NextPageInformation":"2"},"View":[{"_type":"SearchResultsViewType","ViewId":0,"Result":[{"Relevance":1.0,"Distance":0.0,"Direction":0.0,"MatchLevel":"city","MatchQuality":{"Country":1.0,"State":1.0,"County":1.0,"City":1.0,"PostalCode":1.0},"Location":{"LocationId":"NT_.1-k.iKhpR--lo85i1AqyB","LocationType":"point","DisplayPosition":{"Latitude":44.9065737,"Longitude":6.6319471},"MapView":{"TopLeft":{"Latitude":44.92966,"Longitude":6.60068},"BottomRight":{"Latitude":44.8688,"Longitude":6.70662}},"Address":{"Label":"Briançon, Provence-Alpes-Côte d'Azur, France","Country":"FRA","State":"Provence-Alpes-Côte d'Azur","County":"Hautes-Alpes","City":"Briançon","PostalCode":"05100","AdditionalData":[{"value":"France","key":"CountryName"},{"value":"Provence-Alpes-Côte d'Azur","key":"StateName"},{"value":"Hautes-Alpes","key":"CountyName"}]},"MapReference":{"ReferenceId":"967378287","SideOfStreet":"neither","CountryId":"20000001","StateId":"20000193","CountyId":"20046407","CityId":"20046473"}}},{"Relevance":1.0,"Distance":9.7,"MatchLevel":"landmark","MatchQuality":{"Country":1.0,"State":1.0,"County":1.0,"City":1.0,"PostalCode":1.0,"Name":1.0},"Location":{"LocationId":"NT_xY0VN2PC4KOz1qEa5ggbbA_p_0BoCVV-r.72drNDRGaRaBB","LocationType":"hospital","Name":"CH de Briançon","DisplayPosition":{"Latitude":44.90619,"Longitude":6.63255},"MapView":{"TopLeft":{"Latitude":44.90662,"Longitude":6.63203},"BottomRight":{"Latitude":44.90552,"Longitude":6.63412}},"Address":{"Label":"05100 Briançon, France","Country":"FRA","State":"Provence-Alpes-Côte d'Azur","County":"Hautes-Alpes","City":"Briançon","PostalCode":"05100","AdditionalData":[{"value":"France","key":"CountryName"},{"value":"Provence-Alpes-Côte d'Azur","key":"StateName"},{"value":"Hautes-Alpes","key":"CountyName"}]},"MapReference":{"CountryId":"20000001","StateId":"20000193","CountyId":"20046407","CityId":"20046473","PlaceId":"51401837"}}},{"Relevance":1.0,"Distance":9.7,"MatchLevel":"street","MatchQuality":{"Country":1.0,"State":1.0,"County":1.0,"City":1.0,"PostalCode":1.0},"Location":{"LocationId":"NT_w17caFB.WqOa6Y.mFVIjfD_l_549658378_L","LocationType":"point","DisplayPosition":{"Latitude":44.9065491,"Longitude":6.6320652},"MapView":{"TopLeft":{"Latitude":44.90662,"Longitude":6.63203},"BottomRight":{"Latitude":44.90638,"Longitude":6.63208}},"Address":{"Label":"05100 Briançon, France","Country":"FRA","State":"Provence-Alpes-Côte d'Azur","County":"Hautes-Alpes","City":"Briançon","PostalCode":"05100","AdditionalData":[{"value":"France","key":"CountryName"},{"value":"Provence-Alpes-Côte d'Azur","key":"StateName"},{"value":"Hautes-Alpes","key":"CountyName"}]},"MapReference":{"ReferenceId":"549658378","Spot":0.7,"SideOfStreet":"left","CountryId":"20000001","StateId":"20000193","CountyId":"20046407","CityId":"20046473"}}},{"Relevance":1.0,"Distance":11.7,"MatchLevel":"street","MatchQuality":{"Country":1.0,"State":1.0,"County":1.0,"City":1.0,"Street":[1.0],"PostalCode":1.0},"Location":{"LocationId":"NT_62ofWuVVPC.rqOWhJHspRC_l_549658380_L","LocationType":"point","DisplayPosition":{"Latitude":44.90662,"Longitude":6.63208},"MapView":{"TopLeft":{"Latitude":44.90662,"Longitude":6.63208},"BottomRight":{"Latitude":44.90651,"Longitude":6.6325}},"Address":{"Label":"Avenue Adrien Daurelle, 05100 Briançon, France","Country":"FRA","State":"Provence-Alpes-Côte d'Azur","County":"Hautes-Alpes","City":"Briançon","Street":"Avenue Adrien Daurelle","PostalCode":"05100","AdditionalData":[{"value":"France","key":"CountryName"},{"value":"Provence-Alpes-Côte d'Azur","key":"StateName"},{"value":"Hautes-Alpes","key":"CountyName"}]},"MapReference":{"ReferenceId":"549658380","Spot":1.0,"SideOfStreet":"left","CountryId":"20000001","StateId":"20000193","CountyId":"20046407","CityId":"20046473"}}},{"Relevance":1.0,"Distance":22.5,"MatchLevel":"street","MatchQuality":{"Country":1.0,"State":1.0,"County":1.0,"City":1.0,"PostalCode":1.0},"Location":{"LocationId":"NT_w17caFB.WqOa6Y.mFVIjfD_l_549658377_L","LocationType":"point","DisplayPosition":{"Latitude":44.90638,"Longitude":6.63203},"MapView":{"TopLeft":{"Latitude":44.90638,"Longitude":6.63203},"BottomRight":{"Latitude":44.90552,"Longitude":6.63412}},"Address":{"Label":"05100 Briançon, France","Country":"FRA","State":"Provence-Alpes-Côte d'Azur","County":"Hautes-Alpes","City":"Briançon","PostalCode":"05100","AdditionalData":[{"value":"France","key":"CountryName"},{"value":"Provence-Alpes-Côte d'Azur","key":"StateName"},{"value":"Hautes-Alpes","key":"CountyName"}]},"MapReference":{"ReferenceId":"549658377","Spot":1.0,"SideOfStreet":"left","CountryId":"20000001","StateId":"20000193","CountyId":"20046407","CityId":"20046473"}}},{"Relevance":1.0,"Distance":22.5,"MatchLevel":"street","MatchQuality":{"Country":1.0,"State":1.0,"County":1.0,"City":1.0,"PostalCode":1.0},"Location":{"LocationId":"NT_w17caFB.WqOa6Y.mFVIjfD_l_549658381_R","LocationType":"point","DisplayPosition":{"Latitude":44.90638,"Longitude":6.63203},"MapView":{"TopLeft":{"Latitude":44.90638,"Longitude":6.63203},"BottomRight":{"Latitude":44.90627,"Longitude":6.63234}},"Address":{"Label":"05100 Briançon, France","Country":"FRA","State":"Provence-Alpes-Côte d'Azur","County":"Hautes-Alpes","City":"Briançon","PostalCode":"05100","AdditionalData":[{"value":"France","key":"CountryName"},{"value":"Provence-Alpes-Côte d'Azur","key":"StateName"},{"value":"Hautes-Alpes","key":"CountyName"}]},"MapReference":{"ReferenceId":"549658381","Spot":1.0,"SideOfStreet":"right","CountryId":"20000001","StateId":"20000193","CountyId":"20046407","CityId":"20046473"}}},{"Relevance":1.0,"Distance":44.6,"MatchLevel":"street","MatchQuality":{"Country":1.0,"State":1.0,"County":1.0,"City":1.0,"PostalCode":1.0},"Location":{"LocationId":"NT_w17caFB.WqOa6Y.mFVIjfD_l_549658382_L","LocationType":"point","DisplayPosition":{"Latitude":44.9062989,"Longitude":6.6323593},"MapView":{"TopLeft":{"Latitude":44.90651,"Longitude":6.63234},"BottomRight":{"Latitude":44.90627,"Longitude":6.6325}},"Address":{"Label":"05100 Briançon, France","Country":"FRA","State":"Provence-Alpes-Côte d'Azur","County":"Hautes-Alpes","City":"Briançon","PostalCode":"05100","AdditionalData":[{"value":"France","key":"CountryName"},{"value":"Provence-Alpes-Côte d'Azur","key":"StateName"},{"value":"Hautes-Alpes","key":"CountyName"}]},"MapReference":{"ReferenceId":"549658382","Spot":0.12,"SideOfStreet":"left","CountryId":"20000001","StateId":"20000193","CountyId":"20046407","CityId":"20046473"}}},{"Relevance":1.0,"Distance":45.8,"MatchLevel":"street","MatchQuality":{"Country":1.0,"State":1.0,"County":1.0,"City":1.0,"PostalCode":1.0},"Location":{"LocationId":"NT_w17caFB.WqOa6Y.mFVIjfD_l_549658383_R","LocationType":"point","DisplayPosition":{"Latitude":44.90627,"Longitude":6.63234},"MapView":{"TopLeft":{"Latitude":44.90627,"Longitude":6.63234},"BottomRight":{"Latitude":44.90619,"Longitude":6.63255}},"Address":{"Label":"05100 Briançon, France","Country":"FRA","State":"Provence-Alpes-Côte d'Azur","County":"Hautes-Alpes","City":"Briançon","PostalCode":"05100","AdditionalData":[{"value":"France","key":"CountryName"},{"value":"Provence-Alpes-Côte d'Azur","key":"StateName"},{"value":"Hautes-Alpes","key":"CountyName"}]},"MapReference":{"ReferenceId":"549658383","Spot":1.0,"SideOfStreet":"right","CountryId":"20000001","StateId":"20000193","CountyId":"20046407","CityId":"20046473"}}},{"Relevance":1.0,"Distance":52.3,"MatchLevel":"houseNumber","MatchQuality":{"Country":1.0,"State":1.0,"County":1.0,"City":1.0,"Street":[1.0],"HouseNumber":1.0,"PostalCode":1.0},"MatchType":"interpolated","Location":{"LocationId":"NT_62ofWuVVPC.rqOWhJHspRC_zED","LocationType":"point","DisplayPosition":{"Latitude":44.90649,"Longitude":6.6326},"MapView":{"TopLeft":{"Latitude":44.9076142,"Longitude":6.6310128},"BottomRight":{"Latitude":44.9053658,"Longitude":6.6341872}},"Address":{"Label":"31 Avenue Adrien Daurelle, 05100 Briançon, France","Country":"FRA","State":"Provence-Alpes-Côte d'Azur","County":"Hautes-Alpes","City":"Briançon","Street":"Avenue Adrien Daurelle","HouseNumber":"31","PostalCode":"05100","AdditionalData":[{"value":"France","key":"CountryName"},{"value":"Provence-Alpes-Côte d'Azur","key":"StateName"},{"value":"Hautes-Alpes","key":"CountyName"}]},"MapReference":{"ReferenceId":"549658379","Spot":0.84,"SideOfStreet":"right","CountryId":"20000001","StateId":"20000193","CountyId":"20046407","CityId":"20046473","AddressId":"573501500","RoadLinkId":"45477200"}}},{"Relevance":1.0,"Distance":86.3,"MatchLevel":"houseNumber","MatchQuality":{"Country":1.0,"State":1.0,"County":1.0,"City":1.0,"Street":[1.0],"HouseNumber":1.0,"PostalCode":1.0},"MatchType":"interpolated","Location":{"LocationId":"NT_9pQMOfeXwMtWaaxWOOLdtC_zED","LocationType":"point","DisplayPosition":{"Latitude":44.90764,"Longitude":6.63224},"MapView":{"TopLeft":{"Latitude":44.9087642,"Longitude":6.6306528},"BottomRight":{"Latitude":44.9065158,"Longitude":6.6338272}},"Address":{"Label":"31 Route de Grenoble, 05100 Briançon, France","Country":"FRA","State":"Provence-Alpes-Côte d'Azur","County":"Hautes-Alpes","City":"Briançon","Street":"Route de Grenoble","HouseNumber":"31","PostalCode":"05100","AdditionalData":[{"value":"France","key":"CountryName"},{"value":"Provence-Alpes-Côte d'Azur","key":"StateName"},{"value":"Hautes-Alpes","key":"CountyName"}]},"MapReference":{"ReferenceId":"719359516","Spot":0.42,"SideOfStreet":"left","CountryId":"20000001","StateId":"20000193","CountyId":"20046407","CityId":"20046473","AddressId":"627285597","RoadLinkId":"124222420"}}}]}]}}