{"Response":{"MetaInfo":{"Timestamp":"2020-03-28T11:25:21.062+0000","NextPageInformation":"2"},"View":[{"_type":"SearchResultsViewType","ViewId":0,"Result":[{"Relevance":1.0,"Distance":0.0,"Direction":0.0,"MatchLevel":"city","MatchQuality":{"Country":1.0,"State":1.0,"County":1.0,"City":1.0,"PostalCode":1.0},"Location":{"LocationId":"NT_mLzg7X9-6oPz6Cxifd6kgB","LocationType":"point","DisplayPosition":{"Latitude":44.9947981,"Longitude":9.0176063},"MapView":{"TopLeft":{"Latitude":45.06907,"Longitude":8.9609},"BottomRight":{"Latitude":44.95901,"Longitude":9.06959}},"Address":{"Label":"Voghera, Lombardia, Italia","Country":"ITA","State":"Lombardia","County":"PV","City":"Voghera","PostalCode":"27058","AdditionalData":[{"value":"Italia","key":"CountryName"},{"value":"Lombardia","key":"StateName"},{"value":"Pavia","key":"CountyName"}]},"MapReference":{"ReferenceId":"780440051","SideOfStreet":"neither","CountryId":"20110484","StateId":"20114907","CountyId":"20118212","CityId":"20118771"}}},{"Relevance":1.0,"Distance":0.9,"MatchLevel":"houseNumber","MatchQuality":{"Country":1.0,"State":1.0,"County":1.0,"City":1.0,"Street":[1.0],"HouseNumber":1.0,"PostalCode":1.0},"MatchType":"interpolated","Location":{"LocationId":"NT_Dq7BT8WooQhE7CaeptuyTB_xcD","LocationType":"point","DisplayPosition":{"Latitude":44.99479,"Longitude":9.01765},"MapView":{"TopLeft":{"Latitude":44.9959142,"Longitude":9.0160604},"BottomRight":{"Latitude":44.9936658,"Longitude":9.0192396}},"Address":{"Label":"Via Carlo Emanuele, 17, 27058 Voghera PV, Italia","Country":"ITA","State":"Lombardia","County":"PV","City":"Voghera","Street":"Via Carlo Emanuele","HouseNumber":"17","PostalCode":"27058","AdditionalData":[{"value":"Italia","key":"CountryName"},{"value":"Lombardia","key":"StateName"},{"value":"Pavia","key":"CountyName"}]},"MapReference":{"ReferenceId":"577236171","Spot":0.92,"SideOfStreet":"left","CountryId":"20110484","StateId":"20114907","CountyId":"20118212","CityId":"20118771","AddressId":"728842421","RoadLinkId":"55405716"}}},{"Relevance":1.0,"Distance":19.6,"MatchLevel":"houseNumber","MatchQuality":{"Country":1.0,"State":1.0,"County":1.0,"City":1.0,"Street":[1.0],"HouseNumber":1.0,"PostalCode":1.0},"MatchType":"interpolated","Location":{"LocationId":"NT_Dq7BT8WooQhE7CaeptuyTB_yATQ","LocationType":"point","DisplayPosition":{"Latitude":44.99472,"Longitude":9.01783},"MapView":{"TopLeft":{"Latitude":44.9958442,"Longitude":9.0162404},"BottomRight":{"Latitude":44.9935958,"Longitude":9.0194196}},"Address":{"Label":"Via Carlo Emanuele, 20A, 27058 Voghera PV, Italia","Country":"ITA","State":"Lombardia","County":"PV","City":"Voghera","Street":"Via Carlo Emanuele","HouseNumber":"20A","PostalCode":"27058","AdditionalData":[{"value":"Italia","key":"CountryName"},{"value":"Lombardia","key":"StateName"},{"value":"Pavia","key":"CountyName"}]},"MapReference":{"ReferenceId":"1075129773","Spot":0.78,"SideOfStreet":"right","CountryId":"20110484","StateId":"20114907","CountyId":"20118212","CityId":"20118771","AddressId":"365352900","RoadLinkId":"395330883"}}},{"Relevance":1.0,"Distance":44.4,"MatchLevel":"houseNumber","MatchQuality":{"Country":1.0,"State":1.0,"County":1.0,"City":1.0,"Street":[1.0],"HouseNumber":1.0,"PostalCode":1.0},"MatchType":"interpolated","Location":{"LocationId":"NT_Dq7BT8WooQhE7CaeptuyTB_xED","LocationType":"point","DisplayPosition":{"Latitude":44.99519,"Longitude":9.0175},"MapView":{"TopLeft":{"Latitude":44.9963142,"Longitude":9.0159103},"BottomRight":{"Latitude":44.9940658,"Longitude":9.0190897}},"Address":{"Label":"Via Carlo Emanuele, 11, 27058 Voghera PV, Italia","Country":"ITA","State":"Lombardia","County":"PV","City":"Voghera","Street":"Via Carlo Emanuele","HouseNumber":"11","PostalCode":"27058","AdditionalData":[{"value":"Italia","key":"CountryName"},{"value":"Lombardia","key":"StateName"},{"value":"Pavia","key":"CountyName"}]},"MapReference":{"ReferenceId":"1075129774","Spot":0.43,"SideOfStreet":"left","CountryId":"20110484","StateId":"20114907","CountyId":"20118212","CityId":"20118771","AddressId":"728838565","RoadLinkId":"395330884"}}},{"Relevance":1.0,"Distance":71.7,"MatchLevel":"houseNumber","MatchQuality":{"Country":1.0,"State":1.0,"County":1.0,"City":1.0,"Street":[1.0],"HouseNumber":1.0,"PostalCode":1.0},"MatchType":"interpolated","Location":{"LocationId":"NT_R9LhIty4wuCQ57gQujDeQB_yED","LocationType":"point","DisplayPosition":{"Latitude":44.99514,"Longitude":9.01842},"MapView":{"TopLeft":{"Latitude":44.9962642,"Longitude":9.0168303},"BottomRight":{"Latitude":44.9940158,"Longitude":9.0200097}},"Address":{"Label":"Via Cesare Massa, 21, 27058 Voghera PV, Italia","Country":"ITA","State":"Lombardia","County":"PV","City":"Voghera","Street":"Via Cesare Massa","HouseNumber":"21","PostalCode":"27058","AdditionalData":[{"value":"Italia","key":"CountryName"},{"value":"Lombardia","key":"StateName"},{"value":"Pavia","key":"CountyName"}]},"MapReference":{"ReferenceId":"577234947","Spot":0.0,"SideOfStreet":"left","CountryId":"20110484","StateId":"20114907","CountyId":"20118212","CityId":"20118771","AddressId":"728805421","RoadLinkId":"55769223"}}},{"Relevance":1.0,"Distance":82.5,"MatchLevel":"houseNumber","MatchQuality":{"Country":1.0,"State":1.0,"County":1.0,"City":1.0,"Street":[1.0],"HouseNumber":1.0,"PostalCode":1.0},"MatchType":"interpolated","Location":{"LocationId":"NT_3XIQg6vpZo-M8LY4t3SHeB_xA","LocationType":"point","DisplayPosition":{"Latitude":44.99559,"Longitude":9.01761},"MapView":{"TopLeft":{"Latitude":44.9967142,"Longitude":9.0160203},"BottomRight":{"Latitude":44.9944658,"Longitude":9.0191997}},"Address":{"Label":"Via Maggioriano, 1, 27058 Voghera PV, Italia","Country":"ITA","State":"Lombardia","County":"PV","City":"Voghera","Street":"Via Maggioriano","HouseNumber":"1","PostalCode":"27058","AdditionalData":[{"value":"Italia","key":"CountryName"},{"value":"Lombardia","key":"StateName"},{"value":"Pavia","key":"CountyName"}]},"MapReference":{"ReferenceId":"577234948","Spot":0.38,"SideOfStreet":"right","CountryId":"20110484","StateId":"20114907","CountyId":"20118212","CityId":"20118771","AddressId":"365229705","RoadLinkId":"55314057"}}},{"Relevance":1.0,"Distance":84.9,"MatchLevel":"houseNumber","MatchQuality":{"Country":1.0,"State":1.0,"County":1.0,"City":1.0,"Street":[1.0],"HouseNumber":1.0,"PostalCode":1.0},"MatchType":"interpolated","Location":{"LocationId":"NT_.Cr95FjUqaAB23RgKWhnEC_zQD","LocationType":"point","DisplayPosition":{"Latitude":44.99399,"Longitude":9.01748},"MapView":{"TopLeft":{"Latitude":44.9951142,"Longitude":9.0158904},"BottomRight":{"Latitude":44.9928658,"Longitude":9.0190696}},"Address":{"Label":"Via Giovanni Barenghi, 34, 27058 Voghera PV, Italia","Country":"ITA","State":"Lombardia","County":"PV","City":"Voghera","Street":"Via Giovanni Barenghi","HouseNumber":"34","PostalCode":"27058","AdditionalData":[{"value":"Italia","key":"CountryName"},{"value":"Lombardia","key":"StateName"},{"value":"Pavia","key":"CountyName"}]},"MapReference":{"ReferenceId":"577236169","Spot":0.87,"SideOfStreet":"left","CountryId":"20110484","StateId":"20114907","CountyId":"20118212","CityId":"20118771","AddressId":"365331920","RoadLinkId":"55419790"}}},{"Relevance":1.0,"Distance":89.1,"MatchLevel":"street","MatchQuality":{"Country":1.0,"State":1.0,"County":1.0,"City":1.0,"Street":[1.0],"PostalCode":1.0},"Location":{"LocationId":"NT_Dq7BT8WooQhE7CaeptuyTB_l_577236174_L","LocationType":"point","DisplayPosition":{"Latitude":44.994,"Longitude":9.01771},"MapView":{"TopLeft":{"Latitude":44.994,"Longitude":9.01757},"BottomRight":{"Latitude":44.99355,"Longitude":9.01779}},"Address":{"Label":"Via Carlo Emanuele, 27058 Voghera PV, Italia","Country":"ITA","State":"Lombardia","County":"PV","City":"Voghera","Street":"Via Carlo Emanuele","PostalCode":"27058","AdditionalData":[{"value":"Italia","key":"CountryName"},{"value":"Lombardia","key":"StateName"},{"value":"Pavia","key":"CountyName"}]},"MapReference":{"ReferenceId":"577236174","Spot":1.0,"SideOfStreet":"left","CountryId":"20110484","StateId":"20114907","CountyId":"20118212","CityId":"20118771"}}},{"Relevance":1.0,"Distance":89.1,"MatchLevel":"street","MatchQuality":{"Country":1.0,"State":1.0,"County":1.0,"City":1.0,"Street":[1.0],"PostalCode":1.0},"Location":{"LocationId":"NT_.Cr95FjUqaAB23RgKWhnEC_l_577236170_R","LocationType":"point","DisplayPosition":{"Latitude":44.994,"Longitude":9.01771},"MapView":{"TopLeft":{"Latitude":44.994,"Longitude":9.01771},"BottomRight":{"Latitude":44.99399,"Longitude":9.01788}},"Address":{"Label":"Via Giovanni Barenghi, 27058 Voghera PV, Italia","Country":"ITA","State":"Lombardia","County":"PV","City":"Voghera","Street":"Via Giovanni Barenghi","PostalCode":"27058","AdditionalData":[{"value":"Italia","key":"CountryName"},{"value":"Lombardia","key":"StateName"},{"value":"Pavia","key":"CountyName"}]},"MapReference":{"ReferenceId":"577236170","Spot":1.0,"SideOfStreet":"right","CountryId":"20110484","StateId":"20114907","CountyId":"20118212","CityId":"20118771"}}},{"Relevance":1.0,"Distance":95.5,"MatchLevel":"houseNumber","MatchQuality":{"Country":1.0,"State":1.0,"County":1.0,"City":1.0,"Street":[1.0],"HouseNumber":1.0,"PostalCode":1.0},"MatchType":"interpolated","Location":{"LocationId":"NT_Dq7BT8WooQhE7CaeptuyTB_zID","LocationType":"point","DisplayPosition":{"Latitude":44.99396,"Longitude":9.01787},"MapView":{"TopLeft":{"Latitude":44.9950842,"Longitude":9.0162804},"BottomRight":{"Latitude":44.9928358,"Longitude":9.0194596}},"Address":{"Label":"Via Carlo Emanuele, 32, 27058 Voghera PV, Italia","Country":"ITA","State":"Lombardia","County":"PV","City":"Voghera","Street":"Via Carlo Emanuele","HouseNumber":"32","PostalCode":"27058","AdditionalData":[{"value":"Italia","key":"CountryName"},{"value":"Lombardia","key":"StateName"},{"value":"Pavia","key":"CountyName"}]},"MapReference":{"ReferenceId":"1075122902","Spot":0.82,"SideOfStreet":"right","CountryId":"20110484","StateId":"20114907","CountyId":"20118212","CityId":"20118771","AddressId":"365272050","RoadLinkId":"395325209"}}}]}]}}