{"Response":{"MetaInfo":{"Timestamp":"2020-03-28T11:34:26.911+0000","NextPageInformation":"2"},"View":[{"_type":"SearchResultsViewType","ViewId":0,"Result":[{"Relevance":1.0,"Distance":0.0,"Direction":0.0,"MatchLevel":"district","MatchQuality":{"Country":1.0,"County":1.0,"City":1.0,"District":1.0,"PostalCode":1.0},"Location":{"LocationId":"NT_IZnSB-p1Sua3LaGKJ1iv4C","LocationType":"point","DisplayPosition":{"Latitude":44.9190963,"Longitude":25.456973},"MapView":{"TopLeft":{"Latitude":44.94964,"Longitude":25.41905},"BottomRight":{"Latitude":44.89621,"Longitude":25.50374}},"Address":{"Label":"Târgoviște, România","Country":"ROU","County":"Dâmbovița","City":"Târgoviște","District":"Târgoviște","PostalCode":"130007","AdditionalData":[{"value":"România","key":"CountryName"},{"value":"Dâmbovița","key":"CountyName"}]},"MapReference":{"ReferenceId":"1195934676","SideOfStreet":"neither","CountryId":"20656215","CountyId":"20659026","CityId":"20659194","DistrictId":"20659195"}}},{"Relevance":1.0,"Distance":59.5,"MatchLevel":"street","MatchQuality":{"Country":1.0,"County":1.0,"City":1.0,"District":1.0,"PostalCode":1.0},"Location":{"LocationId":"NT_qCuctcoLuoo6BJyaBl30oD_l_1160590895_R","LocationType":"point","DisplayPosition":{"Latitude":44.91862,"Longitude":25.45663},"MapView":{"TopLeft":{"Latitude":44.9188,"Longitude":25.45594},"BottomRight":{"Latitude":44.91849,"Longitude":25.45663}},"Address":{"Label":"130051 Târgoviște, România","Country":"ROU","County":"Dâmbovița","City":"Târgoviște","District":"Târgoviște","PostalCode":"130051","AdditionalData":[{"value":"România","key":"CountryName"},{"value":"Dâmbovița","key":"CountyName"}]},"MapReference":{"ReferenceId":"1160590895","Spot":0.16,"SideOfStreet":"right","CountryId":"20656215","CountyId":"20659026","CityId":"20659194","DistrictId":"20659195"}}},{"Relevance":1.0,"Distance":59.7,"MatchLevel":"street","MatchQuality":{"Country":1.0,"County":1.0,"City":1.0,"District":1.0,"PostalCode":1.0},"Location":{"LocationId":"NT_qCuctcoLuoo6BJyaBl30oD_l_1195947382_L","LocationType":"point","DisplayPosition":{"Latitude":44.91856,"Longitude":25.457},"MapView":{"TopLeft":{"Latitude":44.91856,"Longitude":25.45692},"BottomRight":{"Latitude":44.9184,"Longitude":25.457}},"Address":{"Label":"130051 Târgoviște, România","Country":"ROU","County":"Dâmbovița","City":"Târgoviște","District":"Târgoviște","PostalCode":"130051","AdditionalData":[{"value":"România","key":"CountryName"},{"value":"Dâmbovița","key":"CountyName"}]},"MapReference":{"ReferenceId":"1195947382","Spot":1.0,"SideOfStreet":"left","CountryId":"20656215","CountyId":"20659026","CityId":"20659194","DistrictId":"20659195"}}},{"Relevance":1.0,"Distance":67.6,"MatchLevel":"houseNumber","MatchQuality":{"Country":1.0,"County":1.0,"City":1.0,"District":1.0,"Street":[1.0],"HouseNumber":1.0,"PostalCode":1.0},"MatchType":"interpolated","Location":{"LocationId":"NT_EzMLDNsz6rRdqKpYc.o1qC_0ETQ","LocationType":"point","DisplayPosition":{"Latitude":44.91921,"Longitude":25.45609},"MapView":{"TopLeft":{"Latitude":44.9203342,"Longitude":25.4545024},"BottomRight":{"Latitude":44.9180858,"Longitude":25.4576776}},"Address":{"Label":"Bulevardul Regele Carol I 41A, 130024 Târgoviște, România","Country":"ROU","County":"Dâmbovița","City":"Târgoviște","District":"Târgoviște","Street":"Bulevardul Regele Carol I","HouseNumber":"41A","PostalCode":"130024","AdditionalData":[{"value":"România","key":"CountryName"},{"value":"Dâmbovița","key":"CountyName"}]},"MapReference":{"ReferenceId":"1160590897","Spot":0.77,"SideOfStreet":"right","CountryId":"20656215","CountyId":"20659026","CityId":"20659194","DistrictId":"20659195","AddressId":"686731420","RoadLinkId":"467011648"}}},{"Relevance":1.0,"Distance":71.9,"MatchLevel":"street","MatchQuality":{"Country":1.0,"County":1.0,"City":1.0,"District":1.0,"Street":[1.0],"PostalCode":1.0},"Location":{"LocationId":"NT_Gzu8PPfAv0TdL4THPiWcFA_l_1195947381_R","LocationType":"point","DisplayPosition":{"Latitude":44.9184618,"Longitude":25.4568},"MapView":{"TopLeft":{"Latitude":44.91849,"Longitude":25.45658},"BottomRight":{"Latitude":44.9184,"Longitude":25.45692}},"Address":{"Label":"Aleea Trandafirilor, 130051 Târgoviște, România","Country":"ROU","County":"Dâmbovița","City":"Târgoviște","District":"Târgoviște","Street":"Aleea Trandafirilor","PostalCode":"130051","AdditionalData":[{"value":"România","key":"CountryName"},{"value":"Dâmbovița","key":"CountyName"}]},"MapReference":{"ReferenceId":"1195947381","Spot":0.39,"SideOfStreet":"right","CountryId":"20656215","CountyId":"20659026","CityId":"20659194","DistrictId":"20659195"}}},{"Relevance":1.0,"Distance":75.1,"MatchLevel":"houseNumber","MatchQuality":{"Country":1.0,"County":1.0,"City":1.0,"District":1.0,"Street":[1.0],"HouseNumber":1.0,"PostalCode":1.0},"MatchType":"interpolated","Location":{"LocationId":"NT_EzMLDNsz6rRdqKpYc.o1qC_0ED","LocationType":"point","DisplayPosition":{"Latitude":44.91957,"Longitude":25.45623},"MapView":{"TopLeft":{"Latitude":44.9206942,"Longitude":25.4546424},"BottomRight":{"Latitude":44.9184458,"Longitude":25.4578176}},"Address":{"Label":"Bulevardul Regele Carol I 41, 130024 Târgoviște, România","Country":"ROU","County":"Dâmbovița","City":"Târgoviște","District":"Târgoviște","Street":"Bulevardul Regele Carol I","HouseNumber":"41","PostalCode":"130024","AdditionalData":[{"value":"România","key":"CountryName"},{"value":"Dâmbovița","key":"CountyName"}]},"MapReference":{"ReferenceId":"1037406170","Spot":0.51,"SideOfStreet":"right","CountryId":"20656215","CountyId":"20659026","CityId":"20659194","DistrictId":"20659195","AddressId":"686734898","RoadLinkId":"359301159"}}},{"Relevance":1.0,"Distance":81.4,"MatchLevel":"houseNumber","MatchQuality":{"Country":1.0,"County":1.0,"City":1.0,"District":1.0,"Street":[1.0],"HouseNumber":1.0,"PostalCode":1.0},"MatchType":"interpolated","Location":{"LocationId":"NT_EzMLDNsz6rRdqKpYc.o1qC_0UD","LocationType":"point","DisplayPosition":{"Latitude":44.91861,"Longitude":25.45587},"MapView":{"TopLeft":{"Latitude":44.9197342,"Longitude":25.4542825},"BottomRight":{"Latitude":44.9174858,"Longitude":25.4574575}},"Address":{"Label":"Bulevardul Regele Carol I 45, 130024 Târgoviște, România","Country":"ROU","County":"Dâmbovița","City":"Târgoviște","District":"Târgoviște","Street":"Bulevardul Regele Carol I","HouseNumber":"45","PostalCode":"130024","AdditionalData":[{"value":"România","key":"CountryName"},{"value":"Dâmbovița","key":"CountyName"}]},"MapReference":{"ReferenceId":"1160590896","Spot":0.0,"SideOfStreet":"right","CountryId":"20656215","CountyId":"20659026","CityId":"20659194","DistrictId":"20659195","AddressId":"686731421","RoadLinkId":"467011647"}}},{"Relevance":1.0,"Distance":86.1,"MatchLevel":"houseNumber","MatchQuality":{"Country":1.0,"County":1.0,"City":1.0,"District":1.0,"Street":[1.0],"HouseNumber":1.0,"PostalCode":1.0},"MatchType":"interpolated","Location":{"LocationId":"NT_EzMLDNsz6rRdqKpYc.o1qC_1AD","LocationType":"point","DisplayPosition":{"Latitude":44.91937,"Longitude":25.45595},"MapView":{"TopLeft":{"Latitude":44.9204942,"Longitude":25.4543624},"BottomRight":{"Latitude":44.9182458,"Longitude":25.4575376}},"Address":{"Label":"Bulevardul Regele Carol I 50, 130024 Târgoviște, România","Country":"ROU","County":"Dâmbovița","City":"Târgoviște","District":"Târgoviște","Street":"Bulevardul Regele Carol I","HouseNumber":"50","PostalCode":"130024","AdditionalData":[{"value":"România","key":"CountryName"},{"value":"Dâmbovița","key":"CountyName"}]},"MapReference":{"ReferenceId":"588457654","Spot":0.14,"SideOfStreet":"left","CountryId":"20656215","CountyId":"20659026","CityId":"20659194","DistrictId":"20659195","AddressId":"686731412","RoadLinkId":"324684134"}}},{"Relevance":1.0,"Distance":89.9,"MatchLevel":"houseNumber","MatchQuality":{"Country":1.0,"County":1.0,"City":1.0,"District":1.0,"Street":[1.0],"HouseNumber":1.0,"PostalCode":1.0},"MatchType":"interpolated","Location":{"LocationId":"NT_Gzu8PPfAv0TdL4THPiWcFA_0A","LocationType":"point","DisplayPosition":{"Latitude":44.91803,"Longitude":25.45717},"MapView":{"TopLeft":{"Latitude":44.9191542,"Longitude":25.4555825},"BottomRight":{"Latitude":44.9169058,"Longitude":25.4587575}},"Address":{"Label":"Aleea Trandafirilor 4, 130051 Târgoviște, România","Country":"ROU","County":"Dâmbovița","City":"Târgoviște","District":"Târgoviște","Street":"Aleea Trandafirilor","HouseNumber":"4","PostalCode":"130051","AdditionalData":[{"value":"România","key":"CountryName"},{"value":"Dâmbovița","key":"CountyName"}]},"MapReference":{"ReferenceId":"1195947380","Spot":0.61,"SideOfStreet":"right","CountryId":"20656215","CountyId":"20659026","CityId":"20659194","DistrictId":"20659195","AddressId":"686731388","RoadLinkId":"506327964"}}},{"Relevance":1.0,"Distance":98.9,"MatchLevel":"houseNumber","MatchQuality":{"Country":1.0,"County":1.0,"City":1.0,"District":1.0,"Street":[1.0],"HouseNumber":1.0,"PostalCode":1.0},"MatchType":"interpolated","Location":{"LocationId":"NT_EzMLDNsz6rRdqKpYc.o1qC_zcD","LocationType":"point","DisplayPosition":{"Latitude":44.91988,"Longitude":25.45633},"MapView":{"TopLeft":{"Latitude":44.9210042,"Longitude":25.4547424},"BottomRight":{"Latitude":44.9187558,"Longitude":25.4579176}},"Address":{"Label":"Bulevardul Regele Carol I 37, 130024 Târgoviște, România","Country":"ROU","County":"Dâmbovița","City":"Târgoviște","District":"Târgoviște","Street":"Bulevardul Regele Carol I","HouseNumber":"37","PostalCode":"130024","AdditionalData":[{"value":"România","key":"CountryName"},{"value":"Dâmbovița","key":"CountyName"}]},"MapReference":{"ReferenceId":"1195944678","Spot":0.27,"SideOfStreet":"right","CountryId":"20656215","CountyId":"20659026","CityId":"20659194","DistrictId":"20659195","AddressId":"686734741","RoadLinkId":"506324311"}}}]}]}}