{"Response":{"MetaInfo":{"Timestamp":"2020-03-28T11:10:28.020+0000","NextPageInformation":"2"},"View":[{"_type":"SearchResultsViewType","ViewId":0,"Result":[{"Relevance":1.0,"Distance":0.0,"Direction":0.0,"MatchLevel":"district","MatchQuality":{"Country":1.0,"State":1.0,"County":1.0,"City":1.0,"District":1.0,"PostalCode":1.0},"Location":{"LocationId":"NT_CHXQl415Ez5k.j4tWTT9uB","LocationType":"point","DisplayPosition":{"Latitude":45.050816,"Longitude":3.8757935},"MapView":{"TopLeft":{"Latitude":45.06351,"Longitude":3.85574},"BottomRight":{"Latitude":45.03653,"Longitude":3.89392}},"Address":{"Label":"Le Pont Vieux, Espaly-Saint-Marcel, Auvergne-Rhône-Alpes, France","Country":"FRA","State":"Auvergne-Rhône-Alpes","County":"Haute-Loire","City":"Espaly-Saint-Marcel","District":"Le Pont Vieux","PostalCode":"43000","AdditionalData":[{"value":"France","key":"CountryName"},{"value":"Auvergne-Rhône-Alpes","key":"StateName"},{"value":"Haute-Loire","key":"CountyName"}]},"MapReference":{"ReferenceId":"582770591","SideOfStreet":"neither","CountryId":"20000001","StateId":"20006029","CountyId":"20052815","CityId":"20100132"}}},{"Relevance":1.0,"Distance":2.8,"MatchLevel":"street","MatchQuality":{"Country":1.0,"State":1.0,"County":1.0,"City":1.0,"Street":[1.0],"PostalCode":1.0},"Location":{"LocationId":"NT_Swt.vGHORqdOc8qN0N3sWB_l_561252710_L","LocationType":"point","DisplayPosition":{"Latitude":45.0508078,"Longitude":3.8757593},"MapView":{"TopLeft":{"Latitude":45.05093,"Longitude":3.87573},"BottomRight":{"Latitude":45.05043,"Longitude":3.87585}},"Address":{"Label":"Chemin de la Boriette, 43000 Polignac, France","Country":"FRA","State":"Auvergne-Rhône-Alpes","County":"Haute-Loire","City":"Polignac","Street":"Chemin de la Boriette","PostalCode":"43000","AdditionalData":[{"value":"France","key":"CountryName"},{"value":"Auvergne-Rhône-Alpes","key":"StateName"},{"value":"Haute-Loire","key":"CountyName"}]},"MapReference":{"ReferenceId":"561252710","Spot":0.76,"SideOfStreet":"neither","CountryId":"20000001","StateId":"20006029","CountyId":"20052815","CityId":"20100320"}}},{"Relevance":1.0,"Distance":20.1,"MatchLevel":"landmark","MatchQuality":{"Country":1.0,"State":1.0,"County":1.0,"City":1.0,"PostalCode":1.0,"Name":1.0},"Location":{"LocationId":"NT_gw7nRD-qfTz0ouCDe2-XjA_p_JXdtaPP8jhh.v0dEzfy8-D","LocationType":"hospital","Name":"CH Émile Roux","DisplayPosition":{"Latitude":45.05172,"Longitude":3.87976},"MapView":{"TopLeft":{"Latitude":45.0526,"Longitude":3.87605},"BottomRight":{"Latitude":45.04882,"Longitude":3.88128}},"Address":{"Label":"43000 Le Puy-en-Velay, France","Country":"FRA","State":"Auvergne-Rhône-Alpes","County":"Haute-Loire","City":"Le Puy-en-Velay","PostalCode":"43000","AdditionalData":[{"value":"France","key":"CountryName"},{"value":"Auvergne-Rhône-Alpes","key":"StateName"},{"value":"Haute-Loire","key":"CountyName"}]},"MapReference":{"CountryId":"20000001","StateId":"20006029","CountyId":"20052815","CityId":"20100335","PlaceId":"541982741"}}},{"Relevance":1.0,"Distance":20.1,"MatchLevel":"street","MatchQuality":{"Country":1.0,"State":1.0,"County":1.0,"City":1.0,"Street":[1.0],"PostalCode":1.0},"Location":{"LocationId":"NT_ti7SOVpANpI63oO.rMdGpA_l_1023017130_L","LocationType":"point","DisplayPosition":{"Latitude":45.050816,"Longitude":3.87605},"MapView":{"TopLeft":{"Latitude":45.05229,"Longitude":3.87605},"BottomRight":{"Latitude":45.05041,"Longitude":3.87813}},"Address":{"Label":"Allée 1, 43000 Le Puy-en-Velay, France","Country":"FRA","State":"Auvergne-Rhône-Alpes","County":"Haute-Loire","City":"Le Puy-en-Velay","Street":"Allée 1","PostalCode":"43000","AdditionalData":[{"value":"France","key":"CountryName"},{"value":"Auvergne-Rhône-Alpes","key":"StateName"},{"value":"Haute-Loire","key":"CountyName"}]},"MapReference":{"ReferenceId":"1023017130","Spot":0.19,"SideOfStreet":"left","CountryId":"20000001","StateId":"20006029","CountyId":"20052815","CityId":"20100335"}}},{"Relevance":1.0,"Distance":32.3,"MatchLevel":"houseNumber","MatchQuality":{"Country":1.0,"State":1.0,"County":1.0,"City":1.0,"Street":[1.0],"HouseNumber":1.0,"PostalCode":1.0},"MatchType":"interpolated","Location":{"LocationId":"NT_UZi-KbbjLvNwBiPrrouqaA_xA","LocationType":"point","DisplayPosition":{"Latitude":45.05105,"Longitude":3.87555},"MapView":{"TopLeft":{"Latitude":45.0521742,"Longitude":3.8739588},"BottomRight":{"Latitude":45.0499258,"Longitude":3.8771412}},"Address":{"Label":"1 Chemin des Sources, 43000 Polignac, France","Country":"FRA","State":"Auvergne-Rhône-Alpes","County":"Haute-Loire","City":"Polignac","Street":"Chemin des Sources","HouseNumber":"1","PostalCode":"43000","AdditionalData":[{"value":"France","key":"CountryName"},{"value":"Auvergne-Rhône-Alpes","key":"StateName"},{"value":"Haute-Loire","key":"CountyName"}]},"MapReference":{"ReferenceId":"582770490","Spot":0.16,"SideOfStreet":"left","CountryId":"20000001","StateId":"20006029","CountyId":"20052815","CityId":"20100320","AddressId":"321414128","RoadLinkId":"53510832"}}},{"Relevance":1.0,"Distance":34.9,"MatchLevel":"houseNumber","MatchQuality":{"Country":1.0,"State":1.0,"County":1.0,"City":1.0,"Street":[1.0],"HouseNumber":1.0,"PostalCode":1.0},"MatchType":"interpolated","Location":{"LocationId":"NT_Swt.vGHORqdOc8qN0N3sWB_xA","LocationType":"point","DisplayPosition":{"Latitude":45.05113,"Longitude":3.8758},"MapView":{"TopLeft":{"Latitude":45.0522542,"Longitude":3.8742088},"BottomRight":{"Latitude":45.0500058,"Longitude":3.8773912}},"Address":{"Label":"1 Chemin de la Boriette, 43000 Polignac, France","Country":"FRA","State":"Auvergne-Rhône-Alpes","County":"Haute-Loire","City":"Polignac","Street":"Chemin de la Boriette","HouseNumber":"1","PostalCode":"43000","AdditionalData":[{"value":"France","key":"CountryName"},{"value":"Auvergne-Rhône-Alpes","key":"StateName"},{"value":"Haute-Loire","key":"CountyName"}]},"MapReference":{"ReferenceId":"561252711","Spot":0.82,"SideOfStreet":"left","CountryId":"20000001","StateId":"20006029","CountyId":"20052815","CityId":"20100320","AddressId":"570074330","RoadLinkId":"53006743"}}},{"Relevance":1.0,"Distance":40.5,"MatchLevel":"street","MatchQuality":{"Country":1.0,"State":1.0,"County":1.0,"City":1.0,"Street":[1.0],"PostalCode":1.0},"Location":{"LocationId":"NT_e7DY03zl1jb7rolzZJ12hC_l_561251679_R","LocationType":"point","DisplayPosition":{"Latitude":45.05118,"Longitude":3.8758},"MapView":{"TopLeft":{"Latitude":45.05199,"Longitude":3.8758},"BottomRight":{"Latitude":45.05118,"Longitude":3.87634}},"Address":{"Label":"Cité du Loup, 43000 Aiguilhe, France","Country":"FRA","State":"Auvergne-Rhône-Alpes","County":"Haute-Loire","City":"Aiguilhe","Street":"Cité du Loup","PostalCode":"43000","AdditionalData":[{"value":"France","key":"CountryName"},{"value":"Auvergne-Rhône-Alpes","key":"StateName"},{"value":"Haute-Loire","key":"CountyName"}]},"MapReference":{"ReferenceId":"561251679","Spot":0.0,"SideOfStreet":"right","CountryId":"20000001","StateId":"20006029","CountyId":"20052815","CityId":"20099869"}}},{"Relevance":1.0,"Distance":41.5,"MatchLevel":"houseNumber","MatchQuality":{"Country":1.0,"State":1.0,"County":1.0,"City":1.0,"Street":[1.0],"HouseNumber":1.0,"PostalCode":1.0},"MatchType":"interpolated","Location":{"LocationId":"NT_IdhjPkkbRpcc3vkxrxy9QB_xID","LocationType":"point","DisplayPosition":{"Latitude":45.05042,"Longitude":3.87587},"MapView":{"TopLeft":{"Latitude":45.0515442,"Longitude":3.8742788},"BottomRight":{"Latitude":45.0492958,"Longitude":3.8774612}},"Address":{"Label":"12 Boulevard du Docteur André Chantemesse, 43000 Le Puy-en-Velay, France","Country":"FRA","State":"Auvergne-Rhône-Alpes","County":"Haute-Loire","City":"Le Puy-en-Velay","Street":"Boulevard du Docteur André Chantemesse","HouseNumber":"12","PostalCode":"43000","AdditionalData":[{"value":"France","key":"CountryName"},{"value":"Auvergne-Rhône-Alpes","key":"StateName"},{"value":"Haute-Loire","key":"CountyName"}]},"MapReference":{"ReferenceId":"561251774","Spot":0.95,"SideOfStreet":"right","CountryId":"20000001","StateId":"20006029","CountyId":"20052815","CityId":"20100335","AddressId":"570052425","RoadLinkId":"52706754"}}},{"Relevance":1.0,"Distance":69.6,"MatchLevel":"street","MatchQuality":{"Country":1.0,"State":1.0,"County":1.0,"City":1.0,"PostalCode":1.0},"Location":{"LocationId":"NT_7NKfG7xt3SgtRqAstkHtyD_l_590945919_L","LocationType":"point","DisplayPosition":{"Latitude":45.05028,"Longitude":3.87625},"MapView":{"TopLeft":{"Latitude":45.05034,"Longitude":3.87625},"BottomRight":{"Latitude":45.05028,"Longitude":3.87636}},"Address":{"Label":"43000 Le Puy-en-Velay, France","Country":"FRA","State":"Auvergne-Rhône-Alpes","County":"Haute-Loire","City":"Le Puy-en-Velay","PostalCode":"43000","AdditionalData":[{"value":"France","key":"CountryName"},{"value":"Auvergne-Rhône-Alpes","key":"StateName"},{"value":"Haute-Loire","key":"CountyName"}]},"MapReference":{"ReferenceId":"590945919","Spot":0.0,"SideOfStreet":"left","CountryId":"20000001","StateId":"20006029","CountyId":"20052815","CityId":"20100335"}}},{"Relevance":1.0,"Distance":70.3,"MatchLevel":"houseNumber","MatchQuality":{"Country":1.0,"State":1.0,"County":1.0,"City":1.0,"Street":[1.0],"HouseNumber":1.0,"PostalCode":1.0},"MatchType":"interpolated","Location":{"LocationId":"NT_Fb-2dc0V42ftm--dagnkPA_xA","LocationType":"point","DisplayPosition":{"Latitude":45.05139,"Longitude":3.87617},"MapView":{"TopLeft":{"Latitude":45.0525142,"Longitude":3.8745788},"BottomRight":{"Latitude":45.0502658,"Longitude":3.8777612}},"Address":{"Label":"1 Rue Antoine de Saint-Vidal, 43000 Aiguilhe, France","Country":"FRA","State":"Auvergne-Rhône-Alpes","County":"Haute-Loire","City":"Aiguilhe","Street":"Rue Antoine de Saint-Vidal","HouseNumber":"1","PostalCode":"43000","AdditionalData":[{"value":"France","key":"CountryName"},{"value":"Auvergne-Rhône-Alpes","key":"StateName"},{"value":"Haute-Loire","key":"CountyName"}]},"MapReference":{"ReferenceId":"956791289","Spot":0.25,"SideOfStreet":"left","CountryId":"20000001","StateId":"20006029","CountyId":"20052815","CityId":"20099869","AddressId":"570043051","RoadLinkId":"299729222"}}}]}]}}