{"Response":{"MetaInfo":{"Timestamp":"2020-03-28T11:24:57.620+0000","NextPageInformation":"2"},"View":[{"_type":"SearchResultsViewType","ViewId":0,"Result":[{"Relevance":1.0,"Distance":-9.1,"MatchLevel":"landmark","MatchQuality":{"Country":1.0,"State":1.0,"County":1.0,"City":1.0,"PostalCode":1.0,"Name":1.0},"Location":{"LocationId":"NT_DsnBSEzRj7RrHW633i-ejC","LocationType":"hospital","Name":"Amedeo di Savoia","DisplayPosition":{"Latitude":45.08857,"Longitude":7.66086},"MapView":{"TopLeft":{"Latitude":45.09047,"Longitude":7.65694},"BottomRight":{"Latitude":45.08666,"Longitude":7.66392}},"Address":{"Label":"10123 Torino TO, Italia","Country":"ITA","State":"Piemonte","County":"TO","City":"Torino","PostalCode":"10123","AdditionalData":[{"value":"Italia","key":"CountryName"},{"value":"Piemonte","key":"StateName"},{"value":"Torino","key":"CountyName"}]},"MapReference":{"CountryId":"20110484","StateId":"20110485","CountyId":"20110486","CityId":"20111365","PlaceId":"1453837048"}}},{"Relevance":1.0,"Distance":0.0,"Direction":0.0,"MatchLevel":"district","MatchQuality":{"Country":1.0,"State":1.0,"County":1.0,"City":1.0,"District":1.0,"PostalCode":1.0},"Location":{"LocationId":"NT_CaAP7gXg5hV4ECs7mJzOAC","LocationType":"point","DisplayPosition":{"Latitude":45.087886,"Longitude":7.6578164},"MapView":{"TopLeft":{"Latitude":45.09195,"Longitude":7.64349},"BottomRight":{"Latitude":45.07546,"Longitude":7.6776}},"Address":{"Label":"San Donato, Torino, Piemonte, Italia","Country":"ITA","State":"Piemonte","County":"TO","City":"Torino","District":"San Donato","PostalCode":"10144","AdditionalData":[{"value":"Italia","key":"CountryName"},{"value":"Piemonte","key":"StateName"},{"value":"Torino","key":"CountyName"}]},"MapReference":{"ReferenceId":"55225184","SideOfStreet":"neither","CountryId":"20110484","StateId":"20110485","CountyId":"20110486","CityId":"20111365"}}},{"Relevance":1.0,"Distance":23.7,"MatchLevel":"houseNumber","MatchQuality":{"Country":1.0,"State":1.0,"County":1.0,"City":1.0,"District":1.0,"Street":[1.0],"HouseNumber":1.0,"PostalCode":1.0},"MatchType":"interpolated","Location":{"LocationId":"NT_iCuXy.R1TAmbB-OIHaPYSC_xQDNBB","LocationType":"point","DisplayPosition":{"Latitude":45.08808,"Longitude":7.65794},"MapView":{"TopLeft":{"Latitude":45.0892042,"Longitude":7.6563478},"BottomRight":{"Latitude":45.0869558,"Longitude":7.6595322}},"Address":{"Label":"Corso Svizzera, 144A, 10149 Torino TO, Italia","Country":"ITA","State":"Piemonte","County":"TO","City":"Torino","District":"San Donato","Street":"Corso Svizzera","HouseNumber":"144A","PostalCode":"10149","AdditionalData":[{"value":"Italia","key":"CountryName"},{"value":"Piemonte","key":"StateName"},{"value":"Torino","key":"CountyName"}]},"MapReference":{"ReferenceId":"824132177","Spot":0.12,"SideOfStreet":"right","CountryId":"20110484","StateId":"20110485","CountyId":"20110486","CityId":"20111365","AddressId":"710085142","RoadLinkId":"210025467"}}},{"Relevance":1.0,"Distance":32.3,"MatchLevel":"houseNumber","MatchQuality":{"Country":1.0,"State":1.0,"County":1.0,"City":1.0,"District":1.0,"Street":[1.0],"HouseNumber":1.0,"PostalCode":1.0},"MatchType":"interpolated","Location":{"LocationId":"NT_iCuXy.R1TAmbB-OIHaPYSC_xQzMEB","LocationType":"point","DisplayPosition":{"Latitude":45.08816,"Longitude":7.65768},"MapView":{"TopLeft":{"Latitude":45.0892842,"Longitude":7.6560878},"BottomRight":{"Latitude":45.0870358,"Longitude":7.6592722}},"Address":{"Label":"Corso Svizzera, 143D, 10149 Torino TO, Italia","Country":"ITA","State":"Piemonte","County":"TO","City":"Torino","District":"San Donato","Street":"Corso Svizzera","HouseNumber":"143D","PostalCode":"10149","AdditionalData":[{"value":"Italia","key":"CountryName"},{"value":"Piemonte","key":"StateName"},{"value":"Torino","key":"CountyName"}]},"MapReference":{"ReferenceId":"1220496973","Spot":0.96,"SideOfStreet":"left","CountryId":"20110484","StateId":"20110485","CountyId":"20110486","CityId":"20111365","AddressId":"774038764","RoadLinkId":"537663862"}}},{"Relevance":1.0,"Distance":39.2,"MatchLevel":"houseNumber","MatchQuality":{"Country":1.0,"State":1.0,"County":1.0,"City":1.0,"District":1.0,"Street":[1.0],"HouseNumber":1.0,"PostalCode":1.0},"MatchType":"interpolated","Location":{"LocationId":"NT_iCuXy.R1TAmbB-OIHaPYSC_xMzNEB","LocationType":"point","DisplayPosition":{"Latitude":45.08792,"Longitude":7.65732},"MapView":{"TopLeft":{"Latitude":45.0890442,"Longitude":7.6557278},"BottomRight":{"Latitude":45.0867958,"Longitude":7.6589122}},"Address":{"Label":"Corso Svizzera, 137D, 10149 Torino TO, Italia","Country":"ITA","State":"Piemonte","County":"TO","City":"Torino","District":"San Donato","Street":"Corso Svizzera","HouseNumber":"137D","PostalCode":"10149","AdditionalData":[{"value":"Italia","key":"CountryName"},{"value":"Piemonte","key":"StateName"},{"value":"Torino","key":"CountyName"}]},"MapReference":{"ReferenceId":"1220496972","Spot":0.85,"SideOfStreet":"left","CountryId":"20110484","StateId":"20110485","CountyId":"20110486","CityId":"20111365","AddressId":"710085121","RoadLinkId":"537663861"}}},{"Relevance":1.0,"Distance":43.4,"MatchLevel":"houseNumber","MatchQuality":{"Country":1.0,"State":1.0,"County":1.0,"City":1.0,"District":1.0,"Street":[1.0],"HouseNumber":1.0,"PostalCode":1.0},"MatchType":"interpolated","Location":{"LocationId":"NT_iCuXy.R1TAmbB-OIHaPYSC_xQDM","LocationType":"point","DisplayPosition":{"Latitude":45.08767,"Longitude":7.65735},"MapView":{"TopLeft":{"Latitude":45.0887942,"Longitude":7.6557578},"BottomRight":{"Latitude":45.0865458,"Longitude":7.6589422}},"Address":{"Label":"Corso Svizzera, 140, 10149 Torino TO, Italia","Country":"ITA","State":"Piemonte","County":"TO","City":"Torino","District":"San Donato","Street":"Corso Svizzera","HouseNumber":"140","PostalCode":"10149","AdditionalData":[{"value":"Italia","key":"CountryName"},{"value":"Piemonte","key":"StateName"},{"value":"Torino","key":"CountyName"}]},"MapReference":{"ReferenceId":"824124773","Spot":0.18,"SideOfStreet":"right","CountryId":"20110484","StateId":"20110485","CountyId":"20110486","CityId":"20111365","AddressId":"710085122","RoadLinkId":"210022034"}}},{"Relevance":1.0,"Distance":45.5,"MatchLevel":"street","MatchQuality":{"Country":1.0,"State":1.0,"County":1.0,"City":1.0,"District":1.0,"PostalCode":1.0},"Location":{"LocationId":"NT_ICzn03zTLyTuADTJsc.HxD_l_1208836574_L","LocationType":"point","DisplayPosition":{"Latitude":45.08766,"Longitude":7.6583},"MapView":{"TopLeft":{"Latitude":45.08778,"Longitude":7.6583},"BottomRight":{"Latitude":45.08766,"Longitude":7.65847}},"Address":{"Label":"10144 Torino TO, Italia","Country":"ITA","State":"Piemonte","County":"TO","City":"Torino","District":"San Donato","PostalCode":"10144","AdditionalData":[{"value":"Italia","key":"CountryName"},{"value":"Piemonte","key":"StateName"},{"value":"Torino","key":"CountyName"}]},"MapReference":{"ReferenceId":"1208836574","Spot":0.0,"SideOfStreet":"left","CountryId":"20110484","StateId":"20110485","CountyId":"20110486","CityId":"20111365"}}},{"Relevance":1.0,"Distance":45.5,"MatchLevel":"street","MatchQuality":{"Country":1.0,"State":1.0,"County":1.0,"City":1.0,"District":1.0,"PostalCode":1.0},"Location":{"LocationId":"NT_ICzn03zTLyTuADTJsc.HxD_l_1208899653_L","LocationType":"point","DisplayPosition":{"Latitude":45.08766,"Longitude":7.6583},"MapView":{"TopLeft":{"Latitude":45.08766,"Longitude":7.6583},"BottomRight":{"Latitude":45.08754,"Longitude":7.65847}},"Address":{"Label":"10144 Torino TO, Italia","Country":"ITA","State":"Piemonte","County":"TO","City":"Torino","District":"San Donato","PostalCode":"10144","AdditionalData":[{"value":"Italia","key":"CountryName"},{"value":"Piemonte","key":"StateName"},{"value":"Torino","key":"CountyName"}]},"MapReference":{"ReferenceId":"1208899653","Spot":1.0,"SideOfStreet":"left","CountryId":"20110484","StateId":"20110485","CountyId":"20110486","CityId":"20111365"}}},{"Relevance":1.0,"Distance":52.6,"MatchLevel":"street","MatchQuality":{"Country":1.0,"State":1.0,"County":1.0,"City":1.0,"District":1.0,"PostalCode":1.0},"Location":{"LocationId":"NT_ICzn03zTLyTuADTJsc.HxD_l_1208836560_L","LocationType":"point","DisplayPosition":{"Latitude":45.08778,"Longitude":7.65847},"MapView":{"TopLeft":{"Latitude":45.08803,"Longitude":7.65847},"BottomRight":{"Latitude":45.08778,"Longitude":7.65883}},"Address":{"Label":"10144 Torino TO, Italia","Country":"ITA","State":"Piemonte","County":"TO","City":"Torino","District":"San Donato","PostalCode":"10144","AdditionalData":[{"value":"Italia","key":"CountryName"},{"value":"Piemonte","key":"StateName"},{"value":"Torino","key":"CountyName"}]},"MapReference":{"ReferenceId":"1208836560","Spot":0.0,"SideOfStreet":"left","CountryId":"20110484","StateId":"20110485","CountyId":"20110486","CityId":"20111365"}}},{"Relevance":1.0,"Distance":52.6,"MatchLevel":"street","MatchQuality":{"Country":1.0,"State":1.0,"County":1.0,"City":1.0,"District":1.0,"PostalCode":1.0},"Location":{"LocationId":"NT_ICzn03zTLyTuADTJsc.HxD_l_1208836547_L","LocationType":"point","DisplayPosition":{"Latitude":45.08778,"Longitude":7.65847},"MapView":{"TopLeft":{"Latitude":45.08778,"Longitude":7.65847},"BottomRight":{"Latitude":45.08767,"Longitude":7.65865}},"Address":{"Label":"10144 Torino TO, Italia","Country":"ITA","State":"Piemonte","County":"TO","City":"Torino","District":"San Donato","PostalCode":"10144","AdditionalData":[{"value":"Italia","key":"CountryName"},{"value":"Piemonte","key":"StateName"},{"value":"Torino","key":"CountyName"}]},"MapReference":{"ReferenceId":"1208836547","Spot":1.0,"SideOfStreet":"left","CountryId":"20110484","StateId":"20110485","CountyId":"20110486","CityId":"20111365"}}}]}]}}