{"Response":{"MetaInfo":{"Timestamp":"2020-03-28T11:24:59.526+0000","NextPageInformation":"2"},"View":[{"_type":"SearchResultsViewType","ViewId":0,"Result":[{"Relevance":1.0,"Distance":0.0,"Direction":0.0,"MatchLevel":"city","MatchQuality":{"Country":1.0,"State":1.0,"County":1.0,"City":1.0,"PostalCode":1.0},"Location":{"LocationId":"NT_U9VyQt2jtoy56pg2LFFMWD","LocationType":"point","DisplayPosition":{"Latitude":45.0675936,"Longitude":9.2643052},"MapView":{"TopLeft":{"Latitude":45.11045,"Longitude":9.20959},"BottomRight":{"Latitude":45.03904,"Longitude":9.28102}},"Address":{"Label":"Broni, Lombardia, Italia","Country":"ITA","State":"Lombardia","County":"PV","City":"Broni","PostalCode":"27043","AdditionalData":[{"value":"Italia","key":"CountryName"},{"value":"Lombardia","key":"StateName"},{"value":"Pavia","key":"CountyName"}]},"MapReference":{"ReferenceId":"843830159","SideOfStreet":"neither","CountryId":"20110484","StateId":"20114907","CountyId":"20118212","CityId":"20118285"}}},{"Relevance":1.0,"Distance":21.1,"MatchLevel":"houseNumber","MatchQuality":{"Country":1.0,"State":1.0,"County":1.0,"City":1.0,"Street":[1.0],"HouseNumber":1.0,"PostalCode":1.0},"MatchType":"interpolated","Location":{"LocationId":"NT_enBTQ9dmwY4XPWKH4HVwbA_yED","LocationType":"point","DisplayPosition":{"Latitude":45.06743,"Longitude":9.26415},"MapView":{"TopLeft":{"Latitude":45.0685542,"Longitude":9.2625583},"BottomRight":{"Latitude":45.0663058,"Longitude":9.2657417}},"Address":{"Label":"Via Galileo Ferraris, 21, 27043 Broni PV, Italia","Country":"ITA","State":"Lombardia","County":"PV","City":"Broni","Street":"Via Galileo Ferraris","HouseNumber":"21","PostalCode":"27043","AdditionalData":[{"value":"Italia","key":"CountryName"},{"value":"Lombardia","key":"StateName"},{"value":"Pavia","key":"CountyName"}]},"MapReference":{"ReferenceId":"577203318","Spot":0.78,"SideOfStreet":"right","CountryId":"20110484","StateId":"20114907","CountyId":"20118212","CityId":"20118285","AddressId":"385921264","RoadLinkId":"55071575"}}},{"Relevance":1.0,"Distance":23.6,"MatchLevel":"houseNumber","MatchQuality":{"Country":1.0,"State":1.0,"County":1.0,"City":1.0,"Street":[1.0],"HouseNumber":1.0,"PostalCode":1.0},"MatchType":"interpolated","Location":{"LocationId":"NT_VH9dTuW445toVaxKxYil-D_l_1171059043_R_5ID","LocationType":"point","DisplayPosition":{"Latitude":45.0677779,"Longitude":9.2639484},"MapView":{"TopLeft":{"Latitude":45.0689021,"Longitude":9.2623568},"BottomRight":{"Latitude":45.0666538,"Longitude":9.2655401}},"Address":{"Label":"Strada Provinciale Padana Inferiore, 92, 27043 Broni PV, Italia","Country":"ITA","State":"Lombardia","County":"PV","City":"Broni","Street":"Strada Provinciale Padana Inferiore","HouseNumber":"92","PostalCode":"27043","AdditionalData":[{"value":"Italia","key":"CountryName"},{"value":"Lombardia","key":"StateName"},{"value":"Pavia","key":"CountyName"}]},"MapReference":{"ReferenceId":"1171059043","Spot":0.51,"SideOfStreet":"right","CountryId":"20110484","StateId":"20114907","CountyId":"20118212","CityId":"20118285"}}},{"Relevance":1.0,"Distance":34.8,"MatchLevel":"street","MatchQuality":{"Country":1.0,"State":1.0,"County":1.0,"City":1.0,"Street":[1.0],"PostalCode":1.0},"Location":{"LocationId":"NT_SyR1KyoKJLlpxEXLk-N-mC_l_1171059041_R","LocationType":"point","DisplayPosition":{"Latitude":45.0678868,"Longitude":9.2641509},"MapView":{"TopLeft":{"Latitude":45.06796,"Longitude":9.2641},"BottomRight":{"Latitude":45.06786,"Longitude":9.26429}},"Address":{"Label":"Strada Provinciale Padana Inferiore, 27043 Broni PV, Italia","Country":"ITA","State":"Lombardia","County":"PV","City":"Broni","Street":"Strada Provinciale Padana Inferiore","PostalCode":"27043","AdditionalData":[{"value":"Italia","key":"CountryName"},{"value":"Lombardia","key":"StateName"},{"value":"Pavia","key":"CountyName"}]},"MapReference":{"ReferenceId":"1171059041","Spot":0.27,"SideOfStreet":"right","CountryId":"20110484","StateId":"20114907","CountyId":"20118212","CityId":"20118285"}}},{"Relevance":1.0,"Distance":45.1,"MatchLevel":"houseNumber","MatchQuality":{"Country":1.0,"State":1.0,"County":1.0,"City":1.0,"Street":[1.0],"HouseNumber":1.0,"PostalCode":1.0},"MatchType":"interpolated","Location":{"LocationId":"NT_ag6mlGop.ccQxNmKP5YuvB_5YD","LocationType":"point","DisplayPosition":{"Latitude":45.06802,"Longitude":9.26442},"MapView":{"TopLeft":{"Latitude":45.0691442,"Longitude":9.2628283},"BottomRight":{"Latitude":45.0668958,"Longitude":9.2660117}},"Address":{"Label":"Via Circonvallazione, 96, 27043 Broni PV, Italia","Country":"ITA","State":"Lombardia","County":"PV","City":"Broni","Street":"Via Circonvallazione","HouseNumber":"96","PostalCode":"27043","AdditionalData":[{"value":"Italia","key":"CountryName"},{"value":"Lombardia","key":"StateName"},{"value":"Pavia","key":"CountyName"}]},"MapReference":{"ReferenceId":"1171059042","Spot":0.28,"SideOfStreet":"right","CountryId":"20110484","StateId":"20114907","CountyId":"20118212","CityId":"20118285","AddressId":"385823393","RoadLinkId":"478024347"}}},{"Relevance":1.0,"Distance":62.7,"MatchLevel":"houseNumber","MatchQuality":{"Country":1.0,"State":1.0,"County":1.0,"City":1.0,"Street":[1.0],"HouseNumber":1.0,"PostalCode":1.0},"MatchType":"interpolated","Location":{"LocationId":"NT_ag6mlGop.ccQxNmKP5YuvB_5AD","LocationType":"point","DisplayPosition":{"Latitude":45.06754,"Longitude":9.2635},"MapView":{"TopLeft":{"Latitude":45.0686642,"Longitude":9.2619083},"BottomRight":{"Latitude":45.0664158,"Longitude":9.2650917}},"Address":{"Label":"Via Circonvallazione, 90, 27043 Broni PV, Italia","Country":"ITA","State":"Lombardia","County":"PV","City":"Broni","Street":"Via Circonvallazione","HouseNumber":"90","PostalCode":"27043","AdditionalData":[{"value":"Italia","key":"CountryName"},{"value":"Lombardia","key":"StateName"},{"value":"Pavia","key":"CountyName"}]},"MapReference":{"ReferenceId":"1171059044","Spot":0.46,"SideOfStreet":"left","CountryId":"20110484","StateId":"20114907","CountyId":"20118212","CityId":"20118285","AddressId":"385568729","RoadLinkId":"478024355"}}},{"Relevance":1.0,"Distance":75.0,"MatchLevel":"street","MatchQuality":{"Country":1.0,"State":1.0,"County":1.0,"City":1.0,"Street":[1.0],"PostalCode":1.0},"Location":{"LocationId":"NT_VH9dTuW445toVaxKxYil-D_l_1171059040_R","LocationType":"point","DisplayPosition":{"Latitude":45.06819,"Longitude":9.26475},"MapView":{"TopLeft":{"Latitude":45.06836,"Longitude":9.26475},"BottomRight":{"Latitude":45.06819,"Longitude":9.26511}},"Address":{"Label":"Strada Provinciale Padana Inferiore, 27043 Broni PV, Italia","Country":"ITA","State":"Lombardia","County":"PV","City":"Broni","Street":"Strada Provinciale Padana Inferiore","PostalCode":"27043","AdditionalData":[{"value":"Italia","key":"CountryName"},{"value":"Lombardia","key":"StateName"},{"value":"Pavia","key":"CountyName"}]},"MapReference":{"ReferenceId":"1171059040","Spot":0.0,"SideOfStreet":"right","CountryId":"20110484","StateId":"20114907","CountyId":"20118212","CityId":"20118285"}}},{"Relevance":1.0,"Distance":96.9,"MatchLevel":"houseNumber","MatchQuality":{"Country":1.0,"State":1.0,"County":1.0,"City":1.0,"Street":[1.0],"HouseNumber":1.0,"PostalCode":1.0},"MatchType":"interpolated","Location":{"LocationId":"NT_ag6mlGop.ccQxNmKP5YuvB_4YD","LocationType":"point","DisplayPosition":{"Latitude":45.06735,"Longitude":9.26312},"MapView":{"TopLeft":{"Latitude":45.0684742,"Longitude":9.2615283},"BottomRight":{"Latitude":45.0662258,"Longitude":9.2647117}},"Address":{"Label":"Via Circonvallazione, 86, 27043 Broni PV, Italia","Country":"ITA","State":"Lombardia","County":"PV","City":"Broni","Street":"Via Circonvallazione","HouseNumber":"86","PostalCode":"27043","AdditionalData":[{"value":"Italia","key":"CountryName"},{"value":"Lombardia","key":"StateName"},{"value":"Pavia","key":"CountyName"}]},"MapReference":{"ReferenceId":"1171059046","Spot":0.62,"SideOfStreet":"left","CountryId":"20110484","StateId":"20114907","CountyId":"20118212","CityId":"20118285","AddressId":"385568731","RoadLinkId":"478024357"}}},{"Relevance":1.0,"Distance":106.1,"MatchLevel":"street","MatchQuality":{"Country":1.0,"State":1.0,"County":1.0,"City":1.0,"Street":[1.0],"PostalCode":1.0},"Location":{"LocationId":"NT_ag6mlGop.ccQxNmKP5YuvB_l_1171059039_R","LocationType":"point","DisplayPosition":{"Latitude":45.06836,"Longitude":9.26511},"MapView":{"TopLeft":{"Latitude":45.06851,"Longitude":9.26511},"BottomRight":{"Latitude":45.06836,"Longitude":9.26542}},"Address":{"Label":"Strada Provinciale Padana Inferiore, 27043 Broni PV, Italia","Country":"ITA","State":"Lombardia","County":"PV","City":"Broni","Street":"Strada Provinciale Padana Inferiore","PostalCode":"27043","AdditionalData":[{"value":"Italia","key":"CountryName"},{"value":"Lombardia","key":"StateName"},{"value":"Pavia","key":"CountyName"}]},"MapReference":{"ReferenceId":"1171059039","Spot":0.0,"SideOfStreet":"right","CountryId":"20110484","StateId":"20114907","CountyId":"20118212","CityId":"20118285"}}},{"Relevance":1.0,"Distance":113.0,"MatchLevel":"houseNumber","MatchQuality":{"Country":1.0,"State":1.0,"County":1.0,"City":1.0,"Street":[1.0],"HouseNumber":1.0,"PostalCode":1.0},"MatchType":"interpolated","Location":{"LocationId":"NT_ezLmcKv-iQr5UjgcuekfoB_yA","LocationType":"point","DisplayPosition":{"Latitude":45.06667,"Longitude":9.26359},"MapView":{"TopLeft":{"Latitude":45.0677942,"Longitude":9.2619984},"BottomRight":{"Latitude":45.0655458,"Longitude":9.2651816}},"Address":{"Label":"Via Carlo Arnaboldi, 2, 27043 Broni PV, Italia","Country":"ITA","State":"Lombardia","County":"PV","City":"Broni","Street":"Via Carlo Arnaboldi","HouseNumber":"2","PostalCode":"27043","AdditionalData":[{"value":"Italia","key":"CountryName"},{"value":"Lombardia","key":"StateName"},{"value":"Pavia","key":"CountyName"}]},"MapReference":{"ReferenceId":"584403778","Spot":0.1,"SideOfStreet":"right","CountryId":"20110484","StateId":"20114907","CountyId":"20118212","CityId":"20118285","AddressId":"385657438","RoadLinkId":"54824965"}}}]}]}}