{"Response":{"MetaInfo":{"Timestamp":"2020-03-28T11:27:11.604+0000","NextPageInformation":"2"},"View":[{"_type":"SearchResultsViewType","ViewId":0,"Result":[{"Relevance":1.0,"Distance":0.0,"Direction":0.0,"MatchLevel":"district","MatchQuality":{"Country":1.0,"State":1.0,"County":1.0,"City":1.0,"District":1.0,"PostalCode":1.0},"Location":{"LocationId":"NT_bRJWAApB-rn9YRYjsjKQ8B","LocationType":"point","DisplayPosition":{"Latitude":45.0701604,"Longitude":7.7048089},"MapView":{"TopLeft":{"Latitude":45.08707,"Longitude":7.68989},"BottomRight":{"Latitude":45.06522,"Longitude":7.72758}},"Address":{"Label":"Vanchiglia, Torino, Piemonte, Italia","Country":"ITA","State":"Piemonte","County":"TO","City":"Torino","District":"Vanchiglia","PostalCode":"10153","AdditionalData":[{"value":"Italia","key":"CountryName"},{"value":"Piemonte","key":"StateName"},{"value":"Torino","key":"CountyName"}]},"MapReference":{"ReferenceId":"55227294","SideOfStreet":"neither","CountryId":"20110484","StateId":"20110485","CountyId":"20110486","CityId":"20111365"}}},{"Relevance":1.0,"Distance":3.4,"MatchLevel":"houseNumber","MatchQuality":{"Country":1.0,"State":1.0,"County":1.0,"City":1.0,"District":1.0,"Street":[1.0],"HouseNumber":1.0,"PostalCode":1.0},"MatchType":"interpolated","Location":{"LocationId":"NT_xH-ac93VflcgYpKsEE7GWD_yA","LocationType":"point","DisplayPosition":{"Latitude":45.07023,"Longitude":7.70474},"MapView":{"TopLeft":{"Latitude":45.0713542,"Longitude":7.7031483},"BottomRight":{"Latitude":45.0691058,"Longitude":7.7063317}},"Address":{"Label":"Via Antonio Fontanesi, 2, 10153 Torino TO, Italia","Country":"ITA","State":"Piemonte","County":"TO","City":"Torino","District":"Vanchiglia","Street":"Via Antonio Fontanesi","HouseNumber":"2","PostalCode":"10153","AdditionalData":[{"value":"Italia","key":"CountryName"},{"value":"Piemonte","key":"StateName"},{"value":"Torino","key":"CountyName"}]},"MapReference":{"ReferenceId":"55228018","Spot":0.21,"SideOfStreet":"right","CountryId":"20110484","StateId":"20110485","CountyId":"20110486","CityId":"20111365","AddressId":"412166449","RoadLinkId":"55788257"}}},{"Relevance":1.0,"Distance":17.8,"MatchLevel":"houseNumber","MatchQuality":{"Country":1.0,"State":1.0,"County":1.0,"City":1.0,"District":1.0,"Street":[1.0],"HouseNumber":1.0,"PostalCode":1.0},"MatchType":"interpolated","Location":{"LocationId":"NT_hnXOE1CzcFDJtryzqzClCA_xQD","LocationType":"point","DisplayPosition":{"Latitude":45.06993,"Longitude":7.70465},"MapView":{"TopLeft":{"Latitude":45.0710542,"Longitude":7.7030583},"BottomRight":{"Latitude":45.0688058,"Longitude":7.7062417}},"Address":{"Label":"Corso Regina Margherita, 14, 10153 Torino TO, Italia","Country":"ITA","State":"Piemonte","County":"TO","City":"Torino","District":"Vanchiglia","Street":"Corso Regina Margherita","HouseNumber":"14","PostalCode":"10153","AdditionalData":[{"value":"Italia","key":"CountryName"},{"value":"Piemonte","key":"StateName"},{"value":"Torino","key":"CountyName"}]},"MapReference":{"ReferenceId":"55228137","Spot":0.83,"SideOfStreet":"right","CountryId":"20110484","StateId":"20110485","CountyId":"20110486","CityId":"20111365","AddressId":"710225575","RoadLinkId":"55130930"}}},{"Relevance":1.0,"Distance":29.3,"MatchLevel":"houseNumber","MatchQuality":{"Country":1.0,"State":1.0,"County":1.0,"City":1.0,"District":1.0,"Street":[1.0],"HouseNumber":1.0,"PostalCode":1.0},"MatchType":"interpolated","Location":{"LocationId":"NT_hnXOE1CzcFDJtryzqzClCA_l_55228019_R_xYD","LocationType":"point","DisplayPosition":{"Latitude":45.0700123,"Longitude":7.704393},"MapView":{"TopLeft":{"Latitude":45.0711365,"Longitude":7.7028013},"BottomRight":{"Latitude":45.0688882,"Longitude":7.7059848}},"Address":{"Label":"Corso Regina Margherita, 16, 10153 Torino TO, Italia","Country":"ITA","State":"Piemonte","County":"TO","City":"Torino","District":"Vanchiglia","Street":"Corso Regina Margherita","HouseNumber":"16","PostalCode":"10153","AdditionalData":[{"value":"Italia","key":"CountryName"},{"value":"Piemonte","key":"StateName"},{"value":"Torino","key":"CountyName"}]},"MapReference":{"ReferenceId":"55228019","Spot":0.62,"SideOfStreet":"right","CountryId":"20110484","StateId":"20110485","CountyId":"20110486","CityId":"20111365"}}},{"Relevance":1.0,"Distance":34.7,"MatchLevel":"street","MatchQuality":{"Country":1.0,"State":1.0,"County":1.0,"City":1.0,"District":1.0,"PostalCode":1.0},"Location":{"LocationId":"NT_X.RaDElri-dsLZ.8nbStZC_l_55228060_R","LocationType":"point","DisplayPosition":{"Latitude":45.07,"Longitude":7.70443},"MapView":{"TopLeft":{"Latitude":45.07,"Longitude":7.70427},"BottomRight":{"Latitude":45.0699,"Longitude":7.70443}},"Address":{"Label":"10153 Torino TO, Italia","Country":"ITA","State":"Piemonte","County":"TO","City":"Torino","District":"Vanchiglia","PostalCode":"10153","AdditionalData":[{"value":"Italia","key":"CountryName"},{"value":"Piemonte","key":"StateName"},{"value":"Torino","key":"CountyName"}]},"MapReference":{"ReferenceId":"55228060","Spot":1.0,"SideOfStreet":"right","CountryId":"20110484","StateId":"20110485","CountyId":"20110486","CityId":"20111365"}}},{"Relevance":1.0,"Distance":36.2,"MatchLevel":"houseNumber","MatchQuality":{"Country":1.0,"State":1.0,"County":1.0,"City":1.0,"District":1.0,"Street":[1.0],"HouseNumber":1.0,"PostalCode":1.0},"MatchType":"interpolated","Location":{"LocationId":"NT_txl.DN50QrJrlgdo6fLqSB_xYD","LocationType":"point","DisplayPosition":{"Latitude":45.07018,"Longitude":7.70421},"MapView":{"TopLeft":{"Latitude":45.0713042,"Longitude":7.7026183},"BottomRight":{"Latitude":45.0690558,"Longitude":7.7058017}},"Address":{"Label":"Corso Carlo Luigi Farini, 16, 10153 Torino TO, Italia","Country":"ITA","State":"Piemonte","County":"TO","City":"Torino","District":"Vanchiglia","Street":"Corso Carlo Luigi Farini","HouseNumber":"16","PostalCode":"10153","AdditionalData":[{"value":"Italia","key":"CountryName"},{"value":"Piemonte","key":"StateName"},{"value":"Torino","key":"CountyName"}]},"MapReference":{"ReferenceId":"59605071","Spot":0.34,"SideOfStreet":"right","CountryId":"20110484","StateId":"20110485","CountyId":"20110486","CityId":"20111365","AddressId":"778148993","RoadLinkId":"54766027"}}},{"Relevance":1.0,"Distance":37.8,"MatchLevel":"street","MatchQuality":{"Country":1.0,"State":1.0,"County":1.0,"City":1.0,"District":1.0,"PostalCode":1.0},"Location":{"LocationId":"NT_X.RaDElri-dsLZ.8nbStZC_l_55236670_R","LocationType":"point","DisplayPosition":{"Latitude":45.07002,"Longitude":7.70437},"MapView":{"TopLeft":{"Latitude":45.07002,"Longitude":7.70427},"BottomRight":{"Latitude":45.0699,"Longitude":7.70437}},"Address":{"Label":"10153 Torino TO, Italia","Country":"ITA","State":"Piemonte","County":"TO","City":"Torino","District":"Vanchiglia","PostalCode":"10153","AdditionalData":[{"value":"Italia","key":"CountryName"},{"value":"Piemonte","key":"StateName"},{"value":"Torino","key":"CountyName"}]},"MapReference":{"ReferenceId":"55236670","Spot":1.0,"SideOfStreet":"right","CountryId":"20110484","StateId":"20110485","CountyId":"20110486","CityId":"20111365"}}},{"Relevance":1.0,"Distance":45.1,"MatchLevel":"street","MatchQuality":{"Country":1.0,"State":1.0,"County":1.0,"City":1.0,"District":1.0,"Street":[1.0],"PostalCode":1.0},"Location":{"LocationId":"NT_hnXOE1CzcFDJtryzqzClCA_l_822728706_R","LocationType":"point","DisplayPosition":{"Latitude":45.0697656,"Longitude":7.7046793},"MapView":{"TopLeft":{"Latitude":45.0699,"Longitude":7.70427},"BottomRight":{"Latitude":45.06947,"Longitude":7.70558}},"Address":{"Label":"Corso Regina Margherita, 10153 Torino TO, Italia","Country":"ITA","State":"Piemonte","County":"TO","City":"Torino","District":"Vanchiglia","Street":"Corso Regina Margherita","PostalCode":"10153","AdditionalData":[{"value":"Italia","key":"CountryName"},{"value":"Piemonte","key":"StateName"},{"value":"Torino","key":"CountyName"}]},"MapReference":{"ReferenceId":"822728706","Spot":0.69,"SideOfStreet":"right","CountryId":"20110484","StateId":"20110485","CountyId":"20110486","CityId":"20111365"}}},{"Relevance":1.0,"Distance":51.3,"MatchLevel":"street","MatchQuality":{"Country":1.0,"State":1.0,"County":1.0,"City":1.0,"District":1.0,"Street":[1.0],"PostalCode":1.0},"Location":{"LocationId":"NT_hnXOE1CzcFDJtryzqzClCA_l_822727339_R","LocationType":"point","DisplayPosition":{"Latitude":45.0699,"Longitude":7.70427},"MapView":{"TopLeft":{"Latitude":45.07023,"Longitude":7.70326},"BottomRight":{"Latitude":45.0699,"Longitude":7.70427}},"Address":{"Label":"Corso Regina Margherita, 10153 Torino TO, Italia","Country":"ITA","State":"Piemonte","County":"TO","City":"Torino","District":"Vanchiglia","Street":"Corso Regina Margherita","PostalCode":"10153","AdditionalData":[{"value":"Italia","key":"CountryName"},{"value":"Piemonte","key":"StateName"},{"value":"Torino","key":"CountyName"}]},"MapReference":{"ReferenceId":"822727339","Spot":0.0,"SideOfStreet":"right","CountryId":"20110484","StateId":"20110485","CountyId":"20110486","CityId":"20111365"}}},{"Relevance":1.0,"Distance":51.3,"MatchLevel":"street","MatchQuality":{"Country":1.0,"State":1.0,"County":1.0,"City":1.0,"District":1.0,"PostalCode":1.0},"Location":{"LocationId":"NT_X.RaDElri-dsLZ.8nbStZC_l_55228082_R","LocationType":"point","DisplayPosition":{"Latitude":45.0699,"Longitude":7.70427},"MapView":{"TopLeft":{"Latitude":45.0699,"Longitude":7.70413},"BottomRight":{"Latitude":45.06979,"Longitude":7.70427}},"Address":{"Label":"10153 Torino TO, Italia","Country":"ITA","State":"Piemonte","County":"TO","City":"Torino","District":"Vanchiglia","PostalCode":"10153","AdditionalData":[{"value":"Italia","key":"CountryName"},{"value":"Piemonte","key":"StateName"},{"value":"Torino","key":"CountyName"}]},"MapReference":{"ReferenceId":"55228082","Spot":1.0,"SideOfStreet":"right","CountryId":"20110484","StateId":"20110485","CountyId":"20110486","CityId":"20111365"}}}]}]}}