{"Response":{"MetaInfo":{"Timestamp":"2020-03-28T11:25:41.493+0000","NextPageInformation":"2"},"View":[{"_type":"SearchResultsViewType","ViewId":0,"Result":[{"Relevance":1.0,"Distance":0.0,"Direction":0.0,"MatchLevel":"city","MatchQuality":{"Country":1.0,"State":1.0,"County":1.0,"City":1.0,"PostalCode":1.0},"Location":{"LocationId":"NT_tZ1gNkbS16j1PZZ8Zhrz3B","LocationType":"point","DisplayPosition":{"Latitude":45.0075907,"Longitude":8.6350198},"MapView":{"TopLeft":{"Latitude":45.06322,"Longitude":8.55819},"BottomRight":{"Latitude":44.97327,"Longitude":8.70791}},"Address":{"Label":"Valenza, Piemonte, Italia","Country":"ITA","State":"Piemonte","County":"AL","City":"Valenza","PostalCode":"15048","AdditionalData":[{"value":"Italia","key":"CountryName"},{"value":"Piemonte","key":"StateName"},{"value":"Alessandria","key":"CountyName"}]},"MapReference":{"ReferenceId":"577076160","SideOfStreet":"neither","CountryId":"20110484","StateId":"20110485","CountyId":"20113250","CityId":"20113808"}}},{"Relevance":1.0,"Distance":38.2,"MatchLevel":"houseNumber","MatchQuality":{"Country":1.0,"State":1.0,"County":1.0,"City":1.0,"Street":[1.0],"HouseNumber":1.0,"PostalCode":1.0},"MatchType":"interpolated","Location":{"LocationId":"NT_DCO.krM3diAOEfpfZKrH8D_1cD","LocationType":"point","DisplayPosition":{"Latitude":45.00732,"Longitude":8.63532},"MapView":{"TopLeft":{"Latitude":45.0084442,"Longitude":8.63373},"BottomRight":{"Latitude":45.0061958,"Longitude":8.63691}},"Address":{"Label":"Viale Santuario, 57, 15048 Valenza AL, Italia","Country":"ITA","State":"Piemonte","County":"AL","City":"Valenza","Street":"Viale Santuario","HouseNumber":"57","PostalCode":"15048","AdditionalData":[{"value":"Italia","key":"CountryName"},{"value":"Piemonte","key":"StateName"},{"value":"Alessandria","key":"CountyName"}]},"MapReference":{"ReferenceId":"592383861","Spot":0.29,"SideOfStreet":"right","CountryId":"20110484","StateId":"20110485","CountyId":"20113250","CityId":"20113808","AddressId":"387082860","RoadLinkId":"55410358"}}},{"Relevance":1.0,"Distance":41.2,"MatchLevel":"houseNumber","MatchQuality":{"Country":1.0,"State":1.0,"County":1.0,"City":1.0,"Street":[1.0],"HouseNumber":1.0,"PostalCode":1.0},"MatchType":"interpolated","Location":{"LocationId":"NT_WOUNkbKmtcbYOWjDKyCZjB_xID","LocationType":"point","DisplayPosition":{"Latitude":45.00765,"Longitude":8.63448},"MapView":{"TopLeft":{"Latitude":45.0087742,"Longitude":8.63289},"BottomRight":{"Latitude":45.0065258,"Longitude":8.63607}},"Address":{"Label":"Vicolo Varese, 12, 15048 Valenza AL, Italia","Country":"ITA","State":"Piemonte","County":"AL","City":"Valenza","Street":"Vicolo Varese","HouseNumber":"12","PostalCode":"15048","AdditionalData":[{"value":"Italia","key":"CountryName"},{"value":"Piemonte","key":"StateName"},{"value":"Alessandria","key":"CountyName"}]},"MapReference":{"ReferenceId":"577076676","Spot":0.06,"SideOfStreet":"right","CountryId":"20110484","StateId":"20110485","CountyId":"20113250","CityId":"20113808","AddressId":"583313057","RoadLinkId":"54753818"}}},{"Relevance":1.0,"Distance":44.7,"MatchLevel":"houseNumber","MatchQuality":{"Country":1.0,"State":1.0,"County":1.0,"City":1.0,"Street":[1.0],"HouseNumber":1.0,"PostalCode":1.0},"MatchType":"interpolated","Location":{"LocationId":"NT_DCO.krM3diAOEfpfZKrH8D_3ID","LocationType":"point","DisplayPosition":{"Latitude":45.00713,"Longitude":8.63488},"MapView":{"TopLeft":{"Latitude":45.0082542,"Longitude":8.63329},"BottomRight":{"Latitude":45.0060058,"Longitude":8.63647}},"Address":{"Label":"Viale Santuario, 72, 15048 Valenza AL, Italia","Country":"ITA","State":"Piemonte","County":"AL","City":"Valenza","Street":"Viale Santuario","HouseNumber":"72","PostalCode":"15048","AdditionalData":[{"value":"Italia","key":"CountryName"},{"value":"Piemonte","key":"StateName"},{"value":"Alessandria","key":"CountyName"}]},"MapReference":{"ReferenceId":"1057394968","Spot":0.24,"SideOfStreet":"left","CountryId":"20110484","StateId":"20110485","CountyId":"20113250","CityId":"20113808","AddressId":"386334657","RoadLinkId":"380438028"}}},{"Relevance":1.0,"Distance":44.8,"MatchLevel":"houseNumber","MatchQuality":{"Country":1.0,"State":1.0,"County":1.0,"City":1.0,"Street":[1.0],"HouseNumber":1.0,"PostalCode":1.0},"MatchType":"interpolated","Location":{"LocationId":"NT_DCO.krM3diAOEfpfZKrH8D_3AD","LocationType":"point","DisplayPosition":{"Latitude":45.00761,"Longitude":8.63567},"MapView":{"TopLeft":{"Latitude":45.0087342,"Longitude":8.63408},"BottomRight":{"Latitude":45.0064858,"Longitude":8.63726}},"Address":{"Label":"Viale Santuario, 70, 15048 Valenza AL, Italia","Country":"ITA","State":"Piemonte","County":"AL","City":"Valenza","Street":"Viale Santuario","HouseNumber":"70","PostalCode":"15048","AdditionalData":[{"value":"Italia","key":"CountryName"},{"value":"Piemonte","key":"StateName"},{"value":"Alessandria","key":"CountyName"}]},"MapReference":{"ReferenceId":"592383863","Spot":0.22,"SideOfStreet":"left","CountryId":"20110484","StateId":"20110485","CountyId":"20113250","CityId":"20113808","AddressId":"386469893","RoadLinkId":"55947030"}}},{"Relevance":1.0,"Distance":61.5,"MatchLevel":"houseNumber","MatchQuality":{"Country":1.0,"State":1.0,"County":1.0,"City":1.0,"Street":[1.0],"HouseNumber":1.0,"PostalCode":1.0},"MatchType":"interpolated","Location":{"LocationId":"NT_DCO.krM3diAOEfpfZKrH8D_2YD","LocationType":"point","DisplayPosition":{"Latitude":45.00755,"Longitude":8.63586},"MapView":{"TopLeft":{"Latitude":45.0086742,"Longitude":8.63427},"BottomRight":{"Latitude":45.0064258,"Longitude":8.63745}},"Address":{"Label":"Viale Santuario, 66, 15048 Valenza AL, Italia","Country":"ITA","State":"Piemonte","County":"AL","City":"Valenza","Street":"Viale Santuario","HouseNumber":"66","PostalCode":"15048","AdditionalData":[{"value":"Italia","key":"CountryName"},{"value":"Piemonte","key":"StateName"},{"value":"Alessandria","key":"CountyName"}]},"MapReference":{"ReferenceId":"592383862","Spot":0.59,"SideOfStreet":"left","CountryId":"20110484","StateId":"20110485","CountyId":"20113250","CityId":"20113808","AddressId":"386677076","RoadLinkId":"55860136"}}},{"Relevance":1.0,"Distance":61.9,"MatchLevel":"houseNumber","MatchQuality":{"Country":1.0,"State":1.0,"County":1.0,"City":1.0,"Street":[1.0],"HouseNumber":1.0,"PostalCode":1.0},"MatchType":"interpolated","Location":{"LocationId":"NT_DCO.krM3diAOEfpfZKrH8D_3ED","LocationType":"point","DisplayPosition":{"Latitude":45.00707,"Longitude":8.63474},"MapView":{"TopLeft":{"Latitude":45.0081942,"Longitude":8.63315},"BottomRight":{"Latitude":45.0059458,"Longitude":8.63633}},"Address":{"Label":"Viale Santuario, 71, 15048 Valenza AL, Italia","Country":"ITA","State":"Piemonte","County":"AL","City":"Valenza","Street":"Viale Santuario","HouseNumber":"71","PostalCode":"15048","AdditionalData":[{"value":"Italia","key":"CountryName"},{"value":"Piemonte","key":"StateName"},{"value":"Alessandria","key":"CountyName"}]},"MapReference":{"ReferenceId":"1057394970","Spot":0.8,"SideOfStreet":"right","CountryId":"20110484","StateId":"20110485","CountyId":"20113250","CityId":"20113808","AddressId":"386334658","RoadLinkId":"380438030"}}},{"Relevance":1.0,"Distance":67.2,"MatchLevel":"houseNumber","MatchQuality":{"Country":1.0,"State":1.0,"County":1.0,"City":1.0,"Street":[1.0],"HouseNumber":1.0,"PostalCode":1.0},"MatchType":"interpolated","Location":{"LocationId":"NT_YqAqW7tcbHjhzz97FNgeDD_zgD","LocationType":"point","DisplayPosition":{"Latitude":45.00826,"Longitude":8.63514},"MapView":{"TopLeft":{"Latitude":45.0093842,"Longitude":8.63355},"BottomRight":{"Latitude":45.0071358,"Longitude":8.63673}},"Address":{"Label":"Via Goffredo Mameli, 38, 15048 Valenza AL, Italia","Country":"ITA","State":"Piemonte","County":"AL","City":"Valenza","Street":"Via Goffredo Mameli","HouseNumber":"38","PostalCode":"15048","AdditionalData":[{"value":"Italia","key":"CountryName"},{"value":"Piemonte","key":"StateName"},{"value":"Alessandria","key":"CountyName"}]},"MapReference":{"ReferenceId":"577076684","Spot":0.23,"SideOfStreet":"left","CountryId":"20110484","StateId":"20110485","CountyId":"20113250","CityId":"20113808","AddressId":"386522107","RoadLinkId":"55145615"}}},{"Relevance":1.0,"Distance":69.6,"MatchLevel":"houseNumber","MatchQuality":{"Country":1.0,"State":1.0,"County":1.0,"City":1.0,"Street":[1.0],"HouseNumber":1.0,"PostalCode":1.0},"MatchType":"interpolated","Location":{"LocationId":"NT_4k3L6In5-Mm6OlDwZA7OMB_xA","LocationType":"point","DisplayPosition":{"Latitude":45.00701,"Longitude":8.63535},"MapView":{"TopLeft":{"Latitude":45.0081342,"Longitude":8.63376},"BottomRight":{"Latitude":45.0058858,"Longitude":8.63694}},"Address":{"Label":"Via Andrea Costa, 1, 15048 Valenza AL, Italia","Country":"ITA","State":"Piemonte","County":"AL","City":"Valenza","Street":"Via Andrea Costa","HouseNumber":"1","PostalCode":"15048","AdditionalData":[{"value":"Italia","key":"CountryName"},{"value":"Piemonte","key":"StateName"},{"value":"Alessandria","key":"CountyName"}]},"MapReference":{"ReferenceId":"584439157","Spot":0.72,"SideOfStreet":"right","CountryId":"20110484","StateId":"20110485","CountyId":"20113250","CityId":"20113808","AddressId":"583364190","RoadLinkId":"55124608"}}},{"Relevance":1.0,"Distance":79.1,"MatchLevel":"houseNumber","MatchQuality":{"Country":1.0,"State":1.0,"County":1.0,"City":1.0,"Street":[1.0],"HouseNumber":1.0,"PostalCode":1.0},"MatchType":"interpolated","Location":{"LocationId":"NT_DCO.krM3diAOEfpfZKrH8D_5AD","LocationType":"point","DisplayPosition":{"Latitude":45.00697,"Longitude":8.63449},"MapView":{"TopLeft":{"Latitude":45.0080942,"Longitude":8.6329},"BottomRight":{"Latitude":45.0058458,"Longitude":8.63608}},"Address":{"Label":"Viale Santuario, 90, 15048 Valenza AL, Italia","Country":"ITA","State":"Piemonte","County":"AL","City":"Valenza","Street":"Viale Santuario","HouseNumber":"90","PostalCode":"15048","AdditionalData":[{"value":"Italia","key":"CountryName"},{"value":"Piemonte","key":"StateName"},{"value":"Alessandria","key":"CountyName"}]},"MapReference":{"ReferenceId":"1057394969","Spot":0.9,"SideOfStreet":"left","CountryId":"20110484","StateId":"20110485","CountyId":"20113250","CityId":"20113808","AddressId":"386334654","RoadLinkId":"380438029"}}}]}]}}