{"Response":{"MetaInfo":{"Timestamp":"2020-03-28T10:44:21.152+0000","NextPageInformation":"2"},"View":[{"_type":"SearchResultsViewType","ViewId":0,"Result":[{"Relevance":1.0,"Distance":0.0,"Direction":0.0,"MatchLevel":"city","MatchQuality":{"Country":1.0,"State":1.0,"County":1.0,"City":1.0,"PostalCode":1.0},"Location":{"LocationId":"NT_ipekPUhR1nUKNfKmsobhbC","LocationType":"point","DisplayPosition":{"Latitude":45.067526,"Longitude":7.5139814},"MapView":{"TopLeft":{"Latitude":45.09598,"Longitude":7.47621},"BottomRight":{"Latitude":45.03913,"Longitude":7.57987}},"Address":{"Label":"Rivoli, Piemonte, Italia","Country":"ITA","State":"Piemonte","County":"TO","City":"Rivoli","PostalCode":"10098","AdditionalData":[{"value":"Italia","key":"CountryName"},{"value":"Piemonte","key":"StateName"},{"value":"Torino","key":"CountyName"}]},"MapReference":{"ReferenceId":"55243775","SideOfStreet":"neither","CountryId":"20110484","StateId":"20110485","CountyId":"20110486","CityId":"20111192"}}},{"Relevance":1.0,"Distance":12.7,"MatchLevel":"street","MatchQuality":{"Country":1.0,"State":1.0,"County":1.0,"City":1.0,"Street":[1.0],"PostalCode":1.0},"Location":{"LocationId":"NT_6Isacz2Ulp55c38baG7FYA_l_55244211_R","LocationType":"point","DisplayPosition":{"Latitude":45.06752,"Longitude":7.51382},"MapView":{"TopLeft":{"Latitude":45.06752,"Longitude":7.51374},"BottomRight":{"Latitude":45.06737,"Longitude":7.51382}},"Address":{"Label":"Via Ospedale, 10098 Rivoli TO, Italia","Country":"ITA","State":"Piemonte","County":"TO","City":"Rivoli","Street":"Via Ospedale","PostalCode":"10098","AdditionalData":[{"value":"Italia","key":"CountryName"},{"value":"Piemonte","key":"StateName"},{"value":"Torino","key":"CountyName"}]},"MapReference":{"ReferenceId":"55244211","Spot":1.0,"SideOfStreet":"right","CountryId":"20110484","StateId":"20110485","CountyId":"20110486","CityId":"20111192"}}},{"Relevance":1.0,"Distance":19.5,"MatchLevel":"houseNumber","MatchQuality":{"Country":1.0,"State":1.0,"County":1.0,"City":1.0,"Street":[1.0],"HouseNumber":1.0,"PostalCode":1.0},"MatchType":"interpolated","Location":{"LocationId":"NT_y-o9h2Fr7uDmBmq8Wh7lTB_xUD","LocationType":"point","DisplayPosition":{"Latitude":45.06734,"Longitude":7.51388},"MapView":{"TopLeft":{"Latitude":45.0684642,"Longitude":7.5122883},"BottomRight":{"Latitude":45.0662158,"Longitude":7.5154717}},"Address":{"Label":"Via Don Giovanni Peretti, 15, 10098 Rivoli TO, Italia","Country":"ITA","State":"Piemonte","County":"TO","City":"Rivoli","Street":"Via Don Giovanni Peretti","HouseNumber":"15","PostalCode":"10098","AdditionalData":[{"value":"Italia","key":"CountryName"},{"value":"Piemonte","key":"StateName"},{"value":"Torino","key":"CountyName"}]},"MapReference":{"ReferenceId":"55244194","Spot":0.79,"SideOfStreet":"right","CountryId":"20110484","StateId":"20110485","CountyId":"20110486","CityId":"20111192","AddressId":"574397278","RoadLinkId":"55390281"}}},{"Relevance":1.0,"Distance":24.4,"MatchLevel":"houseNumber","MatchQuality":{"Country":1.0,"State":1.0,"County":1.0,"City":1.0,"Street":[1.0],"HouseNumber":1.0,"PostalCode":1.0},"MatchType":"interpolated","Location":{"LocationId":"NT_6Isacz2Ulp55c38baG7FYA_0UD","LocationType":"point","DisplayPosition":{"Latitude":45.06776,"Longitude":7.51392},"MapView":{"TopLeft":{"Latitude":45.0688842,"Longitude":7.5123283},"BottomRight":{"Latitude":45.0666358,"Longitude":7.5155117}},"Address":{"Label":"Via Ospedale, 45, 10098 Rivoli TO, Italia","Country":"ITA","State":"Piemonte","County":"TO","City":"Rivoli","Street":"Via Ospedale","HouseNumber":"45","PostalCode":"10098","AdditionalData":[{"value":"Italia","key":"CountryName"},{"value":"Piemonte","key":"StateName"},{"value":"Torino","key":"CountyName"}]},"MapReference":{"ReferenceId":"55244276","Spot":0.42,"SideOfStreet":"right","CountryId":"20110484","StateId":"20110485","CountyId":"20110486","CityId":"20111192","AddressId":"574416156","RoadLinkId":"55888655"}}},{"Relevance":1.0,"Distance":25.7,"MatchLevel":"street","MatchQuality":{"Country":1.0,"State":1.0,"County":1.0,"City":1.0,"Street":[1.0],"PostalCode":1.0},"Location":{"LocationId":"NT_VPqFiCX.mSDqIZm7SSZVxD_l_59625538_R","LocationType":"point","DisplayPosition":{"Latitude":45.06737,"Longitude":7.51374},"MapView":{"TopLeft":{"Latitude":45.06737,"Longitude":7.51354},"BottomRight":{"Latitude":45.06679,"Longitude":7.51374}},"Address":{"Label":"Via Pietro Natale Mario Chiantore, 10098 Rivoli TO, Italia","Country":"ITA","State":"Piemonte","County":"TO","City":"Rivoli","Street":"Via Pietro Natale Mario Chiantore","PostalCode":"10098","AdditionalData":[{"value":"Italia","key":"CountryName"},{"value":"Piemonte","key":"StateName"},{"value":"Torino","key":"CountyName"}]},"MapReference":{"ReferenceId":"59625538","Spot":1.0,"SideOfStreet":"right","CountryId":"20110484","StateId":"20110485","CountyId":"20110486","CityId":"20111192"}}},{"Relevance":1.0,"Distance":27.3,"MatchLevel":"houseNumber","MatchQuality":{"Country":1.0,"State":1.0,"County":1.0,"City":1.0,"Street":[1.0],"HouseNumber":1.0,"PostalCode":1.0},"MatchType":"interpolated","Location":{"LocationId":"NT_O3v4Smyx1S.KF5lZUZGU9C_xED","LocationType":"point","DisplayPosition":{"Latitude":45.06756,"Longitude":7.51363},"MapView":{"TopLeft":{"Latitude":45.0686842,"Longitude":7.5120383},"BottomRight":{"Latitude":45.0664358,"Longitude":7.5152217}},"Address":{"Label":"Via San Martino, 11, 10098 Rivoli TO, Italia","Country":"ITA","State":"Piemonte","County":"TO","City":"Rivoli","Street":"Via San Martino","HouseNumber":"11","PostalCode":"10098","AdditionalData":[{"value":"Italia","key":"CountryName"},{"value":"Piemonte","key":"StateName"},{"value":"Torino","key":"CountyName"}]},"MapReference":{"ReferenceId":"55244210","Spot":0.37,"SideOfStreet":"right","CountryId":"20110484","StateId":"20110485","CountyId":"20110486","CityId":"20111192","AddressId":"777976805","RoadLinkId":"54660332"}}},{"Relevance":1.0,"Distance":30.5,"MatchLevel":"houseNumber","MatchQuality":{"Country":1.0,"State":1.0,"County":1.0,"City":1.0,"Street":[1.0],"HouseNumber":1.0,"PostalCode":1.0},"MatchType":"interpolated","Location":{"LocationId":"NT_SqJ-rYMBdCsSQyBl12EuMC_2A","LocationType":"point","DisplayPosition":{"Latitude":45.06732,"Longitude":7.51446},"MapView":{"TopLeft":{"Latitude":45.0684442,"Longitude":7.5128683},"BottomRight":{"Latitude":45.0661958,"Longitude":7.5160517}},"Address":{"Label":"Via Balegno, 6, 10098 Rivoli TO, Italia","Country":"ITA","State":"Piemonte","County":"TO","City":"Rivoli","Street":"Via Balegno","HouseNumber":"6","PostalCode":"10098","AdditionalData":[{"value":"Italia","key":"CountryName"},{"value":"Piemonte","key":"StateName"},{"value":"Torino","key":"CountyName"}]},"MapReference":{"ReferenceId":"589125249","Spot":0.14,"SideOfStreet":"left","CountryId":"20110484","StateId":"20110485","CountyId":"20110486","CityId":"20111192","AddressId":"574389319","RoadLinkId":"54929835"}}},{"Relevance":1.0,"Distance":46.1,"MatchLevel":"houseNumber","MatchQuality":{"Country":1.0,"State":1.0,"County":1.0,"City":1.0,"Street":[1.0],"HouseNumber":1.0,"PostalCode":1.0},"MatchType":"interpolated","Location":{"LocationId":"NT_SqJ-rYMBdCsSQyBl12EuMC_4A","LocationType":"point","DisplayPosition":{"Latitude":45.06714,"Longitude":7.51438},"MapView":{"TopLeft":{"Latitude":45.0682642,"Longitude":7.5127883},"BottomRight":{"Latitude":45.0660158,"Longitude":7.5159717}},"Address":{"Label":"Via Balegno, 8, 10098 Rivoli TO, Italia","Country":"ITA","State":"Piemonte","County":"TO","City":"Rivoli","Street":"Via Balegno","HouseNumber":"8","PostalCode":"10098","AdditionalData":[{"value":"Italia","key":"CountryName"},{"value":"Piemonte","key":"StateName"},{"value":"Torino","key":"CountyName"}]},"MapReference":{"ReferenceId":"55244195","Spot":0.45,"SideOfStreet":"left","CountryId":"20110484","StateId":"20110485","CountyId":"20110486","CityId":"20111192","AddressId":"574412656","RoadLinkId":"55001695"}}},{"Relevance":1.0,"Distance":59.1,"MatchLevel":"houseNumber","MatchQuality":{"Country":1.0,"State":1.0,"County":1.0,"City":1.0,"Street":[1.0],"HouseNumber":1.0,"PostalCode":1.0},"MatchType":"interpolated","Location":{"LocationId":"NT_K3x2FLW06n0tQZ82DEEXOB_zkD","LocationType":"point","DisplayPosition":{"Latitude":45.06803,"Longitude":7.5135},"MapView":{"TopLeft":{"Latitude":45.0691542,"Longitude":7.5119083},"BottomRight":{"Latitude":45.0669058,"Longitude":7.5150917}},"Address":{"Label":"Via Girò, 39, 10098 Rivoli TO, Italia","Country":"ITA","State":"Piemonte","County":"TO","City":"Rivoli","Street":"Via Girò","HouseNumber":"39","PostalCode":"10098","AdditionalData":[{"value":"Italia","key":"CountryName"},{"value":"Piemonte","key":"StateName"},{"value":"Torino","key":"CountyName"}]},"MapReference":{"ReferenceId":"55244277","Spot":0.67,"SideOfStreet":"right","CountryId":"20110484","StateId":"20110485","CountyId":"20110486","CityId":"20111192","AddressId":"777821094","RoadLinkId":"54656560"}}},{"Relevance":1.0,"Distance":59.7,"MatchLevel":"houseNumber","MatchQuality":{"Country":1.0,"State":1.0,"County":1.0,"City":1.0,"Street":[1.0],"HouseNumber":1.0,"PostalCode":1.0},"MatchType":"interpolated","Location":{"LocationId":"NT_pUIGSqdu13U.yJRYnEVsDB_zAD","LocationType":"point","DisplayPosition":{"Latitude":45.06805,"Longitude":7.51429},"MapView":{"TopLeft":{"Latitude":45.0691742,"Longitude":7.5126983},"BottomRight":{"Latitude":45.0669258,"Longitude":7.5158817}},"Address":{"Label":"Via Fellogna, 30, 10098 Rivoli TO, Italia","Country":"ITA","State":"Piemonte","County":"TO","City":"Rivoli","Street":"Via Fellogna","HouseNumber":"30","PostalCode":"10098","AdditionalData":[{"value":"Italia","key":"CountryName"},{"value":"Piemonte","key":"StateName"},{"value":"Torino","key":"CountyName"}]},"MapReference":{"ReferenceId":"55244263","Spot":0.58,"SideOfStreet":"left","CountryId":"20110484","StateId":"20110485","CountyId":"20110486","CityId":"20111192","AddressId":"574374183","RoadLinkId":"55784912"}}}]}]}}