{"Response":{"MetaInfo":{"Timestamp":"2020-03-28T10:42:21.286+0000","NextPageInformation":"2"},"View":[{"_type":"SearchResultsViewType","ViewId":0,"Result":[{"Relevance":1.0,"Distance":0.0,"Direction":0.0,"MatchLevel":"district","MatchQuality":{"Country":1.0,"County":1.0,"City":1.0,"District":1.0,"PostalCode":1.0},"Location":{"LocationId":"NT_5JvJP2MYSuOevJfnRtJ7KB","LocationType":"point","DisplayPosition":{"Latitude":45.1909358,"Longitude":16.8060295},"MapView":{"TopLeft":{"Latitude":45.20085,"Longitude":16.78435},"BottomRight":{"Latitude":45.1851,"Longitude":16.81598}},"Address":{"Label":"Hrvatska Dubica, Hrvatska","Country":"HRV","County":"Sisačko-moslavačka županija","City":"Hrvatska Dubica","District":"Hrvatska Dubica","PostalCode":"44430","AdditionalData":[{"value":"Hrvatska","key":"CountryName"},{"value":"Sisačko-moslavačka županija","key":"CountyName"}]},"MapReference":{"ReferenceId":"1112332513","SideOfStreet":"neither","CountryId":"20633739","CountyId":"20642109","CityId":"22871663","DistrictId":"22872887"}}},{"Relevance":1.0,"Distance":7.6,"MatchLevel":"houseNumber","MatchQuality":{"Country":1.0,"County":1.0,"City":1.0,"District":1.0,"Street":[1.0],"HouseNumber":1.0,"PostalCode":1.0},"MatchType":"interpolated","Location":{"LocationId":"NT_Xf-BntG8wb.O8S0MWuS45C_0A","LocationType":"point","DisplayPosition":{"Latitude":45.19096,"Longitude":16.80612},"MapView":{"TopLeft":{"Latitude":45.1920842,"Longitude":16.8045249},"BottomRight":{"Latitude":45.1898358,"Longitude":16.8077151}},"Address":{"Label":"Ulica Tomislava Bogića 4, HR-44430 Hrvatska Dubica, Hrvatska","Country":"HRV","County":"Sisačko-moslavačka županija","City":"Hrvatska Dubica","District":"Hrvatska Dubica","Street":"Ulica Tomislava Bogića","HouseNumber":"4","PostalCode":"44430","AdditionalData":[{"value":"Hrvatska","key":"CountryName"},{"value":"Sisačko-moslavačka županija","key":"CountyName"}]},"MapReference":{"ReferenceId":"799745591","Spot":0.65,"SideOfStreet":"left","CountryId":"20633739","CountyId":"20642109","CityId":"22871663","DistrictId":"22872887","AddressId":"623686994","RoadLinkId":"190520057"}}},{"Relevance":1.0,"Distance":24.6,"MatchLevel":"street","MatchQuality":{"Country":1.0,"County":1.0,"City":1.0,"District":1.0,"Street":[1.0],"PostalCode":1.0},"Location":{"LocationId":"NT_Xf-BntG8wb.O8S0MWuS45C_l_799745592_R","LocationType":"point","DisplayPosition":{"Latitude":45.19097,"Longitude":16.80572},"MapView":{"TopLeft":{"Latitude":45.19118,"Longitude":16.80571},"BottomRight":{"Latitude":45.19097,"Longitude":16.80572}},"Address":{"Label":"Ulica Tomislava Bogića, HR-44430 Hrvatska Dubica, Hrvatska","Country":"HRV","County":"Sisačko-moslavačka županija","City":"Hrvatska Dubica","District":"Hrvatska Dubica","Street":"Ulica Tomislava Bogića","PostalCode":"44430","AdditionalData":[{"value":"Hrvatska","key":"CountryName"},{"value":"Sisačko-moslavačka županija","key":"CountyName"}]},"MapReference":{"ReferenceId":"799745592","Spot":0.0,"SideOfStreet":"right","CountryId":"20633739","CountyId":"20642109","CityId":"22871663","DistrictId":"22872887"}}},{"Relevance":1.0,"Distance":37.8,"MatchLevel":"houseNumber","MatchQuality":{"Country":1.0,"County":1.0,"City":1.0,"District":1.0,"Street":[1.0],"HouseNumber":1.0,"PostalCode":1.0},"MatchType":"interpolated","Location":{"LocationId":"NT_hzPIgtcCUg7agHy-6ZVXTC_1A","LocationType":"point","DisplayPosition":{"Latitude":45.19095,"Longitude":16.80686},"MapView":{"TopLeft":{"Latitude":45.1920742,"Longitude":16.8052649},"BottomRight":{"Latitude":45.1898258,"Longitude":16.8084551}},"Address":{"Label":"Ulica braće Pilaković 5, HR-44430 Hrvatska Dubica, Hrvatska","Country":"HRV","County":"Sisačko-moslavačka županija","City":"Hrvatska Dubica","District":"Hrvatska Dubica","Street":"Ulica braće Pilaković","HouseNumber":"5","PostalCode":"44430","AdditionalData":[{"value":"Hrvatska","key":"CountryName"},{"value":"Sisačko-moslavačka županija","key":"CountyName"}]},"MapReference":{"ReferenceId":"799745595","Spot":1.0,"SideOfStreet":"left","CountryId":"20633739","CountyId":"20642109","CityId":"22871663","DistrictId":"22872887","AddressId":"623674939","RoadLinkId":"190520061"}}},{"Relevance":1.0,"Distance":51.1,"MatchLevel":"houseNumber","MatchQuality":{"Country":1.0,"County":1.0,"City":1.0,"District":1.0,"Street":[1.0],"HouseNumber":1.0,"PostalCode":1.0},"MatchType":"interpolated","Location":{"LocationId":"NT_Xf-BntG8wb.O8S0MWuS45C_xED","LocationType":"point","DisplayPosition":{"Latitude":45.19122,"Longitude":16.80544},"MapView":{"TopLeft":{"Latitude":45.1923442,"Longitude":16.8038449},"BottomRight":{"Latitude":45.1900958,"Longitude":16.8070351}},"Address":{"Label":"Ulica Tomislava Bogića 11, HR-44430 Hrvatska Dubica, Hrvatska","Country":"HRV","County":"Sisačko-moslavačka županija","City":"Hrvatska Dubica","District":"Hrvatska Dubica","Street":"Ulica Tomislava Bogića","HouseNumber":"11","PostalCode":"44430","AdditionalData":[{"value":"Hrvatska","key":"CountryName"},{"value":"Sisačko-moslavačka županija","key":"CountyName"}]},"MapReference":{"ReferenceId":"799745590","Spot":0.07,"SideOfStreet":"left","CountryId":"20633739","CountyId":"20642109","CityId":"22871663","DistrictId":"22872887","AddressId":"623736559","RoadLinkId":"190520056"}}},{"Relevance":1.0,"Distance":56.7,"MatchLevel":"houseNumber","MatchQuality":{"Country":1.0,"County":1.0,"City":1.0,"District":1.0,"Street":[1.0],"HouseNumber":1.0,"PostalCode":1.0},"MatchType":"interpolated","Location":{"LocationId":"NT_hzPIgtcCUg7agHy-6ZVXTC_3A","LocationType":"point","DisplayPosition":{"Latitude":45.19116,"Longitude":16.80684},"MapView":{"TopLeft":{"Latitude":45.1922842,"Longitude":16.8052449},"BottomRight":{"Latitude":45.1900358,"Longitude":16.8084351}},"Address":{"Label":"Ulica braće Pilaković 7, HR-44430 Hrvatska Dubica, Hrvatska","Country":"HRV","County":"Sisačko-moslavačka županija","City":"Hrvatska Dubica","District":"Hrvatska Dubica","Street":"Ulica braće Pilaković","HouseNumber":"7","PostalCode":"44430","AdditionalData":[{"value":"Hrvatska","key":"CountryName"},{"value":"Sisačko-moslavačka županija","key":"CountyName"}]},"MapReference":{"ReferenceId":"799745594","Spot":0.23,"SideOfStreet":"left","CountryId":"20633739","CountyId":"20642109","CityId":"22871663","DistrictId":"22872887","AddressId":"623687947","RoadLinkId":"190520060"}}},{"Relevance":1.0,"Distance":74.5,"MatchLevel":"houseNumber","MatchQuality":{"Country":1.0,"County":1.0,"City":1.0,"District":1.0,"Street":[1.0],"HouseNumber":1.0,"PostalCode":1.0},"MatchType":"interpolated","Location":{"LocationId":"NT_Xf-BntG8wb.O8S0MWuS45C_2A","LocationType":"point","DisplayPosition":{"Latitude":45.1915,"Longitude":16.80552},"MapView":{"TopLeft":{"Latitude":45.1926242,"Longitude":16.8039249},"BottomRight":{"Latitude":45.1903758,"Longitude":16.8071151}},"Address":{"Label":"Ulica Tomislava Bogića 6, HR-44430 Hrvatska Dubica, Hrvatska","Country":"HRV","County":"Sisačko-moslavačka županija","City":"Hrvatska Dubica","District":"Hrvatska Dubica","Street":"Ulica Tomislava Bogića","HouseNumber":"6","PostalCode":"44430","AdditionalData":[{"value":"Hrvatska","key":"CountryName"},{"value":"Sisačko-moslavačka županija","key":"CountyName"}]},"MapReference":{"ReferenceId":"799745589","Spot":0.1,"SideOfStreet":"right","CountryId":"20633739","CountyId":"20642109","CityId":"22871663","DistrictId":"22872887","AddressId":"623684324","RoadLinkId":"190520055"}}},{"Relevance":1.0,"Distance":113.4,"MatchLevel":"street","MatchQuality":{"Country":1.0,"County":1.0,"City":1.0,"District":1.0,"PostalCode":1.0},"Location":{"LocationId":"NT_UUXNCcTUfZXVvW1pTUMImC_l_920149524_L","LocationType":"point","DisplayPosition":{"Latitude":45.19063,"Longitude":16.80741},"MapView":{"TopLeft":{"Latitude":45.19063,"Longitude":16.80741},"BottomRight":{"Latitude":45.18999,"Longitude":16.80749}},"Address":{"Label":"HR-44430 Hrvatska Dubica, Hrvatska","Country":"HRV","County":"Sisačko-moslavačka županija","City":"Hrvatska Dubica","District":"Hrvatska Dubica","PostalCode":"44430","AdditionalData":[{"value":"Hrvatska","key":"CountryName"},{"value":"Sisačko-moslavačka županija","key":"CountyName"}]},"MapReference":{"ReferenceId":"920149524","Spot":1.0,"SideOfStreet":"left","CountryId":"20633739","CountyId":"20642109","CityId":"22871663","DistrictId":"22872887"}}},{"Relevance":1.0,"Distance":122.0,"MatchLevel":"houseNumber","MatchQuality":{"Country":1.0,"County":1.0,"City":1.0,"District":1.0,"Street":[1.0],"HouseNumber":1.0,"PostalCode":1.0},"MatchType":"interpolated","Location":{"LocationId":"NT_Xf-BntG8wb.O8S0MWuS45C_yA","LocationType":"point","DisplayPosition":{"Latitude":45.18983,"Longitude":16.80564},"MapView":{"TopLeft":{"Latitude":45.1909542,"Longitude":16.8040449},"BottomRight":{"Latitude":45.1887058,"Longitude":16.8072351}},"Address":{"Label":"Ulica Tomislava Bogića 2, HR-44430 Hrvatska Dubica, Hrvatska","Country":"HRV","County":"Sisačko-moslavačka županija","City":"Hrvatska Dubica","District":"Hrvatska Dubica","Street":"Ulica Tomislava Bogića","HouseNumber":"2","PostalCode":"44430","AdditionalData":[{"value":"Hrvatska","key":"CountryName"},{"value":"Sisačko-moslavačka županija","key":"CountyName"}]},"MapReference":{"ReferenceId":"799745593","Spot":0.26,"SideOfStreet":"right","CountryId":"20633739","CountyId":"20642109","CityId":"22871663","DistrictId":"22872887","AddressId":"623709932","RoadLinkId":"190520059"}}},{"Relevance":1.0,"Distance":139.1,"MatchLevel":"houseNumber","MatchQuality":{"Country":1.0,"County":1.0,"City":1.0,"District":1.0,"Street":[1.0],"HouseNumber":1.0,"PostalCode":1.0},"MatchType":"interpolated","Location":{"LocationId":"NT_MqfD6.rGMDFIgv5czexFWB_xcD","LocationType":"point","DisplayPosition":{"Latitude":45.18958,"Longitude":16.80683},"MapView":{"TopLeft":{"Latitude":45.1907042,"Longitude":16.8052349},"BottomRight":{"Latitude":45.1884558,"Longitude":16.8084251}},"Address":{"Label":"Ulica Željka Volarevića 17, HR-44430 Hrvatska Dubica, Hrvatska","Country":"HRV","County":"Sisačko-moslavačka županija","City":"Hrvatska Dubica","District":"Hrvatska Dubica","Street":"Ulica Željka Volarevića","HouseNumber":"17","PostalCode":"44430","AdditionalData":[{"value":"Hrvatska","key":"CountryName"},{"value":"Sisačko-moslavačka županija","key":"CountyName"}]},"MapReference":{"ReferenceId":"799745596","Spot":0.71,"SideOfStreet":"left","CountryId":"20633739","CountyId":"20642109","CityId":"22871663","DistrictId":"22872887","AddressId":"623729741","RoadLinkId":"190520062"}}}]}]}}