{"Response":{"MetaInfo":{"Timestamp":"2020-03-28T11:27:04.418+0000","NextPageInformation":"2"},"View":[{"_type":"SearchResultsViewType","ViewId":0,"Result":[{"Relevance":1.0,"Distance":0.0,"Direction":0.0,"MatchLevel":"city","MatchQuality":{"Country":1.0,"State":1.0,"County":1.0,"City":1.0,"PostalCode":1.0},"Location":{"LocationId":"NT_-5gRzwER3BF3rhb5dYJpnC","LocationType":"point","DisplayPosition":{"Latitude":45.1408949,"Longitude":7.1340589},"MapView":{"TopLeft":{"Latitude":45.18769,"Longitude":7.09448},"BottomRight":{"Latitude":45.06233,"Longitude":7.16814}},"Address":{"Label":"Bussoleno, Piemonte, Italia","Country":"ITA","State":"Piemonte","County":"TO","City":"Bussoleno","PostalCode":"10053","AdditionalData":[{"value":"Italia","key":"CountryName"},{"value":"Piemonte","key":"StateName"},{"value":"Torino","key":"CountyName"}]},"MapReference":{"ReferenceId":"972209161","SideOfStreet":"neither","CountryId":"20110484","StateId":"20110485","CountyId":"20110486","CityId":"20110620"}}},{"Relevance":1.0,"Distance":99.5,"MatchLevel":"street","MatchQuality":{"Country":1.0,"State":1.0,"County":1.0,"City":1.0,"PostalCode":1.0},"Location":{"LocationId":"NT_T58uMuXcpRPp4P9HNg5gvD_l_562309636_L","LocationType":"point","DisplayPosition":{"Latitude":45.1417871,"Longitude":7.1341528},"MapView":{"TopLeft":{"Latitude":45.14227,"Longitude":7.13136},"BottomRight":{"Latitude":45.14172,"Longitude":7.1349}},"Address":{"Label":"10053 Bussoleno TO, Italia","Country":"ITA","State":"Piemonte","County":"TO","City":"Bussoleno","PostalCode":"10053","AdditionalData":[{"value":"Italia","key":"CountryName"},{"value":"Piemonte","key":"StateName"},{"value":"Torino","key":"CountyName"}]},"MapReference":{"ReferenceId":"562309636","Spot":0.21,"SideOfStreet":"left","CountryId":"20110484","StateId":"20110485","CountyId":"20110486","CityId":"20110620"}}},{"Relevance":1.0,"Distance":113.0,"MatchLevel":"street","MatchQuality":{"Country":1.0,"State":1.0,"County":1.0,"City":1.0,"PostalCode":1.0},"Location":{"LocationId":"NT_T58uMuXcpRPp4P9HNg5gvD_l_562309720_L","LocationType":"point","DisplayPosition":{"Latitude":45.14172,"Longitude":7.1349},"MapView":{"TopLeft":{"Latitude":45.14172,"Longitude":7.1349},"BottomRight":{"Latitude":45.14165,"Longitude":7.13605}},"Address":{"Label":"10053 Bussoleno TO, Italia","Country":"ITA","State":"Piemonte","County":"TO","City":"Bussoleno","PostalCode":"10053","AdditionalData":[{"value":"Italia","key":"CountryName"},{"value":"Piemonte","key":"StateName"},{"value":"Torino","key":"CountyName"}]},"MapReference":{"ReferenceId":"562309720","Spot":1.0,"SideOfStreet":"left","CountryId":"20110484","StateId":"20110485","CountyId":"20110486","CityId":"20110620"}}},{"Relevance":1.0,"Distance":114.5,"MatchLevel":"houseNumber","MatchQuality":{"Country":1.0,"State":1.0,"County":1.0,"City":1.0,"Street":[1.0],"HouseNumber":1.0,"PostalCode":1.0},"MatchType":"interpolated","Location":{"LocationId":"NT_Kg5R9Tj9oJlll8.CRR4icD_xED","LocationType":"point","DisplayPosition":{"Latitude":45.14102,"Longitude":7.13573},"MapView":{"TopLeft":{"Latitude":45.1421442,"Longitude":7.1341363},"BottomRight":{"Latitude":45.1398958,"Longitude":7.1373237}},"Address":{"Label":"Via Cascina del Gallo, 11, 10053 Bussoleno TO, Italia","Country":"ITA","State":"Piemonte","County":"TO","City":"Bussoleno","Street":"Via Cascina del Gallo","HouseNumber":"11","PostalCode":"10053","AdditionalData":[{"value":"Italia","key":"CountryName"},{"value":"Piemonte","key":"StateName"},{"value":"Torino","key":"CountyName"}]},"MapReference":{"ReferenceId":"562309733","Spot":0.76,"SideOfStreet":"left","CountryId":"20110484","StateId":"20110485","CountyId":"20110486","CityId":"20110620","AddressId":"669844641","RoadLinkId":"54644282"}}},{"Relevance":1.0,"Distance":170.1,"MatchLevel":"houseNumber","MatchQuality":{"Country":1.0,"State":1.0,"County":1.0,"City":1.0,"Street":[1.0],"HouseNumber":1.0,"PostalCode":1.0},"MatchType":"interpolated","Location":{"LocationId":"NT_HarSqB7Umj-nofZxCkR7AC_xA","LocationType":"point","DisplayPosition":{"Latitude":45.14228,"Longitude":7.13587},"MapView":{"TopLeft":{"Latitude":45.1434042,"Longitude":7.1342762},"BottomRight":{"Latitude":45.1411558,"Longitude":7.1374638}},"Address":{"Label":"Via Salina, 1, 10053 Bussoleno TO, Italia","Country":"ITA","State":"Piemonte","County":"TO","City":"Bussoleno","Street":"Via Salina","HouseNumber":"1","PostalCode":"10053","AdditionalData":[{"value":"Italia","key":"CountryName"},{"value":"Piemonte","key":"StateName"},{"value":"Torino","key":"CountyName"}]},"MapReference":{"ReferenceId":"562309424","Spot":0.0,"SideOfStreet":"left","CountryId":"20110484","StateId":"20110485","CountyId":"20110486","CityId":"20110620","AddressId":"669847179","RoadLinkId":"54813453"}}},{"Relevance":1.0,"Distance":177.3,"MatchLevel":"street","MatchQuality":{"Country":1.0,"State":1.0,"County":1.0,"City":1.0,"PostalCode":1.0},"Location":{"LocationId":"NT_T58uMuXcpRPp4P9HNg5gvD_l_562309722_L","LocationType":"point","DisplayPosition":{"Latitude":45.14165,"Longitude":7.13605},"MapView":{"TopLeft":{"Latitude":45.14165,"Longitude":7.13605},"BottomRight":{"Latitude":45.14142,"Longitude":7.13655}},"Address":{"Label":"10053 Bussoleno TO, Italia","Country":"ITA","State":"Piemonte","County":"TO","City":"Bussoleno","PostalCode":"10053","AdditionalData":[{"value":"Italia","key":"CountryName"},{"value":"Piemonte","key":"StateName"},{"value":"Torino","key":"CountyName"}]},"MapReference":{"ReferenceId":"562309722","Spot":1.0,"SideOfStreet":"left","CountryId":"20110484","StateId":"20110485","CountyId":"20110486","CityId":"20110620"}}},{"Relevance":1.0,"Distance":178.8,"MatchLevel":"street","MatchQuality":{"Country":1.0,"State":1.0,"County":1.0,"City":1.0,"PostalCode":1.0},"Location":{"LocationId":"NT_T58uMuXcpRPp4P9HNg5gvD_l_562309719_L","LocationType":"point","DisplayPosition":{"Latitude":45.14176,"Longitude":7.13598},"MapView":{"TopLeft":{"Latitude":45.14228,"Longitude":7.13587},"BottomRight":{"Latitude":45.14165,"Longitude":7.13605}},"Address":{"Label":"10053 Bussoleno TO, Italia","Country":"ITA","State":"Piemonte","County":"TO","City":"Bussoleno","PostalCode":"10053","AdditionalData":[{"value":"Italia","key":"CountryName"},{"value":"Piemonte","key":"StateName"},{"value":"Torino","key":"CountyName"}]},"MapReference":{"ReferenceId":"562309719","Spot":0.2,"SideOfStreet":"left","CountryId":"20110484","StateId":"20110485","CountyId":"20110486","CityId":"20110620"}}},{"Relevance":1.0,"Distance":189.7,"MatchLevel":"houseNumber","MatchQuality":{"Country":1.0,"State":1.0,"County":1.0,"City":1.0,"Street":[1.0],"HouseNumber":1.0,"PostalCode":1.0},"MatchType":"interpolated","Location":{"LocationId":"NT_WZf9JdRJHwW4cX3yP2xLGD_0MD","LocationType":"point","DisplayPosition":{"Latitude":45.14139,"Longitude":7.13662},"MapView":{"TopLeft":{"Latitude":45.1425142,"Longitude":7.1350263},"BottomRight":{"Latitude":45.1402658,"Longitude":7.1382137}},"Address":{"Label":"Via Guido Olmo, 43, 10053 Bussoleno TO, Italia","Country":"ITA","State":"Piemonte","County":"TO","City":"Bussoleno","Street":"Via Guido Olmo","HouseNumber":"43","PostalCode":"10053","AdditionalData":[{"value":"Italia","key":"CountryName"},{"value":"Piemonte","key":"StateName"},{"value":"Torino","key":"CountyName"}]},"MapReference":{"ReferenceId":"562309736","Spot":0.94,"SideOfStreet":"left","CountryId":"20110484","StateId":"20110485","CountyId":"20110486","CityId":"20110620","AddressId":"669845818","RoadLinkId":"54821377"}}},{"Relevance":1.0,"Distance":195.2,"MatchLevel":"houseNumber","MatchQuality":{"Country":1.0,"State":1.0,"County":1.0,"City":1.0,"Street":[1.0],"HouseNumber":1.0,"PostalCode":1.0},"MatchType":"interpolated","Location":{"LocationId":"NT_ip5fTp7xbnrj5nMey8.YnD_yAD","LocationType":"point","DisplayPosition":{"Latitude":45.13922,"Longitude":7.13599},"MapView":{"TopLeft":{"Latitude":45.1403442,"Longitude":7.1343963},"BottomRight":{"Latitude":45.1380958,"Longitude":7.1375837}},"Address":{"Label":"Via Moletta, 20, 10053 Bussoleno TO, Italia","Country":"ITA","State":"Piemonte","County":"TO","City":"Bussoleno","Street":"Via Moletta","HouseNumber":"20","PostalCode":"10053","AdditionalData":[{"value":"Italia","key":"CountryName"},{"value":"Piemonte","key":"StateName"},{"value":"Torino","key":"CountyName"}]},"MapReference":{"ReferenceId":"562309732","Spot":0.51,"SideOfStreet":"left","CountryId":"20110484","StateId":"20110485","CountyId":"20110486","CityId":"20110620","AddressId":"669845895","RoadLinkId":"55308964"}}},{"Relevance":1.0,"Distance":206.9,"MatchLevel":"houseNumber","MatchQuality":{"Country":1.0,"State":1.0,"County":1.0,"City":1.0,"Street":[1.0],"HouseNumber":1.0,"PostalCode":1.0},"MatchType":"interpolated","Location":{"LocationId":"NT_mmIqINfyQOsH6RFfO0vgOC_3A","LocationType":"point","DisplayPosition":{"Latitude":45.14286,"Longitude":7.13387},"MapView":{"TopLeft":{"Latitude":45.1439842,"Longitude":7.1322762},"BottomRight":{"Latitude":45.1417358,"Longitude":7.1354638}},"Address":{"Label":"Via San Pietro d'Ollesia, 7, 10053 Bussoleno TO, Italia","Country":"ITA","State":"Piemonte","County":"TO","City":"Bussoleno","Street":"Via San Pietro d'Ollesia","HouseNumber":"7","PostalCode":"10053","AdditionalData":[{"value":"Italia","key":"CountryName"},{"value":"Piemonte","key":"StateName"},{"value":"Torino","key":"CountyName"}]},"MapReference":{"ReferenceId":"562309727","Spot":0.47,"SideOfStreet":"right","CountryId":"20110484","StateId":"20110485","CountyId":"20110486","CityId":"20110620","AddressId":"669845878","RoadLinkId":"55879503"}}}]}]}}