{"Response":{"MetaInfo":{"Timestamp":"2020-03-28T09:49:44.631+0000","NextPageInformation":"2"},"View":[{"_type":"SearchResultsViewType","ViewId":0,"Result":[{"Relevance":1.0,"Distance":0.0,"Direction":0.0,"MatchLevel":"city","MatchQuality":{"Country":1.0,"State":1.0,"County":1.0,"City":1.0,"PostalCode":1.0},"Location":{"LocationId":"NT_cWPwbbvSewwm8f64RuGK8B","LocationType":"point","DisplayPosition":{"Latitude":45.133909,"Longitude":2.222582},"MapView":{"TopLeft":{"Latitude":45.22334,"Longitude":2.17273},"BottomRight":{"Latitude":45.07525,"Longitude":2.36611}},"Address":{"Label":"Pleaux, Auvergne-Rhône-Alpes, France","Country":"FRA","State":"Auvergne-Rhône-Alpes","County":"Cantal","City":"Pleaux","PostalCode":"15700","AdditionalData":[{"value":"France","key":"CountryName"},{"value":"Auvergne-Rhône-Alpes","key":"StateName"},{"value":"Cantal","key":"CountyName"}]},"MapReference":{"ReferenceId":"584234957","SideOfStreet":"neither","CountryId":"20000001","StateId":"20006029","CountyId":"20086863","CityId":"20087305"}}},{"Relevance":1.0,"Distance":27.5,"MatchLevel":"street","MatchQuality":{"Country":1.0,"State":1.0,"County":1.0,"City":1.0,"Street":[1.0],"PostalCode":1.0},"Location":{"LocationId":"NT_Q2NjvJo6-o5WGdxIFj75dD_l_549076808_R","LocationType":"point","DisplayPosition":{"Latitude":45.1336647,"Longitude":2.222526},"MapView":{"TopLeft":{"Latitude":45.13389,"Longitude":2.2216},"BottomRight":{"Latitude":45.13344,"Longitude":2.22352}},"Address":{"Label":"Rue du Bournat, 15700 Pleaux, France","Country":"FRA","State":"Auvergne-Rhône-Alpes","County":"Cantal","City":"Pleaux","Street":"Rue du Bournat","PostalCode":"15700","AdditionalData":[{"value":"France","key":"CountryName"},{"value":"Auvergne-Rhône-Alpes","key":"StateName"},{"value":"Cantal","key":"CountyName"}]},"MapReference":{"ReferenceId":"549076808","Spot":0.52,"SideOfStreet":"right","CountryId":"20000001","StateId":"20006029","CountyId":"20086863","CityId":"20087305"}}},{"Relevance":1.0,"Distance":43.7,"MatchLevel":"street","MatchQuality":{"Country":1.0,"State":1.0,"County":1.0,"City":1.0,"Street":[1.0],"PostalCode":1.0},"Location":{"LocationId":"NT_-5YBKj9l3r09O-3CAOOdFC_l_1050072117_R","LocationType":"point","DisplayPosition":{"Latitude":45.1342804,"Longitude":2.2223983},"MapView":{"TopLeft":{"Latitude":45.13439,"Longitude":2.22171},"BottomRight":{"Latitude":45.13394,"Longitude":2.22262}},"Address":{"Label":"Avenue des Estourocs, 15700 Pleaux, France","Country":"FRA","State":"Auvergne-Rhône-Alpes","County":"Cantal","City":"Pleaux","Street":"Avenue des Estourocs","PostalCode":"15700","AdditionalData":[{"value":"France","key":"CountryName"},{"value":"Auvergne-Rhône-Alpes","key":"StateName"},{"value":"Cantal","key":"CountyName"}]},"MapReference":{"ReferenceId":"1050072117","Spot":0.76,"SideOfStreet":"right","CountryId":"20000001","StateId":"20006029","CountyId":"20086863","CityId":"20087305"}}},{"Relevance":1.0,"Distance":53.6,"MatchLevel":"street","MatchQuality":{"Country":1.0,"State":1.0,"County":1.0,"City":1.0,"Street":[1.0],"PostalCode":1.0},"Location":{"LocationId":"NT_fcniPnGW5ZgL2vA4kYYW8C_l_584235204_L","LocationType":"point","DisplayPosition":{"Latitude":45.13439,"Longitude":2.22262},"MapView":{"TopLeft":{"Latitude":45.13534,"Longitude":2.22111},"BottomRight":{"Latitude":45.13439,"Longitude":2.22262}},"Address":{"Label":"Rue des Rosiers, 15700 Pleaux, France","Country":"FRA","State":"Auvergne-Rhône-Alpes","County":"Cantal","City":"Pleaux","Street":"Rue des Rosiers","PostalCode":"15700","AdditionalData":[{"value":"France","key":"CountryName"},{"value":"Auvergne-Rhône-Alpes","key":"StateName"},{"value":"Cantal","key":"CountyName"}]},"MapReference":{"ReferenceId":"584235204","Spot":0.0,"SideOfStreet":"left","CountryId":"20000001","StateId":"20006029","CountyId":"20086863","CityId":"20087305"}}},{"Relevance":1.0,"Distance":53.6,"MatchLevel":"street","MatchQuality":{"Country":1.0,"State":1.0,"County":1.0,"City":1.0,"Street":[1.0],"PostalCode":1.0},"Location":{"LocationId":"NT_-5YBKj9l3r09O-3CAOOdFC_l_584235203_R","LocationType":"point","DisplayPosition":{"Latitude":45.13439,"Longitude":2.22262},"MapView":{"TopLeft":{"Latitude":45.13446,"Longitude":2.22262},"BottomRight":{"Latitude":45.13439,"Longitude":2.22276}},"Address":{"Label":"Avenue des Estourocs, 15700 Pleaux, France","Country":"FRA","State":"Auvergne-Rhône-Alpes","County":"Cantal","City":"Pleaux","Street":"Avenue des Estourocs","PostalCode":"15700","AdditionalData":[{"value":"France","key":"CountryName"},{"value":"Auvergne-Rhône-Alpes","key":"StateName"},{"value":"Cantal","key":"CountyName"}]},"MapReference":{"ReferenceId":"584235203","Spot":0.0,"SideOfStreet":"right","CountryId":"20000001","StateId":"20006029","CountyId":"20086863","CityId":"20087305"}}},{"Relevance":1.0,"Distance":62.7,"MatchLevel":"street","MatchQuality":{"Country":1.0,"State":1.0,"County":1.0,"City":1.0,"Street":[1.0],"PostalCode":1.0},"Location":{"LocationId":"NT_xyiKjqMIGwhuzfFIwlRhFD_l_584235419_L","LocationType":"point","DisplayPosition":{"Latitude":45.1344583,"Longitude":2.2227651},"MapView":{"TopLeft":{"Latitude":45.13446,"Longitude":2.22276},"BottomRight":{"Latitude":45.13431,"Longitude":2.2246}},"Address":{"Label":"Rue du Luguet, 15700 Pleaux, France","Country":"FRA","State":"Auvergne-Rhône-Alpes","County":"Cantal","City":"Pleaux","Street":"Rue du Luguet","PostalCode":"15700","AdditionalData":[{"value":"France","key":"CountryName"},{"value":"Auvergne-Rhône-Alpes","key":"StateName"},{"value":"Cantal","key":"CountyName"}]},"MapReference":{"ReferenceId":"584235419","Spot":1.0,"SideOfStreet":"left","CountryId":"20000001","StateId":"20006029","CountyId":"20086863","CityId":"20087305"}}},{"Relevance":1.0,"Distance":62.8,"MatchLevel":"street","MatchQuality":{"Country":1.0,"State":1.0,"County":1.0,"City":1.0,"Street":[1.0],"PostalCode":1.0},"Location":{"LocationId":"NT_-5YBKj9l3r09O-3CAOOdFC_l_763778316_R","LocationType":"point","DisplayPosition":{"Latitude":45.13446,"Longitude":2.22276},"MapView":{"TopLeft":{"Latitude":45.1348,"Longitude":2.22276},"BottomRight":{"Latitude":45.13446,"Longitude":2.22348}},"Address":{"Label":"Avenue des Estourocs, 15700 Pleaux, France","Country":"FRA","State":"Auvergne-Rhône-Alpes","County":"Cantal","City":"Pleaux","Street":"Avenue des Estourocs","PostalCode":"15700","AdditionalData":[{"value":"France","key":"CountryName"},{"value":"Auvergne-Rhône-Alpes","key":"StateName"},{"value":"Cantal","key":"CountyName"}]},"MapReference":{"ReferenceId":"763778316","Spot":0.0,"SideOfStreet":"right","CountryId":"20000001","StateId":"20006029","CountyId":"20086863","CityId":"20087305"}}},{"Relevance":1.0,"Distance":68.5,"MatchLevel":"street","MatchQuality":{"Country":1.0,"State":1.0,"County":1.0,"City":1.0,"Street":[1.0],"PostalCode":1.0},"Location":{"LocationId":"NT_-5YBKj9l3r09O-3CAOOdFC_l_1050072116_R","LocationType":"point","DisplayPosition":{"Latitude":45.13394,"Longitude":2.22171},"MapView":{"TopLeft":{"Latitude":45.13394,"Longitude":2.2216},"BottomRight":{"Latitude":45.13389,"Longitude":2.22171}},"Address":{"Label":"Avenue des Estourocs, 15700 Pleaux, France","Country":"FRA","State":"Auvergne-Rhône-Alpes","County":"Cantal","City":"Pleaux","Street":"Avenue des Estourocs","PostalCode":"15700","AdditionalData":[{"value":"France","key":"CountryName"},{"value":"Auvergne-Rhône-Alpes","key":"StateName"},{"value":"Cantal","key":"CountyName"}]},"MapReference":{"ReferenceId":"1050072116","Spot":1.0,"SideOfStreet":"right","CountryId":"20000001","StateId":"20006029","CountyId":"20086863","CityId":"20087305"}}},{"Relevance":1.0,"Distance":77.1,"MatchLevel":"street","MatchQuality":{"Country":1.0,"State":1.0,"County":1.0,"City":1.0,"Street":[1.0],"PostalCode":1.0},"Location":{"LocationId":"NT_GSeh81UVLA5pVj7.pov0OA_l_584235230_R","LocationType":"point","DisplayPosition":{"Latitude":45.13389,"Longitude":2.2216},"MapView":{"TopLeft":{"Latitude":45.13389,"Longitude":2.21929},"BottomRight":{"Latitude":45.13274,"Longitude":2.2216}},"Address":{"Label":"Avenue des Estourocs, 15700 Pleaux, France","Country":"FRA","State":"Auvergne-Rhône-Alpes","County":"Cantal","City":"Pleaux","Street":"Avenue des Estourocs","PostalCode":"15700","AdditionalData":[{"value":"France","key":"CountryName"},{"value":"Auvergne-Rhône-Alpes","key":"StateName"},{"value":"Cantal","key":"CountyName"}]},"MapReference":{"ReferenceId":"584235230","Spot":1.0,"SideOfStreet":"right","CountryId":"20000001","StateId":"20006029","CountyId":"20086863","CityId":"20087305"}}},{"Relevance":1.0,"Distance":90.2,"MatchLevel":"street","MatchQuality":{"Country":1.0,"State":1.0,"County":1.0,"City":1.0,"Street":[1.0],"PostalCode":1.0},"Location":{"LocationId":"NT_iyo3WG6OFyUx1U-RXoXFtD_l_584235365_R","LocationType":"point","DisplayPosition":{"Latitude":45.13344,"Longitude":2.22352},"MapView":{"TopLeft":{"Latitude":45.13344,"Longitude":2.22352},"BottomRight":{"Latitude":45.13324,"Longitude":2.22497}},"Address":{"Label":"Rue du Bournat, 15700 Pleaux, France","Country":"FRA","State":"Auvergne-Rhône-Alpes","County":"Cantal","City":"Pleaux","Street":"Rue du Bournat","PostalCode":"15700","AdditionalData":[{"value":"France","key":"CountryName"},{"value":"Auvergne-Rhône-Alpes","key":"StateName"},{"value":"Cantal","key":"CountyName"}]},"MapReference":{"ReferenceId":"584235365","Spot":1.0,"SideOfStreet":"right","CountryId":"20000001","StateId":"20006029","CountyId":"20086863","CityId":"20087305"}}}]}]}}