{"Response":{"MetaInfo":{"Timestamp":"2020-03-28T11:37:13.407+0000","NextPageInformation":"2"},"View":[{"_type":"SearchResultsViewType","ViewId":0,"Result":[{"Relevance":1.0,"Distance":-118.4,"MatchLevel":"landmark","MatchQuality":{"Country":1.0,"State":1.0,"County":1.0,"City":1.0,"PostalCode":1.0,"Name":1.0},"Location":{"LocationId":"NT_hmrTBfKTF4GVeGBPSXAoxD","LocationType":"industrialComplex","Name":"Z.I. de Mayencin II","DisplayPosition":{"Latitude":45.18984,"Longitude":5.78},"MapView":{"TopLeft":{"Latitude":45.19191,"Longitude":5.77809},"BottomRight":{"Latitude":45.18777,"Longitude":5.78195}},"Address":{"Label":"38610 Gières, France","Country":"FRA","State":"Auvergne-Rhône-Alpes","County":"Isère","City":"Gières","PostalCode":"38610","AdditionalData":[{"value":"France","key":"CountryName"},{"value":"Auvergne-Rhône-Alpes","key":"StateName"},{"value":"Isère","key":"CountyName"}]},"MapReference":{"CountryId":"20000001","StateId":"20006029","CountyId":"20050216","CityId":"20050720","PlaceId":"53429889"}}},{"Relevance":1.0,"Distance":0.0,"Direction":0.0,"MatchLevel":"city","MatchQuality":{"Country":1.0,"State":1.0,"County":1.0,"City":1.0,"PostalCode":1.0},"Location":{"LocationId":"NT_-cJR7rvC6S9239.BL9RQHB","LocationType":"point","DisplayPosition":{"Latitude":45.1896699,"Longitude":5.7795681},"MapView":{"TopLeft":{"Latitude":45.20638,"Longitude":5.76757},"BottomRight":{"Latitude":45.15928,"Longitude":5.81345}},"Address":{"Label":"Gières, Auvergne-Rhône-Alpes, France","Country":"FRA","State":"Auvergne-Rhône-Alpes","County":"Isère","City":"Gières","PostalCode":"38610","AdditionalData":[{"value":"France","key":"CountryName"},{"value":"Auvergne-Rhône-Alpes","key":"StateName"},{"value":"Isère","key":"CountyName"}]},"MapReference":{"ReferenceId":"62949878","SideOfStreet":"neither","CountryId":"20000001","StateId":"20006029","CountyId":"20050216","CityId":"20050720"}}},{"Relevance":1.0,"Distance":16.7,"MatchLevel":"street","MatchQuality":{"Country":1.0,"State":1.0,"County":1.0,"City":1.0,"PostalCode":1.0},"Location":{"LocationId":"NT_gRPFxw7IP4xMTY7TspIJdC_l_931251493_R","LocationType":"point","DisplayPosition":{"Latitude":45.1896214,"Longitude":5.7793661},"MapView":{"TopLeft":{"Latitude":45.18977,"Longitude":5.77916},"BottomRight":{"Latitude":45.18948,"Longitude":5.7794}},"Address":{"Label":"38610 Gières, France","Country":"FRA","State":"Auvergne-Rhône-Alpes","County":"Isère","City":"Gières","PostalCode":"38610","AdditionalData":[{"value":"France","key":"CountryName"},{"value":"Auvergne-Rhône-Alpes","key":"StateName"},{"value":"Isère","key":"CountyName"}]},"MapReference":{"ReferenceId":"931251493","Spot":0.33,"SideOfStreet":"right","CountryId":"20000001","StateId":"20006029","CountyId":"20050216","CityId":"20050720"}}},{"Relevance":1.0,"Distance":24.9,"MatchLevel":"street","MatchQuality":{"Country":1.0,"State":1.0,"County":1.0,"City":1.0,"PostalCode":1.0},"Location":{"LocationId":"NT_gRPFxw7IP4xMTY7TspIJdC_l_931251495_R","LocationType":"point","DisplayPosition":{"Latitude":45.18948,"Longitude":5.7794},"MapView":{"TopLeft":{"Latitude":45.18948,"Longitude":5.7794},"BottomRight":{"Latitude":45.18931,"Longitude":5.77944}},"Address":{"Label":"38610 Gières, France","Country":"FRA","State":"Auvergne-Rhône-Alpes","County":"Isère","City":"Gières","PostalCode":"38610","AdditionalData":[{"value":"France","key":"CountryName"},{"value":"Auvergne-Rhône-Alpes","key":"StateName"},{"value":"Isère","key":"CountyName"}]},"MapReference":{"ReferenceId":"931251495","Spot":1.0,"SideOfStreet":"right","CountryId":"20000001","StateId":"20006029","CountyId":"20050216","CityId":"20050720"}}},{"Relevance":1.0,"Distance":24.9,"MatchLevel":"street","MatchQuality":{"Country":1.0,"State":1.0,"County":1.0,"City":1.0,"PostalCode":1.0},"Location":{"LocationId":"NT_gRPFxw7IP4xMTY7TspIJdC_l_931251494_L","LocationType":"point","DisplayPosition":{"Latitude":45.18948,"Longitude":5.7794},"MapView":{"TopLeft":{"Latitude":45.18948,"Longitude":5.77886},"BottomRight":{"Latitude":45.18828,"Longitude":5.7794}},"Address":{"Label":"38610 Gières, France","Country":"FRA","State":"Auvergne-Rhône-Alpes","County":"Isère","City":"Gières","PostalCode":"38610","AdditionalData":[{"value":"France","key":"CountryName"},{"value":"Auvergne-Rhône-Alpes","key":"StateName"},{"value":"Isère","key":"CountyName"}]},"MapReference":{"ReferenceId":"931251494","Spot":1.0,"SideOfStreet":"left","CountryId":"20000001","StateId":"20006029","CountyId":"20050216","CityId":"20050720"}}},{"Relevance":1.0,"Distance":33.5,"MatchLevel":"houseNumber","MatchQuality":{"Country":1.0,"State":1.0,"County":1.0,"City":1.0,"Street":[1.0],"HouseNumber":1.0,"PostalCode":1.0},"MatchType":"interpolated","Location":{"LocationId":"NT_hLw6IrOxseSR6E9vOBYs4D_3A","LocationType":"point","DisplayPosition":{"Latitude":45.18955,"Longitude":5.78046},"MapView":{"TopLeft":{"Latitude":45.1906742,"Longitude":5.7788649},"BottomRight":{"Latitude":45.1884258,"Longitude":5.7820551}},"Address":{"Label":"7 Allée de Palestine, 38610 Gières, France","Country":"FRA","State":"Auvergne-Rhône-Alpes","County":"Isère","City":"Gières","Street":"Allée de Palestine","HouseNumber":"7","PostalCode":"38610","AdditionalData":[{"value":"France","key":"CountryName"},{"value":"Auvergne-Rhône-Alpes","key":"StateName"},{"value":"Isère","key":"CountyName"}]},"MapReference":{"ReferenceId":"931251501","Spot":0.16,"SideOfStreet":"left","CountryId":"20000001","StateId":"20006029","CountyId":"20050216","CityId":"20050720","AddressId":"319730384","RoadLinkId":"285294573"}}},{"Relevance":1.0,"Distance":34.6,"MatchLevel":"houseNumber","MatchQuality":{"Country":1.0,"State":1.0,"County":1.0,"City":1.0,"Street":[1.0],"HouseNumber":1.0,"PostalCode":1.0},"MatchType":"interpolated","Location":{"LocationId":"NT_trjZO5J8lMdRybsNX6nbQC_zA","LocationType":"point","DisplayPosition":{"Latitude":45.18983,"Longitude":5.77919},"MapView":{"TopLeft":{"Latitude":45.1909542,"Longitude":5.7775949},"BottomRight":{"Latitude":45.1887058,"Longitude":5.7807851}},"Address":{"Label":"3 Allée du Pérou, 38610 Gières, France","Country":"FRA","State":"Auvergne-Rhône-Alpes","County":"Isère","City":"Gières","Street":"Allée du Pérou","HouseNumber":"3","PostalCode":"38610","AdditionalData":[{"value":"France","key":"CountryName"},{"value":"Auvergne-Rhône-Alpes","key":"StateName"},{"value":"Isère","key":"CountyName"}]},"MapReference":{"ReferenceId":"931251490","Spot":0.5,"SideOfStreet":"left","CountryId":"20000001","StateId":"20006029","CountyId":"20050216","CityId":"20050720","AddressId":"319436681","RoadLinkId":"285294562"}}},{"Relevance":1.0,"Distance":36.6,"MatchLevel":"street","MatchQuality":{"Country":1.0,"State":1.0,"County":1.0,"City":1.0,"Street":[1.0],"PostalCode":1.0},"Location":{"LocationId":"NT_trjZO5J8lMdRybsNX6nbQC_l_931251491_R","LocationType":"point","DisplayPosition":{"Latitude":45.18989,"Longitude":5.77922},"MapView":{"TopLeft":{"Latitude":45.19007,"Longitude":5.77922},"BottomRight":{"Latitude":45.18989,"Longitude":5.77931}},"Address":{"Label":"Allée du Pérou, 38610 Gières, France","Country":"FRA","State":"Auvergne-Rhône-Alpes","County":"Isère","City":"Gières","Street":"Allée du Pérou","PostalCode":"38610","AdditionalData":[{"value":"France","key":"CountryName"},{"value":"Auvergne-Rhône-Alpes","key":"StateName"},{"value":"Isère","key":"CountyName"}]},"MapReference":{"ReferenceId":"931251491","Spot":0.0,"SideOfStreet":"right","CountryId":"20000001","StateId":"20006029","CountyId":"20050216","CityId":"20050720"}}},{"Relevance":1.0,"Distance":36.6,"MatchLevel":"street","MatchQuality":{"Country":1.0,"State":1.0,"County":1.0,"City":1.0,"PostalCode":1.0},"Location":{"LocationId":"NT_gRPFxw7IP4xMTY7TspIJdC_l_931299404_R","LocationType":"point","DisplayPosition":{"Latitude":45.18989,"Longitude":5.77922},"MapView":{"TopLeft":{"Latitude":45.18989,"Longitude":5.77907},"BottomRight":{"Latitude":45.18988,"Longitude":5.77922}},"Address":{"Label":"38610 Gières, France","Country":"FRA","State":"Auvergne-Rhône-Alpes","County":"Isère","City":"Gières","PostalCode":"38610","AdditionalData":[{"value":"France","key":"CountryName"},{"value":"Auvergne-Rhône-Alpes","key":"StateName"},{"value":"Isère","key":"CountyName"}]},"MapReference":{"ReferenceId":"931299404","Spot":1.0,"SideOfStreet":"right","CountryId":"20000001","StateId":"20006029","CountyId":"20050216","CityId":"20050720"}}},{"Relevance":1.0,"Distance":37.6,"MatchLevel":"street","MatchQuality":{"Country":1.0,"State":1.0,"County":1.0,"City":1.0,"Street":[1.0],"PostalCode":1.0},"Location":{"LocationId":"NT_2SEfdxZUcnqCFU2r0UI8KD_l_58377211_L","LocationType":"point","DisplayPosition":{"Latitude":45.1900031,"Longitude":5.7796487},"MapView":{"TopLeft":{"Latitude":45.19007,"Longitude":5.77931},"BottomRight":{"Latitude":45.18982,"Longitude":5.78051}},"Address":{"Label":"Allée d'Indépendencia, 38610 Gières, France","Country":"FRA","State":"Auvergne-Rhône-Alpes","County":"Isère","City":"Gières","Street":"Allée d'Indépendencia","PostalCode":"38610","AdditionalData":[{"value":"France","key":"CountryName"},{"value":"Auvergne-Rhône-Alpes","key":"StateName"},{"value":"Isère","key":"CountyName"}]},"MapReference":{"ReferenceId":"58377211","Spot":0.72,"SideOfStreet":"left","CountryId":"20000001","StateId":"20006029","CountyId":"20050216","CityId":"20050720"}}}]}]}}