{"Response":{"MetaInfo":{"Timestamp":"2020-03-28T12:03:45.047+0000","NextPageInformation":"2"},"View":[{"_type":"SearchResultsViewType","ViewId":0,"Result":[{"Relevance":1.0,"Distance":0.0,"Direction":0.0,"MatchLevel":"city","MatchQuality":{"Country":1.0,"State":1.0,"County":1.0,"City":1.0,"PostalCode":1.0},"Location":{"LocationId":"NT_pzSNZR5W8N-U2ZxzI2NVgA","LocationType":"point","DisplayPosition":{"Latitude":45.1883452,"Longitude":11.4641851},"MapView":{"TopLeft":{"Latitude":45.21441,"Longitude":11.45308},"BottomRight":{"Latitude":45.15219,"Longitude":11.52482}},"Address":{"Label":"Casale di Scodosia, Veneto, Italia","Country":"ITA","State":"Veneto","County":"PD","City":"Casale di Scodosia","PostalCode":"35040","AdditionalData":[{"value":"Italia","key":"CountryName"},{"value":"Veneto","key":"StateName"},{"value":"Padova","key":"CountyName"}]},"MapReference":{"ReferenceId":"543256103","SideOfStreet":"neither","CountryId":"20110484","StateId":"20120537","CountyId":"20122263","CityId":"20122360"}}},{"Relevance":1.0,"Distance":31.9,"MatchLevel":"houseNumber","MatchQuality":{"Country":1.0,"State":1.0,"County":1.0,"City":1.0,"Street":[1.0],"HouseNumber":1.0,"PostalCode":1.0},"MatchType":"interpolated","Location":{"LocationId":"NT_cKWrn8anwobBwCi5epMcGB_xED","LocationType":"point","DisplayPosition":{"Latitude":45.18865,"Longitude":11.46414},"MapView":{"TopLeft":{"Latitude":45.1897742,"Longitude":11.4625449},"BottomRight":{"Latitude":45.1875258,"Longitude":11.4657351}},"Address":{"Label":"Via Onorio De Luca, 11, 35040 Casale di Scodosia PD, Italia","Country":"ITA","State":"Veneto","County":"PD","City":"Casale di Scodosia","Street":"Via Onorio De Luca","HouseNumber":"11","PostalCode":"35040","AdditionalData":[{"value":"Italia","key":"CountryName"},{"value":"Veneto","key":"StateName"},{"value":"Padova","key":"CountyName"}]},"MapReference":{"ReferenceId":"987530192","Spot":0.5,"SideOfStreet":"right","CountryId":"20110484","StateId":"20120537","CountyId":"20122263","CityId":"20122360","AddressId":"387829790","RoadLinkId":"317310005"}}},{"Relevance":1.0,"Distance":32.4,"MatchLevel":"houseNumber","MatchQuality":{"Country":1.0,"State":1.0,"County":1.0,"City":1.0,"Street":[1.0],"HouseNumber":1.0,"PostalCode":1.0},"MatchType":"interpolated","Location":{"LocationId":"NT_cKWrn8anwobBwCi5epMcGB_xMD","LocationType":"point","DisplayPosition":{"Latitude":45.18866,"Longitude":11.46427},"MapView":{"TopLeft":{"Latitude":45.1897842,"Longitude":11.4626749},"BottomRight":{"Latitude":45.1875358,"Longitude":11.4658651}},"Address":{"Label":"Via Onorio De Luca, 13, 35040 Casale di Scodosia PD, Italia","Country":"ITA","State":"Veneto","County":"PD","City":"Casale di Scodosia","Street":"Via Onorio De Luca","HouseNumber":"13","PostalCode":"35040","AdditionalData":[{"value":"Italia","key":"CountryName"},{"value":"Veneto","key":"StateName"},{"value":"Padova","key":"CountyName"}]},"MapReference":{"ReferenceId":"987530944","Spot":1.0,"SideOfStreet":"left","CountryId":"20110484","StateId":"20120537","CountyId":"20122263","CityId":"20122360","AddressId":"729547946","RoadLinkId":"317310836"}}},{"Relevance":1.0,"Distance":34.2,"MatchLevel":"street","MatchQuality":{"Country":1.0,"State":1.0,"County":1.0,"City":1.0,"PostalCode":1.0},"Location":{"LocationId":"NT_RwB8YKnJdumzOmnEigy5GD_l_1196633630_L","LocationType":"point","DisplayPosition":{"Latitude":45.18806,"Longitude":11.46435},"MapView":{"TopLeft":{"Latitude":45.18806,"Longitude":11.46299},"BottomRight":{"Latitude":45.18783,"Longitude":11.46436}},"Address":{"Label":"35040 Casale di Scodosia PD, Italia","Country":"ITA","State":"Veneto","County":"PD","City":"Casale di Scodosia","PostalCode":"35040","AdditionalData":[{"value":"Italia","key":"CountryName"},{"value":"Veneto","key":"StateName"},{"value":"Padova","key":"CountyName"}]},"MapReference":{"ReferenceId":"1196633630","Spot":1.0,"SideOfStreet":"left","CountryId":"20110484","StateId":"20120537","CountyId":"20122263","CityId":"20122360"}}},{"Relevance":1.0,"Distance":37.2,"MatchLevel":"houseNumber","MatchQuality":{"Country":1.0,"State":1.0,"County":1.0,"City":1.0,"Street":[1.0],"HouseNumber":1.0,"PostalCode":1.0},"MatchType":"interpolated","Location":{"LocationId":"NT_cKWrn8anwobBwCi5epMcGB_yED","LocationType":"point","DisplayPosition":{"Latitude":45.18865,"Longitude":11.46399},"MapView":{"TopLeft":{"Latitude":45.1897742,"Longitude":11.4623949},"BottomRight":{"Latitude":45.1875258,"Longitude":11.4655851}},"Address":{"Label":"Via Onorio De Luca, 21, 35040 Casale di Scodosia PD, Italia","Country":"ITA","State":"Veneto","County":"PD","City":"Casale di Scodosia","Street":"Via Onorio De Luca","HouseNumber":"21","PostalCode":"35040","AdditionalData":[{"value":"Italia","key":"CountryName"},{"value":"Veneto","key":"StateName"},{"value":"Padova","key":"CountyName"}]},"MapReference":{"ReferenceId":"987530191","Spot":0.98,"SideOfStreet":"right","CountryId":"20110484","StateId":"20120537","CountyId":"20122263","CityId":"20122360","AddressId":"387992312","RoadLinkId":"317310004"}}},{"Relevance":1.0,"Distance":96.9,"MatchLevel":"street","MatchQuality":{"Country":1.0,"State":1.0,"County":1.0,"City":1.0,"PostalCode":1.0},"Location":{"LocationId":"NT_RwB8YKnJdumzOmnEigy5GD_l_543256287_L","LocationType":"point","DisplayPosition":{"Latitude":45.18788,"Longitude":11.46523},"MapView":{"TopLeft":{"Latitude":45.188,"Longitude":11.46523},"BottomRight":{"Latitude":45.18788,"Longitude":11.4661}},"Address":{"Label":"35040 Casale di Scodosia PD, Italia","Country":"ITA","State":"Veneto","County":"PD","City":"Casale di Scodosia","PostalCode":"35040","AdditionalData":[{"value":"Italia","key":"CountryName"},{"value":"Veneto","key":"StateName"},{"value":"Padova","key":"CountyName"}]},"MapReference":{"ReferenceId":"543256287","Spot":0.0,"SideOfStreet":"left","CountryId":"20110484","StateId":"20120537","CountyId":"20122263","CityId":"20122360"}}},{"Relevance":1.0,"Distance":101.6,"MatchLevel":"street","MatchQuality":{"Country":1.0,"State":1.0,"County":1.0,"City":1.0,"PostalCode":1.0},"Location":{"LocationId":"NT_RwB8YKnJdumzOmnEigy5GD_l_1196622332_R","LocationType":"point","DisplayPosition":{"Latitude":45.1880993,"Longitude":11.4629368},"MapView":{"TopLeft":{"Latitude":45.18854,"Longitude":11.46285},"BottomRight":{"Latitude":45.18788,"Longitude":11.46298}},"Address":{"Label":"35040 Casale di Scodosia PD, Italia","Country":"ITA","State":"Veneto","County":"PD","City":"Casale di Scodosia","PostalCode":"35040","AdditionalData":[{"value":"Italia","key":"CountryName"},{"value":"Veneto","key":"StateName"},{"value":"Padova","key":"CountyName"}]},"MapReference":{"ReferenceId":"1196622332","Spot":0.33,"SideOfStreet":"right","CountryId":"20110484","StateId":"20120537","CountyId":"20122263","CityId":"20122360"}}},{"Relevance":1.0,"Distance":102.4,"MatchLevel":"houseNumber","MatchQuality":{"Country":1.0,"State":1.0,"County":1.0,"City":1.0,"Street":[1.0],"HouseNumber":1.0,"PostalCode":1.0},"MatchType":"interpolated","Location":{"LocationId":"NT_cKWrn8anwobBwCi5epMcGB_yUD","LocationType":"point","DisplayPosition":{"Latitude":45.18854,"Longitude":11.46284},"MapView":{"TopLeft":{"Latitude":45.1896642,"Longitude":11.461245},"BottomRight":{"Latitude":45.1874158,"Longitude":11.464435}},"Address":{"Label":"Via Onorio De Luca, 25, 35040 Casale di Scodosia PD, Italia","Country":"ITA","State":"Veneto","County":"PD","City":"Casale di Scodosia","Street":"Via Onorio De Luca","HouseNumber":"25","PostalCode":"35040","AdditionalData":[{"value":"Italia","key":"CountryName"},{"value":"Veneto","key":"StateName"},{"value":"Padova","key":"CountyName"}]},"MapReference":{"ReferenceId":"543256103","Spot":0.97,"SideOfStreet":"right","CountryId":"20110484","StateId":"20120537","CountyId":"20122263","CityId":"20122360","AddressId":"388007450","RoadLinkId":"58667536"}}},{"Relevance":1.0,"Distance":107.7,"MatchLevel":"street","MatchQuality":{"Country":1.0,"State":1.0,"County":1.0,"City":1.0,"PostalCode":1.0},"Location":{"LocationId":"NT_RwB8YKnJdumzOmnEigy5GD_l_1196622331_R","LocationType":"point","DisplayPosition":{"Latitude":45.18788,"Longitude":11.46298},"MapView":{"TopLeft":{"Latitude":45.18788,"Longitude":11.46298},"BottomRight":{"Latitude":45.18783,"Longitude":11.46299}},"Address":{"Label":"35040 Casale di Scodosia PD, Italia","Country":"ITA","State":"Veneto","County":"PD","City":"Casale di Scodosia","PostalCode":"35040","AdditionalData":[{"value":"Italia","key":"CountryName"},{"value":"Veneto","key":"StateName"},{"value":"Padova","key":"CountyName"}]},"MapReference":{"ReferenceId":"1196622331","Spot":1.0,"SideOfStreet":"right","CountryId":"20110484","StateId":"20120537","CountyId":"20122263","CityId":"20122360"}}},{"Relevance":1.0,"Distance":109.3,"MatchLevel":"houseNumber","MatchQuality":{"Country":1.0,"State":1.0,"County":1.0,"City":1.0,"Street":[1.0],"HouseNumber":1.0,"PostalCode":1.0},"MatchType":"interpolated","Location":{"LocationId":"NT_80.x3lYkF6lsHijYnshUtC_xUjQ","LocationType":"point","DisplayPosition":{"Latitude":45.18924,"Longitude":11.46484},"MapView":{"TopLeft":{"Latitude":45.1903642,"Longitude":11.4632449},"BottomRight":{"Latitude":45.1881158,"Longitude":11.4664351}},"Address":{"Label":"Via Grande, 15B, 35040 Casale di Scodosia PD, Italia","Country":"ITA","State":"Veneto","County":"PD","City":"Casale di Scodosia","Street":"Via Grande","HouseNumber":"15B","PostalCode":"35040","AdditionalData":[{"value":"Italia","key":"CountryName"},{"value":"Veneto","key":"StateName"},{"value":"Padova","key":"CountyName"}]},"MapReference":{"ReferenceId":"577131298","Spot":0.31,"SideOfStreet":"left","CountryId":"20110484","StateId":"20120537","CountyId":"20122263","CityId":"20122360","AddressId":"729498543","RoadLinkId":"58935674"}}}]}]}}