{"Response":{"MetaInfo":{"Timestamp":"2020-03-28T09:54:03.846+0000","NextPageInformation":"2"},"View":[{"_type":"SearchResultsViewType","ViewId":0,"Result":[{"Relevance":1.0,"Distance":0.0,"Direction":0.0,"MatchLevel":"district","MatchQuality":{"Country":1.0,"County":1.0,"City":1.0,"District":1.0,"PostalCode":1.0},"Location":{"LocationId":"NT_dzLwTHUsjQOqSU-GnZHC4A","LocationType":"point","DisplayPosition":{"Latitude":45.1826842,"Longitude":18.1825369},"MapView":{"TopLeft":{"Latitude":45.18554,"Longitude":18.16868},"BottomRight":{"Latitude":45.17299,"Longitude":18.1963}},"Address":{"Label":"Garčin, Hrvatska","Country":"HRV","County":"Brodsko-posavska županija","City":"Garčin","District":"Garčin","PostalCode":"35212","AdditionalData":[{"value":"Hrvatska","key":"CountryName"},{"value":"Brodsko-posavska županija","key":"CountyName"}]},"MapReference":{"ReferenceId":"784014046","SideOfStreet":"neither","CountryId":"20633739","CountyId":"20641456","CityId":"22871480","DistrictId":"22877220"}}},{"Relevance":1.0,"Distance":13.3,"MatchLevel":"houseNumber","MatchQuality":{"Country":1.0,"County":1.0,"City":1.0,"District":1.0,"Street":[1.0],"HouseNumber":1.0,"PostalCode":1.0},"MatchType":"interpolated","Location":{"LocationId":"NT_Azx1FrsfAG-Y1kH334akbA_xATM","LocationType":"point","DisplayPosition":{"Latitude":45.18263,"Longitude":18.18215},"MapView":{"TopLeft":{"Latitude":45.1837542,"Longitude":18.1805551},"BottomRight":{"Latitude":45.1815058,"Longitude":18.1837449}},"Address":{"Label":"Ulica kralja Tomislava 101, HR-35212 Garčin, Hrvatska","Country":"HRV","County":"Brodsko-posavska županija","City":"Garčin","District":"Garčin","Street":"Ulica kralja Tomislava","HouseNumber":"101","PostalCode":"35212","AdditionalData":[{"value":"Hrvatska","key":"CountryName"},{"value":"Brodsko-posavska županija","key":"CountyName"}]},"MapReference":{"ReferenceId":"905277338","Spot":0.46,"SideOfStreet":"right","CountryId":"20633739","CountyId":"20641456","CityId":"22871480","DistrictId":"22877220","AddressId":"622992958","RoadLinkId":"266445129"}}},{"Relevance":1.0,"Distance":49.7,"MatchLevel":"houseNumber","MatchQuality":{"Country":1.0,"County":1.0,"City":1.0,"District":1.0,"Street":[1.0],"HouseNumber":1.0,"PostalCode":1.0},"MatchType":"interpolated","Location":{"LocationId":"NT_Azx1FrsfAG-Y1kH334akbA_xAzM","LocationType":"point","DisplayPosition":{"Latitude":45.1821,"Longitude":18.18281},"MapView":{"TopLeft":{"Latitude":45.1832242,"Longitude":18.1812151},"BottomRight":{"Latitude":45.1809758,"Longitude":18.1844049}},"Address":{"Label":"Ulica kralja Tomislava 103, HR-35212 Garčin, Hrvatska","Country":"HRV","County":"Brodsko-posavska županija","City":"Garčin","District":"Garčin","Street":"Ulica kralja Tomislava","HouseNumber":"103","PostalCode":"35212","AdditionalData":[{"value":"Hrvatska","key":"CountryName"},{"value":"Brodsko-posavska županija","key":"CountyName"}]},"MapReference":{"ReferenceId":"784014046","Spot":0.63,"SideOfStreet":"right","CountryId":"20633739","CountyId":"20641456","CityId":"22871480","DistrictId":"22877220","AddressId":"622953796","RoadLinkId":"176893673"}}},{"Relevance":1.0,"Distance":70.2,"MatchLevel":"houseNumber","MatchQuality":{"Country":1.0,"County":1.0,"City":1.0,"District":1.0,"Street":[1.0],"HouseNumber":1.0,"PostalCode":1.0},"MatchType":"interpolated","Location":{"LocationId":"NT_Azx1FrsfAG-Y1kH334akbA_5UD","LocationType":"point","DisplayPosition":{"Latitude":45.18226,"Longitude":18.18162},"MapView":{"TopLeft":{"Latitude":45.1833842,"Longitude":18.1800251},"BottomRight":{"Latitude":45.1811358,"Longitude":18.1832149}},"Address":{"Label":"Ulica kralja Tomislava 95, HR-35212 Garčin, Hrvatska","Country":"HRV","County":"Brodsko-posavska županija","City":"Garčin","District":"Garčin","Street":"Ulica kralja Tomislava","HouseNumber":"95","PostalCode":"35212","AdditionalData":[{"value":"Hrvatska","key":"CountryName"},{"value":"Brodsko-posavska županija","key":"CountyName"}]},"MapReference":{"ReferenceId":"1101819205","Spot":0.17,"SideOfStreet":"right","CountryId":"20633739","CountyId":"20641456","CityId":"22871480","DistrictId":"22877220","AddressId":"622958317","RoadLinkId":"414059130"}}},{"Relevance":1.0,"Distance":134.4,"MatchLevel":"houseNumber","MatchQuality":{"Country":1.0,"County":1.0,"City":1.0,"District":1.0,"Street":[1.0],"HouseNumber":1.0,"PostalCode":1.0},"MatchType":"interpolated","Location":{"LocationId":"NT_Azx1FrsfAG-Y1kH334akbA_xETN","LocationType":"point","DisplayPosition":{"Latitude":45.18194,"Longitude":18.18411},"MapView":{"TopLeft":{"Latitude":45.1830642,"Longitude":18.1825151},"BottomRight":{"Latitude":45.1808158,"Longitude":18.1857049}},"Address":{"Label":"Ulica kralja Tomislava 115, HR-35212 Garčin, Hrvatska","Country":"HRV","County":"Brodsko-posavska županija","City":"Garčin","District":"Garčin","Street":"Ulica kralja Tomislava","HouseNumber":"115","PostalCode":"35212","AdditionalData":[{"value":"Hrvatska","key":"CountryName"},{"value":"Brodsko-posavska županija","key":"CountyName"}]},"MapReference":{"ReferenceId":"1162562724","Spot":1.0,"SideOfStreet":"right","CountryId":"20633739","CountyId":"20641456","CityId":"22871480","DistrictId":"22877220","AddressId":"622950794","RoadLinkId":"468848400"}}},{"Relevance":1.0,"Distance":231.6,"MatchLevel":"houseNumber","MatchQuality":{"Country":1.0,"County":1.0,"City":1.0,"District":1.0,"Street":[1.0],"HouseNumber":1.0,"PostalCode":1.0},"MatchType":"interpolated","Location":{"LocationId":"NT_Azx1FrsfAG-Y1kH334akbA_3UD","LocationType":"point","DisplayPosition":{"Latitude":45.18252,"Longitude":18.17948},"MapView":{"TopLeft":{"Latitude":45.1836442,"Longitude":18.1778851},"BottomRight":{"Latitude":45.1813958,"Longitude":18.1810749}},"Address":{"Label":"Ulica kralja Tomislava 75, HR-35212 Garčin, Hrvatska","Country":"HRV","County":"Brodsko-posavska županija","City":"Garčin","District":"Garčin","Street":"Ulica kralja Tomislava","HouseNumber":"75","PostalCode":"35212","AdditionalData":[{"value":"Hrvatska","key":"CountryName"},{"value":"Brodsko-posavska županija","key":"CountyName"}]},"MapReference":{"ReferenceId":"1101975242","Spot":0.03,"SideOfStreet":"right","CountryId":"20633739","CountyId":"20641456","CityId":"22871480","DistrictId":"22877220","AddressId":"622958299","RoadLinkId":"414223697"}}},{"Relevance":1.0,"Distance":427.6,"MatchLevel":"houseNumber","MatchQuality":{"Country":1.0,"County":1.0,"City":1.0,"District":1.0,"Street":[1.0],"HouseNumber":1.0,"PostalCode":1.0},"MatchType":"interpolated","Location":{"LocationId":"NT_Azx1FrsfAG-Y1kH334akbA_1ETQ","LocationType":"point","DisplayPosition":{"Latitude":45.18278,"Longitude":18.17705},"MapView":{"TopLeft":{"Latitude":45.1839042,"Longitude":18.1754551},"BottomRight":{"Latitude":45.1816558,"Longitude":18.1786449}},"Address":{"Label":"Ulica kralja Tomislava 51A, HR-35212 Garčin, Hrvatska","Country":"HRV","County":"Brodsko-posavska županija","City":"Garčin","District":"Garčin","Street":"Ulica kralja Tomislava","HouseNumber":"51A","PostalCode":"35212","AdditionalData":[{"value":"Hrvatska","key":"CountryName"},{"value":"Brodsko-posavska županija","key":"CountyName"}]},"MapReference":{"ReferenceId":"1101975243","Spot":0.13,"SideOfStreet":"right","CountryId":"20633739","CountyId":"20641456","CityId":"22871480","DistrictId":"22877220","AddressId":"622958300","RoadLinkId":"414223698"}}},{"Relevance":1.0,"Distance":470.6,"MatchLevel":"houseNumber","MatchQuality":{"Country":1.0,"County":1.0,"City":1.0,"District":1.0,"Street":[1.0],"HouseNumber":1.0,"PostalCode":1.0},"MatchType":"interpolated","Location":{"LocationId":"NT_Azx1FrsfAG-Y1kH334akbA_0cD","LocationType":"point","DisplayPosition":{"Latitude":45.18283,"Longitude":18.17647},"MapView":{"TopLeft":{"Latitude":45.1839542,"Longitude":18.1748751},"BottomRight":{"Latitude":45.1817058,"Longitude":18.1780649}},"Address":{"Label":"Ulica kralja Tomislava 47, HR-35212 Garčin, Hrvatska","Country":"HRV","County":"Brodsko-posavska županija","City":"Garčin","District":"Garčin","Street":"Ulica kralja Tomislava","HouseNumber":"47","PostalCode":"35212","AdditionalData":[{"value":"Hrvatska","key":"CountryName"},{"value":"Brodsko-posavska županija","key":"CountyName"}]},"MapReference":{"ReferenceId":"724101046","Spot":0.0,"SideOfStreet":"right","CountryId":"20633739","CountyId":"20641456","CityId":"22871480","DistrictId":"22877220","AddressId":"622953587","RoadLinkId":"127405327"}}},{"Relevance":1.0,"Distance":507.2,"MatchLevel":"houseNumber","MatchQuality":{"Country":1.0,"County":1.0,"City":1.0,"District":1.0,"Street":[1.0],"HouseNumber":1.0,"PostalCode":1.0},"MatchType":"interpolated","Location":{"LocationId":"NT_Azx1FrsfAG-Y1kH334akbA_xYzM","LocationType":"point","DisplayPosition":{"Latitude":45.18125,"Longitude":18.18868},"MapView":{"TopLeft":{"Latitude":45.1823742,"Longitude":18.1870852},"BottomRight":{"Latitude":45.1801258,"Longitude":18.1902748}},"Address":{"Label":"Ulica kralja Tomislava 163, HR-35212 Garčin, Hrvatska","Country":"HRV","County":"Brodsko-posavska županija","City":"Garčin","District":"Garčin","Street":"Ulica kralja Tomislava","HouseNumber":"163","PostalCode":"35212","AdditionalData":[{"value":"Hrvatska","key":"CountryName"},{"value":"Brodsko-posavska županija","key":"CountyName"}]},"MapReference":{"ReferenceId":"1162562723","Spot":0.9,"SideOfStreet":"right","CountryId":"20633739","CountyId":"20641456","CityId":"22871480","DistrictId":"22877220","AddressId":"622950825","RoadLinkId":"468848399"}}},{"Relevance":1.0,"Distance":728.9,"MatchLevel":"houseNumber","MatchQuality":{"Country":1.0,"County":1.0,"City":1.0,"District":1.0,"Street":[1.0],"HouseNumber":1.0,"PostalCode":1.0},"MatchType":"interpolated","Location":{"LocationId":"NT_Azx1FrsfAG-Y1kH334akbA_xcTO","LocationType":"point","DisplayPosition":{"Latitude":45.18079,"Longitude":18.19144},"MapView":{"TopLeft":{"Latitude":45.1819142,"Longitude":18.1898452},"BottomRight":{"Latitude":45.1796658,"Longitude":18.1930348}},"Address":{"Label":"Ulica kralja Tomislava 179, HR-35212 Garčin, Hrvatska","Country":"HRV","County":"Brodsko-posavska županija","City":"Garčin","District":"Garčin","Street":"Ulica kralja Tomislava","HouseNumber":"179","PostalCode":"35212","AdditionalData":[{"value":"Hrvatska","key":"CountryName"},{"value":"Brodsko-posavska županija","key":"CountyName"}]},"MapReference":{"ReferenceId":"1162562722","Spot":0.89,"SideOfStreet":"right","CountryId":"20633739","CountyId":"20641456","CityId":"22871480","DistrictId":"22877220","AddressId":"622967132","RoadLinkId":"468848398"}}}]}]}}