{"Response":{"MetaInfo":{"Timestamp":"2020-03-28T09:54:04.763+0000","NextPageInformation":"2"},"View":[{"_type":"SearchResultsViewType","ViewId":0,"Result":[{"Relevance":1.0,"Distance":0.0,"Direction":0.0,"MatchLevel":"district","MatchQuality":{"Country":1.0,"County":1.0,"City":1.0,"District":1.0,"PostalCode":1.0},"Location":{"LocationId":"NT_qeX4qlLip8sNYPT2dTM2QD","LocationType":"point","DisplayPosition":{"Latitude":45.1494388,"Longitude":18.9469436},"MapView":{"TopLeft":{"Latitude":45.15908,"Longitude":18.92161},"BottomRight":{"Latitude":45.14118,"Longitude":18.96141}},"Address":{"Label":"Komletinci, Otok, Hrvatska","Country":"HRV","County":"Vukovarsko-srijemska županija","City":"Otok","District":"Komletinci","PostalCode":"32252","AdditionalData":[{"value":"Hrvatska","key":"CountryName"},{"value":"Vukovarsko-srijemska županija","key":"CountyName"}]},"MapReference":{"ReferenceId":"1113895818","SideOfStreet":"neither","CountryId":"20633739","CountyId":"20642357","CityId":"22871482","DistrictId":"22871728"}}},{"Relevance":1.0,"Distance":5.8,"MatchLevel":"houseNumber","MatchQuality":{"Country":1.0,"County":1.0,"City":1.0,"District":1.0,"Street":[1.0],"HouseNumber":1.0,"PostalCode":1.0},"MatchType":"interpolated","Location":{"LocationId":"NT_3DUFsBrO6QlQ.nmGZ8.lYA_xMTQ","LocationType":"point","DisplayPosition":{"Latitude":45.14961,"Longitude":18.9469},"MapView":{"TopLeft":{"Latitude":45.1507342,"Longitude":18.945306},"BottomRight":{"Latitude":45.1484858,"Longitude":18.948494}},"Address":{"Label":"Ulica braće Radić 13A, HR-32252 Otok, Hrvatska","Country":"HRV","County":"Vukovarsko-srijemska županija","City":"Otok","District":"Komletinci","Street":"Ulica braće Radić","HouseNumber":"13A","PostalCode":"32252","AdditionalData":[{"value":"Hrvatska","key":"CountryName"},{"value":"Vukovarsko-srijemska županija","key":"CountyName"}]},"MapReference":{"ReferenceId":"1113385324","Spot":0.61,"SideOfStreet":"right","CountryId":"20633739","CountyId":"20642357","CityId":"22871482","DistrictId":"22871728","AddressId":"623964479","RoadLinkId":"423436901"}}},{"Relevance":1.0,"Distance":34.4,"MatchLevel":"houseNumber","MatchQuality":{"Country":1.0,"County":1.0,"City":1.0,"District":1.0,"Street":[1.0],"HouseNumber":1.0,"PostalCode":1.0},"MatchType":"interpolated","Location":{"LocationId":"NT_3DUFsBrO6QlQ.nmGZ8.lYA_xMD","LocationType":"point","DisplayPosition":{"Latitude":45.14966,"Longitude":18.94725},"MapView":{"TopLeft":{"Latitude":45.1507842,"Longitude":18.945656},"BottomRight":{"Latitude":45.1485358,"Longitude":18.948844}},"Address":{"Label":"Ulica braće Radić 13, HR-32252 Otok, Hrvatska","Country":"HRV","County":"Vukovarsko-srijemska županija","City":"Otok","District":"Komletinci","Street":"Ulica braće Radić","HouseNumber":"13","PostalCode":"32252","AdditionalData":[{"value":"Hrvatska","key":"CountryName"},{"value":"Vukovarsko-srijemska županija","key":"CountyName"}]},"MapReference":{"ReferenceId":"920381044","Spot":0.2,"SideOfStreet":"right","CountryId":"20633739","CountyId":"20642357","CityId":"22871482","DistrictId":"22871728","AddressId":"623984270","RoadLinkId":"277265932"}}},{"Relevance":1.0,"Distance":37.5,"MatchLevel":"street","MatchQuality":{"Country":1.0,"County":1.0,"City":1.0,"District":1.0,"PostalCode":1.0},"Location":{"LocationId":"NT_agsshHsqt2.-fc3utatAqB_l_920381046_L","LocationType":"point","DisplayPosition":{"Latitude":45.1491713,"Longitude":18.9472354},"MapView":{"TopLeft":{"Latitude":45.14974,"Longitude":18.94711},"BottomRight":{"Latitude":45.14895,"Longitude":18.94768}},"Address":{"Label":"HR-32252 Otok, Hrvatska","Country":"HRV","County":"Vukovarsko-srijemska županija","City":"Otok","District":"Komletinci","PostalCode":"32252","AdditionalData":[{"value":"Hrvatska","key":"CountryName"},{"value":"Vukovarsko-srijemska županija","key":"CountyName"}]},"MapReference":{"ReferenceId":"920381046","Spot":0.24,"SideOfStreet":"left","CountryId":"20633739","CountyId":"20642357","CityId":"22871482","DistrictId":"22871728"}}},{"Relevance":1.0,"Distance":54.7,"MatchLevel":"houseNumber","MatchQuality":{"Country":1.0,"County":1.0,"City":1.0,"District":1.0,"Street":[1.0],"HouseNumber":1.0,"PostalCode":1.0},"MatchType":"interpolated","Location":{"LocationId":"NT_3DUFsBrO6QlQ.nmGZ8.lYA_xcD","LocationType":"point","DisplayPosition":{"Latitude":45.14952,"Longitude":18.94625},"MapView":{"TopLeft":{"Latitude":45.1506442,"Longitude":18.944656},"BottomRight":{"Latitude":45.1483958,"Longitude":18.947844}},"Address":{"Label":"Ulica braće Radić 17, HR-32252 Otok, Hrvatska","Country":"HRV","County":"Vukovarsko-srijemska županija","City":"Otok","District":"Komletinci","Street":"Ulica braće Radić","HouseNumber":"17","PostalCode":"32252","AdditionalData":[{"value":"Hrvatska","key":"CountryName"},{"value":"Vukovarsko-srijemska županija","key":"CountyName"}]},"MapReference":{"ReferenceId":"1113895826","Spot":0.78,"SideOfStreet":"right","CountryId":"20633739","CountyId":"20642357","CityId":"22871482","DistrictId":"22871728","AddressId":"623964484","RoadLinkId":"423883303"}}},{"Relevance":1.0,"Distance":71.3,"MatchLevel":"houseNumber","MatchQuality":{"Country":1.0,"County":1.0,"City":1.0,"District":1.0,"Street":[1.0],"HouseNumber":1.0,"PostalCode":1.0},"MatchType":"interpolated","Location":{"LocationId":"NT_3DUFsBrO6QlQ.nmGZ8.lYA_5A","LocationType":"point","DisplayPosition":{"Latitude":45.14976,"Longitude":18.94773},"MapView":{"TopLeft":{"Latitude":45.1508842,"Longitude":18.946136},"BottomRight":{"Latitude":45.1486358,"Longitude":18.949324}},"Address":{"Label":"Ulica braće Radić 9, HR-32252 Otok, Hrvatska","Country":"HRV","County":"Vukovarsko-srijemska županija","City":"Otok","District":"Komletinci","Street":"Ulica braće Radić","HouseNumber":"9","PostalCode":"32252","AdditionalData":[{"value":"Hrvatska","key":"CountryName"},{"value":"Vukovarsko-srijemska županija","key":"CountyName"}]},"MapReference":{"ReferenceId":"1113895817","Spot":0.41,"SideOfStreet":"right","CountryId":"20633739","CountyId":"20642357","CityId":"22871482","DistrictId":"22871728","AddressId":"623992393","RoadLinkId":"423883294"}}},{"Relevance":1.0,"Distance":97.1,"MatchLevel":"houseNumber","MatchQuality":{"Country":1.0,"County":1.0,"City":1.0,"District":1.0,"Street":[1.0],"HouseNumber":1.0,"PostalCode":1.0},"MatchType":"interpolated","Location":{"LocationId":"NT_3DUFsBrO6QlQ.nmGZ8.lYA_1A","LocationType":"point","DisplayPosition":{"Latitude":45.14983,"Longitude":18.94805},"MapView":{"TopLeft":{"Latitude":45.1509542,"Longitude":18.946456},"BottomRight":{"Latitude":45.1487058,"Longitude":18.949644}},"Address":{"Label":"Ulica braće Radić 5, HR-32252 Otok, Hrvatska","Country":"HRV","County":"Vukovarsko-srijemska županija","City":"Otok","District":"Komletinci","Street":"Ulica braće Radić","HouseNumber":"5","PostalCode":"32252","AdditionalData":[{"value":"Hrvatska","key":"CountryName"},{"value":"Vukovarsko-srijemska županija","key":"CountyName"}]},"MapReference":{"ReferenceId":"1113895818","Spot":0.15,"SideOfStreet":"right","CountryId":"20633739","CountyId":"20642357","CityId":"22871482","DistrictId":"22871728","AddressId":"623992391","RoadLinkId":"423883295"}}},{"Relevance":1.0,"Distance":116.2,"MatchLevel":"houseNumber","MatchQuality":{"Country":1.0,"County":1.0,"City":1.0,"District":1.0,"Street":[1.0],"HouseNumber":1.0,"PostalCode":1.0},"MatchType":"interpolated","Location":{"LocationId":"NT_.V5F8vWfyD1hE8soS5p9lC_xA","LocationType":"point","DisplayPosition":{"Latitude":45.15038,"Longitude":18.9463},"MapView":{"TopLeft":{"Latitude":45.1515042,"Longitude":18.944706},"BottomRight":{"Latitude":45.1492558,"Longitude":18.947894}},"Address":{"Label":"Ulica Matije Gupca 1, HR-32252 Otok, Hrvatska","Country":"HRV","County":"Vukovarsko-srijemska županija","City":"Otok","District":"Komletinci","Street":"Ulica Matije Gupca","HouseNumber":"1","PostalCode":"32252","AdditionalData":[{"value":"Hrvatska","key":"CountryName"},{"value":"Vukovarsko-srijemska županija","key":"CountyName"}]},"MapReference":{"ReferenceId":"799538029","Spot":0.42,"SideOfStreet":"left","CountryId":"20633739","CountyId":"20642357","CityId":"22871482","DistrictId":"22871728","AddressId":"623991819","RoadLinkId":"190293274"}}},{"Relevance":1.0,"Distance":120.3,"MatchLevel":"houseNumber","MatchQuality":{"Country":1.0,"County":1.0,"City":1.0,"District":1.0,"Street":[1.0],"HouseNumber":1.0,"PostalCode":1.0},"MatchType":"interpolated","Location":{"LocationId":"NT_3DUFsBrO6QlQ.nmGZ8.lYA_ygD","LocationType":"point","DisplayPosition":{"Latitude":45.1494,"Longitude":18.94541},"MapView":{"TopLeft":{"Latitude":45.1505242,"Longitude":18.943816},"BottomRight":{"Latitude":45.1482758,"Longitude":18.947004}},"Address":{"Label":"Ulica braće Radić 28, HR-32252 Otok, Hrvatska","Country":"HRV","County":"Vukovarsko-srijemska županija","City":"Otok","District":"Komletinci","Street":"Ulica braće Radić","HouseNumber":"28","PostalCode":"32252","AdditionalData":[{"value":"Hrvatska","key":"CountryName"},{"value":"Vukovarsko-srijemska županija","key":"CountyName"}]},"MapReference":{"ReferenceId":"1113895825","Spot":1.0,"SideOfStreet":"left","CountryId":"20633739","CountyId":"20642357","CityId":"22871482","DistrictId":"22871728","AddressId":"623964481","RoadLinkId":"423883302"}}},{"Relevance":1.0,"Distance":129.8,"MatchLevel":"street","MatchQuality":{"Country":1.0,"County":1.0,"City":1.0,"District":1.0,"PostalCode":1.0},"Location":{"LocationId":"NT_agsshHsqt2.-fc3utatAqB_l_920385105_R","LocationType":"point","DisplayPosition":{"Latitude":45.14938,"Longitude":18.94529},"MapView":{"TopLeft":{"Latitude":45.15008,"Longitude":18.945},"BottomRight":{"Latitude":45.14938,"Longitude":18.94529}},"Address":{"Label":"HR-32252 Otok, Hrvatska","Country":"HRV","County":"Vukovarsko-srijemska županija","City":"Otok","District":"Komletinci","PostalCode":"32252","AdditionalData":[{"value":"Hrvatska","key":"CountryName"},{"value":"Vukovarsko-srijemska županija","key":"CountyName"}]},"MapReference":{"ReferenceId":"920385105","Spot":0.0,"SideOfStreet":"right","CountryId":"20633739","CountyId":"20642357","CityId":"22871482","DistrictId":"22871728"}}}]}]}}