{"Response":{"MetaInfo":{"Timestamp":"2020-03-28T11:52:14.323+0000","NextPageInformation":"2"},"View":[{"_type":"SearchResultsViewType","ViewId":0,"Result":[{"Relevance":1.0,"Distance":0.0,"Direction":0.0,"MatchLevel":"city","MatchQuality":{"Country":1.0,"State":1.0,"County":1.0,"City":1.0,"PostalCode":1.0},"Location":{"LocationId":"NT_0su9UPF9BA9AInnlJkfjwD","LocationType":"point","DisplayPosition":{"Latitude":45.179621,"Longitude":5.735213},"MapView":{"TopLeft":{"Latitude":45.21406,"Longitude":5.67784},"BottomRight":{"Latitude":45.15412,"Longitude":5.75312}},"Address":{"Label":"Grenoble, Auvergne-Rhône-Alpes, France","Country":"FRA","State":"Auvergne-Rhône-Alpes","County":"Isère","City":"Grenoble","PostalCode":"38000","AdditionalData":[{"value":"France","key":"CountryName"},{"value":"Auvergne-Rhône-Alpes","key":"StateName"},{"value":"Isère","key":"CountyName"}]},"MapReference":{"ReferenceId":"58380533","SideOfStreet":"neither","CountryId":"20000001","StateId":"20006029","CountyId":"20050216","CityId":"20050738"}}},{"Relevance":1.0,"Distance":16.2,"MatchLevel":"houseNumber","MatchQuality":{"Country":1.0,"State":1.0,"County":1.0,"City":1.0,"Street":[1.0],"HouseNumber":1.0,"PostalCode":1.0},"MatchType":"interpolated","Location":{"LocationId":"NT_Ns5nMrMmwkMLpjYQehtUQC_xYD","LocationType":"point","DisplayPosition":{"Latitude":45.17979,"Longitude":5.73539},"MapView":{"TopLeft":{"Latitude":45.1809142,"Longitude":5.7337952},"BottomRight":{"Latitude":45.1786658,"Longitude":5.7369848}},"Address":{"Label":"16 Avenue Jean Perrot, 38100 Grenoble, France","Country":"FRA","State":"Auvergne-Rhône-Alpes","County":"Isère","City":"Grenoble","Street":"Avenue Jean Perrot","HouseNumber":"16","PostalCode":"38100","AdditionalData":[{"value":"France","key":"CountryName"},{"value":"Auvergne-Rhône-Alpes","key":"StateName"},{"value":"Isère","key":"CountyName"}]},"MapReference":{"ReferenceId":"58370507","Spot":0.72,"SideOfStreet":"left","CountryId":"20000001","StateId":"20006029","CountyId":"20050216","CityId":"20050738","AddressId":"319958927","RoadLinkId":"45898424"}}},{"Relevance":1.0,"Distance":19.8,"MatchLevel":"houseNumber","MatchQuality":{"Country":1.0,"State":1.0,"County":1.0,"City":1.0,"Street":[1.0],"HouseNumber":1.0,"PostalCode":1.0},"MatchType":"interpolated","Location":{"LocationId":"NT_Ns5nMrMmwkMLpjYQehtUQC_yID","LocationType":"point","DisplayPosition":{"Latitude":45.17951,"Longitude":5.73552},"MapView":{"TopLeft":{"Latitude":45.1806342,"Longitude":5.7339252},"BottomRight":{"Latitude":45.1783858,"Longitude":5.7371148}},"Address":{"Label":"22 Avenue Jean Perrot, 38100 Grenoble, France","Country":"FRA","State":"Auvergne-Rhône-Alpes","County":"Isère","City":"Grenoble","Street":"Avenue Jean Perrot","HouseNumber":"22","PostalCode":"38100","AdditionalData":[{"value":"France","key":"CountryName"},{"value":"Auvergne-Rhône-Alpes","key":"StateName"},{"value":"Isère","key":"CountyName"}]},"MapReference":{"ReferenceId":"58370573","Spot":0.73,"SideOfStreet":"left","CountryId":"20000001","StateId":"20006029","CountyId":"20050216","CityId":"20050738","AddressId":"319621370","RoadLinkId":"45986467"}}},{"Relevance":1.0,"Distance":25.8,"MatchLevel":"houseNumber","MatchQuality":{"Country":1.0,"State":1.0,"County":1.0,"City":1.0,"Street":[1.0],"HouseNumber":1.0,"PostalCode":1.0},"MatchType":"interpolated","Location":{"LocationId":"NT_2U4iQLzFK-yAY6VSwT4asD_0IE","LocationType":"point","DisplayPosition":{"Latitude":45.17918,"Longitude":5.73488},"MapView":{"TopLeft":{"Latitude":45.1803042,"Longitude":5.7332852},"BottomRight":{"Latitude":45.1780558,"Longitude":5.7364748}},"Address":{"Label":"4B Rue Germain, 38100 Grenoble, France","Country":"FRA","State":"Auvergne-Rhône-Alpes","County":"Isère","City":"Grenoble","Street":"Rue Germain","HouseNumber":"4B","PostalCode":"38100","AdditionalData":[{"value":"France","key":"CountryName"},{"value":"Auvergne-Rhône-Alpes","key":"StateName"},{"value":"Isère","key":"CountyName"}]},"MapReference":{"ReferenceId":"58370615","Spot":0.22,"SideOfStreet":"left","CountryId":"20000001","StateId":"20006029","CountyId":"20050216","CityId":"20050738","AddressId":"573870407","RoadLinkId":"45277759"}}},{"Relevance":1.0,"Distance":37.2,"MatchLevel":"houseNumber","MatchQuality":{"Country":1.0,"State":1.0,"County":1.0,"City":1.0,"Street":[1.0],"HouseNumber":1.0,"PostalCode":1.0},"MatchType":"interpolated","Location":{"LocationId":"NT_ghLA0Ismd7R1LfA6pj7SSD_yED","LocationType":"point","DisplayPosition":{"Latitude":45.17987,"Longitude":5.73563},"MapView":{"TopLeft":{"Latitude":45.1809942,"Longitude":5.7340352},"BottomRight":{"Latitude":45.1787458,"Longitude":5.7372248}},"Address":{"Label":"21 Chemin du Rhin, 38100 Grenoble, France","Country":"FRA","State":"Auvergne-Rhône-Alpes","County":"Isère","City":"Grenoble","Street":"Chemin du Rhin","HouseNumber":"21","PostalCode":"38100","AdditionalData":[{"value":"France","key":"CountryName"},{"value":"Auvergne-Rhône-Alpes","key":"StateName"},{"value":"Isère","key":"CountyName"}]},"MapReference":{"ReferenceId":"58370458","Spot":0.88,"SideOfStreet":"left","CountryId":"20000001","StateId":"20006029","CountyId":"20050216","CityId":"20050738","AddressId":"573765365","RoadLinkId":"46022901"}}},{"Relevance":1.0,"Distance":41.5,"MatchLevel":"houseNumber","MatchQuality":{"Country":1.0,"State":1.0,"County":1.0,"City":1.0,"Street":[1.0],"HouseNumber":1.0,"PostalCode":1.0},"MatchType":"interpolated","Location":{"LocationId":"NT_Ns5nMrMmwkMLpjYQehtUQC_xQD","LocationType":"point","DisplayPosition":{"Latitude":45.17999,"Longitude":5.73529},"MapView":{"TopLeft":{"Latitude":45.1811142,"Longitude":5.7336952},"BottomRight":{"Latitude":45.1788658,"Longitude":5.7368848}},"Address":{"Label":"14 Avenue Jean Perrot, 38100 Grenoble, France","Country":"FRA","State":"Auvergne-Rhône-Alpes","County":"Isère","City":"Grenoble","Street":"Avenue Jean Perrot","HouseNumber":"14","PostalCode":"38100","AdditionalData":[{"value":"France","key":"CountryName"},{"value":"Auvergne-Rhône-Alpes","key":"StateName"},{"value":"Isère","key":"CountyName"}]},"MapReference":{"ReferenceId":"58370459","Spot":0.16,"SideOfStreet":"left","CountryId":"20000001","StateId":"20006029","CountyId":"20050216","CityId":"20050738","AddressId":"319958922","RoadLinkId":"45211889"}}},{"Relevance":1.0,"Distance":47.3,"MatchLevel":"houseNumber","MatchQuality":{"Country":1.0,"State":1.0,"County":1.0,"City":1.0,"Street":[1.0],"HouseNumber":1.0,"PostalCode":1.0},"MatchType":"interpolated","Location":{"LocationId":"NT_ypeWwcgqdBo-QnHsEPxLUB_1YD","LocationType":"point","DisplayPosition":{"Latitude":45.17956,"Longitude":5.73581},"MapView":{"TopLeft":{"Latitude":45.1806842,"Longitude":5.7342152},"BottomRight":{"Latitude":45.1784358,"Longitude":5.7374048}},"Address":{"Label":"56 Rue de la Bajatière, 38100 Grenoble, France","Country":"FRA","State":"Auvergne-Rhône-Alpes","County":"Isère","City":"Grenoble","Street":"Rue de la Bajatière","HouseNumber":"56","PostalCode":"38100","AdditionalData":[{"value":"France","key":"CountryName"},{"value":"Auvergne-Rhône-Alpes","key":"StateName"},{"value":"Isère","key":"CountyName"}]},"MapReference":{"ReferenceId":"58370553","Spot":0.9,"SideOfStreet":"right","CountryId":"20000001","StateId":"20006029","CountyId":"20050216","CityId":"20050738","AddressId":"674472596","RoadLinkId":"45917013"}}},{"Relevance":1.0,"Distance":57.5,"MatchLevel":"houseNumber","MatchQuality":{"Country":1.0,"State":1.0,"County":1.0,"City":1.0,"Street":[1.0],"HouseNumber":1.0,"PostalCode":1.0},"MatchType":"interpolated","Location":{"LocationId":"NT_f6wrTL-LKoMeMO5mQPHDZB_zA","LocationType":"point","DisplayPosition":{"Latitude":45.17966,"Longitude":5.73424},"MapView":{"TopLeft":{"Latitude":45.1807842,"Longitude":5.7326452},"BottomRight":{"Latitude":45.1785358,"Longitude":5.7358348}},"Address":{"Label":"3 Rue Lavoisier, 38100 Grenoble, France","Country":"FRA","State":"Auvergne-Rhône-Alpes","County":"Isère","City":"Grenoble","Street":"Rue Lavoisier","HouseNumber":"3","PostalCode":"38100","AdditionalData":[{"value":"France","key":"CountryName"},{"value":"Auvergne-Rhône-Alpes","key":"StateName"},{"value":"Isère","key":"CountyName"}]},"MapReference":{"ReferenceId":"58370620","Spot":0.32,"SideOfStreet":"right","CountryId":"20000001","StateId":"20006029","CountyId":"20050216","CityId":"20050738","AddressId":"379887515","RoadLinkId":"46138414"}}},{"Relevance":1.0,"Distance":60.8,"MatchLevel":"houseNumber","MatchQuality":{"Country":1.0,"State":1.0,"County":1.0,"City":1.0,"Street":[1.0],"HouseNumber":1.0,"PostalCode":1.0},"MatchType":"interpolated","Location":{"LocationId":"NT_Ns5nMrMmwkMLpjYQehtUQC_ygD","LocationType":"point","DisplayPosition":{"Latitude":45.17916,"Longitude":5.73569},"MapView":{"TopLeft":{"Latitude":45.1802842,"Longitude":5.7340952},"BottomRight":{"Latitude":45.1780358,"Longitude":5.7372848}},"Address":{"Label":"28 Avenue Jean Perrot, 38100 Grenoble, France","Country":"FRA","State":"Auvergne-Rhône-Alpes","County":"Isère","City":"Grenoble","Street":"Avenue Jean Perrot","HouseNumber":"28","PostalCode":"38100","AdditionalData":[{"value":"France","key":"CountryName"},{"value":"Auvergne-Rhône-Alpes","key":"StateName"},{"value":"Isère","key":"CountyName"}]},"MapReference":{"ReferenceId":"58380973","Spot":0.52,"SideOfStreet":"left","CountryId":"20000001","StateId":"20006029","CountyId":"20050216","CityId":"20050738","AddressId":"319785390","RoadLinkId":"45234306"}}},{"Relevance":1.0,"Distance":63.4,"MatchLevel":"houseNumber","MatchQuality":{"Country":1.0,"State":1.0,"County":1.0,"City":1.0,"Street":[1.0],"HouseNumber":1.0,"PostalCode":1.0},"MatchType":"interpolated","Location":{"LocationId":"NT_2U4iQLzFK-yAY6VSwT4asD_4A","LocationType":"point","DisplayPosition":{"Latitude":45.17919,"Longitude":5.73447},"MapView":{"TopLeft":{"Latitude":45.1803142,"Longitude":5.7328752},"BottomRight":{"Latitude":45.1780658,"Longitude":5.7360648}},"Address":{"Label":"8 Rue Germain, 38100 Grenoble, France","Country":"FRA","State":"Auvergne-Rhône-Alpes","County":"Isère","City":"Grenoble","Street":"Rue Germain","HouseNumber":"8","PostalCode":"38100","AdditionalData":[{"value":"France","key":"CountryName"},{"value":"Auvergne-Rhône-Alpes","key":"StateName"},{"value":"Isère","key":"CountyName"}]},"MapReference":{"ReferenceId":"58370621","Spot":0.44,"SideOfStreet":"right","CountryId":"20000001","StateId":"20006029","CountyId":"20050216","CityId":"20050738","AddressId":"573719391","RoadLinkId":"45895329"}}}]}]}}