{"Response":{"MetaInfo":{"Timestamp":"2020-03-28T11:21:27.799+0000","NextPageInformation":"2"},"View":[{"_type":"SearchResultsViewType","ViewId":0,"Result":[{"Relevance":1.0,"Distance":0.0,"Direction":0.0,"MatchLevel":"district","MatchQuality":{"Country":1.0,"County":1.0,"City":1.0,"District":1.0,"PostalCode":1.0},"Location":{"LocationId":"NT_40L50QhjJmyIHpQsQtNqsA","LocationType":"point","DisplayPosition":{"Latitude":45.1926141,"Longitude":18.836997},"MapView":{"TopLeft":{"Latitude":45.2079,"Longitude":18.81864},"BottomRight":{"Latitude":45.18391,"Longitude":18.85404}},"Address":{"Label":"Privlaka, Hrvatska","Country":"HRV","County":"Vukovarsko-srijemska županija","City":"Privlaka","District":"Privlaka","PostalCode":"32252","AdditionalData":[{"value":"Hrvatska","key":"CountryName"},{"value":"Vukovarsko-srijemska županija","key":"CountyName"}]},"MapReference":{"ReferenceId":"783952194","SideOfStreet":"neither","CountryId":"20633739","CountyId":"20642357","CityId":"22871512","DistrictId":"22873895"}}},{"Relevance":1.0,"Distance":11.5,"MatchLevel":"houseNumber","MatchQuality":{"Country":1.0,"County":1.0,"City":1.0,"District":1.0,"Street":[1.0],"HouseNumber":1.0,"PostalCode":1.0},"MatchType":"interpolated","Location":{"LocationId":"NT_OBI7gLzR7YsBM7I-h09ggB_xkD","LocationType":"point","DisplayPosition":{"Latitude":45.19319,"Longitude":18.83631},"MapView":{"TopLeft":{"Latitude":45.1943142,"Longitude":18.8347148},"BottomRight":{"Latitude":45.1920658,"Longitude":18.8379052}},"Address":{"Label":"Čolićeva ulica 19, HR-32252 Privlaka, Hrvatska","Country":"HRV","County":"Vukovarsko-srijemska županija","City":"Privlaka","District":"Privlaka","Street":"Čolićeva ulica","HouseNumber":"19","PostalCode":"32252","AdditionalData":[{"value":"Hrvatska","key":"CountryName"},{"value":"Vukovarsko-srijemska županija","key":"CountyName"}]},"MapReference":{"ReferenceId":"783952193","Spot":0.2,"SideOfStreet":"right","CountryId":"20633739","CountyId":"20642357","CityId":"22871512","DistrictId":"22873895","AddressId":"623945455","RoadLinkId":"176828770"}}},{"Relevance":1.0,"Distance":40.6,"MatchLevel":"houseNumber","MatchQuality":{"Country":1.0,"County":1.0,"City":1.0,"District":1.0,"Street":[1.0],"HouseNumber":1.0,"PostalCode":1.0},"MatchType":"interpolated","Location":{"LocationId":"NT_ONmh57AwKIQC0OVn5qOJ8A_yA","LocationType":"point","DisplayPosition":{"Latitude":45.19274,"Longitude":18.8377},"MapView":{"TopLeft":{"Latitude":45.1938642,"Longitude":18.8361048},"BottomRight":{"Latitude":45.1916158,"Longitude":18.8392952}},"Address":{"Label":"Ive Lole Ribara 2, HR-32252 Privlaka, Hrvatska","Country":"HRV","County":"Vukovarsko-srijemska županija","City":"Privlaka","District":"Privlaka","Street":"Ive Lole Ribara","HouseNumber":"2","PostalCode":"32252","AdditionalData":[{"value":"Hrvatska","key":"CountryName"},{"value":"Vukovarsko-srijemska županija","key":"CountyName"}]},"MapReference":{"ReferenceId":"920379262","Spot":1.0,"SideOfStreet":"left","CountryId":"20633739","CountyId":"20642357","CityId":"22871512","DistrictId":"22873895","AddressId":"704470511","RoadLinkId":"443095768"}}},{"Relevance":1.0,"Distance":57.8,"MatchLevel":"houseNumber","MatchQuality":{"Country":1.0,"County":1.0,"City":1.0,"District":1.0,"Street":[1.0],"HouseNumber":1.0,"PostalCode":1.0},"MatchType":"interpolated","Location":{"LocationId":"NT_OBI7gLzR7YsBM7I-h09ggB_yUD","LocationType":"point","DisplayPosition":{"Latitude":45.1929,"Longitude":18.83589},"MapView":{"TopLeft":{"Latitude":45.1940242,"Longitude":18.8342948},"BottomRight":{"Latitude":45.1917758,"Longitude":18.8374852}},"Address":{"Label":"Čolićeva ulica 25, HR-32252 Privlaka, Hrvatska","Country":"HRV","County":"Vukovarsko-srijemska županija","City":"Privlaka","District":"Privlaka","Street":"Čolićeva ulica","HouseNumber":"25","PostalCode":"32252","AdditionalData":[{"value":"Hrvatska","key":"CountryName"},{"value":"Vukovarsko-srijemska županija","key":"CountyName"}]},"MapReference":{"ReferenceId":"799335530","Spot":0.96,"SideOfStreet":"right","CountryId":"20633739","CountyId":"20642357","CityId":"22871512","DistrictId":"22873895","AddressId":"623953811","RoadLinkId":"190070252"}}},{"Relevance":1.0,"Distance":87.8,"MatchLevel":"houseNumber","MatchQuality":{"Country":1.0,"County":1.0,"City":1.0,"District":1.0,"Street":[1.0],"HouseNumber":1.0,"PostalCode":1.0},"MatchType":"interpolated","Location":{"LocationId":"NT_gylQcTi.TrtQUC5HoX.UPB_4A","LocationType":"point","DisplayPosition":{"Latitude":45.19182,"Longitude":18.83768},"MapView":{"TopLeft":{"Latitude":45.1929442,"Longitude":18.8360849},"BottomRight":{"Latitude":45.1906958,"Longitude":18.8392751}},"Address":{"Label":"Dalmatinska ulica 8, HR-32252 Privlaka, Hrvatska","Country":"HRV","County":"Vukovarsko-srijemska županija","City":"Privlaka","District":"Privlaka","Street":"Dalmatinska ulica","HouseNumber":"8","PostalCode":"32252","AdditionalData":[{"value":"Hrvatska","key":"CountryName"},{"value":"Vukovarsko-srijemska županija","key":"CountyName"}]},"MapReference":{"ReferenceId":"799345995","Spot":0.28,"SideOfStreet":"left","CountryId":"20633739","CountyId":"20642357","CityId":"22871512","DistrictId":"22873895","AddressId":"623961364","RoadLinkId":"190082777"}}},{"Relevance":1.0,"Distance":98.8,"MatchLevel":"houseNumber","MatchQuality":{"Country":1.0,"County":1.0,"City":1.0,"District":1.0,"Street":[1.0],"HouseNumber":1.0,"PostalCode":1.0},"MatchType":"interpolated","Location":{"LocationId":"NT_gylQcTi.TrtQUC5HoX.UPB_xID","LocationType":"point","DisplayPosition":{"Latitude":45.19161,"Longitude":18.83739},"MapView":{"TopLeft":{"Latitude":45.1927342,"Longitude":18.8357949},"BottomRight":{"Latitude":45.1904858,"Longitude":18.8389851}},"Address":{"Label":"Dalmatinska ulica 12, HR-32252 Privlaka, Hrvatska","Country":"HRV","County":"Vukovarsko-srijemska županija","City":"Privlaka","District":"Privlaka","Street":"Dalmatinska ulica","HouseNumber":"12","PostalCode":"32252","AdditionalData":[{"value":"Hrvatska","key":"CountryName"},{"value":"Vukovarsko-srijemska županija","key":"CountyName"}]},"MapReference":{"ReferenceId":"799345994","Spot":0.97,"SideOfStreet":"left","CountryId":"20633739","CountyId":"20642357","CityId":"22871512","DistrictId":"22873895","AddressId":"623945150","RoadLinkId":"190082776"}}},{"Relevance":1.0,"Distance":115.4,"MatchLevel":"houseNumber","MatchQuality":{"Country":1.0,"County":1.0,"City":1.0,"District":1.0,"Street":[1.0],"HouseNumber":1.0,"PostalCode":1.0},"MatchType":"interpolated","Location":{"LocationId":"NT_ONmh57AwKIQC0OVn5qOJ8A_xAD","LocationType":"point","DisplayPosition":{"Latitude":45.19218,"Longitude":18.83842},"MapView":{"TopLeft":{"Latitude":45.1933042,"Longitude":18.8368248},"BottomRight":{"Latitude":45.1910558,"Longitude":18.8400152}},"Address":{"Label":"Ive Lole Ribara 10, HR-32252 Privlaka, Hrvatska","Country":"HRV","County":"Vukovarsko-srijemska županija","City":"Privlaka","District":"Privlaka","Street":"Ive Lole Ribara","HouseNumber":"10","PostalCode":"32252","AdditionalData":[{"value":"Hrvatska","key":"CountryName"},{"value":"Vukovarsko-srijemska županija","key":"CountyName"}]},"MapReference":{"ReferenceId":"799345987","Spot":0.96,"SideOfStreet":"left","CountryId":"20633739","CountyId":"20642357","CityId":"22871512","DistrictId":"22873895","AddressId":"623943724","RoadLinkId":"190082771"}}},{"Relevance":1.0,"Distance":127.6,"MatchLevel":"houseNumber","MatchQuality":{"Country":1.0,"County":1.0,"City":1.0,"District":1.0,"Street":[1.0],"HouseNumber":1.0,"PostalCode":1.0},"MatchType":"interpolated","Location":{"LocationId":"NT_OBI7gLzR7YsBM7I-h09ggB_zA","LocationType":"point","DisplayPosition":{"Latitude":45.19387,"Longitude":18.83722},"MapView":{"TopLeft":{"Latitude":45.1949942,"Longitude":18.8356248},"BottomRight":{"Latitude":45.1927458,"Longitude":18.8388152}},"Address":{"Label":"Čolićeva ulica 3, HR-32252 Privlaka, Hrvatska","Country":"HRV","County":"Vukovarsko-srijemska županija","City":"Privlaka","District":"Privlaka","Street":"Čolićeva ulica","HouseNumber":"3","PostalCode":"32252","AdditionalData":[{"value":"Hrvatska","key":"CountryName"},{"value":"Vukovarsko-srijemska županija","key":"CountyName"}]},"MapReference":{"ReferenceId":"783952194","Spot":0.12,"SideOfStreet":"right","CountryId":"20633739","CountyId":"20642357","CityId":"22871512","DistrictId":"22873895","AddressId":"623960680","RoadLinkId":"176828771"}}},{"Relevance":1.0,"Distance":135.2,"MatchLevel":"houseNumber","MatchQuality":{"Country":1.0,"County":1.0,"City":1.0,"District":1.0,"Street":[1.0],"HouseNumber":1.0,"PostalCode":1.0},"MatchType":"interpolated","Location":{"LocationId":"NT_a.dpGStdC2F2XJ1X.yokBC_yIE","LocationType":"point","DisplayPosition":{"Latitude":45.19361,"Longitude":18.83874},"MapView":{"TopLeft":{"Latitude":45.1947342,"Longitude":18.8371448},"BottomRight":{"Latitude":45.1924858,"Longitude":18.8403352}},"Address":{"Label":"Bana Josipa Šokčevića 2B, HR-32252 Privlaka, Hrvatska","Country":"HRV","County":"Vukovarsko-srijemska županija","City":"Privlaka","District":"Privlaka","Street":"Bana Josipa Šokčevića","HouseNumber":"2B","PostalCode":"32252","AdditionalData":[{"value":"Hrvatska","key":"CountryName"},{"value":"Vukovarsko-srijemska županija","key":"CountyName"}]},"MapReference":{"ReferenceId":"784068207","Spot":0.49,"SideOfStreet":"left","CountryId":"20633739","CountyId":"20642357","CityId":"22871512","DistrictId":"22873895","AddressId":"623938900","RoadLinkId":"176953261"}}},{"Relevance":1.0,"Distance":157.6,"MatchLevel":"houseNumber","MatchQuality":{"Country":1.0,"County":1.0,"City":1.0,"District":1.0,"Street":[1.0],"HouseNumber":1.0,"PostalCode":1.0},"MatchType":"interpolated","Location":{"LocationId":"NT_tvtzEIXbROx8LzsFOOkeLC_l_799345993_R_xUD","LocationType":"point","DisplayPosition":{"Latitude":45.1912777,"Longitude":18.8379414},"MapView":{"TopLeft":{"Latitude":45.1924018,"Longitude":18.8363462},"BottomRight":{"Latitude":45.1901535,"Longitude":18.8395365}},"Address":{"Label":"Josipa Lovretića 15, HR-32252 Privlaka, Hrvatska","Country":"HRV","County":"Vukovarsko-srijemska županija","City":"Privlaka","District":"Privlaka","Street":"Josipa Lovretića","HouseNumber":"15","PostalCode":"32252","AdditionalData":[{"value":"Hrvatska","key":"CountryName"},{"value":"Vukovarsko-srijemska županija","key":"CountyName"}]},"MapReference":{"ReferenceId":"799345993","Spot":0.5,"SideOfStreet":"right","CountryId":"20633739","CountyId":"20642357","CityId":"22871512","DistrictId":"22873895"}}}]}]}}