{"Response":{"MetaInfo":{"Timestamp":"2020-03-28T11:34:55.244+0000","NextPageInformation":"2"},"View":[{"_type":"SearchResultsViewType","ViewId":0,"Result":[{"Relevance":1.0,"Distance":0.0,"Direction":0.0,"MatchLevel":"district","MatchQuality":{"Country":1.0,"County":1.0,"City":1.0,"District":1.0,"PostalCode":1.0},"Location":{"LocationId":"NT_4Dh1pJfXnNpRjpxtvg9MWB","LocationType":"point","DisplayPosition":{"Latitude":45.2602392,"Longitude":27.9528285},"MapView":{"TopLeft":{"Latitude":45.31355,"Longitude":27.92093},"BottomRight":{"Latitude":45.2335,"Longitude":27.9915}},"Address":{"Label":"Brăila, România","Country":"ROU","County":"Brăila","City":"Brăila","District":"Brăila","PostalCode":"810262","AdditionalData":[{"value":"România","key":"CountryName"},{"value":"Brăila","key":"CountyName"}]},"MapReference":{"ReferenceId":"1116887887","SideOfStreet":"neither","CountryId":"20656215","CountyId":"20657812","CityId":"20657820","DistrictId":"20657821"}}},{"Relevance":1.0,"Distance":21.4,"MatchLevel":"street","MatchQuality":{"Country":1.0,"County":1.0,"City":1.0,"District":1.0,"Street":[1.0]},"Location":{"LocationId":"NT_nSufjDkBzD0vTL-f6CggQC_l_815325165_L","LocationType":"point","DisplayPosition":{"Latitude":45.2604318,"Longitude":27.9528398},"MapView":{"TopLeft":{"Latitude":45.26044,"Longitude":27.9527},"BottomRight":{"Latitude":45.26041,"Longitude":27.95321}},"Address":{"Label":"Aleea Policlinicii, Brăila, România","Country":"ROU","County":"Brăila","City":"Brăila","District":"Brăila","Street":"Aleea Policlinicii","AdditionalData":[{"value":"România","key":"CountryName"},{"value":"Brăila","key":"CountyName"}]},"MapReference":{"ReferenceId":"815325165","Spot":0.73,"SideOfStreet":"left","CountryId":"20656215","CountyId":"20657812","CityId":"20657820","DistrictId":"20657821"}}},{"Relevance":1.0,"Distance":24.5,"MatchLevel":"street","MatchQuality":{"Country":1.0,"County":1.0,"City":1.0,"District":1.0,"Street":[1.0]},"Location":{"LocationId":"NT_ctFFAP39dgTeX-D-luGF9C_l_588435545_R","LocationType":"point","DisplayPosition":{"Latitude":45.26044,"Longitude":27.9527},"MapView":{"TopLeft":{"Latitude":45.26169,"Longitude":27.9527},"BottomRight":{"Latitude":45.26044,"Longitude":27.95278}},"Address":{"Label":"Strada Policlinicii, Brăila, România","Country":"ROU","County":"Brăila","City":"Brăila","District":"Brăila","Street":"Strada Policlinicii","AdditionalData":[{"value":"România","key":"CountryName"},{"value":"Brăila","key":"CountyName"}]},"MapReference":{"ReferenceId":"588435545","Spot":0.0,"SideOfStreet":"right","CountryId":"20656215","CountyId":"20657812","CityId":"20657820","DistrictId":"20657821"}}},{"Relevance":1.0,"Distance":32.9,"MatchLevel":"houseNumber","MatchQuality":{"Country":1.0,"County":1.0,"City":1.0,"District":1.0,"Street":[1.0],"HouseNumber":1.0},"MatchType":"interpolated","Location":{"LocationId":"NT_nSufjDkBzD0vTL-f6CggQC_l_1119225482_L_zA","LocationType":"point","DisplayPosition":{"Latitude":45.2604562,"Longitude":27.9524379},"MapView":{"TopLeft":{"Latitude":45.2615804,"Longitude":27.9508409},"BottomRight":{"Latitude":45.2593321,"Longitude":27.954035}},"Address":{"Label":"Aleea Policlinicii 3, Brăila, România","Country":"ROU","County":"Brăila","City":"Brăila","District":"Brăila","Street":"Aleea Policlinicii","HouseNumber":"3","AdditionalData":[{"value":"România","key":"CountryName"},{"value":"Brăila","key":"CountyName"}]},"MapReference":{"ReferenceId":"1119225482","Spot":0.53,"SideOfStreet":"left","CountryId":"20656215","CountyId":"20657812","CityId":"20657820","DistrictId":"20657821"}}},{"Relevance":1.0,"Distance":35.4,"MatchLevel":"street","MatchQuality":{"Country":1.0,"County":1.0,"City":1.0,"District":1.0,"Street":[1.0]},"Location":{"LocationId":"NT_nSufjDkBzD0vTL-f6CggQC_l_815325164_L","LocationType":"point","DisplayPosition":{"Latitude":45.26041,"Longitude":27.95321},"MapView":{"TopLeft":{"Latitude":45.26041,"Longitude":27.95321},"BottomRight":{"Latitude":45.26018,"Longitude":27.95388}},"Address":{"Label":"Aleea Policlinicii, Brăila, România","Country":"ROU","County":"Brăila","City":"Brăila","District":"Brăila","Street":"Aleea Policlinicii","AdditionalData":[{"value":"România","key":"CountryName"},{"value":"Brăila","key":"CountyName"}]},"MapReference":{"ReferenceId":"815325164","Spot":1.0,"SideOfStreet":"left","CountryId":"20656215","CountyId":"20657812","CityId":"20657820","DistrictId":"20657821"}}},{"Relevance":1.0,"Distance":42.1,"MatchLevel":"houseNumber","MatchQuality":{"Country":1.0,"County":1.0,"City":1.0,"District":1.0,"Street":[1.0],"HouseNumber":1.0,"PostalCode":1.0},"MatchType":"interpolated","Location":{"LocationId":"NT_JqqWQ8DYYqLgbtGANp.oKA_3A","LocationType":"point","DisplayPosition":{"Latitude":45.26056,"Longitude":27.95393},"MapView":{"TopLeft":{"Latitude":45.2616842,"Longitude":27.9523329},"BottomRight":{"Latitude":45.2594358,"Longitude":27.9555271}},"Address":{"Label":"Strada Pietății 7, 810247 Brăila, România","Country":"ROU","County":"Brăila","City":"Brăila","District":"Brăila","Street":"Strada Pietății","HouseNumber":"7","PostalCode":"810247","AdditionalData":[{"value":"România","key":"CountryName"},{"value":"Brăila","key":"CountyName"}]},"MapReference":{"ReferenceId":"993334695","Spot":0.31,"SideOfStreet":"left","CountryId":"20656215","CountyId":"20657812","CityId":"20657820","DistrictId":"20657821","AddressId":"685989878","RoadLinkId":"321880295"}}},{"Relevance":1.0,"Distance":54.3,"MatchLevel":"houseNumber","MatchQuality":{"Country":1.0,"County":1.0,"City":1.0,"District":1.0,"Street":[1.0],"HouseNumber":1.0,"PostalCode":1.0},"MatchType":"interpolated","Location":{"LocationId":"NT_vdYPG4wgSLLUd9deva9eMA_xA","LocationType":"point","DisplayPosition":{"Latitude":45.25983,"Longitude":27.95218},"MapView":{"TopLeft":{"Latitude":45.2609542,"Longitude":27.950583},"BottomRight":{"Latitude":45.2587058,"Longitude":27.953777}},"Address":{"Label":"Aleea Policlinicii 1, 810062 Brăila, România","Country":"ROU","County":"Brăila","City":"Brăila","District":"Brăila","Street":"Aleea Policlinicii","HouseNumber":"1","PostalCode":"810062","AdditionalData":[{"value":"România","key":"CountryName"},{"value":"Brăila","key":"CountyName"}]},"MapReference":{"ReferenceId":"1119225485","Spot":0.32,"SideOfStreet":"right","CountryId":"20656215","CountyId":"20657812","CityId":"20657820","DistrictId":"20657821","AddressId":"686002530","RoadLinkId":"429368487"}}},{"Relevance":1.0,"Distance":55.3,"MatchLevel":"street","MatchQuality":{"Country":1.0,"County":1.0,"City":1.0,"District":1.0,"Street":[1.0]},"Location":{"LocationId":"NT_nSufjDkBzD0vTL-f6CggQC_l_1119225483_L","LocationType":"point","DisplayPosition":{"Latitude":45.26048,"Longitude":27.95221},"MapView":{"TopLeft":{"Latitude":45.2605,"Longitude":27.95182},"BottomRight":{"Latitude":45.26048,"Longitude":27.95221}},"Address":{"Label":"Aleea Policlinicii, Brăila, România","Country":"ROU","County":"Brăila","City":"Brăila","District":"Brăila","Street":"Aleea Policlinicii","AdditionalData":[{"value":"România","key":"CountryName"},{"value":"Brăila","key":"CountyName"}]},"MapReference":{"ReferenceId":"1119225483","Spot":0.0,"SideOfStreet":"left","CountryId":"20656215","CountyId":"20657812","CityId":"20657820","DistrictId":"20657821"}}},{"Relevance":1.0,"Distance":63.0,"MatchLevel":"houseNumber","MatchQuality":{"Country":1.0,"County":1.0,"City":1.0,"District":1.0,"Street":[1.0],"HouseNumber":1.0,"PostalCode":1.0},"MatchType":"interpolated","Location":{"LocationId":"NT_JqqWQ8DYYqLgbtGANp.oKA_1A","LocationType":"point","DisplayPosition":{"Latitude":45.26037,"Longitude":27.9539},"MapView":{"TopLeft":{"Latitude":45.2614942,"Longitude":27.9523029},"BottomRight":{"Latitude":45.2592458,"Longitude":27.9554971}},"Address":{"Label":"Strada Pietății 5, 810247 Brăila, România","Country":"ROU","County":"Brăila","City":"Brăila","District":"Brăila","Street":"Strada Pietății","HouseNumber":"5","PostalCode":"810247","AdditionalData":[{"value":"România","key":"CountryName"},{"value":"Brăila","key":"CountyName"}]},"MapReference":{"ReferenceId":"815325166","Spot":0.7,"SideOfStreet":"left","CountryId":"20656215","CountyId":"20657812","CityId":"20657820","DistrictId":"20657821","AddressId":"685987992","RoadLinkId":"202686196"}}},{"Relevance":1.0,"Distance":76.5,"MatchLevel":"houseNumber","MatchQuality":{"Country":1.0,"County":1.0,"City":1.0,"District":1.0,"Street":[1.0],"HouseNumber":1.0,"PostalCode":1.0},"MatchType":"interpolated","Location":{"LocationId":"NT_UNCPFOZJQ0kvV6-yC3FaaC_l_588435585_L_xA","LocationType":"point","DisplayPosition":{"Latitude":45.2595634,"Longitude":27.9526434},"MapView":{"TopLeft":{"Latitude":45.2606875,"Longitude":27.9510463},"BottomRight":{"Latitude":45.2584392,"Longitude":27.9542404}},"Address":{"Label":"Strada Policlinicii 1, 810262 Brăila, România","Country":"ROU","County":"Brăila","City":"Brăila","District":"Brăila","Street":"Strada Policlinicii","HouseNumber":"1","PostalCode":"810262","AdditionalData":[{"value":"România","key":"CountryName"},{"value":"Brăila","key":"CountyName"}]},"MapReference":{"ReferenceId":"588435585","Spot":0.58,"SideOfStreet":"left","CountryId":"20656215","CountyId":"20657812","CityId":"20657820","DistrictId":"20657821"}}}]}]}}