{"Response":{"MetaInfo":{"Timestamp":"2020-03-28T09:59:58.073+0000","NextPageInformation":"2"},"View":[{"_type":"SearchResultsViewType","ViewId":0,"Result":[{"Relevance":1.0,"Distance":0.0,"Direction":0.0,"MatchLevel":"district","MatchQuality":{"Country":1.0,"County":1.0,"City":1.0,"District":1.0,"PostalCode":1.0},"Location":{"LocationId":"NT_aE2Ef4Qeefc0tnb9LnIj.D","LocationType":"point","DisplayPosition":{"Latitude":45.2466201,"Longitude":24.3392278},"MapView":{"TopLeft":{"Latitude":45.25413,"Longitude":24.32876},"BottomRight":{"Latitude":45.22615,"Longitude":24.34607}},"Address":{"Label":"Călimănești, România","Country":"ROU","County":"Vâlcea","City":"Călimănești","District":"Călimănești","PostalCode":"245600","AdditionalData":[{"value":"România","key":"CountryName"},{"value":"Vâlcea","key":"CountyName"}]},"MapReference":{"ReferenceId":"837578757","SideOfStreet":"neither","CountryId":"20656215","CountyId":"20663330","CityId":"23770605","DistrictId":"23772904"}}},{"Relevance":1.0,"Distance":16.3,"MatchLevel":"houseNumber","MatchQuality":{"Country":1.0,"County":1.0,"City":1.0,"District":1.0,"Street":[1.0],"HouseNumber":1.0,"PostalCode":1.0},"MatchType":"interpolated","Location":{"LocationId":"NT_ifusoUVhZsfZtijPyivmbB_2gjN","LocationType":"point","DisplayPosition":{"Latitude":45.24661,"Longitude":24.33899},"MapView":{"TopLeft":{"Latitude":45.2477342,"Longitude":24.3373933},"BottomRight":{"Latitude":45.2454858,"Longitude":24.3405867}},"Address":{"Label":"Calea Lui Traian 686, 245600 Călimănești, România","Country":"ROU","County":"Vâlcea","City":"Călimănești","District":"Călimănești","Street":"Calea Lui Traian","HouseNumber":"686","PostalCode":"245600","AdditionalData":[{"value":"România","key":"CountryName"},{"value":"Vâlcea","key":"CountyName"}]},"MapReference":{"ReferenceId":"917265233","Spot":0.64,"SideOfStreet":"right","CountryId":"20656215","CountyId":"20663330","CityId":"23770605","DistrictId":"23772904","AddressId":"762073474","RoadLinkId":"274794550"}}},{"Relevance":1.0,"Distance":46.5,"MatchLevel":"street","MatchQuality":{"Country":1.0,"County":1.0,"City":1.0,"District":1.0,"PostalCode":1.0},"Location":{"LocationId":"NT_Pn9VkYl43HDJ5-r45tPasA_l_918508644_R","LocationType":"point","DisplayPosition":{"Latitude":45.2470302,"Longitude":24.3391106},"MapView":{"TopLeft":{"Latitude":45.24715,"Longitude":24.33897},"BottomRight":{"Latitude":45.24699,"Longitude":24.33953}},"Address":{"Label":"245600 Călimănești, România","Country":"ROU","County":"Vâlcea","City":"Călimănești","District":"Călimănești","PostalCode":"245600","AdditionalData":[{"value":"România","key":"CountryName"},{"value":"Vâlcea","key":"CountyName"}]},"MapReference":{"ReferenceId":"918508644","Spot":0.25,"SideOfStreet":"right","CountryId":"20656215","CountyId":"20663330","CityId":"23770605","DistrictId":"23772904"}}},{"Relevance":1.0,"Distance":55.8,"MatchLevel":"landmark","MatchQuality":{"Country":1.0,"Name":1.0},"Location":{"LocationId":"NT_Kp4PeI4Ou.28Pt31RqPScA","LocationType":"river","Name":"Olt","DisplayPosition":{"Latitude":44.63093,"Longitude":24.31241},"MapView":{"TopLeft":{"Latitude":45.55037,"Longitude":24.24061},"BottomRight":{"Latitude":43.71148,"Longitude":24.80236}},"Address":{"Label":"România","Country":"ROU","AdditionalData":[{"value":"România","key":"CountryName"}]},"MapReference":{"CountryId":"20656215","PlaceId":"1498861358"}}},{"Relevance":1.0,"Distance":56.3,"MatchLevel":"houseNumber","MatchQuality":{"Country":1.0,"County":1.0,"City":1.0,"District":1.0,"Street":[1.0],"HouseNumber":1.0,"PostalCode":1.0},"MatchType":"interpolated","Location":{"LocationId":"NT_ifusoUVhZsfZtijPyivmbB_3ADM","LocationType":"point","DisplayPosition":{"Latitude":45.2471,"Longitude":24.33897},"MapView":{"TopLeft":{"Latitude":45.2482242,"Longitude":24.3373733},"BottomRight":{"Latitude":45.2459758,"Longitude":24.3405667}},"Address":{"Label":"Calea Lui Traian 700, 245600 Călimănești, România","Country":"ROU","County":"Vâlcea","City":"Călimănești","District":"Călimănești","Street":"Calea Lui Traian","HouseNumber":"700","PostalCode":"245600","AdditionalData":[{"value":"România","key":"CountryName"},{"value":"Vâlcea","key":"CountyName"}]},"MapReference":{"ReferenceId":"917265234","Spot":0.44,"SideOfStreet":"right","CountryId":"20656215","CountyId":"20663330","CityId":"23770605","DistrictId":"23772904","AddressId":"762072768","RoadLinkId":"274794553"}}},{"Relevance":1.0,"Distance":63.5,"MatchLevel":"street","MatchQuality":{"Country":1.0,"County":1.0,"City":1.0,"District":1.0,"PostalCode":1.0},"Location":{"LocationId":"NT_Pn9VkYl43HDJ5-r45tPasA_l_1187718118_R","LocationType":"point","DisplayPosition":{"Latitude":45.24715,"Longitude":24.33953},"MapView":{"TopLeft":{"Latitude":45.2475,"Longitude":24.33953},"BottomRight":{"Latitude":45.24715,"Longitude":24.34085}},"Address":{"Label":"245600 Călimănești, România","Country":"ROU","County":"Vâlcea","City":"Călimănești","District":"Călimănești","PostalCode":"245600","AdditionalData":[{"value":"România","key":"CountryName"},{"value":"Vâlcea","key":"CountyName"}]},"MapReference":{"ReferenceId":"1187718118","Spot":0.0,"SideOfStreet":"right","CountryId":"20656215","CountyId":"20663330","CityId":"23770605","DistrictId":"23772904"}}},{"Relevance":1.0,"Distance":72.0,"MatchLevel":"street","MatchQuality":{"Country":1.0,"County":1.0,"City":1.0,"District":1.0,"PostalCode":1.0},"Location":{"LocationId":"NT_Pn9VkYl43HDJ5-r45tPasA_l_918508647_R","LocationType":"point","DisplayPosition":{"Latitude":45.24724,"Longitude":24.33896},"MapView":{"TopLeft":{"Latitude":45.24724,"Longitude":24.33799},"BottomRight":{"Latitude":45.24706,"Longitude":24.33896}},"Address":{"Label":"245600 Călimănești, România","Country":"ROU","County":"Vâlcea","City":"Călimănești","District":"Călimănești","PostalCode":"245600","AdditionalData":[{"value":"România","key":"CountryName"},{"value":"Vâlcea","key":"CountyName"}]},"MapReference":{"ReferenceId":"918508647","Spot":1.0,"SideOfStreet":"right","CountryId":"20656215","CountyId":"20663330","CityId":"23770605","DistrictId":"23772904"}}},{"Relevance":1.0,"Distance":75.9,"MatchLevel":"houseNumber","MatchQuality":{"Country":1.0,"County":1.0,"City":1.0,"District":1.0,"Street":[1.0],"HouseNumber":1.0,"PostalCode":1.0},"MatchType":"interpolated","Location":{"LocationId":"NT_ifusoUVhZsfZtijPyivmbB_2gDM","LocationType":"point","DisplayPosition":{"Latitude":45.24593,"Longitude":24.33912},"MapView":{"TopLeft":{"Latitude":45.2470542,"Longitude":24.3375233},"BottomRight":{"Latitude":45.2448058,"Longitude":24.3407167}},"Address":{"Label":"Calea Lui Traian 680, 245600 Călimănești, România","Country":"ROU","County":"Vâlcea","City":"Călimănești","District":"Călimănești","Street":"Calea Lui Traian","HouseNumber":"680","PostalCode":"245600","AdditionalData":[{"value":"România","key":"CountryName"},{"value":"Vâlcea","key":"CountyName"}]},"MapReference":{"ReferenceId":"811359306","Spot":0.97,"SideOfStreet":"right","CountryId":"20656215","CountyId":"20663330","CityId":"23770605","DistrictId":"23772904","AddressId":"762072376","RoadLinkId":"223613412"}}},{"Relevance":1.0,"Distance":140.1,"MatchLevel":"houseNumber","MatchQuality":{"Country":1.0,"County":1.0,"City":1.0,"District":1.0,"Street":[1.0],"HouseNumber":1.0,"PostalCode":1.0},"MatchType":"interpolated","Location":{"LocationId":"NT_ifusoUVhZsfZtijPyivmbB_3AjM","LocationType":"point","DisplayPosition":{"Latitude":45.24784,"Longitude":24.33879},"MapView":{"TopLeft":{"Latitude":45.2489642,"Longitude":24.3371933},"BottomRight":{"Latitude":45.2467158,"Longitude":24.3403867}},"Address":{"Label":"Calea Lui Traian 702, 245600 Călimănești, România","Country":"ROU","County":"Vâlcea","City":"Călimănești","District":"Călimănești","Street":"Calea Lui Traian","HouseNumber":"702","PostalCode":"245600","AdditionalData":[{"value":"România","key":"CountryName"},{"value":"Vâlcea","key":"CountyName"}]},"MapReference":{"ReferenceId":"917253276","Spot":0.78,"SideOfStreet":"right","CountryId":"20656215","CountyId":"20663330","CityId":"23770605","DistrictId":"23772904","AddressId":"762073984","RoadLinkId":"274781817"}}},{"Relevance":1.0,"Distance":160.3,"MatchLevel":"street","MatchQuality":{"Country":1.0,"County":1.0,"City":1.0,"District":1.0,"PostalCode":1.0},"Location":{"LocationId":"NT_Pn9VkYl43HDJ5-r45tPasA_l_1187718119_L","LocationType":"point","DisplayPosition":{"Latitude":45.2475,"Longitude":24.34085},"MapView":{"TopLeft":{"Latitude":45.24754,"Longitude":24.34085},"BottomRight":{"Latitude":45.24717,"Longitude":24.34148}},"Address":{"Label":"245600 Călimănești, România","Country":"ROU","County":"Vâlcea","City":"Călimănești","District":"Călimănești","PostalCode":"245600","AdditionalData":[{"value":"România","key":"CountryName"},{"value":"Vâlcea","key":"CountyName"}]},"MapReference":{"ReferenceId":"1187718119","Spot":1.0,"SideOfStreet":"left","CountryId":"20656215","CountyId":"20663330","CityId":"23770605","DistrictId":"23772904"}}}]}]}}