{"Response":{"MetaInfo":{"Timestamp":"2020-03-28T11:26:38.311+0000","NextPageInformation":"2"},"View":[{"_type":"SearchResultsViewType","ViewId":0,"Result":[{"Relevance":1.0,"Distance":0.0,"Direction":0.0,"MatchLevel":"city","MatchQuality":{"Country":1.0,"State":1.0,"County":1.0,"City":1.0,"PostalCode":1.0},"Location":{"LocationId":"NT_VFHhhe1vgNNHBGqYJe6p3C","LocationType":"point","DisplayPosition":{"Latitude":45.2335257,"Longitude":11.8706308},"MapView":{"TopLeft":{"Latitude":45.25657,"Longitude":11.83738},"BottomRight":{"Latitude":45.20014,"Longitude":11.93026}},"Address":{"Label":"Conselve, Veneto, Italia","Country":"ITA","State":"Veneto","County":"PD","City":"Conselve","PostalCode":"35026","AdditionalData":[{"value":"Italia","key":"CountryName"},{"value":"Veneto","key":"StateName"},{"value":"Padova","key":"CountyName"}]},"MapReference":{"ReferenceId":"543262827","SideOfStreet":"neither","CountryId":"20110484","StateId":"20120537","CountyId":"20122263","CityId":"20122388"}}},{"Relevance":1.0,"Distance":22.3,"MatchLevel":"houseNumber","MatchQuality":{"Country":1.0,"State":1.0,"County":1.0,"City":1.0,"Street":[1.0],"HouseNumber":1.0,"PostalCode":1.0},"MatchType":"interpolated","Location":{"LocationId":"NT_-AEDSqb1PoHyC5ZCSggahA_yQD","LocationType":"point","DisplayPosition":{"Latitude":45.2333,"Longitude":11.87042},"MapView":{"TopLeft":{"Latitude":45.2344242,"Longitude":11.8688237},"BottomRight":{"Latitude":45.2321758,"Longitude":11.8720163}},"Address":{"Label":"Via Vittorio Emanuele II, 24, 35026 Conselve PD, Italia","Country":"ITA","State":"Veneto","County":"PD","City":"Conselve","Street":"Via Vittorio Emanuele II","HouseNumber":"24","PostalCode":"35026","AdditionalData":[{"value":"Italia","key":"CountryName"},{"value":"Veneto","key":"StateName"},{"value":"Padova","key":"CountyName"}]},"MapReference":{"ReferenceId":"577922425","Spot":0.03,"SideOfStreet":"right","CountryId":"20110484","StateId":"20120537","CountyId":"20122263","CityId":"20122388","AddressId":"387756376","RoadLinkId":"58890224"}}},{"Relevance":1.0,"Distance":24.4,"MatchLevel":"houseNumber","MatchQuality":{"Country":1.0,"State":1.0,"County":1.0,"City":1.0,"Street":[1.0],"HouseNumber":1.0,"PostalCode":1.0},"MatchType":"interpolated","Location":{"LocationId":"NT_-AEDSqb1PoHyC5ZCSggahA_xgD","LocationType":"point","DisplayPosition":{"Latitude":45.23321,"Longitude":11.87065},"MapView":{"TopLeft":{"Latitude":45.2343342,"Longitude":11.8690537},"BottomRight":{"Latitude":45.2320858,"Longitude":11.8722463}},"Address":{"Label":"Via Vittorio Emanuele II, 18, 35026 Conselve PD, Italia","Country":"ITA","State":"Veneto","County":"PD","City":"Conselve","Street":"Via Vittorio Emanuele II","HouseNumber":"18","PostalCode":"35026","AdditionalData":[{"value":"Italia","key":"CountryName"},{"value":"Veneto","key":"StateName"},{"value":"Padova","key":"CountyName"}]},"MapReference":{"ReferenceId":"577922426","Spot":0.28,"SideOfStreet":"right","CountryId":"20110484","StateId":"20120537","CountyId":"20122263","CityId":"20122388","AddressId":"388083357","RoadLinkId":"58431306"}}},{"Relevance":1.0,"Distance":31.3,"MatchLevel":"street","MatchQuality":{"Country":1.0,"State":1.0,"County":1.0,"City":1.0,"PostalCode":1.0},"Location":{"LocationId":"NT_39pEVDQoZ4ADYWgnplZ-yA_l_543262976_L","LocationType":"point","DisplayPosition":{"Latitude":45.23329,"Longitude":11.8708489},"MapView":{"TopLeft":{"Latitude":45.23355,"Longitude":11.87073},"BottomRight":{"Latitude":45.23318,"Longitude":11.87113}},"Address":{"Label":"35026 Conselve PD, Italia","Country":"ITA","State":"Veneto","County":"PD","City":"Conselve","PostalCode":"35026","AdditionalData":[{"value":"Italia","key":"CountryName"},{"value":"Veneto","key":"StateName"},{"value":"Padova","key":"CountyName"}]},"MapReference":{"ReferenceId":"543262976","Spot":0.3,"SideOfStreet":"left","CountryId":"20110484","StateId":"20120537","CountyId":"20122263","CityId":"20122388"}}},{"Relevance":1.0,"Distance":37.7,"MatchLevel":"houseNumber","MatchQuality":{"Country":1.0,"State":1.0,"County":1.0,"City":1.0,"Street":[1.0],"HouseNumber":1.0,"PostalCode":1.0},"MatchType":"interpolated","Location":{"LocationId":"NT_-AEDSqb1PoHyC5ZCSggahA_xYD","LocationType":"point","DisplayPosition":{"Latitude":45.23314,"Longitude":11.8708},"MapView":{"TopLeft":{"Latitude":45.2342642,"Longitude":11.8692037},"BottomRight":{"Latitude":45.2320158,"Longitude":11.8723963}},"Address":{"Label":"Via Vittorio Emanuele II, 16, 35026 Conselve PD, Italia","Country":"ITA","State":"Veneto","County":"PD","City":"Conselve","Street":"Via Vittorio Emanuele II","HouseNumber":"16","PostalCode":"35026","AdditionalData":[{"value":"Italia","key":"CountryName"},{"value":"Veneto","key":"StateName"},{"value":"Padova","key":"CountyName"}]},"MapReference":{"ReferenceId":"543263153","Spot":0.74,"SideOfStreet":"right","CountryId":"20110484","StateId":"20120537","CountyId":"20122263","CityId":"20122388","AddressId":"387798323","RoadLinkId":"58578838"}}},{"Relevance":1.0,"Distance":55.3,"MatchLevel":"houseNumber","MatchQuality":{"Country":1.0,"State":1.0,"County":1.0,"City":1.0,"Street":[1.0],"HouseNumber":1.0,"PostalCode":1.0},"MatchType":"interpolated","Location":{"LocationId":"NT_-AEDSqb1PoHyC5ZCSggahA_xID","LocationType":"point","DisplayPosition":{"Latitude":45.23305,"Longitude":11.87102},"MapView":{"TopLeft":{"Latitude":45.2341742,"Longitude":11.8694237},"BottomRight":{"Latitude":45.2319258,"Longitude":11.8726163}},"Address":{"Label":"Via Vittorio Emanuele II, 12, 35026 Conselve PD, Italia","Country":"ITA","State":"Veneto","County":"PD","City":"Conselve","Street":"Via Vittorio Emanuele II","HouseNumber":"12","PostalCode":"35026","AdditionalData":[{"value":"Italia","key":"CountryName"},{"value":"Veneto","key":"StateName"},{"value":"Padova","key":"CountyName"}]},"MapReference":{"ReferenceId":"543263106","Spot":0.99,"SideOfStreet":"right","CountryId":"20110484","StateId":"20120537","CountyId":"20122263","CityId":"20122388","AddressId":"388064891","RoadLinkId":"58755946"}}},{"Relevance":1.0,"Distance":59.7,"MatchLevel":"street","MatchQuality":{"Country":1.0,"State":1.0,"County":1.0,"City":1.0,"PostalCode":1.0},"Location":{"LocationId":"NT_39pEVDQoZ4ADYWgnplZ-yA_l_543263075_L","LocationType":"point","DisplayPosition":{"Latitude":45.23306,"Longitude":11.87101},"MapView":{"TopLeft":{"Latitude":45.23306,"Longitude":11.87022},"BottomRight":{"Latitude":45.23216,"Longitude":11.87101}},"Address":{"Label":"35026 Conselve PD, Italia","Country":"ITA","State":"Veneto","County":"PD","City":"Conselve","PostalCode":"35026","AdditionalData":[{"value":"Italia","key":"CountryName"},{"value":"Veneto","key":"StateName"},{"value":"Padova","key":"CountyName"}]},"MapReference":{"ReferenceId":"543263075","Spot":1.0,"SideOfStreet":"left","CountryId":"20110484","StateId":"20120537","CountyId":"20122263","CityId":"20122388"}}},{"Relevance":1.0,"Distance":61.2,"MatchLevel":"houseNumber","MatchQuality":{"Country":1.0,"State":1.0,"County":1.0,"City":1.0,"Street":[1.0],"HouseNumber":1.0,"PostalCode":1.0},"MatchType":"interpolated","Location":{"LocationId":"NT_x22mQYAQG0xRguqk6.x--D_yA","LocationType":"point","DisplayPosition":{"Latitude":45.23394,"Longitude":11.86992},"MapView":{"TopLeft":{"Latitude":45.2350642,"Longitude":11.8683237},"BottomRight":{"Latitude":45.2328158,"Longitude":11.8715163}},"Address":{"Label":"Via Fossalta, 2, 35026 Conselve PD, Italia","Country":"ITA","State":"Veneto","County":"PD","City":"Conselve","Street":"Via Fossalta","HouseNumber":"2","PostalCode":"35026","AdditionalData":[{"value":"Italia","key":"CountryName"},{"value":"Veneto","key":"StateName"},{"value":"Padova","key":"CountyName"}]},"MapReference":{"ReferenceId":"543262818","Spot":0.0,"SideOfStreet":"right","CountryId":"20110484","StateId":"20120537","CountyId":"20122263","CityId":"20122388","AddressId":"387746304","RoadLinkId":"58617618"}}},{"Relevance":1.0,"Distance":65.5,"MatchLevel":"houseNumber","MatchQuality":{"Country":1.0,"State":1.0,"County":1.0,"City":1.0,"Street":[1.0],"HouseNumber":1.0,"PostalCode":1.0},"MatchType":"interpolated","Location":{"LocationId":"NT_0z-kZgC8heN.RiEHGC7kzB_l_577921610_R_yA","LocationType":"point","DisplayPosition":{"Latitude":45.2337836,"Longitude":11.8697397},"MapView":{"TopLeft":{"Latitude":45.2349077,"Longitude":11.8681434},"BottomRight":{"Latitude":45.2326594,"Longitude":11.8713361}},"Address":{"Label":"Piazza Giuseppe Garibaldi, 2, 35026 Conselve PD, Italia","Country":"ITA","State":"Veneto","County":"PD","City":"Conselve","Street":"Piazza Giuseppe Garibaldi","HouseNumber":"2","PostalCode":"35026","AdditionalData":[{"value":"Italia","key":"CountryName"},{"value":"Veneto","key":"StateName"},{"value":"Padova","key":"CountyName"}]},"MapReference":{"ReferenceId":"577921610","Spot":0.52,"SideOfStreet":"right","CountryId":"20110484","StateId":"20120537","CountyId":"20122263","CityId":"20122388"}}},{"Relevance":1.0,"Distance":81.9,"MatchLevel":"houseNumber","MatchQuality":{"Country":1.0,"State":1.0,"County":1.0,"City":1.0,"Street":[1.0],"HouseNumber":1.0,"PostalCode":1.0},"MatchType":"interpolated","Location":{"LocationId":"NT_Hj4vtmJ4PJbCC7-aKV5B7B_l_577922427_L_2MD","LocationType":"point","DisplayPosition":{"Latitude":45.2328408,"Longitude":11.8701535},"MapView":{"TopLeft":{"Latitude":45.233965,"Longitude":11.8685572},"BottomRight":{"Latitude":45.2317167,"Longitude":11.8717498}},"Address":{"Label":"Piazzale Suore di Maria Bambina, 63, 35026 Conselve PD, Italia","Country":"ITA","State":"Veneto","County":"PD","City":"Conselve","Street":"Piazzale Suore di Maria Bambina","HouseNumber":"63","PostalCode":"35026","AdditionalData":[{"value":"Italia","key":"CountryName"},{"value":"Veneto","key":"StateName"},{"value":"Padova","key":"CountyName"}]},"MapReference":{"ReferenceId":"577922427","Spot":0.49,"SideOfStreet":"left","CountryId":"20110484","StateId":"20120537","CountyId":"20122263","CityId":"20122388"}}}]}]}}