{"Response":{"MetaInfo":{"Timestamp":"2020-03-28T09:55:30.786+0000","NextPageInformation":"2"},"View":[{"_type":"SearchResultsViewType","ViewId":0,"Result":[{"Relevance":1.0,"Distance":0.0,"Direction":0.0,"MatchLevel":"district","MatchQuality":{"Country":1.0,"State":1.0,"County":1.0,"City":1.0,"District":1.0,"PostalCode":1.0},"Location":{"LocationId":"NT_2dBrRVhdE-5bTehtIsya2A","LocationType":"point","DisplayPosition":{"Latitude":45.2863285,"Longitude":11.8261215},"MapView":{"TopLeft":{"Latitude":45.28699,"Longitude":11.82285},"BottomRight":{"Latitude":45.2839,"Longitude":11.82911}},"Address":{"Label":"Carrara Santo Stefano, Due Carrare, Veneto, Italia","Country":"ITA","State":"Veneto","County":"PD","City":"Due Carrare","District":"Carrara Santo Stefano","PostalCode":"35020","AdditionalData":[{"value":"Italia","key":"CountryName"},{"value":"Veneto","key":"StateName"},{"value":"Padova","key":"CountyName"}]},"MapReference":{"ReferenceId":"555888396","SideOfStreet":"neither","CountryId":"20110484","StateId":"20120537","CountyId":"20122263","CityId":"20359128","DistrictId":"20359130"}}},{"Relevance":1.0,"Distance":16.9,"MatchLevel":"houseNumber","MatchQuality":{"Country":1.0,"State":1.0,"County":1.0,"City":1.0,"District":1.0,"Street":[1.0],"HouseNumber":1.0,"PostalCode":1.0},"MatchType":"interpolated","Location":{"LocationId":"NT_30rthRL.NnAIv8-vbntf6D_zA","LocationType":"point","DisplayPosition":{"Latitude":45.28569,"Longitude":11.82554},"MapView":{"TopLeft":{"Latitude":45.2868142,"Longitude":11.8239422},"BottomRight":{"Latitude":45.2845658,"Longitude":11.8271378}},"Address":{"Label":"Via Roma, 3, 35020 Due Carrare PD, Italia","Country":"ITA","State":"Veneto","County":"PD","City":"Due Carrare","District":"Carrara Santo Stefano","Street":"Via Roma","HouseNumber":"3","PostalCode":"35020","AdditionalData":[{"value":"Italia","key":"CountryName"},{"value":"Veneto","key":"StateName"},{"value":"Padova","key":"CountyName"}]},"MapReference":{"ReferenceId":"1230298918","Spot":0.72,"SideOfStreet":"right","CountryId":"20110484","StateId":"20120537","CountyId":"20122263","CityId":"20359128","DistrictId":"20359130","AddressId":"246983708","RoadLinkId":"549656113"}}},{"Relevance":1.0,"Distance":25.7,"MatchLevel":"houseNumber","MatchQuality":{"Country":1.0,"State":1.0,"County":1.0,"City":1.0,"District":1.0,"Street":[1.0],"HouseNumber":1.0,"PostalCode":1.0},"MatchType":"interpolated","Location":{"LocationId":"NT_30rthRL.NnAIv8-vbntf6D_3A","LocationType":"point","DisplayPosition":{"Latitude":45.28557,"Longitude":11.82584},"MapView":{"TopLeft":{"Latitude":45.2866942,"Longitude":11.8242422},"BottomRight":{"Latitude":45.2844458,"Longitude":11.8274378}},"Address":{"Label":"Via Roma, 7, 35020 Due Carrare PD, Italia","Country":"ITA","State":"Veneto","County":"PD","City":"Due Carrare","District":"Carrara Santo Stefano","Street":"Via Roma","HouseNumber":"7","PostalCode":"35020","AdditionalData":[{"value":"Italia","key":"CountryName"},{"value":"Veneto","key":"StateName"},{"value":"Padova","key":"CountyName"}]},"MapReference":{"ReferenceId":"555888396","Spot":0.83,"SideOfStreet":"right","CountryId":"20110484","StateId":"20120537","CountyId":"20122263","CityId":"20359128","DistrictId":"20359130","AddressId":"246958809","RoadLinkId":"59345856"}}},{"Relevance":1.0,"Distance":72.7,"MatchLevel":"houseNumber","MatchQuality":{"Country":1.0,"State":1.0,"County":1.0,"City":1.0,"District":1.0,"Street":[1.0],"HouseNumber":1.0,"PostalCode":1.0},"MatchType":"interpolated","Location":{"LocationId":"NT_jvp86rZxQ7vOxPiB54L7PD_zA","LocationType":"point","DisplayPosition":{"Latitude":45.28622,"Longitude":11.82719},"MapView":{"TopLeft":{"Latitude":45.2873442,"Longitude":11.8255922},"BottomRight":{"Latitude":45.2850958,"Longitude":11.8287878}},"Address":{"Label":"Via Olivato, 3, 35020 Due Carrare PD, Italia","Country":"ITA","State":"Veneto","County":"PD","City":"Due Carrare","District":"Carrara Santo Stefano","Street":"Via Olivato","HouseNumber":"3","PostalCode":"35020","AdditionalData":[{"value":"Italia","key":"CountryName"},{"value":"Veneto","key":"StateName"},{"value":"Padova","key":"CountyName"}]},"MapReference":{"ReferenceId":"555888343","Spot":0.47,"SideOfStreet":"left","CountryId":"20110484","StateId":"20120537","CountyId":"20122263","CityId":"20359128","DistrictId":"20359130","AddressId":"247010183","RoadLinkId":"59418863"}}},{"Relevance":1.0,"Distance":85.9,"MatchLevel":"houseNumber","MatchQuality":{"Country":1.0,"State":1.0,"County":1.0,"City":1.0,"District":1.0,"Street":[1.0],"HouseNumber":1.0,"PostalCode":1.0},"MatchType":"interpolated","Location":{"LocationId":"NT_30rthRL.NnAIv8-vbntf6D_2AD","LocationType":"point","DisplayPosition":{"Latitude":45.28574,"Longitude":11.82541},"MapView":{"TopLeft":{"Latitude":45.2868642,"Longitude":11.8238122},"BottomRight":{"Latitude":45.2846158,"Longitude":11.8270078}},"Address":{"Label":"Via Roma, 60, 35020 Due Carrare PD, Italia","Country":"ITA","State":"Veneto","County":"PD","City":"Due Carrare","District":"Carrara Santo Stefano","Street":"Via Roma","HouseNumber":"60","PostalCode":"35020","AdditionalData":[{"value":"Italia","key":"CountryName"},{"value":"Veneto","key":"StateName"},{"value":"Padova","key":"CountyName"}]},"MapReference":{"ReferenceId":"1230298919","Spot":0.12,"SideOfStreet":"left","CountryId":"20110484","StateId":"20120537","CountyId":"20122263","CityId":"20359128","DistrictId":"20359130","AddressId":"246983705","RoadLinkId":"549656114"}}},{"Relevance":1.0,"Distance":86.8,"MatchLevel":"houseNumber","MatchQuality":{"Country":1.0,"State":1.0,"County":1.0,"City":1.0,"District":1.0,"Street":[1.0],"HouseNumber":1.0,"PostalCode":1.0},"MatchType":"interpolated","Location":{"LocationId":"NT_jvp86rZxQ7vOxPiB54L7PD_0A","LocationType":"point","DisplayPosition":{"Latitude":45.28565,"Longitude":11.82667},"MapView":{"TopLeft":{"Latitude":45.2867742,"Longitude":11.8250722},"BottomRight":{"Latitude":45.2845258,"Longitude":11.8282678}},"Address":{"Label":"Via Olivato, 4, 35020 Due Carrare PD, Italia","Country":"ITA","State":"Veneto","County":"PD","City":"Due Carrare","District":"Carrara Santo Stefano","Street":"Via Olivato","HouseNumber":"4","PostalCode":"35020","AdditionalData":[{"value":"Italia","key":"CountryName"},{"value":"Veneto","key":"StateName"},{"value":"Padova","key":"CountyName"}]},"MapReference":{"ReferenceId":"555888401","Spot":0.63,"SideOfStreet":"right","CountryId":"20110484","StateId":"20120537","CountyId":"20122263","CityId":"20359128","DistrictId":"20359130","AddressId":"811605900","RoadLinkId":"59313511"}}},{"Relevance":1.0,"Distance":96.1,"MatchLevel":"houseNumber","MatchQuality":{"Country":1.0,"State":1.0,"County":1.0,"City":1.0,"District":1.0,"Street":[1.0],"HouseNumber":1.0,"PostalCode":1.0},"MatchType":"interpolated","Location":{"LocationId":"NT_30rthRL.NnAIv8-vbntf6D_xEzM","LocationType":"point","DisplayPosition":{"Latitude":45.28538,"Longitude":11.82633},"MapView":{"TopLeft":{"Latitude":45.2865042,"Longitude":11.8247322},"BottomRight":{"Latitude":45.2842558,"Longitude":11.8279278}},"Address":{"Label":"Via Roma, 113, 35020 Due Carrare PD, Italia","Country":"ITA","State":"Veneto","County":"PD","City":"Due Carrare","District":"Carrara Santo Stefano","Street":"Via Roma","HouseNumber":"113","PostalCode":"35020","AdditionalData":[{"value":"Italia","key":"CountryName"},{"value":"Veneto","key":"StateName"},{"value":"Padova","key":"CountyName"}]},"MapReference":{"ReferenceId":"555888402","Spot":0.93,"SideOfStreet":"right","CountryId":"20110484","StateId":"20120537","CountyId":"20122263","CityId":"20359128","DistrictId":"20359130","AddressId":"811819702","RoadLinkId":"58804222"}}},{"Relevance":1.0,"Distance":96.3,"MatchLevel":"street","MatchQuality":{"Country":1.0,"State":1.0,"County":1.0,"City":1.0,"District":1.0,"Street":[1.0],"PostalCode":1.0},"Location":{"LocationId":"NT_30rthRL.NnAIv8-vbntf6D_l_763526391_R","LocationType":"point","DisplayPosition":{"Latitude":45.28589,"Longitude":11.82506},"MapView":{"TopLeft":{"Latitude":45.286,"Longitude":11.82478},"BottomRight":{"Latitude":45.28589,"Longitude":11.82506}},"Address":{"Label":"Via Roma, 35020 Due Carrare PD, Italia","Country":"ITA","State":"Veneto","County":"PD","City":"Due Carrare","District":"Carrara Santo Stefano","Street":"Via Roma","PostalCode":"35020","AdditionalData":[{"value":"Italia","key":"CountryName"},{"value":"Veneto","key":"StateName"},{"value":"Padova","key":"CountyName"}]},"MapReference":{"ReferenceId":"763526391","Spot":0.0,"SideOfStreet":"right","CountryId":"20110484","StateId":"20120537","CountyId":"20122263","CityId":"20359128","DistrictId":"20359130"}}},{"Relevance":1.0,"Distance":99.5,"MatchLevel":"houseNumber","MatchQuality":{"Country":1.0,"State":1.0,"County":1.0,"City":1.0,"District":1.0,"Street":[1.0],"HouseNumber":1.0,"PostalCode":1.0},"MatchType":"interpolated","Location":{"LocationId":"NT_TO8T-aVJS2keV4Gm6YHCsB_xA","LocationType":"point","DisplayPosition":{"Latitude":45.28574,"Longitude":11.82708},"MapView":{"TopLeft":{"Latitude":45.2868642,"Longitude":11.8254822},"BottomRight":{"Latitude":45.2846158,"Longitude":11.8286778}},"Address":{"Label":"Via Marsilio da Carrara, 1, 35020 Due Carrare PD, Italia","Country":"ITA","State":"Veneto","County":"PD","City":"Due Carrare","District":"Carrara Santo Stefano","Street":"Via Marsilio da Carrara","HouseNumber":"1","PostalCode":"35020","AdditionalData":[{"value":"Italia","key":"CountryName"},{"value":"Veneto","key":"StateName"},{"value":"Padova","key":"CountyName"}]},"MapReference":{"ReferenceId":"555888364","Spot":0.83,"SideOfStreet":"right","CountryId":"20110484","StateId":"20120537","CountyId":"20122263","CityId":"20359128","DistrictId":"20359130","AddressId":"811758550","RoadLinkId":"59388850"}}},{"Relevance":1.0,"Distance":111.6,"MatchLevel":"houseNumber","MatchQuality":{"Country":1.0,"State":1.0,"County":1.0,"City":1.0,"District":1.0,"Street":[1.0],"HouseNumber":1.0,"PostalCode":1.0},"MatchType":"interpolated","Location":{"LocationId":"NT_ELAQffIOGIf7e6dK.qyS0A_xA","LocationType":"point","DisplayPosition":{"Latitude":45.28574,"Longitude":11.8249},"MapView":{"TopLeft":{"Latitude":45.2868642,"Longitude":11.8233022},"BottomRight":{"Latitude":45.2846158,"Longitude":11.8264978}},"Address":{"Label":"Via Brassalene, 1, 35020 Due Carrare PD, Italia","Country":"ITA","State":"Veneto","County":"PD","City":"Due Carrare","District":"Carrara Santo Stefano","Street":"Via Brassalene","HouseNumber":"1","PostalCode":"35020","AdditionalData":[{"value":"Italia","key":"CountryName"},{"value":"Veneto","key":"StateName"},{"value":"Padova","key":"CountyName"}]},"MapReference":{"ReferenceId":"555888405","Spot":0.72,"SideOfStreet":"right","CountryId":"20110484","StateId":"20120537","CountyId":"20122263","CityId":"20359128","DistrictId":"20359130","AddressId":"246986614","RoadLinkId":"59307516"}}}]}]}}