{"Response":{"MetaInfo":{"Timestamp":"2020-03-28T11:34:27.855+0000","NextPageInformation":"2"},"View":[{"_type":"SearchResultsViewType","ViewId":0,"Result":[{"Relevance":1.0,"Distance":0.0,"Direction":0.0,"MatchLevel":"district","MatchQuality":{"Country":1.0,"County":1.0,"City":1.0,"District":1.0,"PostalCode":1.0},"Location":{"LocationId":"NT_C6fBHsPtP8FYJFkCDnYQ6D","LocationType":"point","DisplayPosition":{"Latitude":45.2732848,"Longitude":25.0526355},"MapView":{"TopLeft":{"Latitude":45.30466,"Longitude":25.00303},"BottomRight":{"Latitude":45.20876,"Longitude":25.09716}},"Address":{"Label":"Câmpulung, România","Country":"ROU","County":"Argeș","City":"Câmpulung","District":"Câmpulung","PostalCode":"115100","AdditionalData":[{"value":"România","key":"CountryName"},{"value":"Argeș","key":"CountyName"}]},"MapReference":{"ReferenceId":"836331127","SideOfStreet":"neither","CountryId":"20656215","CountyId":"20656835","CityId":"20656888","DistrictId":"20656889"}}},{"Relevance":1.0,"Distance":24.0,"MatchLevel":"houseNumber","MatchQuality":{"Country":1.0,"County":1.0,"City":1.0,"District":1.0,"Street":[1.0],"HouseNumber":1.0,"PostalCode":1.0},"MatchType":"interpolated","Location":{"LocationId":"NT_cztBnWhJvgQ9JOBzp-wkUB_yEE","LocationType":"point","DisplayPosition":{"Latitude":45.27331,"Longitude":25.05294},"MapView":{"TopLeft":{"Latitude":45.2744342,"Longitude":25.0513426},"BottomRight":{"Latitude":45.2721858,"Longitude":25.0545374}},"Address":{"Label":"Strada Erou Costel Constantinescu 2A, 115100 Câmpulung, România","Country":"ROU","County":"Argeș","City":"Câmpulung","District":"Câmpulung","Street":"Strada Erou Costel Constantinescu","HouseNumber":"2A","PostalCode":"115100","AdditionalData":[{"value":"România","key":"CountryName"},{"value":"Argeș","key":"CountyName"}]},"MapReference":{"ReferenceId":"1201533403","Spot":0.23,"SideOfStreet":"right","CountryId":"20656215","CountyId":"20656835","CityId":"20656888","DistrictId":"20656889","AddressId":"685861170","RoadLinkId":"514130225"}}},{"Relevance":1.0,"Distance":49.0,"MatchLevel":"street","MatchQuality":{"Country":1.0,"County":1.0,"City":1.0,"District":1.0,"PostalCode":1.0},"Location":{"LocationId":"NT_m0L0IwIIT-QWqDI3Koz78A_l_860832025_L","LocationType":"point","DisplayPosition":{"Latitude":45.27317,"Longitude":25.05324},"MapView":{"TopLeft":{"Latitude":45.2733,"Longitude":25.05324},"BottomRight":{"Latitude":45.27317,"Longitude":25.05336}},"Address":{"Label":"115100 Câmpulung, România","Country":"ROU","County":"Argeș","City":"Câmpulung","District":"Câmpulung","PostalCode":"115100","AdditionalData":[{"value":"România","key":"CountryName"},{"value":"Argeș","key":"CountyName"}]},"MapReference":{"ReferenceId":"860832025","Spot":0.0,"SideOfStreet":"left","CountryId":"20656215","CountyId":"20656835","CityId":"20656888","DistrictId":"20656889"}}},{"Relevance":1.0,"Distance":49.6,"MatchLevel":"street","MatchQuality":{"Country":1.0,"County":1.0,"City":1.0,"District":1.0,"PostalCode":1.0},"Location":{"LocationId":"NT_m0L0IwIIT-QWqDI3Koz78A_l_860832026_L","LocationType":"point","DisplayPosition":{"Latitude":45.2729313,"Longitude":25.0530212},"MapView":{"TopLeft":{"Latitude":45.27317,"Longitude":25.05302},"BottomRight":{"Latitude":45.27293,"Longitude":25.05324}},"Address":{"Label":"115100 Câmpulung, România","Country":"ROU","County":"Argeș","City":"Câmpulung","District":"Câmpulung","PostalCode":"115100","AdditionalData":[{"value":"România","key":"CountryName"},{"value":"Argeș","key":"CountyName"}]},"MapReference":{"ReferenceId":"860832026","Spot":0.01,"SideOfStreet":"left","CountryId":"20656215","CountyId":"20656835","CityId":"20656888","DistrictId":"20656889"}}},{"Relevance":1.0,"Distance":72.6,"MatchLevel":"street","MatchQuality":{"Country":1.0,"County":1.0,"City":1.0,"District":1.0,"Street":[1.0],"PostalCode":1.0},"Location":{"LocationId":"NT_Wqyq6x2s6PKQFP5YRt55lA_l_847998367_R","LocationType":"point","DisplayPosition":{"Latitude":45.27391,"Longitude":25.05237},"MapView":{"TopLeft":{"Latitude":45.2743,"Longitude":25.05237},"BottomRight":{"Latitude":45.27391,"Longitude":25.05272}},"Address":{"Label":"Strada Doctor Fălcoianu, 115100 Câmpulung, România","Country":"ROU","County":"Argeș","City":"Câmpulung","District":"Câmpulung","Street":"Strada Doctor Fălcoianu","PostalCode":"115100","AdditionalData":[{"value":"România","key":"CountryName"},{"value":"Argeș","key":"CountyName"}]},"MapReference":{"ReferenceId":"847998367","Spot":0.0,"SideOfStreet":"right","CountryId":"20656215","CountyId":"20656835","CityId":"20656888","DistrictId":"20656889"}}},{"Relevance":1.0,"Distance":80.2,"MatchLevel":"houseNumber","MatchQuality":{"Country":1.0,"County":1.0,"City":1.0,"District":1.0,"Street":[1.0],"HouseNumber":1.0,"PostalCode":1.0},"MatchType":"interpolated","Location":{"LocationId":"NT_cztBnWhJvgQ9JOBzp-wkUB_zEE","LocationType":"point","DisplayPosition":{"Latitude":45.27306,"Longitude":25.05361},"MapView":{"TopLeft":{"Latitude":45.2741842,"Longitude":25.0520126},"BottomRight":{"Latitude":45.2719358,"Longitude":25.0552074}},"Address":{"Label":"Strada Erou Costel Constantinescu 3A, 115100 Câmpulung, România","Country":"ROU","County":"Argeș","City":"Câmpulung","District":"Câmpulung","Street":"Strada Erou Costel Constantinescu","HouseNumber":"3A","PostalCode":"115100","AdditionalData":[{"value":"România","key":"CountryName"},{"value":"Argeș","key":"CountyName"}]},"MapReference":{"ReferenceId":"860832023","Spot":0.42,"SideOfStreet":"right","CountryId":"20656215","CountyId":"20656835","CityId":"20656888","DistrictId":"20656889","AddressId":"685867019","RoadLinkId":"235952248"}}},{"Relevance":1.0,"Distance":81.7,"MatchLevel":"houseNumber","MatchQuality":{"Country":1.0,"County":1.0,"City":1.0,"District":1.0,"Street":[1.0],"HouseNumber":1.0,"PostalCode":1.0},"MatchType":"interpolated","Location":{"LocationId":"NT_dg1i.soXyYieATKQ3t.96C_xETQ","LocationType":"point","DisplayPosition":{"Latitude":45.27252,"Longitude":25.05364},"MapView":{"TopLeft":{"Latitude":45.2736442,"Longitude":25.0520426},"BottomRight":{"Latitude":45.2713958,"Longitude":25.0552374}},"Address":{"Label":"Strada Costel Constantinescu 11A, 115100 Câmpulung, România","Country":"ROU","County":"Argeș","City":"Câmpulung","District":"Câmpulung","Street":"Strada Costel Constantinescu","HouseNumber":"11A","PostalCode":"115100","AdditionalData":[{"value":"România","key":"CountryName"},{"value":"Argeș","key":"CountyName"}]},"MapReference":{"ReferenceId":"836328387","Spot":0.48,"SideOfStreet":"left","CountryId":"20656215","CountyId":"20656835","CityId":"20656888","DistrictId":"20656889","AddressId":"685861059","RoadLinkId":"219555936"}}},{"Relevance":1.0,"Distance":85.2,"MatchLevel":"houseNumber","MatchQuality":{"Country":1.0,"County":1.0,"City":1.0,"District":1.0,"Street":[1.0],"HouseNumber":1.0,"PostalCode":1.0},"MatchType":"interpolated","Location":{"LocationId":"NT_Wqyq6x2s6PKQFP5YRt55lA_yA","LocationType":"point","DisplayPosition":{"Latitude":45.27419,"Longitude":25.05305},"MapView":{"TopLeft":{"Latitude":45.2753142,"Longitude":25.0514525},"BottomRight":{"Latitude":45.2730658,"Longitude":25.0546475}},"Address":{"Label":"Strada Doctor Fălcoianu 2, 115100 Câmpulung, România","Country":"ROU","County":"Argeș","City":"Câmpulung","District":"Câmpulung","Street":"Strada Doctor Fălcoianu","HouseNumber":"2","PostalCode":"115100","AdditionalData":[{"value":"România","key":"CountryName"},{"value":"Argeș","key":"CountyName"}]},"MapReference":{"ReferenceId":"1201533404","Spot":0.59,"SideOfStreet":"left","CountryId":"20656215","CountyId":"20656835","CityId":"20656888","DistrictId":"20656889","AddressId":"685867983","RoadLinkId":"514130226"}}},{"Relevance":1.0,"Distance":88.6,"MatchLevel":"houseNumber","MatchQuality":{"Country":1.0,"County":1.0,"City":1.0,"District":1.0,"Street":[1.0],"HouseNumber":1.0,"PostalCode":1.0},"MatchType":"interpolated","Location":{"LocationId":"NT_Wqyq6x2s6PKQFP5YRt55lA_yA","LocationType":"point","DisplayPosition":{"Latitude":45.27395,"Longitude":25.05378},"MapView":{"TopLeft":{"Latitude":45.2750742,"Longitude":25.0521826},"BottomRight":{"Latitude":45.2728258,"Longitude":25.0553774}},"Address":{"Label":"Strada Doctor Fălcoianu 2, 115100 Câmpulung, România","Country":"ROU","County":"Argeș","City":"Câmpulung","District":"Câmpulung","Street":"Strada Doctor Fălcoianu","HouseNumber":"2","PostalCode":"115100","AdditionalData":[{"value":"România","key":"CountryName"},{"value":"Argeș","key":"CountyName"}]},"MapReference":{"ReferenceId":"836328380","Spot":0.74,"SideOfStreet":"left","CountryId":"20656215","CountyId":"20656835","CityId":"20656888","DistrictId":"20656889","AddressId":"762047492","RoadLinkId":"219555929"}}},{"Relevance":1.0,"Distance":89.5,"MatchLevel":"houseNumber","MatchQuality":{"Country":1.0,"County":1.0,"City":1.0,"District":1.0,"Street":[1.0],"HouseNumber":1.0,"PostalCode":1.0},"MatchType":"interpolated","Location":{"LocationId":"NT_.-7OWEOoheIq62y7BMskXC_3A","LocationType":"point","DisplayPosition":{"Latitude":45.27247,"Longitude":25.05212},"MapView":{"TopLeft":{"Latitude":45.2735942,"Longitude":25.0505226},"BottomRight":{"Latitude":45.2713458,"Longitude":25.0537174}},"Address":{"Label":"Strada Dumitru Alimănișteanu 7, 115100 Câmpulung, România","Country":"ROU","County":"Argeș","City":"Câmpulung","District":"Câmpulung","Street":"Strada Dumitru Alimănișteanu","HouseNumber":"7","PostalCode":"115100","AdditionalData":[{"value":"România","key":"CountryName"},{"value":"Argeș","key":"CountyName"}]},"MapReference":{"ReferenceId":"836328373","Spot":0.82,"SideOfStreet":"right","CountryId":"20656215","CountyId":"20656835","CityId":"20656888","DistrictId":"20656889","AddressId":"685861111","RoadLinkId":"219555922"}}}]}]}}