{"Response":{"MetaInfo":{"Timestamp":"2020-03-28T11:46:37.785+0000","NextPageInformation":"2"},"View":[{"_type":"SearchResultsViewType","ViewId":0,"Result":[{"Relevance":1.0,"Distance":0.0,"Direction":0.0,"MatchLevel":"city","MatchQuality":{"Country":1.0,"State":1.0,"County":1.0,"City":1.0,"PostalCode":1.0},"Location":{"LocationId":"NT_HoZtmJJFlC8xZ6YqsArBID","LocationType":"point","DisplayPosition":{"Latitude":45.2910013,"Longitude":4.9526951},"MapView":{"TopLeft":{"Latitude":45.30909,"Longitude":4.9206},"BottomRight":{"Latitude":45.25239,"Longitude":5.00578}},"Address":{"Label":"Saint-Sorlin-en-Valloire, Auvergne-Rhône-Alpes, France","Country":"FRA","State":"Auvergne-Rhône-Alpes","County":"Drôme","City":"Saint-Sorlin-en-Valloire","PostalCode":"26210","AdditionalData":[{"value":"France","key":"CountryName"},{"value":"Auvergne-Rhône-Alpes","key":"StateName"},{"value":"Drôme","key":"CountyName"}]},"MapReference":{"ReferenceId":"872260036","SideOfStreet":"neither","CountryId":"20000001","StateId":"20006029","CountyId":"20049094","CityId":"20050053"}}},{"Relevance":1.0,"Distance":25.8,"MatchLevel":"houseNumber","MatchQuality":{"Country":1.0,"State":1.0,"County":1.0,"City":1.0,"Street":[1.0],"HouseNumber":1.0,"PostalCode":1.0},"MatchType":"interpolated","Location":{"LocationId":"NT_Jixt6eDkb1yTzsKTCX2p.D_zUDM","LocationType":"point","DisplayPosition":{"Latitude":45.29068,"Longitude":4.95281},"MapView":{"TopLeft":{"Latitude":45.2918042,"Longitude":4.9512121},"BottomRight":{"Latitude":45.2895558,"Longitude":4.9544079}},"Address":{"Label":"350 Avenue des Pins, 26210 Saint-Sorlin-en-Valloire, France","Country":"FRA","State":"Auvergne-Rhône-Alpes","County":"Drôme","City":"Saint-Sorlin-en-Valloire","Street":"Avenue des Pins","HouseNumber":"350","PostalCode":"26210","AdditionalData":[{"value":"France","key":"CountryName"},{"value":"Auvergne-Rhône-Alpes","key":"StateName"},{"value":"Drôme","key":"CountyName"}]},"MapReference":{"ReferenceId":"545482519","Spot":0.5,"SideOfStreet":"right","CountryId":"20000001","StateId":"20006029","CountyId":"20049094","CityId":"20050053","AddressId":"376532157","RoadLinkId":"300661121"}}},{"Relevance":1.0,"Distance":43.9,"MatchLevel":"street","MatchQuality":{"Country":1.0,"State":1.0,"County":1.0,"City":1.0,"Street":[1.0],"PostalCode":1.0},"Location":{"LocationId":"NT_YPSYenMoInUnJ2KFgwD7eC_l_545482253_R","LocationType":"point","DisplayPosition":{"Latitude":45.29083,"Longitude":4.95219},"MapView":{"TopLeft":{"Latitude":45.29096,"Longitude":4.95186},"BottomRight":{"Latitude":45.29083,"Longitude":4.95219}},"Address":{"Label":"D483, 26210 Saint-Sorlin-en-Valloire, France","Country":"FRA","State":"Auvergne-Rhône-Alpes","County":"Drôme","City":"Saint-Sorlin-en-Valloire","Street":"D483","PostalCode":"26210","AdditionalData":[{"value":"France","key":"CountryName"},{"value":"Auvergne-Rhône-Alpes","key":"StateName"},{"value":"Drôme","key":"CountyName"}]},"MapReference":{"ReferenceId":"545482253","Spot":0.0,"SideOfStreet":"right","CountryId":"20000001","StateId":"20006029","CountyId":"20049094","CityId":"20050053"}}},{"Relevance":1.0,"Distance":62.7,"MatchLevel":"street","MatchQuality":{"Country":1.0,"State":1.0,"County":1.0,"City":1.0,"Street":[1.0],"PostalCode":1.0},"Location":{"LocationId":"NT_Jixt6eDkb1yTzsKTCX2p.D_l_1053170186_R","LocationType":"point","DisplayPosition":{"Latitude":45.29044,"Longitude":4.95277},"MapView":{"TopLeft":{"Latitude":45.29061,"Longitude":4.95277},"BottomRight":{"Latitude":45.29008,"Longitude":4.95385}},"Address":{"Label":"Avenue des Pins, 26210 Saint-Sorlin-en-Valloire, France","Country":"FRA","State":"Auvergne-Rhône-Alpes","County":"Drôme","City":"Saint-Sorlin-en-Valloire","Street":"Avenue des Pins","PostalCode":"26210","AdditionalData":[{"value":"France","key":"CountryName"},{"value":"Auvergne-Rhône-Alpes","key":"StateName"},{"value":"Drôme","key":"CountyName"}]},"MapReference":{"ReferenceId":"1053170186","Spot":0.0,"SideOfStreet":"right","CountryId":"20000001","StateId":"20006029","CountyId":"20049094","CityId":"20050053"}}},{"Relevance":1.0,"Distance":65.5,"MatchLevel":"street","MatchQuality":{"Country":1.0,"State":1.0,"County":1.0,"City":1.0,"Street":[1.0],"PostalCode":1.0},"Location":{"LocationId":"NT_Z-pwRTI97.mMTlHFVpvJ9D_l_58161685_R","LocationType":"point","DisplayPosition":{"Latitude":45.29096,"Longitude":4.95186},"MapView":{"TopLeft":{"Latitude":45.29096,"Longitude":4.95175},"BottomRight":{"Latitude":45.29037,"Longitude":4.95186}},"Address":{"Label":"D53, 26210 Saint-Sorlin-en-Valloire, France","Country":"FRA","State":"Auvergne-Rhône-Alpes","County":"Drôme","City":"Saint-Sorlin-en-Valloire","Street":"D53","PostalCode":"26210","AdditionalData":[{"value":"France","key":"CountryName"},{"value":"Auvergne-Rhône-Alpes","key":"StateName"},{"value":"Drôme","key":"CountyName"}]},"MapReference":{"ReferenceId":"58161685","Spot":1.0,"SideOfStreet":"right","CountryId":"20000001","StateId":"20006029","CountyId":"20049094","CityId":"20050053"}}},{"Relevance":1.0,"Distance":65.5,"MatchLevel":"street","MatchQuality":{"Country":1.0,"State":1.0,"County":1.0,"City":1.0,"Street":[1.0],"PostalCode":1.0},"Location":{"LocationId":"NT_Z-pwRTI97.mMTlHFVpvJ9D_l_1171815218_R","LocationType":"point","DisplayPosition":{"Latitude":45.29096,"Longitude":4.95186},"MapView":{"TopLeft":{"Latitude":45.29107,"Longitude":4.95166},"BottomRight":{"Latitude":45.29096,"Longitude":4.95186}},"Address":{"Label":"D53, 26210 Saint-Sorlin-en-Valloire, France","Country":"FRA","State":"Auvergne-Rhône-Alpes","County":"Drôme","City":"Saint-Sorlin-en-Valloire","Street":"D53","PostalCode":"26210","AdditionalData":[{"value":"France","key":"CountryName"},{"value":"Auvergne-Rhône-Alpes","key":"StateName"},{"value":"Drôme","key":"CountyName"}]},"MapReference":{"ReferenceId":"1171815218","Spot":0.0,"SideOfStreet":"right","CountryId":"20000001","StateId":"20006029","CountyId":"20049094","CityId":"20050053"}}},{"Relevance":1.0,"Distance":75.2,"MatchLevel":"houseNumber","MatchQuality":{"Country":1.0,"State":1.0,"County":1.0,"City":1.0,"Street":[1.0],"HouseNumber":1.0,"PostalCode":1.0},"MatchType":"interpolated","Location":{"LocationId":"NT_1eoQt5VjPvzJy510MFHu6D_2UD","LocationType":"point","DisplayPosition":{"Latitude":45.29123,"Longitude":4.9536},"MapView":{"TopLeft":{"Latitude":45.2923542,"Longitude":4.9520021},"BottomRight":{"Latitude":45.2901058,"Longitude":4.9551979}},"Address":{"Label":"65 Place des Gauds, 26210 Saint-Sorlin-en-Valloire, France","Country":"FRA","State":"Auvergne-Rhône-Alpes","County":"Drôme","City":"Saint-Sorlin-en-Valloire","Street":"Place des Gauds","HouseNumber":"65","PostalCode":"26210","AdditionalData":[{"value":"France","key":"CountryName"},{"value":"Auvergne-Rhône-Alpes","key":"StateName"},{"value":"Drôme","key":"CountyName"}]},"MapReference":{"ReferenceId":"545482254","Spot":0.73,"SideOfStreet":"right","CountryId":"20000001","StateId":"20006029","CountyId":"20049094","CityId":"20050053","AddressId":"799204233","RoadLinkId":"555097967"}}},{"Relevance":1.0,"Distance":81.3,"MatchLevel":"street","MatchQuality":{"Country":1.0,"State":1.0,"County":1.0,"City":1.0,"Street":[1.0],"PostalCode":1.0},"Location":{"LocationId":"NT_Z-pwRTI97.mMTlHFVpvJ9D_l_1171815219_R","LocationType":"point","DisplayPosition":{"Latitude":45.29107,"Longitude":4.95166},"MapView":{"TopLeft":{"Latitude":45.29151,"Longitude":4.95114},"BottomRight":{"Latitude":45.29107,"Longitude":4.95166}},"Address":{"Label":"D53, 26210 Saint-Sorlin-en-Valloire, France","Country":"FRA","State":"Auvergne-Rhône-Alpes","County":"Drôme","City":"Saint-Sorlin-en-Valloire","Street":"D53","PostalCode":"26210","AdditionalData":[{"value":"France","key":"CountryName"},{"value":"Auvergne-Rhône-Alpes","key":"StateName"},{"value":"Drôme","key":"CountyName"}]},"MapReference":{"ReferenceId":"1171815219","Spot":0.0,"SideOfStreet":"right","CountryId":"20000001","StateId":"20006029","CountyId":"20049094","CityId":"20050053"}}},{"Relevance":1.0,"Distance":88.1,"MatchLevel":"street","MatchQuality":{"Country":1.0,"State":1.0,"County":1.0,"City":1.0,"PostalCode":1.0},"Location":{"LocationId":"NT_ylq-rnjhLqOW9gjGbGliJB_l_1172565844_L","LocationType":"point","DisplayPosition":{"Latitude":45.2915,"Longitude":4.95182},"MapView":{"TopLeft":{"Latitude":45.29158,"Longitude":4.95114},"BottomRight":{"Latitude":45.2915,"Longitude":4.95182}},"Address":{"Label":"26210 Saint-Sorlin-en-Valloire, France","Country":"FRA","State":"Auvergne-Rhône-Alpes","County":"Drôme","City":"Saint-Sorlin-en-Valloire","PostalCode":"26210","AdditionalData":[{"value":"France","key":"CountryName"},{"value":"Auvergne-Rhône-Alpes","key":"StateName"},{"value":"Drôme","key":"CountyName"}]},"MapReference":{"ReferenceId":"1172565844","Spot":0.0,"SideOfStreet":"left","CountryId":"20000001","StateId":"20006029","CountyId":"20049094","CityId":"20050053"}}},{"Relevance":1.0,"Distance":92.6,"MatchLevel":"houseNumber","MatchQuality":{"Country":1.0,"State":1.0,"County":1.0,"City":1.0,"Street":[1.0],"HouseNumber":1.0,"PostalCode":1.0},"MatchType":"interpolated","Location":{"LocationId":"NT_Jixt6eDkb1yTzsKTCX2p.D_ygDM","LocationType":"point","DisplayPosition":{"Latitude":45.29061,"Longitude":4.95382},"MapView":{"TopLeft":{"Latitude":45.2917342,"Longitude":4.9522221},"BottomRight":{"Latitude":45.2894858,"Longitude":4.9554179}},"Address":{"Label":"280 Avenue des Pins, 26210 Saint-Sorlin-en-Valloire, France","Country":"FRA","State":"Auvergne-Rhône-Alpes","County":"Drôme","City":"Saint-Sorlin-en-Valloire","Street":"Avenue des Pins","HouseNumber":"280","PostalCode":"26210","AdditionalData":[{"value":"France","key":"CountryName"},{"value":"Auvergne-Rhône-Alpes","key":"StateName"},{"value":"Drôme","key":"CountyName"}]},"MapReference":{"ReferenceId":"1053170188","Spot":0.03,"SideOfStreet":"right","CountryId":"20000001","StateId":"20006029","CountyId":"20049094","CityId":"20050053","AddressId":"573817553","RoadLinkId":"372802666"}}}]}]}}