{"Response":{"MetaInfo":{"Timestamp":"2020-03-28T11:08:25.774+0000","NextPageInformation":"2"},"View":[{"_type":"SearchResultsViewType","ViewId":0,"Result":[{"Relevance":1.0,"Distance":-9318.9,"MatchLevel":"landmark","MatchQuality":{"Country":1.0,"State":1.0,"Name":1.0},"Location":{"LocationId":"NT_epTe.YhcU-KM5ETQ5DHAFD","LocationType":"park","Name":"P.N.R. de Chartreuse","DisplayPosition":{"Latitude":45.38506,"Longitude":5.78276},"MapView":{"TopLeft":{"Latitude":45.57166,"Longitude":5.59914},"BottomRight":{"Latitude":45.19845,"Longitude":6.02067}},"Address":{"Label":"France","Country":"FRA","State":"Auvergne-Rhône-Alpes","AdditionalData":[{"value":"France","key":"CountryName"},{"value":"Auvergne-Rhône-Alpes","key":"StateName"}]},"MapReference":{"CountryId":"20000001","StateId":"20006029","PlaceId":"1509708989"}}},{"Relevance":1.0,"Distance":0.0,"Direction":0.0,"MatchLevel":"city","MatchQuality":{"Country":1.0,"State":1.0,"County":1.0,"City":1.0,"PostalCode":1.0},"Location":{"LocationId":"NT_ORT-laEw78l985xnVOXfWB","LocationType":"point","DisplayPosition":{"Latitude":45.387205,"Longitude":5.7381334},"MapView":{"TopLeft":{"Latitude":45.42038,"Longitude":5.68559},"BottomRight":{"Latitude":45.34219,"Longitude":5.77619}},"Address":{"Label":"Saint-Laurent-du-Pont, Auvergne-Rhône-Alpes, France","Country":"FRA","State":"Auvergne-Rhône-Alpes","County":"Isère","City":"Saint-Laurent-du-Pont","PostalCode":"38380","AdditionalData":[{"value":"France","key":"CountryName"},{"value":"Auvergne-Rhône-Alpes","key":"StateName"},{"value":"Isère","key":"CountyName"}]},"MapReference":{"ReferenceId":"542544408","SideOfStreet":"neither","CountryId":"20000001","StateId":"20006029","CountyId":"20050216","CityId":"20051386"}}},{"Relevance":1.0,"Distance":21.6,"MatchLevel":"houseNumber","MatchQuality":{"Country":1.0,"State":1.0,"County":1.0,"City":1.0,"Street":[1.0],"HouseNumber":1.0,"PostalCode":1.0},"MatchType":"interpolated","Location":{"LocationId":"NT_ht0DF-kv2dNZvVNV0K0GZC_l_1221810951_R_zID","LocationType":"point","DisplayPosition":{"Latitude":45.3872384,"Longitude":5.7376675},"MapView":{"TopLeft":{"Latitude":45.3883625,"Longitude":5.7360668},"BottomRight":{"Latitude":45.3861142,"Longitude":5.7392681}},"Address":{"Label":"32 Chemin des Martins, 38380 Saint-Laurent-du-Pont, France","Country":"FRA","State":"Auvergne-Rhône-Alpes","County":"Isère","City":"Saint-Laurent-du-Pont","Street":"Chemin des Martins","HouseNumber":"32","PostalCode":"38380","AdditionalData":[{"value":"France","key":"CountryName"},{"value":"Auvergne-Rhône-Alpes","key":"StateName"},{"value":"Isère","key":"CountyName"}]},"MapReference":{"ReferenceId":"1221810951","Spot":0.3,"SideOfStreet":"right","CountryId":"20000001","StateId":"20006029","CountyId":"20050216","CityId":"20051386"}}},{"Relevance":1.0,"Distance":41.8,"MatchLevel":"street","MatchQuality":{"Country":1.0,"State":1.0,"County":1.0,"City":1.0,"Street":[1.0],"PostalCode":1.0},"Location":{"LocationId":"NT_ht0DF-kv2dNZvVNV0K0GZC_l_1221810950_L","LocationType":"point","DisplayPosition":{"Latitude":45.38703,"Longitude":5.73766},"MapView":{"TopLeft":{"Latitude":45.38721,"Longitude":5.73726},"BottomRight":{"Latitude":45.3868,"Longitude":5.73766}},"Address":{"Label":"Chemin des Martins, 38380 Saint-Laurent-du-Pont, France","Country":"FRA","State":"Auvergne-Rhône-Alpes","County":"Isère","City":"Saint-Laurent-du-Pont","Street":"Chemin des Martins","PostalCode":"38380","AdditionalData":[{"value":"France","key":"CountryName"},{"value":"Auvergne-Rhône-Alpes","key":"StateName"},{"value":"Isère","key":"CountyName"}]},"MapReference":{"ReferenceId":"1221810950","Spot":0.0,"SideOfStreet":"left","CountryId":"20000001","StateId":"20006029","CountyId":"20050216","CityId":"20051386"}}},{"Relevance":1.0,"Distance":64.2,"MatchLevel":"houseNumber","MatchQuality":{"Country":1.0,"State":1.0,"County":1.0,"City":1.0,"Street":[1.0],"HouseNumber":1.0,"PostalCode":1.0},"MatchType":"interpolated","Location":{"LocationId":"NT_ht0DF-kv2dNZvVNV0K0GZC_l_1221810949_R_xYDN","LocationType":"point","DisplayPosition":{"Latitude":45.3878505,"Longitude":5.7377403},"MapView":{"TopLeft":{"Latitude":45.3889746,"Longitude":5.7361397},"BottomRight":{"Latitude":45.3867263,"Longitude":5.739341}},"Address":{"Label":"164 Chemin des Martins, 38380 Saint-Laurent-du-Pont, France","Country":"FRA","State":"Auvergne-Rhône-Alpes","County":"Isère","City":"Saint-Laurent-du-Pont","Street":"Chemin des Martins","HouseNumber":"164","PostalCode":"38380","AdditionalData":[{"value":"France","key":"CountryName"},{"value":"Auvergne-Rhône-Alpes","key":"StateName"},{"value":"Isère","key":"CountyName"}]},"MapReference":{"ReferenceId":"1221810949","Spot":0.13,"SideOfStreet":"right","CountryId":"20000001","StateId":"20006029","CountyId":"20050216","CityId":"20051386"}}},{"Relevance":1.0,"Distance":64.5,"MatchLevel":"houseNumber","MatchQuality":{"Country":1.0,"State":1.0,"County":1.0,"City":1.0,"Street":[1.0],"HouseNumber":1.0,"PostalCode":1.0},"MatchType":"interpolated","Location":{"LocationId":"NT_ht0DF-kv2dNZvVNV0K0GZC_2MD","LocationType":"point","DisplayPosition":{"Latitude":45.38769,"Longitude":5.73768},"MapView":{"TopLeft":{"Latitude":45.3888142,"Longitude":5.7360793},"BottomRight":{"Latitude":45.3865658,"Longitude":5.7392807}},"Address":{"Label":"63 Chemin des Martins, 38380 Saint-Laurent-du-Pont, France","Country":"FRA","State":"Auvergne-Rhône-Alpes","County":"Isère","City":"Saint-Laurent-du-Pont","Street":"Chemin des Martins","HouseNumber":"63","PostalCode":"38380","AdditionalData":[{"value":"France","key":"CountryName"},{"value":"Auvergne-Rhône-Alpes","key":"StateName"},{"value":"Isère","key":"CountyName"}]},"MapReference":{"ReferenceId":"542544742","Spot":0.94,"SideOfStreet":"left","CountryId":"20000001","StateId":"20006029","CountyId":"20050216","CityId":"20051386","AddressId":"319841581","RoadLinkId":"45629260"}}},{"Relevance":1.0,"Distance":68.2,"MatchLevel":"street","MatchQuality":{"Country":1.0,"State":1.0,"County":1.0,"City":1.0,"Street":[1.0],"PostalCode":1.0},"Location":{"LocationId":"NT_ht0DF-kv2dNZvVNV0K0GZC_l_542544741_R","LocationType":"point","DisplayPosition":{"Latitude":45.38721,"Longitude":5.73726},"MapView":{"TopLeft":{"Latitude":45.38737,"Longitude":5.73718},"BottomRight":{"Latitude":45.38721,"Longitude":5.73726}},"Address":{"Label":"Chemin des Martins, 38380 Saint-Laurent-du-Pont, France","Country":"FRA","State":"Auvergne-Rhône-Alpes","County":"Isère","City":"Saint-Laurent-du-Pont","Street":"Chemin des Martins","PostalCode":"38380","AdditionalData":[{"value":"France","key":"CountryName"},{"value":"Auvergne-Rhône-Alpes","key":"StateName"},{"value":"Isère","key":"CountyName"}]},"MapReference":{"ReferenceId":"542544741","Spot":0.0,"SideOfStreet":"right","CountryId":"20000001","StateId":"20006029","CountyId":"20050216","CityId":"20051386"}}},{"Relevance":1.0,"Distance":76.7,"MatchLevel":"street","MatchQuality":{"Country":1.0,"State":1.0,"County":1.0,"City":1.0,"Street":[1.0],"PostalCode":1.0},"Location":{"LocationId":"NT_PRT65xrH8EbY61n-8yRsAC_l_542544551_R","LocationType":"point","DisplayPosition":{"Latitude":45.38737,"Longitude":5.73718},"MapView":{"TopLeft":{"Latitude":45.38737,"Longitude":5.73711},"BottomRight":{"Latitude":45.3873,"Longitude":5.73718}},"Address":{"Label":"Avenue Jean Jaurès, 38380 Saint-Laurent-du-Pont, France","Country":"FRA","State":"Auvergne-Rhône-Alpes","County":"Isère","City":"Saint-Laurent-du-Pont","Street":"Avenue Jean Jaurès","PostalCode":"38380","AdditionalData":[{"value":"France","key":"CountryName"},{"value":"Auvergne-Rhône-Alpes","key":"StateName"},{"value":"Isère","key":"CountyName"}]},"MapReference":{"ReferenceId":"542544551","Spot":1.0,"SideOfStreet":"right","CountryId":"20000001","StateId":"20006029","CountyId":"20050216","CityId":"20051386"}}},{"Relevance":1.0,"Distance":95.2,"MatchLevel":"houseNumber","MatchQuality":{"Country":1.0,"State":1.0,"County":1.0,"City":1.0,"Street":[1.0],"HouseNumber":1.0,"PostalCode":1.0},"MatchType":"interpolated","Location":{"LocationId":"NT_ht0DF-kv2dNZvVNV0K0GZC_ygDM","LocationType":"point","DisplayPosition":{"Latitude":45.38803,"Longitude":5.73854},"MapView":{"TopLeft":{"Latitude":45.3891542,"Longitude":5.7369393},"BottomRight":{"Latitude":45.3869058,"Longitude":5.7401407}},"Address":{"Label":"280 Chemin des Martins, 38380 Saint-Laurent-du-Pont, France","Country":"FRA","State":"Auvergne-Rhône-Alpes","County":"Isère","City":"Saint-Laurent-du-Pont","Street":"Chemin des Martins","HouseNumber":"280","PostalCode":"38380","AdditionalData":[{"value":"France","key":"CountryName"},{"value":"Auvergne-Rhône-Alpes","key":"StateName"},{"value":"Isère","key":"CountyName"}]},"MapReference":{"ReferenceId":"542544745","Spot":0.31,"SideOfStreet":"left","CountryId":"20000001","StateId":"20006029","CountyId":"20050216","CityId":"20051386","AddressId":"319841583","RoadLinkId":"539194391"}}},{"Relevance":1.0,"Distance":99.7,"MatchLevel":"houseNumber","MatchQuality":{"Country":1.0,"State":1.0,"County":1.0,"City":1.0,"Street":[1.0],"HouseNumber":1.0,"PostalCode":1.0},"MatchType":"interpolated","Location":{"LocationId":"NT_yTJJRcu5jnyY9-u24XOzfD_yAzN","LocationType":"point","DisplayPosition":{"Latitude":45.38721,"Longitude":5.73941},"MapView":{"TopLeft":{"Latitude":45.3883342,"Longitude":5.7378094},"BottomRight":{"Latitude":45.3860858,"Longitude":5.7410106}},"Address":{"Label":"207 Chemin du Souvenir Français, 38380 Saint-Laurent-du-Pont, France","Country":"FRA","State":"Auvergne-Rhône-Alpes","County":"Isère","City":"Saint-Laurent-du-Pont","Street":"Chemin du Souvenir Français","HouseNumber":"207","PostalCode":"38380","AdditionalData":[{"value":"France","key":"CountryName"},{"value":"Auvergne-Rhône-Alpes","key":"StateName"},{"value":"Isère","key":"CountyName"}]},"MapReference":{"ReferenceId":"542545066","Spot":0.53,"SideOfStreet":"right","CountryId":"20000001","StateId":"20006029","CountyId":"20050216","CityId":"20051386","AddressId":"573736404","RoadLinkId":"319338489"}}}]}]}}