{"Response":{"MetaInfo":{"Timestamp":"2020-03-28T11:51:43.262+0000","NextPageInformation":"2"},"View":[{"_type":"SearchResultsViewType","ViewId":0,"Result":[{"Relevance":1.0,"Distance":0.0,"Direction":0.0,"MatchLevel":"city","MatchQuality":{"Country":1.0,"State":1.0,"County":1.0,"City":1.0,"PostalCode":1.0},"Location":{"LocationId":"NT_ks8ceZZagzM6tAoVQW6ZcC","LocationType":"point","DisplayPosition":{"Latitude":45.389317,"Longitude":4.782583},"MapView":{"TopLeft":{"Latitude":45.41025,"Longitude":4.74478},"BottomRight":{"Latitude":45.37146,"Longitude":4.80988}},"Address":{"Label":"Saint-Maurice-l'Exil, Auvergne-Rhône-Alpes, France","Country":"FRA","State":"Auvergne-Rhône-Alpes","County":"Isère","City":"Saint-Maurice-l'Exil","PostalCode":"38550","AdditionalData":[{"value":"France","key":"CountryName"},{"value":"Auvergne-Rhône-Alpes","key":"StateName"},{"value":"Isère","key":"CountyName"}]},"MapReference":{"ReferenceId":"847455142","SideOfStreet":"neither","CountryId":"20000001","StateId":"20006029","CountyId":"20050216","CityId":"20051425"}}},{"Relevance":1.0,"Distance":14.0,"MatchLevel":"houseNumber","MatchQuality":{"Country":1.0,"State":1.0,"County":1.0,"City":1.0,"Street":[1.0],"HouseNumber":1.0,"PostalCode":1.0},"MatchType":"interpolated","Location":{"LocationId":"NT_sS1o7UrcOnpaCEFkZTs2.A_0ID","LocationType":"point","DisplayPosition":{"Latitude":45.38935,"Longitude":4.78241},"MapView":{"TopLeft":{"Latitude":45.3904742,"Longitude":4.7808093},"BottomRight":{"Latitude":45.3882258,"Longitude":4.7840107}},"Address":{"Label":"42 Rue Jules Guesde, 38550 Saint-Maurice-l'Exil, France","Country":"FRA","State":"Auvergne-Rhône-Alpes","County":"Isère","City":"Saint-Maurice-l'Exil","Street":"Rue Jules Guesde","HouseNumber":"42","PostalCode":"38550","AdditionalData":[{"value":"France","key":"CountryName"},{"value":"Auvergne-Rhône-Alpes","key":"StateName"},{"value":"Isère","key":"CountyName"}]},"MapReference":{"ReferenceId":"68238141","Spot":0.61,"SideOfStreet":"left","CountryId":"20000001","StateId":"20006029","CountyId":"20050216","CityId":"20051425","AddressId":"319483434","RoadLinkId":"45946983"}}},{"Relevance":1.0,"Distance":35.8,"MatchLevel":"houseNumber","MatchQuality":{"Country":1.0,"State":1.0,"County":1.0,"City":1.0,"Street":[1.0],"HouseNumber":1.0,"PostalCode":1.0},"MatchType":"interpolated","Location":{"LocationId":"NT_OHs42IK-0XPw.qMvysXvMA_yA","LocationType":"point","DisplayPosition":{"Latitude":45.38905,"Longitude":4.78284},"MapView":{"TopLeft":{"Latitude":45.3901742,"Longitude":4.7812393},"BottomRight":{"Latitude":45.3879258,"Longitude":4.7844407}},"Address":{"Label":"2 Avenue des Écoles, 38550 Saint-Maurice-l'Exil, France","Country":"FRA","State":"Auvergne-Rhône-Alpes","County":"Isère","City":"Saint-Maurice-l'Exil","Street":"Avenue des Écoles","HouseNumber":"2","PostalCode":"38550","AdditionalData":[{"value":"France","key":"CountryName"},{"value":"Auvergne-Rhône-Alpes","key":"StateName"},{"value":"Isère","key":"CountyName"}]},"MapReference":{"ReferenceId":"68248344","Spot":0.25,"SideOfStreet":"left","CountryId":"20000001","StateId":"20006029","CountyId":"20050216","CityId":"20051425","AddressId":"319826254","RoadLinkId":"46121146"}}},{"Relevance":1.0,"Distance":36.4,"MatchLevel":"houseNumber","MatchQuality":{"Country":1.0,"State":1.0,"County":1.0,"City":1.0,"Street":[1.0],"HouseNumber":1.0,"PostalCode":1.0},"MatchType":"interpolated","Location":{"LocationId":"NT_sS1o7UrcOnpaCEFkZTs2.A_zYjQ","LocationType":"point","DisplayPosition":{"Latitude":45.38899,"Longitude":4.78257},"MapView":{"TopLeft":{"Latitude":45.3901142,"Longitude":4.7809693},"BottomRight":{"Latitude":45.3878658,"Longitude":4.7841707}},"Address":{"Label":"36B Rue Jules Guesde, 38550 Saint-Maurice-l'Exil, France","Country":"FRA","State":"Auvergne-Rhône-Alpes","County":"Isère","City":"Saint-Maurice-l'Exil","Street":"Rue Jules Guesde","HouseNumber":"36B","PostalCode":"38550","AdditionalData":[{"value":"France","key":"CountryName"},{"value":"Auvergne-Rhône-Alpes","key":"StateName"},{"value":"Isère","key":"CountyName"}]},"MapReference":{"ReferenceId":"792433170","Spot":1.0,"SideOfStreet":"left","CountryId":"20000001","StateId":"20006029","CountyId":"20050216","CityId":"20051425","AddressId":"363744202","RoadLinkId":"184581703"}}},{"Relevance":1.0,"Distance":63.3,"MatchLevel":"houseNumber","MatchQuality":{"Country":1.0,"State":1.0,"County":1.0,"City":1.0,"Street":[1.0],"HouseNumber":1.0,"PostalCode":1.0},"MatchType":"interpolated","Location":{"LocationId":"NT_sS1o7UrcOnpaCEFkZTs2.A_0UD","LocationType":"point","DisplayPosition":{"Latitude":45.38984,"Longitude":4.78234},"MapView":{"TopLeft":{"Latitude":45.3909642,"Longitude":4.7807393},"BottomRight":{"Latitude":45.3887158,"Longitude":4.7839407}},"Address":{"Label":"45 Rue Jules Guesde, 38550 Saint-Maurice-l'Exil, France","Country":"FRA","State":"Auvergne-Rhône-Alpes","County":"Isère","City":"Saint-Maurice-l'Exil","Street":"Rue Jules Guesde","HouseNumber":"45","PostalCode":"38550","AdditionalData":[{"value":"France","key":"CountryName"},{"value":"Auvergne-Rhône-Alpes","key":"StateName"},{"value":"Isère","key":"CountyName"}]},"MapReference":{"ReferenceId":"68239055","Spot":0.65,"SideOfStreet":"right","CountryId":"20000001","StateId":"20006029","CountyId":"20050216","CityId":"20051425","AddressId":"319999281","RoadLinkId":"45701789"}}},{"Relevance":1.0,"Distance":67.4,"MatchLevel":"houseNumber","MatchQuality":{"Country":1.0,"State":1.0,"County":1.0,"City":1.0,"Street":[1.0],"HouseNumber":1.0,"PostalCode":1.0},"MatchType":"interpolated","Location":{"LocationId":"NT_5dlUvQYZiobqi.7W6FC8bD_yA","LocationType":"point","DisplayPosition":{"Latitude":45.38952,"Longitude":4.78169},"MapView":{"TopLeft":{"Latitude":45.3906442,"Longitude":4.7800893},"BottomRight":{"Latitude":45.3883958,"Longitude":4.7832907}},"Address":{"Label":"2 Rue Pottier et Clément, 38550 Saint-Maurice-l'Exil, France","Country":"FRA","State":"Auvergne-Rhône-Alpes","County":"Isère","City":"Saint-Maurice-l'Exil","Street":"Rue Pottier et Clément","HouseNumber":"2","PostalCode":"38550","AdditionalData":[{"value":"France","key":"CountryName"},{"value":"Auvergne-Rhône-Alpes","key":"StateName"},{"value":"Isère","key":"CountyName"}]},"MapReference":{"ReferenceId":"831930339","Spot":0.41,"SideOfStreet":"right","CountryId":"20000001","StateId":"20006029","CountyId":"20050216","CityId":"20051425","AddressId":"319741470","RoadLinkId":"215319857"}}},{"Relevance":1.0,"Distance":75.3,"MatchLevel":"street","MatchQuality":{"Country":1.0,"State":1.0,"County":1.0,"City":1.0,"Street":[1.0],"PostalCode":1.0},"Location":{"LocationId":"NT_eQjntFW7PHHGx5Oa.Lu.jC_l_68248333_L","LocationType":"point","DisplayPosition":{"Latitude":45.38997,"Longitude":4.78233},"MapView":{"TopLeft":{"Latitude":45.39033,"Longitude":4.78233},"BottomRight":{"Latitude":45.38993,"Longitude":4.7872}},"Address":{"Label":"Chemin de Buissard, 38550 Saint-Maurice-l'Exil, France","Country":"FRA","State":"Auvergne-Rhône-Alpes","County":"Isère","City":"Saint-Maurice-l'Exil","Street":"Chemin de Buissard","PostalCode":"38550","AdditionalData":[{"value":"France","key":"CountryName"},{"value":"Auvergne-Rhône-Alpes","key":"StateName"},{"value":"Isère","key":"CountyName"}]},"MapReference":{"ReferenceId":"68248333","Spot":1.0,"SideOfStreet":"left","CountryId":"20000001","StateId":"20006029","CountyId":"20050216","CityId":"20051425"}}},{"Relevance":1.0,"Distance":77.7,"MatchLevel":"houseNumber","MatchQuality":{"Country":1.0,"State":1.0,"County":1.0,"City":1.0,"Street":[1.0],"HouseNumber":1.0,"PostalCode":1.0},"MatchType":"interpolated","Location":{"LocationId":"NT_nKtiU5GRt3s9E7S3HPlC7C_yA","LocationType":"point","DisplayPosition":{"Latitude":45.38978,"Longitude":4.78338},"MapView":{"TopLeft":{"Latitude":45.3909042,"Longitude":4.7817793},"BottomRight":{"Latitude":45.3886558,"Longitude":4.7849807}},"Address":{"Label":"2 Rue Albert Camus, 38550 Saint-Maurice-l'Exil, France","Country":"FRA","State":"Auvergne-Rhône-Alpes","County":"Isère","City":"Saint-Maurice-l'Exil","Street":"Rue Albert Camus","HouseNumber":"2","PostalCode":"38550","AdditionalData":[{"value":"France","key":"CountryName"},{"value":"Auvergne-Rhône-Alpes","key":"StateName"},{"value":"Isère","key":"CountyName"}]},"MapReference":{"ReferenceId":"68248342","Spot":0.79,"SideOfStreet":"left","CountryId":"20000001","StateId":"20006029","CountyId":"20050216","CityId":"20051425","AddressId":"379898166","RoadLinkId":"45592200"}}},{"Relevance":1.0,"Distance":87.3,"MatchLevel":"houseNumber","MatchQuality":{"Country":1.0,"State":1.0,"County":1.0,"City":1.0,"Street":[1.0],"HouseNumber":1.0,"PostalCode":1.0},"MatchType":"interpolated","Location":{"LocationId":"NT_sS1o7UrcOnpaCEFkZTs2.A_0QjQ","LocationType":"point","DisplayPosition":{"Latitude":45.39008,"Longitude":4.78232},"MapView":{"TopLeft":{"Latitude":45.3912042,"Longitude":4.7807193},"BottomRight":{"Latitude":45.3889558,"Longitude":4.7839207}},"Address":{"Label":"44B Rue Jules Guesde, 38550 Saint-Maurice-l'Exil, France","Country":"FRA","State":"Auvergne-Rhône-Alpes","County":"Isère","City":"Saint-Maurice-l'Exil","Street":"Rue Jules Guesde","HouseNumber":"44B","PostalCode":"38550","AdditionalData":[{"value":"France","key":"CountryName"},{"value":"Auvergne-Rhône-Alpes","key":"StateName"},{"value":"Isère","key":"CountyName"}]},"MapReference":{"ReferenceId":"68239054","Spot":0.04,"SideOfStreet":"left","CountryId":"20000001","StateId":"20006029","CountyId":"20050216","CityId":"20051425","AddressId":"627346344","RoadLinkId":"45294339"}}},{"Relevance":1.0,"Distance":89.6,"MatchLevel":"houseNumber","MatchQuality":{"Country":1.0,"State":1.0,"County":1.0,"City":1.0,"Street":[1.0],"HouseNumber":1.0,"PostalCode":1.0},"MatchType":"interpolated","Location":{"LocationId":"NT_sS1o7UrcOnpaCEFkZTs2.A_zkD","LocationType":"point","DisplayPosition":{"Latitude":45.38852,"Longitude":4.78275},"MapView":{"TopLeft":{"Latitude":45.3896442,"Longitude":4.7811493},"BottomRight":{"Latitude":45.3873958,"Longitude":4.7843507}},"Address":{"Label":"39 Rue Jules Guesde, 38550 Saint-Maurice-l'Exil, France","Country":"FRA","State":"Auvergne-Rhône-Alpes","County":"Isère","City":"Saint-Maurice-l'Exil","Street":"Rue Jules Guesde","HouseNumber":"39","PostalCode":"38550","AdditionalData":[{"value":"France","key":"CountryName"},{"value":"Auvergne-Rhône-Alpes","key":"StateName"},{"value":"Isère","key":"CountyName"}]},"MapReference":{"ReferenceId":"792433169","Spot":0.42,"SideOfStreet":"right","CountryId":"20000001","StateId":"20006029","CountyId":"20050216","CityId":"20051425","AddressId":"319464188","RoadLinkId":"184581702"}}}]}]}}