{"Response":{"MetaInfo":{"Timestamp":"2020-03-28T11:14:57.905+0000","NextPageInformation":"2"},"View":[{"_type":"SearchResultsViewType","ViewId":0,"Result":[{"Relevance":1.0,"Distance":0.0,"Direction":0.0,"MatchLevel":"city","MatchQuality":{"Country":1.0,"State":1.0,"County":1.0,"City":1.0,"PostalCode":1.0},"Location":{"LocationId":"NT_Ndr7wvCfm8WDO4wd635cEB","LocationType":"point","DisplayPosition":{"Latitude":45.3274537,"Longitude":3.8402977},"MapView":{"TopLeft":{"Latitude":45.37037,"Longitude":3.81156},"BottomRight":{"Latitude":45.29581,"Longitude":3.9028}},"Address":{"Label":"Craponne-sur-Arzon, Auvergne-Rhône-Alpes, France","Country":"FRA","State":"Auvergne-Rhône-Alpes","County":"Haute-Loire","City":"Craponne-sur-Arzon","PostalCode":"43500","AdditionalData":[{"value":"France","key":"CountryName"},{"value":"Auvergne-Rhône-Alpes","key":"StateName"},{"value":"Haute-Loire","key":"CountyName"}]},"MapReference":{"ReferenceId":"582781895","SideOfStreet":"neither","CountryId":"20000001","StateId":"20006029","CountyId":"20052815","CityId":"20100104"}}},{"Relevance":1.0,"Distance":5.6,"MatchLevel":"street","MatchQuality":{"Country":1.0,"State":1.0,"County":1.0,"City":1.0,"Street":[1.0],"PostalCode":1.0},"Location":{"LocationId":"NT_RkGTDbLX4aEQ64D10gSFVA_l_546947195_L","LocationType":"point","DisplayPosition":{"Latitude":45.3274039,"Longitude":3.840309},"MapView":{"TopLeft":{"Latitude":45.32766,"Longitude":3.84003},"BottomRight":{"Latitude":45.32735,"Longitude":3.84117}},"Address":{"Label":"Rue de la Ratille, 43500 Craponne-sur-Arzon, France","Country":"FRA","State":"Auvergne-Rhône-Alpes","County":"Haute-Loire","City":"Craponne-sur-Arzon","Street":"Rue de la Ratille","PostalCode":"43500","AdditionalData":[{"value":"France","key":"CountryName"},{"value":"Auvergne-Rhône-Alpes","key":"StateName"},{"value":"Haute-Loire","key":"CountyName"}]},"MapReference":{"ReferenceId":"546947195","Spot":0.24,"SideOfStreet":"left","CountryId":"20000001","StateId":"20006029","CountyId":"20052815","CityId":"20100104"}}},{"Relevance":1.0,"Distance":23.9,"MatchLevel":"street","MatchQuality":{"Country":1.0,"State":1.0,"County":1.0,"City":1.0,"Street":[1.0],"PostalCode":1.0},"Location":{"LocationId":"NT_RkGTDbLX4aEQ64D10gSFVA_l_546947193_L","LocationType":"point","DisplayPosition":{"Latitude":45.32735,"Longitude":3.84003},"MapView":{"TopLeft":{"Latitude":45.32735,"Longitude":3.83944},"BottomRight":{"Latitude":45.32723,"Longitude":3.84003}},"Address":{"Label":"Rue de la Ratille, 43500 Craponne-sur-Arzon, France","Country":"FRA","State":"Auvergne-Rhône-Alpes","County":"Haute-Loire","City":"Craponne-sur-Arzon","Street":"Rue de la Ratille","PostalCode":"43500","AdditionalData":[{"value":"France","key":"CountryName"},{"value":"Auvergne-Rhône-Alpes","key":"StateName"},{"value":"Haute-Loire","key":"CountyName"}]},"MapReference":{"ReferenceId":"546947193","Spot":1.0,"SideOfStreet":"left","CountryId":"20000001","StateId":"20006029","CountyId":"20052815","CityId":"20100104"}}},{"Relevance":1.0,"Distance":33.2,"MatchLevel":"houseNumber","MatchQuality":{"Country":1.0,"State":1.0,"County":1.0,"City":1.0,"Street":[1.0],"HouseNumber":1.0,"PostalCode":1.0},"MatchType":"interpolated","Location":{"LocationId":"NT_QpBHv6m7doVbPM62I2EojB_4A","LocationType":"point","DisplayPosition":{"Latitude":45.32714,"Longitude":3.84014},"MapView":{"TopLeft":{"Latitude":45.3282642,"Longitude":3.8385411},"BottomRight":{"Latitude":45.3260158,"Longitude":3.8417389}},"Address":{"Label":"8 Rue des Chalmettes, 43500 Craponne-sur-Arzon, France","Country":"FRA","State":"Auvergne-Rhône-Alpes","County":"Haute-Loire","City":"Craponne-sur-Arzon","Street":"Rue des Chalmettes","HouseNumber":"8","PostalCode":"43500","AdditionalData":[{"value":"France","key":"CountryName"},{"value":"Auvergne-Rhône-Alpes","key":"StateName"},{"value":"Haute-Loire","key":"CountyName"}]},"MapReference":{"ReferenceId":"584902621","Spot":0.42,"SideOfStreet":"right","CountryId":"20000001","StateId":"20006029","CountyId":"20052815","CityId":"20100104","AddressId":"360284849","RoadLinkId":"52973715"}}},{"Relevance":1.0,"Distance":56.1,"MatchLevel":"houseNumber","MatchQuality":{"Country":1.0,"State":1.0,"County":1.0,"City":1.0,"Street":[1.0],"HouseNumber":1.0,"PostalCode":1.0},"MatchType":"interpolated","Location":{"LocationId":"NT_QpBHv6m7doVbPM62I2EojB_2A","LocationType":"point","DisplayPosition":{"Latitude":45.32693,"Longitude":3.84025},"MapView":{"TopLeft":{"Latitude":45.3280542,"Longitude":3.8386511},"BottomRight":{"Latitude":45.3258058,"Longitude":3.8418489}},"Address":{"Label":"6 Rue des Chalmettes, 43500 Craponne-sur-Arzon, France","Country":"FRA","State":"Auvergne-Rhône-Alpes","County":"Haute-Loire","City":"Craponne-sur-Arzon","Street":"Rue des Chalmettes","HouseNumber":"6","PostalCode":"43500","AdditionalData":[{"value":"France","key":"CountryName"},{"value":"Auvergne-Rhône-Alpes","key":"StateName"},{"value":"Haute-Loire","key":"CountyName"}]},"MapReference":{"ReferenceId":"584902620","Spot":0.95,"SideOfStreet":"right","CountryId":"20000001","StateId":"20006029","CountyId":"20052815","CityId":"20100104","AddressId":"360265934","RoadLinkId":"53405736"}}},{"Relevance":1.0,"Distance":71.5,"MatchLevel":"street","MatchQuality":{"Country":1.0,"State":1.0,"County":1.0,"City":1.0,"Street":[1.0],"PostalCode":1.0},"Location":{"LocationId":"NT_RkGTDbLX4aEQ64D10gSFVA_l_582783364_R","LocationType":"point","DisplayPosition":{"Latitude":45.32723,"Longitude":3.83944},"MapView":{"TopLeft":{"Latitude":45.32776,"Longitude":3.83925},"BottomRight":{"Latitude":45.32723,"Longitude":3.83944}},"Address":{"Label":"Rue de la Ratille, 43500 Craponne-sur-Arzon, France","Country":"FRA","State":"Auvergne-Rhône-Alpes","County":"Haute-Loire","City":"Craponne-sur-Arzon","Street":"Rue de la Ratille","PostalCode":"43500","AdditionalData":[{"value":"France","key":"CountryName"},{"value":"Auvergne-Rhône-Alpes","key":"StateName"},{"value":"Haute-Loire","key":"CountyName"}]},"MapReference":{"ReferenceId":"582783364","Spot":0.0,"SideOfStreet":"right","CountryId":"20000001","StateId":"20006029","CountyId":"20052815","CityId":"20100104"}}},{"Relevance":1.0,"Distance":71.5,"MatchLevel":"street","MatchQuality":{"Country":1.0,"State":1.0,"County":1.0,"City":1.0,"Street":[1.0],"PostalCode":1.0},"Location":{"LocationId":"NT_RkGTDbLX4aEQ64D10gSFVA_l_582783366_L","LocationType":"point","DisplayPosition":{"Latitude":45.32723,"Longitude":3.83944},"MapView":{"TopLeft":{"Latitude":45.32723,"Longitude":3.83878},"BottomRight":{"Latitude":45.32697,"Longitude":3.83944}},"Address":{"Label":"Rue de la Ratille, 43500 Craponne-sur-Arzon, France","Country":"FRA","State":"Auvergne-Rhône-Alpes","County":"Haute-Loire","City":"Craponne-sur-Arzon","Street":"Rue de la Ratille","PostalCode":"43500","AdditionalData":[{"value":"France","key":"CountryName"},{"value":"Auvergne-Rhône-Alpes","key":"StateName"},{"value":"Haute-Loire","key":"CountyName"}]},"MapReference":{"ReferenceId":"582783366","Spot":1.0,"SideOfStreet":"left","CountryId":"20000001","StateId":"20006029","CountyId":"20052815","CityId":"20100104"}}},{"Relevance":1.0,"Distance":71.9,"MatchLevel":"street","MatchQuality":{"Country":1.0,"State":1.0,"County":1.0,"City":1.0,"Street":[1.0],"PostalCode":1.0},"Location":{"LocationId":"NT_RkGTDbLX4aEQ64D10gSFVA_l_582783311_L","LocationType":"point","DisplayPosition":{"Latitude":45.32766,"Longitude":3.84117},"MapView":{"TopLeft":{"Latitude":45.32813,"Longitude":3.84117},"BottomRight":{"Latitude":45.32766,"Longitude":3.8423}},"Address":{"Label":"Rue de la Ratille, 43500 Craponne-sur-Arzon, France","Country":"FRA","State":"Auvergne-Rhône-Alpes","County":"Haute-Loire","City":"Craponne-sur-Arzon","Street":"Rue de la Ratille","PostalCode":"43500","AdditionalData":[{"value":"France","key":"CountryName"},{"value":"Auvergne-Rhône-Alpes","key":"StateName"},{"value":"Haute-Loire","key":"CountyName"}]},"MapReference":{"ReferenceId":"582783311","Spot":0.0,"SideOfStreet":"left","CountryId":"20000001","StateId":"20006029","CountyId":"20052815","CityId":"20100104"}}},{"Relevance":1.0,"Distance":130.3,"MatchLevel":"street","MatchQuality":{"Country":1.0,"State":1.0,"County":1.0,"City":1.0,"Street":[1.0],"PostalCode":1.0},"Location":{"LocationId":"NT_RkGTDbLX4aEQ64D10gSFVA_l_582783365_R","LocationType":"point","DisplayPosition":{"Latitude":45.32697,"Longitude":3.83878},"MapView":{"TopLeft":{"Latitude":45.32697,"Longitude":3.83755},"BottomRight":{"Latitude":45.32632,"Longitude":3.83878}},"Address":{"Label":"Rue de la Ratille, 43500 Craponne-sur-Arzon, France","Country":"FRA","State":"Auvergne-Rhône-Alpes","County":"Haute-Loire","City":"Craponne-sur-Arzon","Street":"Rue de la Ratille","PostalCode":"43500","AdditionalData":[{"value":"France","key":"CountryName"},{"value":"Auvergne-Rhône-Alpes","key":"StateName"},{"value":"Haute-Loire","key":"CountyName"}]},"MapReference":{"ReferenceId":"582783365","Spot":1.0,"SideOfStreet":"right","CountryId":"20000001","StateId":"20006029","CountyId":"20052815","CityId":"20100104"}}},{"Relevance":1.0,"Distance":135.2,"MatchLevel":"houseNumber","MatchQuality":{"Country":1.0,"State":1.0,"County":1.0,"City":1.0,"Street":[1.0],"HouseNumber":1.0,"PostalCode":1.0},"MatchType":"interpolated","Location":{"LocationId":"NT_8WKWuWBYYWGziPE4l-HTdB_1A","LocationType":"point","DisplayPosition":{"Latitude":45.32664,"Longitude":3.83888},"MapView":{"TopLeft":{"Latitude":45.3277642,"Longitude":3.8372811},"BottomRight":{"Latitude":45.3255158,"Longitude":3.8404789}},"Address":{"Label":"5 Lieu-dit Le Grand Garay, 43500 Craponne-sur-Arzon, France","Country":"FRA","State":"Auvergne-Rhône-Alpes","County":"Haute-Loire","City":"Craponne-sur-Arzon","Street":"Lieu-dit Le Grand Garay","HouseNumber":"5","PostalCode":"43500","AdditionalData":[{"value":"France","key":"CountryName"},{"value":"Auvergne-Rhône-Alpes","key":"StateName"},{"value":"Haute-Loire","key":"CountyName"}]},"MapReference":{"ReferenceId":"582783367","Spot":0.64,"SideOfStreet":"right","CountryId":"20000001","StateId":"20006029","CountyId":"20052815","CityId":"20100104","AddressId":"379106478","RoadLinkId":"52681062"}}}]}]}}