{"Response":{"MetaInfo":{"Timestamp":"2020-03-28T11:24:53.269+0000","NextPageInformation":"2"},"View":[{"_type":"SearchResultsViewType","ViewId":0,"Result":[{"Relevance":1.0,"Distance":0.0,"Direction":0.0,"MatchLevel":"city","MatchQuality":{"Country":1.0,"State":1.0,"County":1.0,"City":1.0,"PostalCode":1.0},"Location":{"LocationId":"NT_O2FLN96ilnUMq9cSn3Hn9A","LocationType":"point","DisplayPosition":{"Latitude":45.3489569,"Longitude":10.8392614},"MapView":{"TopLeft":{"Latitude":45.4056,"Longitude":10.7666},"BottomRight":{"Latitude":45.31733,"Longitude":10.94865}},"Address":{"Label":"Villafranca di Verona, Veneto, Italia","Country":"ITA","State":"Veneto","County":"VR","City":"Villafranca di Verona","PostalCode":"37069","AdditionalData":[{"value":"Italia","key":"CountryName"},{"value":"Veneto","key":"StateName"},{"value":"Verona","key":"CountyName"}]},"MapReference":{"ReferenceId":"1220999396","SideOfStreet":"neither","CountryId":"20110484","StateId":"20120537","CountyId":"20120538","CityId":"20120901"}}},{"Relevance":1.0,"Distance":7.5,"MatchLevel":"houseNumber","MatchQuality":{"Country":1.0,"State":1.0,"County":1.0,"City":1.0,"Street":[1.0],"HouseNumber":1.0,"PostalCode":1.0},"MatchType":"interpolated","Location":{"LocationId":"NT_X6mLHb7NlABlYuGRpSldRD_xA","LocationType":"point","DisplayPosition":{"Latitude":45.349,"Longitude":10.83937},"MapView":{"TopLeft":{"Latitude":45.3501242,"Longitude":10.8377704},"BottomRight":{"Latitude":45.3478758,"Longitude":10.8409696}},"Address":{"Label":"Via Muraglie, 1, 37069 Villafranca di Verona VR, Italia","Country":"ITA","State":"Veneto","County":"VR","City":"Villafranca di Verona","Street":"Via Muraglie","HouseNumber":"1","PostalCode":"37069","AdditionalData":[{"value":"Italia","key":"CountryName"},{"value":"Veneto","key":"StateName"},{"value":"Verona","key":"CountyName"}]},"MapReference":{"ReferenceId":"55367671","Spot":0.67,"SideOfStreet":"left","CountryId":"20110484","StateId":"20120537","CountyId":"20120538","CityId":"20120901","AddressId":"388032650","RoadLinkId":"58829052"}}},{"Relevance":1.0,"Distance":51.2,"MatchLevel":"street","MatchQuality":{"Country":1.0,"State":1.0,"County":1.0,"City":1.0,"Street":[1.0],"PostalCode":1.0},"Location":{"LocationId":"NT_PMqKOg8t2FCEi-YzJ7jktD_l_1199242427_L","LocationType":"point","DisplayPosition":{"Latitude":45.3494007,"Longitude":10.839434},"MapView":{"TopLeft":{"Latitude":45.34941,"Longitude":10.83941},"BottomRight":{"Latitude":45.34925,"Longitude":10.83983}},"Address":{"Label":"Via Perugia, 37069 Villafranca di Verona VR, Italia","Country":"ITA","State":"Veneto","County":"VR","City":"Villafranca di Verona","Street":"Via Perugia","PostalCode":"37069","AdditionalData":[{"value":"Italia","key":"CountryName"},{"value":"Veneto","key":"StateName"},{"value":"Verona","key":"CountyName"}]},"MapReference":{"ReferenceId":"1199242427","Spot":0.94,"SideOfStreet":"left","CountryId":"20110484","StateId":"20120537","CountyId":"20120538","CityId":"20120901"}}},{"Relevance":1.0,"Distance":51.7,"MatchLevel":"street","MatchQuality":{"Country":1.0,"State":1.0,"County":1.0,"City":1.0,"Street":[1.0],"PostalCode":1.0},"Location":{"LocationId":"NT_PMqKOg8t2FCEi-YzJ7jktD_l_1199564513_L","LocationType":"point","DisplayPosition":{"Latitude":45.34941,"Longitude":10.83941},"MapView":{"TopLeft":{"Latitude":45.34954,"Longitude":10.83906},"BottomRight":{"Latitude":45.34941,"Longitude":10.83941}},"Address":{"Label":"Via Perugia, 37069 Villafranca di Verona VR, Italia","Country":"ITA","State":"Veneto","County":"VR","City":"Villafranca di Verona","Street":"Via Perugia","PostalCode":"37069","AdditionalData":[{"value":"Italia","key":"CountryName"},{"value":"Veneto","key":"StateName"},{"value":"Verona","key":"CountyName"}]},"MapReference":{"ReferenceId":"1199564513","Spot":0.0,"SideOfStreet":"left","CountryId":"20110484","StateId":"20120537","CountyId":"20120538","CityId":"20120901"}}},{"Relevance":1.0,"Distance":55.1,"MatchLevel":"street","MatchQuality":{"Country":1.0,"State":1.0,"County":1.0,"City":1.0,"Street":[1.0],"PostalCode":1.0},"Location":{"LocationId":"NT_2.mi17cHe80L7.FIZX5p2B_l_1220999399_L","LocationType":"point","DisplayPosition":{"Latitude":45.34925,"Longitude":10.83983},"MapView":{"TopLeft":{"Latitude":45.34946,"Longitude":10.83983},"BottomRight":{"Latitude":45.34925,"Longitude":10.84002}},"Address":{"Label":"Via Aldo Rizzini, 37069 Villafranca di Verona VR, Italia","Country":"ITA","State":"Veneto","County":"VR","City":"Villafranca di Verona","Street":"Via Aldo Rizzini","PostalCode":"37069","AdditionalData":[{"value":"Italia","key":"CountryName"},{"value":"Veneto","key":"StateName"},{"value":"Verona","key":"CountyName"}]},"MapReference":{"ReferenceId":"1220999399","Spot":0.0,"SideOfStreet":"left","CountryId":"20110484","StateId":"20120537","CountyId":"20120538","CityId":"20120901"}}},{"Relevance":1.0,"Distance":55.1,"MatchLevel":"street","MatchQuality":{"Country":1.0,"State":1.0,"County":1.0,"City":1.0,"Street":[1.0],"PostalCode":1.0},"Location":{"LocationId":"NT_PMqKOg8t2FCEi-YzJ7jktD_l_1220999398_L","LocationType":"point","DisplayPosition":{"Latitude":45.34925,"Longitude":10.83983},"MapView":{"TopLeft":{"Latitude":45.34925,"Longitude":10.83983},"BottomRight":{"Latitude":45.34913,"Longitude":10.84012}},"Address":{"Label":"Via Perugia, 37069 Villafranca di Verona VR, Italia","Country":"ITA","State":"Veneto","County":"VR","City":"Villafranca di Verona","Street":"Via Perugia","PostalCode":"37069","AdditionalData":[{"value":"Italia","key":"CountryName"},{"value":"Veneto","key":"StateName"},{"value":"Verona","key":"CountyName"}]},"MapReference":{"ReferenceId":"1220999398","Spot":1.0,"SideOfStreet":"left","CountryId":"20110484","StateId":"20120537","CountyId":"20120538","CityId":"20120901"}}},{"Relevance":1.0,"Distance":66.7,"MatchLevel":"street","MatchQuality":{"Country":1.0,"State":1.0,"County":1.0,"City":1.0,"Street":[1.0],"PostalCode":1.0},"Location":{"LocationId":"NT_PMqKOg8t2FCEi-YzJ7jktD_l_1199564514_L","LocationType":"point","DisplayPosition":{"Latitude":45.34954,"Longitude":10.83906},"MapView":{"TopLeft":{"Latitude":45.34981,"Longitude":10.8383},"BottomRight":{"Latitude":45.34954,"Longitude":10.83906}},"Address":{"Label":"Via Perugia, 37069 Villafranca di Verona VR, Italia","Country":"ITA","State":"Veneto","County":"VR","City":"Villafranca di Verona","Street":"Via Perugia","PostalCode":"37069","AdditionalData":[{"value":"Italia","key":"CountryName"},{"value":"Veneto","key":"StateName"},{"value":"Verona","key":"CountyName"}]},"MapReference":{"ReferenceId":"1199564514","Spot":0.0,"SideOfStreet":"left","CountryId":"20110484","StateId":"20120537","CountyId":"20120538","CityId":"20120901"}}},{"Relevance":1.0,"Distance":68.2,"MatchLevel":"street","MatchQuality":{"Country":1.0,"State":1.0,"County":1.0,"City":1.0,"PostalCode":1.0},"Location":{"LocationId":"NT_-R4iB2fBU51LQPPIxgbyzB_l_1220999401_L","LocationType":"point","DisplayPosition":{"Latitude":45.34926,"Longitude":10.84002},"MapView":{"TopLeft":{"Latitude":45.34946,"Longitude":10.84},"BottomRight":{"Latitude":45.34913,"Longitude":10.84012}},"Address":{"Label":"37069 Villafranca di Verona VR, Italia","Country":"ITA","State":"Veneto","County":"VR","City":"Villafranca di Verona","PostalCode":"37069","AdditionalData":[{"value":"Italia","key":"CountryName"},{"value":"Veneto","key":"StateName"},{"value":"Verona","key":"CountyName"}]},"MapReference":{"ReferenceId":"1220999401","Spot":0.44,"SideOfStreet":"left","CountryId":"20110484","StateId":"20120537","CountyId":"20120538","CityId":"20120901"}}},{"Relevance":1.0,"Distance":70.7,"MatchLevel":"houseNumber","MatchQuality":{"Country":1.0,"State":1.0,"County":1.0,"City":1.0,"Street":[1.0],"HouseNumber":1.0,"PostalCode":1.0},"MatchType":"interpolated","Location":{"LocationId":"NT_q9PqIClouwm49Rgjjlo7QA_xA","LocationType":"point","DisplayPosition":{"Latitude":45.34912,"Longitude":10.83834},"MapView":{"TopLeft":{"Latitude":45.3502442,"Longitude":10.8367404},"BottomRight":{"Latitude":45.3479958,"Longitude":10.8399396}},"Address":{"Label":"Via Giuseppe Zuliani, 1, 37069 Villafranca di Verona VR, Italia","Country":"ITA","State":"Veneto","County":"VR","City":"Villafranca di Verona","Street":"Via Giuseppe Zuliani","HouseNumber":"1","PostalCode":"37069","AdditionalData":[{"value":"Italia","key":"CountryName"},{"value":"Veneto","key":"StateName"},{"value":"Verona","key":"CountyName"}]},"MapReference":{"ReferenceId":"55367620","Spot":0.47,"SideOfStreet":"right","CountryId":"20110484","StateId":"20120537","CountyId":"20120538","CityId":"20120901","AddressId":"388028019","RoadLinkId":"59076841"}}},{"Relevance":1.0,"Distance":75.2,"MatchLevel":"houseNumber","MatchQuality":{"Country":1.0,"State":1.0,"County":1.0,"City":1.0,"Street":[1.0],"HouseNumber":1.0,"PostalCode":1.0},"MatchType":"interpolated","Location":{"LocationId":"NT_PMqKOg8t2FCEi-YzJ7jktD_xA","LocationType":"point","DisplayPosition":{"Latitude":45.34906,"Longitude":10.84026},"MapView":{"TopLeft":{"Latitude":45.3501842,"Longitude":10.8386604},"BottomRight":{"Latitude":45.3479358,"Longitude":10.8418596}},"Address":{"Label":"Via Perugia, 1, 37069 Villafranca di Verona VR, Italia","Country":"ITA","State":"Veneto","County":"VR","City":"Villafranca di Verona","Street":"Via Perugia","HouseNumber":"1","PostalCode":"37069","AdditionalData":[{"value":"Italia","key":"CountryName"},{"value":"Veneto","key":"StateName"},{"value":"Verona","key":"CountyName"}]},"MapReference":{"ReferenceId":"1220999397","Spot":0.13,"SideOfStreet":"left","CountryId":"20110484","StateId":"20120537","CountyId":"20120538","CityId":"20120901","AddressId":"583561204","RoadLinkId":"538311841"}}}]}]}}