{"Response":{"MetaInfo":{"Timestamp":"2020-03-28T11:35:08.309+0000","NextPageInformation":"2"},"View":[{"_type":"SearchResultsViewType","ViewId":0,"Result":[{"Relevance":1.0,"Distance":0.0,"Direction":0.0,"MatchLevel":"district","MatchQuality":{"Country":1.0,"County":1.0,"City":1.0,"District":1.0,"PostalCode":1.0},"Location":{"LocationId":"NT_Vh1G-deMcd1lJAskBKQRPA","LocationType":"point","DisplayPosition":{"Latitude":45.3425876,"Longitude":24.2455709},"MapView":{"TopLeft":{"Latitude":45.34868,"Longitude":24.21969},"BottomRight":{"Latitude":45.32804,"Longitude":24.27927}},"Address":{"Label":"Brezoi, România","Country":"ROU","County":"Vâlcea","City":"Brezoi","District":"Brezoi","PostalCode":"245500","AdditionalData":[{"value":"România","key":"CountryName"},{"value":"Vâlcea","key":"CountyName"}]},"MapReference":{"ReferenceId":"947237774","SideOfStreet":"neither","CountryId":"20656215","CountyId":"20663330","CityId":"23770606","DistrictId":"23772640"}}},{"Relevance":1.0,"Distance":32.5,"MatchLevel":"street","MatchQuality":{"Country":1.0,"County":1.0,"City":1.0,"District":1.0,"PostalCode":1.0},"Location":{"LocationId":"NT_iUOJ35KzDHJWQErRVJ9eIB_l_917396705_R","LocationType":"point","DisplayPosition":{"Latitude":45.34281,"Longitude":24.24584},"MapView":{"TopLeft":{"Latitude":45.34303,"Longitude":24.24584},"BottomRight":{"Latitude":45.34281,"Longitude":24.24613}},"Address":{"Label":"245500 Brezoi, România","Country":"ROU","County":"Vâlcea","City":"Brezoi","District":"Brezoi","PostalCode":"245500","AdditionalData":[{"value":"România","key":"CountryName"},{"value":"Vâlcea","key":"CountyName"}]},"MapReference":{"ReferenceId":"917396705","Spot":0.0,"SideOfStreet":"right","CountryId":"20656215","CountyId":"20663330","CityId":"23770606","DistrictId":"23772640"}}},{"Relevance":1.0,"Distance":63.4,"MatchLevel":"houseNumber","MatchQuality":{"Country":1.0,"County":1.0,"City":1.0,"District":1.0,"Street":[1.0],"HouseNumber":1.0,"PostalCode":1.0},"MatchType":"interpolated","Location":{"LocationId":"NT_txtl-A8IRY4jk1jLYCcKwD_zA","LocationType":"point","DisplayPosition":{"Latitude":45.34317,"Longitude":24.24658},"MapView":{"TopLeft":{"Latitude":45.3442942,"Longitude":24.2449806},"BottomRight":{"Latitude":45.3420458,"Longitude":24.2481794}},"Address":{"Label":"Strada Unirii 3, 245500 Brezoi, România","Country":"ROU","County":"Vâlcea","City":"Brezoi","District":"Brezoi","Street":"Strada Unirii","HouseNumber":"3","PostalCode":"245500","AdditionalData":[{"value":"România","key":"CountryName"},{"value":"Vâlcea","key":"CountyName"}]},"MapReference":{"ReferenceId":"917375796","Spot":0.98,"SideOfStreet":"left","CountryId":"20656215","CountyId":"20663330","CityId":"23770606","DistrictId":"23772640","AddressId":"757024689","RoadLinkId":"274933637"}}},{"Relevance":1.0,"Distance":65.7,"MatchLevel":"street","MatchQuality":{"Country":1.0,"County":1.0,"City":1.0,"District":1.0,"Street":[1.0],"PostalCode":1.0},"Location":{"LocationId":"NT_QKLJGlOZUBL4Gdke25dOBB_l_949294554_L","LocationType":"point","DisplayPosition":{"Latitude":45.34223,"Longitude":24.24624},"MapView":{"TopLeft":{"Latitude":45.34223,"Longitude":24.24624},"BottomRight":{"Latitude":45.34214,"Longitude":24.2463}},"Address":{"Label":"Strada Eroilor, 245500 Brezoi, România","Country":"ROU","County":"Vâlcea","City":"Brezoi","District":"Brezoi","Street":"Strada Eroilor","PostalCode":"245500","AdditionalData":[{"value":"România","key":"CountryName"},{"value":"Vâlcea","key":"CountyName"}]},"MapReference":{"ReferenceId":"949294554","Spot":1.0,"SideOfStreet":"left","CountryId":"20656215","CountyId":"20663330","CityId":"23770606","DistrictId":"23772640"}}},{"Relevance":1.0,"Distance":65.8,"MatchLevel":"street","MatchQuality":{"Country":1.0,"County":1.0,"City":1.0,"District":1.0,"PostalCode":1.0},"Location":{"LocationId":"NT_iUOJ35KzDHJWQErRVJ9eIB_l_917375797_R","LocationType":"point","DisplayPosition":{"Latitude":45.34303,"Longitude":24.24613},"MapView":{"TopLeft":{"Latitude":45.34326,"Longitude":24.24613},"BottomRight":{"Latitude":45.34303,"Longitude":24.24642}},"Address":{"Label":"245500 Brezoi, România","Country":"ROU","County":"Vâlcea","City":"Brezoi","District":"Brezoi","PostalCode":"245500","AdditionalData":[{"value":"România","key":"CountryName"},{"value":"Vâlcea","key":"CountyName"}]},"MapReference":{"ReferenceId":"917375797","Spot":0.0,"SideOfStreet":"right","CountryId":"20656215","CountyId":"20663330","CityId":"23770606","DistrictId":"23772640"}}},{"Relevance":1.0,"Distance":69.0,"MatchLevel":"street","MatchQuality":{"Country":1.0,"County":1.0,"City":1.0,"District":1.0,"PostalCode":1.0},"Location":{"LocationId":"NT_iUOJ35KzDHJWQErRVJ9eIB_l_917396694_L","LocationType":"point","DisplayPosition":{"Latitude":45.3419799,"Longitude":24.2457468},"MapView":{"TopLeft":{"Latitude":45.34214,"Longitude":24.2454},"BottomRight":{"Latitude":45.34154,"Longitude":24.2463}},"Address":{"Label":"245500 Brezoi, România","Country":"ROU","County":"Vâlcea","City":"Brezoi","District":"Brezoi","PostalCode":"245500","AdditionalData":[{"value":"România","key":"CountryName"},{"value":"Vâlcea","key":"CountyName"}]},"MapReference":{"ReferenceId":"917396694","Spot":0.54,"SideOfStreet":"left","CountryId":"20656215","CountyId":"20663330","CityId":"23770606","DistrictId":"23772640"}}},{"Relevance":1.0,"Distance":75.7,"MatchLevel":"street","MatchQuality":{"Country":1.0,"County":1.0,"City":1.0,"District":1.0,"Street":[1.0],"PostalCode":1.0},"Location":{"LocationId":"NT_7v75VQX5xd679qtu5CpdYB_l_917358511_L","LocationType":"point","DisplayPosition":{"Latitude":45.34214,"Longitude":24.2463},"MapView":{"TopLeft":{"Latitude":45.34214,"Longitude":24.2463},"BottomRight":{"Latitude":45.34193,"Longitude":24.24644}},"Address":{"Label":"Strada Eroilor, 245500 Brezoi, România","Country":"ROU","County":"Vâlcea","City":"Brezoi","District":"Brezoi","Street":"Strada Eroilor","PostalCode":"245500","AdditionalData":[{"value":"România","key":"CountryName"},{"value":"Vâlcea","key":"CountyName"}]},"MapReference":{"ReferenceId":"917358511","Spot":1.0,"SideOfStreet":"left","CountryId":"20656215","CountyId":"20663330","CityId":"23770606","DistrictId":"23772640"}}},{"Relevance":1.0,"Distance":77.3,"MatchLevel":"houseNumber","MatchQuality":{"Country":1.0,"County":1.0,"City":1.0,"District":1.0,"Street":[1.0],"HouseNumber":1.0,"PostalCode":1.0},"MatchType":"interpolated","Location":{"LocationId":"NT_7v75VQX5xd679qtu5CpdYB_yETN","LocationType":"point","DisplayPosition":{"Latitude":45.34321,"Longitude":24.24513},"MapView":{"TopLeft":{"Latitude":45.3443342,"Longitude":24.2435306},"BottomRight":{"Latitude":45.3420858,"Longitude":24.2467294}},"Address":{"Label":"Strada Eroilor 215, 245500 Brezoi, România","Country":"ROU","County":"Vâlcea","City":"Brezoi","District":"Brezoi","Street":"Strada Eroilor","HouseNumber":"215","PostalCode":"245500","AdditionalData":[{"value":"România","key":"CountryName"},{"value":"Vâlcea","key":"CountyName"}]},"MapReference":{"ReferenceId":"949294555","Spot":0.68,"SideOfStreet":"left","CountryId":"20656215","CountyId":"20663330","CityId":"23770606","DistrictId":"23772640","AddressId":"757025190","RoadLinkId":"296301952"}}},{"Relevance":1.0,"Distance":99.8,"MatchLevel":"street","MatchQuality":{"Country":1.0,"County":1.0,"City":1.0,"District":1.0,"PostalCode":1.0},"Location":{"LocationId":"NT_iUOJ35KzDHJWQErRVJ9eIB_l_917358512_L","LocationType":"point","DisplayPosition":{"Latitude":45.34193,"Longitude":24.24644},"MapView":{"TopLeft":{"Latitude":45.34235,"Longitude":24.24644},"BottomRight":{"Latitude":45.34193,"Longitude":24.24788}},"Address":{"Label":"245500 Brezoi, România","Country":"ROU","County":"Vâlcea","City":"Brezoi","District":"Brezoi","PostalCode":"245500","AdditionalData":[{"value":"România","key":"CountryName"},{"value":"Vâlcea","key":"CountyName"}]},"MapReference":{"ReferenceId":"917358512","Spot":0.0,"SideOfStreet":"left","CountryId":"20656215","CountyId":"20663330","CityId":"23770606","DistrictId":"23772640"}}},{"Relevance":1.0,"Distance":100.0,"MatchLevel":"street","MatchQuality":{"Country":1.0,"County":1.0,"City":1.0,"District":1.0,"PostalCode":1.0},"Location":{"LocationId":"NT_iUOJ35KzDHJWQErRVJ9eIB_l_917375798_L","LocationType":"point","DisplayPosition":{"Latitude":45.34326,"Longitude":24.24642},"MapView":{"TopLeft":{"Latitude":45.34326,"Longitude":24.24642},"BottomRight":{"Latitude":45.34319,"Longitude":24.24655}},"Address":{"Label":"245500 Brezoi, România","Country":"ROU","County":"Vâlcea","City":"Brezoi","District":"Brezoi","PostalCode":"245500","AdditionalData":[{"value":"România","key":"CountryName"},{"value":"Vâlcea","key":"CountyName"}]},"MapReference":{"ReferenceId":"917375798","Spot":1.0,"SideOfStreet":"left","CountryId":"20656215","CountyId":"20663330","CityId":"23770606","DistrictId":"23772640"}}}]}]}}