{"Response":{"MetaInfo":{"Timestamp":"2020-03-28T11:52:29.787+0000","NextPageInformation":"2"},"View":[{"_type":"SearchResultsViewType","ViewId":0,"Result":[{"Relevance":1.0,"Distance":0.0,"Direction":0.0,"MatchLevel":"city","MatchQuality":{"Country":1.0,"State":1.0,"County":1.0,"City":1.0,"PostalCode":1.0},"Location":{"LocationId":"NT_QKNaeWji7B2K1.X9go9NEA","LocationType":"point","DisplayPosition":{"Latitude":45.456094,"Longitude":6.293291},"MapView":{"TopLeft":{"Latitude":45.47153,"Longitude":6.2871},"BottomRight":{"Latitude":45.42473,"Longitude":6.36564}},"Address":{"Label":"Épierre, Auvergne-Rhône-Alpes, France","Country":"FRA","State":"Auvergne-Rhône-Alpes","County":"Savoie","City":"Épierre","PostalCode":"73220","AdditionalData":[{"value":"France","key":"CountryName"},{"value":"Auvergne-Rhône-Alpes","key":"StateName"},{"value":"Savoie","key":"CountyName"}]},"MapReference":{"ReferenceId":"83819784","SideOfStreet":"neither","CountryId":"20000001","StateId":"20006029","CountyId":"20053715","CityId":"20054023"}}},{"Relevance":1.0,"Distance":5.2,"MatchLevel":"street","MatchQuality":{"Country":1.0,"State":1.0,"County":1.0,"City":1.0,"Street":[1.0],"PostalCode":1.0},"Location":{"LocationId":"NT_gJBFPWSyMZZ9BAAxDGPC7B_l_764972107_R","LocationType":"point","DisplayPosition":{"Latitude":45.4560845,"Longitude":6.2932253},"MapView":{"TopLeft":{"Latitude":45.45619,"Longitude":6.29321},"BottomRight":{"Latitude":45.4555,"Longitude":6.29331}},"Address":{"Label":"Rue de la Lauzière, 73220 Épierre, France","Country":"FRA","State":"Auvergne-Rhône-Alpes","County":"Savoie","City":"Épierre","Street":"Rue de la Lauzière","PostalCode":"73220","AdditionalData":[{"value":"France","key":"CountryName"},{"value":"Auvergne-Rhône-Alpes","key":"StateName"},{"value":"Savoie","key":"CountyName"}]},"MapReference":{"ReferenceId":"764972107","Spot":0.85,"SideOfStreet":"right","CountryId":"20000001","StateId":"20006029","CountyId":"20053715","CityId":"20054023"}}},{"Relevance":1.0,"Distance":10.0,"MatchLevel":"street","MatchQuality":{"Country":1.0,"State":1.0,"County":1.0,"City":1.0,"Street":[1.0],"PostalCode":1.0},"Location":{"LocationId":"NT_JMZIDnjqqXl18SSi4LFkMD_l_83819795_R","LocationType":"point","DisplayPosition":{"Latitude":45.4561835,"Longitude":6.2932976},"MapView":{"TopLeft":{"Latitude":45.45622,"Longitude":6.29321},"BottomRight":{"Latitude":45.45617,"Longitude":6.2939}},"Address":{"Label":"Impasse des Rameaux, 73220 Épierre, France","Country":"FRA","State":"Auvergne-Rhône-Alpes","County":"Savoie","City":"Épierre","Street":"Impasse des Rameaux","PostalCode":"73220","AdditionalData":[{"value":"France","key":"CountryName"},{"value":"Auvergne-Rhône-Alpes","key":"StateName"},{"value":"Savoie","key":"CountyName"}]},"MapReference":{"ReferenceId":"83819795","Spot":0.13,"SideOfStreet":"right","CountryId":"20000001","StateId":"20006029","CountyId":"20053715","CityId":"20054023"}}},{"Relevance":1.0,"Distance":12.4,"MatchLevel":"street","MatchQuality":{"Country":1.0,"State":1.0,"County":1.0,"City":1.0,"Street":[1.0],"PostalCode":1.0},"Location":{"LocationId":"NT_UF6JyUd9ijKCguRtQ2y.CA_l_764972110_R","LocationType":"point","DisplayPosition":{"Latitude":45.45619,"Longitude":6.29321},"MapView":{"TopLeft":{"Latitude":45.45635,"Longitude":6.29319},"BottomRight":{"Latitude":45.45619,"Longitude":6.29321}},"Address":{"Label":"Rue de la Lauzière, 73220 Épierre, France","Country":"FRA","State":"Auvergne-Rhône-Alpes","County":"Savoie","City":"Épierre","Street":"Rue de la Lauzière","PostalCode":"73220","AdditionalData":[{"value":"France","key":"CountryName"},{"value":"Auvergne-Rhône-Alpes","key":"StateName"},{"value":"Savoie","key":"CountyName"}]},"MapReference":{"ReferenceId":"764972110","Spot":0.0,"SideOfStreet":"right","CountryId":"20000001","StateId":"20006029","CountyId":"20053715","CityId":"20054023"}}},{"Relevance":1.0,"Distance":29.5,"MatchLevel":"street","MatchQuality":{"Country":1.0,"State":1.0,"County":1.0,"City":1.0,"Street":[1.0],"PostalCode":1.0},"Location":{"LocationId":"NT_gJBFPWSyMZZ9BAAxDGPC7B_l_764972111_R","LocationType":"point","DisplayPosition":{"Latitude":45.45635,"Longitude":6.29319},"MapView":{"TopLeft":{"Latitude":45.45645,"Longitude":6.29317},"BottomRight":{"Latitude":45.45635,"Longitude":6.29319}},"Address":{"Label":"D75, 73220 Épierre, France","Country":"FRA","State":"Auvergne-Rhône-Alpes","County":"Savoie","City":"Épierre","Street":"D75","PostalCode":"73220","AdditionalData":[{"value":"France","key":"CountryName"},{"value":"Auvergne-Rhône-Alpes","key":"StateName"},{"value":"Savoie","key":"CountyName"}]},"MapReference":{"ReferenceId":"764972111","Spot":0.0,"SideOfStreet":"right","CountryId":"20000001","StateId":"20006029","CountyId":"20053715","CityId":"20054023"}}},{"Relevance":1.0,"Distance":40.7,"MatchLevel":"street","MatchQuality":{"Country":1.0,"State":1.0,"County":1.0,"City":1.0,"Street":[1.0],"PostalCode":1.0},"Location":{"LocationId":"NT_UF6JyUd9ijKCguRtQ2y.CA_l_83819803_R","LocationType":"point","DisplayPosition":{"Latitude":45.45645,"Longitude":6.29317},"MapView":{"TopLeft":{"Latitude":45.4573,"Longitude":6.29298},"BottomRight":{"Latitude":45.45645,"Longitude":6.29317}},"Address":{"Label":"Rue de la Lauzière, 73220 Épierre, France","Country":"FRA","State":"Auvergne-Rhône-Alpes","County":"Savoie","City":"Épierre","Street":"Rue de la Lauzière","PostalCode":"73220","AdditionalData":[{"value":"France","key":"CountryName"},{"value":"Auvergne-Rhône-Alpes","key":"StateName"},{"value":"Savoie","key":"CountyName"}]},"MapReference":{"ReferenceId":"83819803","Spot":0.0,"SideOfStreet":"right","CountryId":"20000001","StateId":"20006029","CountyId":"20053715","CityId":"20054023"}}},{"Relevance":1.0,"Distance":40.7,"MatchLevel":"street","MatchQuality":{"Country":1.0,"State":1.0,"County":1.0,"City":1.0,"Street":[1.0],"PostalCode":1.0},"Location":{"LocationId":"NT_c0aIoCxdRHic-pwUgh4C1C_l_83819797_L","LocationType":"point","DisplayPosition":{"Latitude":45.45645,"Longitude":6.29317},"MapView":{"TopLeft":{"Latitude":45.45688,"Longitude":6.29268},"BottomRight":{"Latitude":45.45645,"Longitude":6.29317}},"Address":{"Label":"Rue de la Gare, 73220 Épierre, France","Country":"FRA","State":"Auvergne-Rhône-Alpes","County":"Savoie","City":"Épierre","Street":"Rue de la Gare","PostalCode":"73220","AdditionalData":[{"value":"France","key":"CountryName"},{"value":"Auvergne-Rhône-Alpes","key":"StateName"},{"value":"Savoie","key":"CountyName"}]},"MapReference":{"ReferenceId":"83819797","Spot":0.0,"SideOfStreet":"left","CountryId":"20000001","StateId":"20006029","CountyId":"20053715","CityId":"20054023"}}},{"Relevance":1.0,"Distance":66.1,"MatchLevel":"street","MatchQuality":{"Country":1.0,"State":1.0,"County":1.0,"City":1.0,"Street":[1.0],"PostalCode":1.0},"Location":{"LocationId":"NT_gJBFPWSyMZZ9BAAxDGPC7B_l_1070429266_R","LocationType":"point","DisplayPosition":{"Latitude":45.4555,"Longitude":6.29331},"MapView":{"TopLeft":{"Latitude":45.4555,"Longitude":6.29331},"BottomRight":{"Latitude":45.4553,"Longitude":6.29334}},"Address":{"Label":"D75, 73220 Épierre, France","Country":"FRA","State":"Auvergne-Rhône-Alpes","County":"Savoie","City":"Épierre","Street":"D75","PostalCode":"73220","AdditionalData":[{"value":"France","key":"CountryName"},{"value":"Auvergne-Rhône-Alpes","key":"StateName"},{"value":"Savoie","key":"CountyName"}]},"MapReference":{"ReferenceId":"1070429266","Spot":1.0,"SideOfStreet":"right","CountryId":"20000001","StateId":"20006029","CountyId":"20053715","CityId":"20054023"}}},{"Relevance":1.0,"Distance":88.4,"MatchLevel":"street","MatchQuality":{"Country":1.0,"State":1.0,"County":1.0,"City":1.0,"Street":[1.0],"PostalCode":1.0},"Location":{"LocationId":"NT_gJBFPWSyMZZ9BAAxDGPC7B_l_1070429265_R","LocationType":"point","DisplayPosition":{"Latitude":45.4553,"Longitude":6.29334},"MapView":{"TopLeft":{"Latitude":45.4553,"Longitude":6.29334},"BottomRight":{"Latitude":45.45514,"Longitude":6.29335}},"Address":{"Label":"D75, 73220 Épierre, France","Country":"FRA","State":"Auvergne-Rhône-Alpes","County":"Savoie","City":"Épierre","Street":"D75","PostalCode":"73220","AdditionalData":[{"value":"France","key":"CountryName"},{"value":"Auvergne-Rhône-Alpes","key":"StateName"},{"value":"Savoie","key":"CountyName"}]},"MapReference":{"ReferenceId":"1070429265","Spot":1.0,"SideOfStreet":"right","CountryId":"20000001","StateId":"20006029","CountyId":"20053715","CityId":"20054023"}}},{"Relevance":1.0,"Distance":99.5,"MatchLevel":"street","MatchQuality":{"Country":1.0,"State":1.0,"County":1.0,"City":1.0,"Street":[1.0],"PostalCode":1.0},"Location":{"LocationId":"NT_c0aIoCxdRHic-pwUgh4C1C_l_83819800_L","LocationType":"point","DisplayPosition":{"Latitude":45.45688,"Longitude":6.29268},"MapView":{"TopLeft":{"Latitude":45.45741,"Longitude":6.29261},"BottomRight":{"Latitude":45.45688,"Longitude":6.2928}},"Address":{"Label":"Rue de la Gare, 73220 Épierre, France","Country":"FRA","State":"Auvergne-Rhône-Alpes","County":"Savoie","City":"Épierre","Street":"Rue de la Gare","PostalCode":"73220","AdditionalData":[{"value":"France","key":"CountryName"},{"value":"Auvergne-Rhône-Alpes","key":"StateName"},{"value":"Savoie","key":"CountyName"}]},"MapReference":{"ReferenceId":"83819800","Spot":0.0,"SideOfStreet":"left","CountryId":"20000001","StateId":"20006029","CountyId":"20053715","CityId":"20054023"}}}]}]}}