{"Response":{"MetaInfo":{"Timestamp":"2020-03-28T12:04:14.231+0000","NextPageInformation":"2"},"View":[{"_type":"SearchResultsViewType","ViewId":0,"Result":[{"Relevance":1.0,"Distance":0.0,"Direction":0.0,"MatchLevel":"district","MatchQuality":{"Country":1.0,"State":1.0,"County":1.0,"City":1.0,"District":1.0,"PostalCode":1.0},"Location":{"LocationId":"NT_kmM5rFth87YmkZptFLuagB","LocationType":"point","DisplayPosition":{"Latitude":45.4461278,"Longitude":12.1624033},"MapView":{"TopLeft":{"Latitude":45.4672,"Longitude":12.15575},"BottomRight":{"Latitude":45.43564,"Longitude":12.18782}},"Address":{"Label":"Oriago, Mira, Veneto, Italia","Country":"ITA","State":"Veneto","County":"VE","City":"Mira","District":"Oriago","PostalCode":"30034","AdditionalData":[{"value":"Italia","key":"CountryName"},{"value":"Veneto","key":"StateName"},{"value":"Venezia","key":"CountyName"}]},"MapReference":{"ReferenceId":"986124879","SideOfStreet":"neither","CountryId":"20110484","StateId":"20120537","CountyId":"20122049","CityId":"20122151","DistrictId":"20122157"}}},{"Relevance":1.0,"Distance":8.1,"MatchLevel":"houseNumber","MatchQuality":{"Country":1.0,"State":1.0,"County":1.0,"City":1.0,"District":1.0,"Street":[1.0],"HouseNumber":1.0,"PostalCode":1.0},"MatchType":"interpolated","Location":{"LocationId":"NT_KK27oVA3kePYM1FfzWrgjB_0IE","LocationType":"point","DisplayPosition":{"Latitude":45.44639,"Longitude":12.16207},"MapView":{"TopLeft":{"Latitude":45.4475142,"Longitude":12.1604677},"BottomRight":{"Latitude":45.4452658,"Longitude":12.1636723}},"Address":{"Label":"Piazza Mercato, 4B, 30034 Mira VE, Italia","Country":"ITA","State":"Veneto","County":"VE","City":"Mira","District":"Oriago","Street":"Piazza Mercato","HouseNumber":"4B","PostalCode":"30034","AdditionalData":[{"value":"Italia","key":"CountryName"},{"value":"Veneto","key":"StateName"},{"value":"Venezia","key":"CountyName"}]},"MapReference":{"ReferenceId":"808168546","Spot":0.42,"SideOfStreet":"right","CountryId":"20110484","StateId":"20120537","CountyId":"20122049","CityId":"20122151","DistrictId":"20122157","AddressId":"717610004","RoadLinkId":"195510201"}}},{"Relevance":1.0,"Distance":13.1,"MatchLevel":"landmark","MatchQuality":{"Country":1.0,"State":1.0,"County":1.0,"City":1.0,"District":1.0,"Street":[1.0],"PostalCode":1.0,"Name":1.0},"Location":{"LocationId":"NT_Dpt1ow9k1WV7oLaXEgRXWB_p_ar08wpmkYR0FKtA9a9LDvB","LocationType":"shoppingCentre","Name":"Zona Commerciale Piazza Mercato","DisplayPosition":{"Latitude":45.44566,"Longitude":12.1633},"MapView":{"TopLeft":{"Latitude":45.44688,"Longitude":12.16137},"BottomRight":{"Latitude":45.44445,"Longitude":12.16399}},"Address":{"Label":"Via dei Commercianti, 30034 Mira VE, Italia","Country":"ITA","State":"Veneto","County":"VE","City":"Mira","District":"Oriago","Street":"Via dei Commercianti","PostalCode":"30034","AdditionalData":[{"value":"Italia","key":"CountryName"},{"value":"Veneto","key":"StateName"},{"value":"Venezia","key":"CountyName"}]},"MapReference":{"CountryId":"20110484","StateId":"20120537","CountyId":"20122049","CityId":"20122151","DistrictId":"20122157","PlaceId":"1017675667"}}},{"Relevance":1.0,"Distance":47.6,"MatchLevel":"houseNumber","MatchQuality":{"Country":1.0,"State":1.0,"County":1.0,"City":1.0,"District":1.0,"Street":[1.0],"HouseNumber":1.0,"PostalCode":1.0},"MatchType":"interpolated","Location":{"LocationId":"NT_KK27oVA3kePYM1FfzWrgjB_yYD","LocationType":"point","DisplayPosition":{"Latitude":45.44636,"Longitude":12.16189},"MapView":{"TopLeft":{"Latitude":45.4474842,"Longitude":12.1602877},"BottomRight":{"Latitude":45.4452358,"Longitude":12.1634923}},"Address":{"Label":"Piazza Mercato, 26, 30034 Mira VE, Italia","Country":"ITA","State":"Veneto","County":"VE","City":"Mira","District":"Oriago","Street":"Piazza Mercato","HouseNumber":"26","PostalCode":"30034","AdditionalData":[{"value":"Italia","key":"CountryName"},{"value":"Veneto","key":"StateName"},{"value":"Venezia","key":"CountyName"}]},"MapReference":{"ReferenceId":"986197563","Spot":0.3,"SideOfStreet":"left","CountryId":"20110484","StateId":"20120537","CountyId":"20122049","CityId":"20122151","DistrictId":"20122157","AddressId":"373755982","RoadLinkId":"316865325"}}},{"Relevance":1.0,"Distance":48.5,"MatchLevel":"houseNumber","MatchQuality":{"Country":1.0,"State":1.0,"County":1.0,"City":1.0,"District":1.0,"Street":[1.0],"HouseNumber":1.0,"PostalCode":1.0},"MatchType":"interpolated","Location":{"LocationId":"NT_ObArl61RWE-13LjJeVl94A_xAD","LocationType":"point","DisplayPosition":{"Latitude":45.44608,"Longitude":12.16313},"MapView":{"TopLeft":{"Latitude":45.4472042,"Longitude":12.1615277},"BottomRight":{"Latitude":45.4449558,"Longitude":12.1647323}},"Address":{"Label":"Via dei Commercianti, 10, 30034 Mira VE, Italia","Country":"ITA","State":"Veneto","County":"VE","City":"Mira","District":"Oriago","Street":"Via dei Commercianti","HouseNumber":"10","PostalCode":"30034","AdditionalData":[{"value":"Italia","key":"CountryName"},{"value":"Veneto","key":"StateName"},{"value":"Venezia","key":"CountyName"}]},"MapReference":{"ReferenceId":"808168549","Spot":0.81,"SideOfStreet":"left","CountryId":"20110484","StateId":"20120537","CountyId":"20122049","CityId":"20122151","DistrictId":"20122157","AddressId":"717653153","RoadLinkId":"195510203"}}},{"Relevance":1.0,"Distance":48.9,"MatchLevel":"houseNumber","MatchQuality":{"Country":1.0,"State":1.0,"County":1.0,"City":1.0,"District":1.0,"Street":[1.0],"HouseNumber":1.0,"PostalCode":1.0},"MatchType":"interpolated","Location":{"LocationId":"NT_KK27oVA3kePYM1FfzWrgjB_1A","LocationType":"point","DisplayPosition":{"Latitude":45.44666,"Longitude":12.16244},"MapView":{"TopLeft":{"Latitude":45.4477842,"Longitude":12.1608377},"BottomRight":{"Latitude":45.4455358,"Longitude":12.1640423}},"Address":{"Label":"Piazza Mercato, 5, 30034 Mira VE, Italia","Country":"ITA","State":"Veneto","County":"VE","City":"Mira","District":"Oriago","Street":"Piazza Mercato","HouseNumber":"5","PostalCode":"30034","AdditionalData":[{"value":"Italia","key":"CountryName"},{"value":"Veneto","key":"StateName"},{"value":"Venezia","key":"CountyName"}]},"MapReference":{"ReferenceId":"808168547","Spot":0.08,"SideOfStreet":"right","CountryId":"20110484","StateId":"20120537","CountyId":"20122049","CityId":"20122151","DistrictId":"20122157","AddressId":"373740168","RoadLinkId":"195510202"}}},{"Relevance":1.0,"Distance":51.1,"MatchLevel":"street","MatchQuality":{"Country":1.0,"State":1.0,"County":1.0,"City":1.0,"District":1.0,"Street":[1.0],"PostalCode":1.0},"Location":{"LocationId":"NT_ISQvvkiYSHY8ni8I0vu2vC_l_986197566_R","LocationType":"point","DisplayPosition":{"Latitude":45.44629,"Longitude":12.16179},"MapView":{"TopLeft":{"Latitude":45.44629,"Longitude":12.16167},"BottomRight":{"Latitude":45.44623,"Longitude":12.16179}},"Address":{"Label":"Strada Provinciale Oriago Piazza Vecchia Sambruson, 30034 Mira VE, Italia","Country":"ITA","State":"Veneto","County":"VE","City":"Mira","District":"Oriago","Street":"Strada Provinciale Oriago Piazza Vecchia Sambruson","PostalCode":"30034","AdditionalData":[{"value":"Italia","key":"CountryName"},{"value":"Veneto","key":"StateName"},{"value":"Venezia","key":"CountyName"}]},"MapReference":{"ReferenceId":"986197566","Spot":1.0,"SideOfStreet":"right","CountryId":"20110484","StateId":"20120537","CountyId":"20122049","CityId":"20122151","DistrictId":"20122157"}}},{"Relevance":1.0,"Distance":66.5,"MatchLevel":"street","MatchQuality":{"Country":1.0,"State":1.0,"County":1.0,"City":1.0,"District":1.0,"PostalCode":1.0},"Location":{"LocationId":"NT_6IhFzgfmLZQjkstDlbaWqC_l_1197954063_R","LocationType":"point","DisplayPosition":{"Latitude":45.4467005,"Longitude":12.1621579},"MapView":{"TopLeft":{"Latitude":45.44747,"Longitude":12.16211},"BottomRight":{"Latitude":45.44668,"Longitude":12.16347}},"Address":{"Label":"30034 Mira VE, Italia","Country":"ITA","State":"Veneto","County":"VE","City":"Mira","District":"Oriago","PostalCode":"30034","AdditionalData":[{"value":"Italia","key":"CountryName"},{"value":"Veneto","key":"StateName"},{"value":"Venezia","key":"CountyName"}]},"MapReference":{"ReferenceId":"1197954063","Spot":0.03,"SideOfStreet":"right","CountryId":"20110484","StateId":"20120537","CountyId":"20122049","CityId":"20122151","DistrictId":"20122157"}}},{"Relevance":1.0,"Distance":71.0,"MatchLevel":"houseNumber","MatchQuality":{"Country":1.0,"State":1.0,"County":1.0,"City":1.0,"District":1.0,"Street":[1.0],"HouseNumber":1.0,"PostalCode":1.0},"MatchType":"interpolated","Location":{"LocationId":"NT_wQykYHb-GmCs4iJWWsogjA_l_986197565_R_zA","LocationType":"point","DisplayPosition":{"Latitude":45.4461632,"Longitude":12.1614663},"MapView":{"TopLeft":{"Latitude":45.4472874,"Longitude":12.1598639},"BottomRight":{"Latitude":45.4450391,"Longitude":12.1630686}},"Address":{"Label":"Strada Provinciale Oriago Piazza Vecchia Sambruson, 3, 30034 Mira VE, Italia","Country":"ITA","State":"Veneto","County":"VE","City":"Mira","District":"Oriago","Street":"Strada Provinciale Oriago Piazza Vecchia Sambruson","HouseNumber":"3","PostalCode":"30034","AdditionalData":[{"value":"Italia","key":"CountryName"},{"value":"Veneto","key":"StateName"},{"value":"Venezia","key":"CountyName"}]},"MapReference":{"ReferenceId":"986197565","Spot":0.51,"SideOfStreet":"right","CountryId":"20110484","StateId":"20120537","CountyId":"20122049","CityId":"20122151","DistrictId":"20122157"}}},{"Relevance":1.0,"Distance":75.7,"MatchLevel":"houseNumber","MatchQuality":{"Country":1.0,"State":1.0,"County":1.0,"City":1.0,"District":1.0,"Street":[1.0],"HouseNumber":1.0,"PostalCode":1.0},"MatchType":"interpolated","Location":{"LocationId":"NT_ObArl61RWE-13LjJeVl94A_xUE","LocationType":"point","DisplayPosition":{"Latitude":45.44648,"Longitude":12.16352},"MapView":{"TopLeft":{"Latitude":45.4476042,"Longitude":12.1619177},"BottomRight":{"Latitude":45.4453558,"Longitude":12.1651223}},"Address":{"Label":"Via dei Commercianti, 1E, 30034 Mira VE, Italia","Country":"ITA","State":"Veneto","County":"VE","City":"Mira","District":"Oriago","Street":"Via dei Commercianti","HouseNumber":"1E","PostalCode":"30034","AdditionalData":[{"value":"Italia","key":"CountryName"},{"value":"Veneto","key":"StateName"},{"value":"Venezia","key":"CountyName"}]},"MapReference":{"ReferenceId":"556073379","Spot":0.28,"SideOfStreet":"left","CountryId":"20110484","StateId":"20120537","CountyId":"20122049","CityId":"20122151","DistrictId":"20122157","AddressId":"373766599","RoadLinkId":"58660417"}}}]}]}}