{"Response":{"MetaInfo":{"Timestamp":"2020-03-28T11:24:37.154+0000","NextPageInformation":"2"},"View":[{"_type":"SearchResultsViewType","ViewId":0,"Result":[{"Relevance":1.0,"Distance":0.0,"Direction":0.0,"MatchLevel":"city","MatchQuality":{"Country":1.0,"State":1.0,"County":1.0,"City":1.0,"PostalCode":1.0},"Location":{"LocationId":"NT_6vyEbji8-udsPfNtKdUncD","LocationType":"point","DisplayPosition":{"Latitude":45.4111776,"Longitude":9.2765858},"MapView":{"TopLeft":{"Latitude":45.43748,"Longitude":9.2153},"BottomRight":{"Latitude":45.38984,"Longitude":9.3007}},"Address":{"Label":"San Donato Milanese, Lombardia, Italia","Country":"ITA","State":"Lombardia","County":"MI","City":"San Donato Milanese","PostalCode":"20097","AdditionalData":[{"value":"Italia","key":"CountryName"},{"value":"Lombardia","key":"StateName"},{"value":"Milano","key":"CountyName"}]},"MapReference":{"ReferenceId":"62279738","SideOfStreet":"neither","CountryId":"20110484","StateId":"20114907","CountyId":"20116116","CityId":"20116613"}}},{"Relevance":1.0,"Distance":6.9,"MatchLevel":"street","MatchQuality":{"Country":1.0,"State":1.0,"County":1.0,"City":1.0,"PostalCode":1.0},"Location":{"LocationId":"NT_QfISDx5hsmRIzWFr2GA-uC_l_1256010272_R","LocationType":"point","DisplayPosition":{"Latitude":45.4111329,"Longitude":9.2765241},"MapView":{"TopLeft":{"Latitude":45.41153,"Longitude":9.27546},"BottomRight":{"Latitude":45.41043,"Longitude":9.2771}},"Address":{"Label":"20097 San Donato Milanese MI, Italia","Country":"ITA","State":"Lombardia","County":"MI","City":"San Donato Milanese","PostalCode":"20097","AdditionalData":[{"value":"Italia","key":"CountryName"},{"value":"Lombardia","key":"StateName"},{"value":"Milano","key":"CountyName"}]},"MapReference":{"ReferenceId":"1256010272","Spot":0.41,"SideOfStreet":"right","CountryId":"20110484","StateId":"20114907","CountyId":"20116116","CityId":"20116613"}}},{"Relevance":1.0,"Distance":23.5,"MatchLevel":"street","MatchQuality":{"Country":1.0,"State":1.0,"County":1.0,"City":1.0,"PostalCode":1.0},"Location":{"LocationId":"NT_QfISDx5hsmRIzWFr2GA-uC_l_1256010265_L","LocationType":"point","DisplayPosition":{"Latitude":45.4113144,"Longitude":9.2768155},"MapView":{"TopLeft":{"Latitude":45.41254,"Longitude":9.27519},"BottomRight":{"Latitude":45.41118,"Longitude":9.27719}},"Address":{"Label":"20097 San Donato Milanese MI, Italia","Country":"ITA","State":"Lombardia","County":"MI","City":"San Donato Milanese","PostalCode":"20097","AdditionalData":[{"value":"Italia","key":"CountryName"},{"value":"Lombardia","key":"StateName"},{"value":"Milano","key":"CountyName"}]},"MapReference":{"ReferenceId":"1256010265","Spot":0.15,"SideOfStreet":"left","CountryId":"20110484","StateId":"20114907","CountyId":"20116116","CityId":"20116613"}}},{"Relevance":1.0,"Distance":41.1,"MatchLevel":"landmark","MatchQuality":{"Country":1.0,"State":1.0,"County":1.0,"City":1.0,"Street":[1.0],"PostalCode":1.0,"Name":1.0},"Location":{"LocationId":"NT_LWwykI4vYeKcDYlAy0DAdA_p_QlwEKbFMY0AU0E2qVmzuqB","LocationType":"park","Name":"Parco Agricolo Sud Milano","DisplayPosition":{"Latitude":45.36739,"Longitude":9.37191},"MapView":{"TopLeft":{"Latitude":45.53885,"Longitude":8.90125},"BottomRight":{"Latitude":45.28923,"Longitude":9.45234}},"Address":{"Label":"Strada Provinciale Pandina, 20070 Dresano MI, Italia","Country":"ITA","State":"Lombardia","County":"MI","City":"Dresano","Street":"Strada Provinciale Pandina","PostalCode":"20070","AdditionalData":[{"value":"Italia","key":"CountryName"},{"value":"Lombardia","key":"StateName"},{"value":"Milano","key":"CountyName"}]},"MapReference":{"CountryId":"20110484","StateId":"20114907","CountyId":"20116116","CityId":"20116365","PlaceId":"50932445"}}},{"Relevance":1.0,"Distance":47.2,"MatchLevel":"street","MatchQuality":{"Country":1.0,"State":1.0,"County":1.0,"City":1.0,"PostalCode":1.0},"Location":{"LocationId":"NT_QfISDx5hsmRIzWFr2GA-uC_l_1256010264_L","LocationType":"point","DisplayPosition":{"Latitude":45.41118,"Longitude":9.27719},"MapView":{"TopLeft":{"Latitude":45.41118,"Longitude":9.27719},"BottomRight":{"Latitude":45.41108,"Longitude":9.27751}},"Address":{"Label":"20097 San Donato Milanese MI, Italia","Country":"ITA","State":"Lombardia","County":"MI","City":"San Donato Milanese","PostalCode":"20097","AdditionalData":[{"value":"Italia","key":"CountryName"},{"value":"Lombardia","key":"StateName"},{"value":"Milano","key":"CountyName"}]},"MapReference":{"ReferenceId":"1256010264","Spot":1.0,"SideOfStreet":"left","CountryId":"20110484","StateId":"20114907","CountyId":"20116116","CityId":"20116613"}}},{"Relevance":1.0,"Distance":50.7,"MatchLevel":"houseNumber","MatchQuality":{"Country":1.0,"State":1.0,"County":1.0,"City":1.0,"Street":[1.0],"HouseNumber":1.0,"PostalCode":1.0},"MatchType":"interpolated","Location":{"LocationId":"NT_KPZFRLUAIUoIavS4h6onaD_yEzLBRD","LocationType":"point","DisplayPosition":{"Latitude":45.41062,"Longitude":9.27569},"MapView":{"TopLeft":{"Latitude":45.4117442,"Longitude":9.2740887},"BottomRight":{"Latitude":45.4094958,"Longitude":9.2772913}},"Address":{"Label":"Via Giovanni Pascoli, 21/A4, 20097 San Donato Milanese MI, Italia","Country":"ITA","State":"Lombardia","County":"MI","City":"San Donato Milanese","Street":"Via Giovanni Pascoli","HouseNumber":"21/A4","PostalCode":"20097","AdditionalData":[{"value":"Italia","key":"CountryName"},{"value":"Lombardia","key":"StateName"},{"value":"Milano","key":"CountyName"}]},"MapReference":{"ReferenceId":"67444071","Spot":0.37,"SideOfStreet":"right","CountryId":"20110484","StateId":"20114907","CountyId":"20116116","CityId":"20116613","AddressId":"765661170","RoadLinkId":"54632442"}}},{"Relevance":1.0,"Distance":66.7,"MatchLevel":"street","MatchQuality":{"Country":1.0,"State":1.0,"County":1.0,"City":1.0,"PostalCode":1.0},"Location":{"LocationId":"NT_QfISDx5hsmRIzWFr2GA-uC_l_1256010275_L","LocationType":"point","DisplayPosition":{"Latitude":45.41136,"Longitude":9.2774},"MapView":{"TopLeft":{"Latitude":45.41136,"Longitude":9.2774},"BottomRight":{"Latitude":45.41112,"Longitude":9.2776}},"Address":{"Label":"20097 San Donato Milanese MI, Italia","Country":"ITA","State":"Lombardia","County":"MI","City":"San Donato Milanese","PostalCode":"20097","AdditionalData":[{"value":"Italia","key":"CountryName"},{"value":"Lombardia","key":"StateName"},{"value":"Milano","key":"CountyName"}]},"MapReference":{"ReferenceId":"1256010275","Spot":1.0,"SideOfStreet":"left","CountryId":"20110484","StateId":"20114907","CountyId":"20116116","CityId":"20116613"}}},{"Relevance":1.0,"Distance":70.6,"MatchLevel":"street","MatchQuality":{"Country":1.0,"State":1.0,"County":1.0,"City":1.0,"Street":[1.0],"PostalCode":1.0},"Location":{"LocationId":"NT_Z.lmYuGNlSuu9EfNP1dFnD_l_1256010267_L","LocationType":"point","DisplayPosition":{"Latitude":45.41097,"Longitude":9.27744},"MapView":{"TopLeft":{"Latitude":45.41108,"Longitude":9.27744},"BottomRight":{"Latitude":45.41081,"Longitude":9.27767}},"Address":{"Label":"Piazza Edmondo Malan, 20097 San Donato Milanese MI, Italia","Country":"ITA","State":"Lombardia","County":"MI","City":"San Donato Milanese","Street":"Piazza Edmondo Malan","PostalCode":"20097","AdditionalData":[{"value":"Italia","key":"CountryName"},{"value":"Lombardia","key":"StateName"},{"value":"Milano","key":"CountyName"}]},"MapReference":{"ReferenceId":"1256010267","Spot":0.69,"SideOfStreet":"left","CountryId":"20110484","StateId":"20114907","CountyId":"20116116","CityId":"20116613"}}},{"Relevance":1.0,"Distance":73.0,"MatchLevel":"street","MatchQuality":{"Country":1.0,"State":1.0,"County":1.0,"City":1.0,"Street":[1.0],"PostalCode":1.0},"Location":{"LocationId":"NT_Z.lmYuGNlSuu9EfNP1dFnD_l_1256010274_L","LocationType":"point","DisplayPosition":{"Latitude":45.41108,"Longitude":9.27751},"MapView":{"TopLeft":{"Latitude":45.41112,"Longitude":9.27751},"BottomRight":{"Latitude":45.41108,"Longitude":9.2776}},"Address":{"Label":"Piazza Edmondo Malan, 20097 San Donato Milanese MI, Italia","Country":"ITA","State":"Lombardia","County":"MI","City":"San Donato Milanese","Street":"Piazza Edmondo Malan","PostalCode":"20097","AdditionalData":[{"value":"Italia","key":"CountryName"},{"value":"Lombardia","key":"StateName"},{"value":"Milano","key":"CountyName"}]},"MapReference":{"ReferenceId":"1256010274","Spot":0.0,"SideOfStreet":"left","CountryId":"20110484","StateId":"20114907","CountyId":"20116116","CityId":"20116613"}}},{"Relevance":1.0,"Distance":79.4,"MatchLevel":"street","MatchQuality":{"Country":1.0,"State":1.0,"County":1.0,"City":1.0,"Street":[1.0],"PostalCode":1.0},"Location":{"LocationId":"NT_Z.lmYuGNlSuu9EfNP1dFnD_l_1256010273_R","LocationType":"point","DisplayPosition":{"Latitude":45.41112,"Longitude":9.2776},"MapView":{"TopLeft":{"Latitude":45.41113,"Longitude":9.2776},"BottomRight":{"Latitude":45.41105,"Longitude":9.27787}},"Address":{"Label":"Piazza Edmondo Malan, 20097 San Donato Milanese MI, Italia","Country":"ITA","State":"Lombardia","County":"MI","City":"San Donato Milanese","Street":"Piazza Edmondo Malan","PostalCode":"20097","AdditionalData":[{"value":"Italia","key":"CountryName"},{"value":"Lombardia","key":"StateName"},{"value":"Milano","key":"CountyName"}]},"MapReference":{"ReferenceId":"1256010273","Spot":1.0,"SideOfStreet":"right","CountryId":"20110484","StateId":"20114907","CountyId":"20116116","CityId":"20116613"}}}]}]}}