{"Response":{"MetaInfo":{"Timestamp":"2020-03-28T11:24:32.650+0000","NextPageInformation":"2"},"View":[{"_type":"SearchResultsViewType","ViewId":0,"Result":[{"Relevance":1.0,"Distance":0.0,"Direction":0.0,"MatchLevel":"district","MatchQuality":{"Country":1.0,"State":1.0,"County":1.0,"City":1.0,"District":1.0,"PostalCode":1.0},"Location":{"LocationId":"NT_hSuk8g9nowzKHrY-PcSYEB","LocationType":"point","DisplayPosition":{"Latitude":45.4849189,"Longitude":9.2256971},"MapView":{"TopLeft":{"Latitude":45.48613,"Longitude":9.21708},"BottomRight":{"Latitude":45.46808,"Longitude":9.23833}},"Address":{"Label":"Città Studi, Milano, Lombardia, Italia","Country":"ITA","State":"Lombardia","County":"MI","City":"Milano","District":"Città Studi","PostalCode":"20133","AdditionalData":[{"value":"Italia","key":"CountryName"},{"value":"Lombardia","key":"StateName"},{"value":"Milano","key":"CountyName"}]},"MapReference":{"ReferenceId":"1001923484","SideOfStreet":"neither","CountryId":"20110484","StateId":"20114907","CountyId":"20116116","CityId":"20116469"}}},{"Relevance":1.0,"Distance":14.2,"MatchLevel":"houseNumber","MatchQuality":{"Country":1.0,"State":1.0,"County":1.0,"City":1.0,"District":1.0,"Street":[1.0],"HouseNumber":1.0,"PostalCode":1.0},"MatchType":"interpolated","Location":{"LocationId":"NT_iDLccIcBvDcezg05Ql5SJA_2A","LocationType":"point","DisplayPosition":{"Latitude":45.48497,"Longitude":9.22548},"MapView":{"TopLeft":{"Latitude":45.4860942,"Longitude":9.2238766},"BottomRight":{"Latitude":45.4838458,"Longitude":9.2270834}},"Address":{"Label":"Via Niccolò Jommelli, 6, 20131 Milano MI, Italia","Country":"ITA","State":"Lombardia","County":"MI","City":"Milano","District":"Città Studi","Street":"Via Niccolò Jommelli","HouseNumber":"6","PostalCode":"20131","AdditionalData":[{"value":"Italia","key":"CountryName"},{"value":"Lombardia","key":"StateName"},{"value":"Milano","key":"CountyName"}]},"MapReference":{"ReferenceId":"592389308","Spot":0.97,"SideOfStreet":"right","CountryId":"20110484","StateId":"20114907","CountyId":"20116116","CityId":"20116469","AddressId":"574279630","RoadLinkId":"54761118"}}},{"Relevance":1.0,"Distance":28.2,"MatchLevel":"houseNumber","MatchQuality":{"Country":1.0,"State":1.0,"County":1.0,"City":1.0,"District":1.0,"Street":[1.0],"HouseNumber":1.0,"PostalCode":1.0},"MatchType":"interpolated","Location":{"LocationId":"NT_iDLccIcBvDcezg05Ql5SJA_4A","LocationType":"point","DisplayPosition":{"Latitude":45.48514,"Longitude":9.22547},"MapView":{"TopLeft":{"Latitude":45.4862642,"Longitude":9.2238666},"BottomRight":{"Latitude":45.4840158,"Longitude":9.2270734}},"Address":{"Label":"Via Niccolò Jommelli, 8, 20131 Milano MI, Italia","Country":"ITA","State":"Lombardia","County":"MI","City":"Milano","District":"Città Studi","Street":"Via Niccolò Jommelli","HouseNumber":"8","PostalCode":"20131","AdditionalData":[{"value":"Italia","key":"CountryName"},{"value":"Lombardia","key":"StateName"},{"value":"Milano","key":"CountyName"}]},"MapReference":{"ReferenceId":"592389309","Spot":0.14,"SideOfStreet":"right","CountryId":"20110484","StateId":"20114907","CountyId":"20116116","CityId":"20116469","AddressId":"574226841","RoadLinkId":"55477750"}}},{"Relevance":1.0,"Distance":28.9,"MatchLevel":"houseNumber","MatchQuality":{"Country":1.0,"State":1.0,"County":1.0,"City":1.0,"District":1.0,"Street":[1.0],"HouseNumber":1.0,"PostalCode":1.0},"MatchType":"interpolated","Location":{"LocationId":"NT_iDLccIcBvDcezg05Ql5SJA_xUTQ","LocationType":"point","DisplayPosition":{"Latitude":45.48499,"Longitude":9.22534},"MapView":{"TopLeft":{"Latitude":45.4861142,"Longitude":9.2237366},"BottomRight":{"Latitude":45.4838658,"Longitude":9.2269434}},"Address":{"Label":"Via Niccolò Jommelli, 15A, 20131 Milano MI, Italia","Country":"ITA","State":"Lombardia","County":"MI","City":"Milano","District":"Città Studi","Street":"Via Niccolò Jommelli","HouseNumber":"15A","PostalCode":"20131","AdditionalData":[{"value":"Italia","key":"CountryName"},{"value":"Lombardia","key":"StateName"},{"value":"Milano","key":"CountyName"}]},"MapReference":{"ReferenceId":"592389310","Spot":0.71,"SideOfStreet":"left","CountryId":"20110484","StateId":"20114907","CountyId":"20116116","CityId":"20116469","AddressId":"768449402","RoadLinkId":"55382432"}}},{"Relevance":1.0,"Distance":52.0,"MatchLevel":"houseNumber","MatchQuality":{"Country":1.0,"State":1.0,"County":1.0,"City":1.0,"District":1.0,"Street":[1.0],"HouseNumber":1.0,"PostalCode":1.0},"MatchType":"interpolated","Location":{"LocationId":"NT_lYDHsYC5SqYr-tCOywOaNC_3cD","LocationType":"point","DisplayPosition":{"Latitude":45.48512,"Longitude":9.22649},"MapView":{"TopLeft":{"Latitude":45.4862442,"Longitude":9.2248866},"BottomRight":{"Latitude":45.4839958,"Longitude":9.2280934}},"Address":{"Label":"Via Andrea Maria Ampère, 77, 20131 Milano MI, Italia","Country":"ITA","State":"Lombardia","County":"MI","City":"Milano","District":"Città Studi","Street":"Via Andrea Maria Ampère","HouseNumber":"77","PostalCode":"20131","AdditionalData":[{"value":"Italia","key":"CountryName"},{"value":"Lombardia","key":"StateName"},{"value":"Milano","key":"CountyName"}]},"MapReference":{"ReferenceId":"55167266","Spot":0.43,"SideOfStreet":"left","CountryId":"20110484","StateId":"20114907","CountyId":"20116116","CityId":"20116469","AddressId":"574321300","RoadLinkId":"55035464"}}},{"Relevance":1.0,"Distance":52.4,"MatchLevel":"houseNumber","MatchQuality":{"Country":1.0,"State":1.0,"County":1.0,"City":1.0,"District":1.0,"Street":[1.0],"HouseNumber":1.0,"PostalCode":1.0},"MatchType":"interpolated","Location":{"LocationId":"NT_-B-YhiEK.c3CIwjVHdHImC_2MD","LocationType":"point","DisplayPosition":{"Latitude":45.48437,"Longitude":9.22577},"MapView":{"TopLeft":{"Latitude":45.4854942,"Longitude":9.2241666},"BottomRight":{"Latitude":45.4832458,"Longitude":9.2273734}},"Address":{"Label":"Via Vallazze, 63, 20131 Milano MI, Italia","Country":"ITA","State":"Lombardia","County":"MI","City":"Milano","District":"Città Studi","Street":"Via Vallazze","HouseNumber":"63","PostalCode":"20131","AdditionalData":[{"value":"Italia","key":"CountryName"},{"value":"Lombardia","key":"StateName"},{"value":"Milano","key":"CountyName"}]},"MapReference":{"ReferenceId":"55167293","Spot":0.27,"SideOfStreet":"left","CountryId":"20110484","StateId":"20114907","CountyId":"20116116","CityId":"20116469","AddressId":"574318210","RoadLinkId":"54784286"}}},{"Relevance":1.0,"Distance":55.7,"MatchLevel":"street","MatchQuality":{"Country":1.0,"State":1.0,"County":1.0,"City":1.0,"District":1.0,"PostalCode":1.0},"Location":{"LocationId":"NT_awfl9Fuhl5q.p3GdGARFBC_l_592389311_R","LocationType":"point","DisplayPosition":{"Latitude":45.48499,"Longitude":9.22499},"MapView":{"TopLeft":{"Latitude":45.48515,"Longitude":9.22499},"BottomRight":{"Latitude":45.48499,"Longitude":9.22499}},"Address":{"Label":"20131 Milano MI, Italia","Country":"ITA","State":"Lombardia","County":"MI","City":"Milano","District":"Città Studi","PostalCode":"20131","AdditionalData":[{"value":"Italia","key":"CountryName"},{"value":"Lombardia","key":"StateName"},{"value":"Milano","key":"CountyName"}]},"MapReference":{"ReferenceId":"592389311","Spot":0.0,"SideOfStreet":"right","CountryId":"20110484","StateId":"20114907","CountyId":"20116116","CityId":"20116469"}}},{"Relevance":1.0,"Distance":60.8,"MatchLevel":"street","MatchQuality":{"Country":1.0,"State":1.0,"County":1.0,"City":1.0,"District":1.0,"Street":[1.0],"PostalCode":1.0},"Location":{"LocationId":"NT_9M3GFV8NgfGeo8LRHlN7FA_l_592389312_R","LocationType":"point","DisplayPosition":{"Latitude":45.48515,"Longitude":9.22499},"MapView":{"TopLeft":{"Latitude":45.48515,"Longitude":9.22472},"BottomRight":{"Latitude":45.48514,"Longitude":9.22499}},"Address":{"Label":"Via Alfredo Catalani, 20131 Milano MI, Italia","Country":"ITA","State":"Lombardia","County":"MI","City":"Milano","District":"Città Studi","Street":"Via Alfredo Catalani","PostalCode":"20131","AdditionalData":[{"value":"Italia","key":"CountryName"},{"value":"Lombardia","key":"StateName"},{"value":"Milano","key":"CountyName"}]},"MapReference":{"ReferenceId":"592389312","Spot":1.0,"SideOfStreet":"right","CountryId":"20110484","StateId":"20114907","CountyId":"20116116","CityId":"20116469"}}},{"Relevance":1.0,"Distance":64.3,"MatchLevel":"houseNumber","MatchQuality":{"Country":1.0,"State":1.0,"County":1.0,"City":1.0,"District":1.0,"Street":[1.0],"HouseNumber":1.0,"PostalCode":1.0},"MatchType":"interpolated","Location":{"LocationId":"NT_-B-YhiEK.c3CIwjVHdHImC_2ED","LocationType":"point","DisplayPosition":{"Latitude":45.48435,"Longitude":9.22529},"MapView":{"TopLeft":{"Latitude":45.4854742,"Longitude":9.2236866},"BottomRight":{"Latitude":45.4832258,"Longitude":9.2268934}},"Address":{"Label":"Via Vallazze, 61, 20131 Milano MI, Italia","Country":"ITA","State":"Lombardia","County":"MI","City":"Milano","District":"Città Studi","Street":"Via Vallazze","HouseNumber":"61","PostalCode":"20131","AdditionalData":[{"value":"Italia","key":"CountryName"},{"value":"Lombardia","key":"StateName"},{"value":"Milano","key":"CountyName"}]},"MapReference":{"ReferenceId":"55167292","Spot":0.49,"SideOfStreet":"left","CountryId":"20110484","StateId":"20114907","CountyId":"20116116","CityId":"20116469","AddressId":"574312492","RoadLinkId":"54827737"}}},{"Relevance":1.0,"Distance":73.8,"MatchLevel":"houseNumber","MatchQuality":{"Country":1.0,"State":1.0,"County":1.0,"City":1.0,"District":1.0,"Street":[1.0],"HouseNumber":1.0,"PostalCode":1.0},"MatchType":"interpolated","Location":{"LocationId":"NT_9M3GFV8NgfGeo8LRHlN7FA_4A","LocationType":"point","DisplayPosition":{"Latitude":45.48491,"Longitude":9.22472},"MapView":{"TopLeft":{"Latitude":45.4860342,"Longitude":9.2231166},"BottomRight":{"Latitude":45.4837858,"Longitude":9.2263234}},"Address":{"Label":"Via Alfredo Catalani, 8, 20131 Milano MI, Italia","Country":"ITA","State":"Lombardia","County":"MI","City":"Milano","District":"Città Studi","Street":"Via Alfredo Catalani","HouseNumber":"8","PostalCode":"20131","AdditionalData":[{"value":"Italia","key":"CountryName"},{"value":"Lombardia","key":"StateName"},{"value":"Milano","key":"CountyName"}]},"MapReference":{"ReferenceId":"592389306","Spot":0.72,"SideOfStreet":"right","CountryId":"20110484","StateId":"20114907","CountyId":"20116116","CityId":"20116469","AddressId":"574256394","RoadLinkId":"55424385"}}}]}]}}