{"Response":{"MetaInfo":{"Timestamp":"2020-03-28T09:56:20.366+0000","NextPageInformation":"2"},"View":[{"_type":"SearchResultsViewType","ViewId":0,"Result":[{"Relevance":1.0,"Distance":0.0,"Direction":0.0,"MatchLevel":"city","MatchQuality":{"Country":1.0,"State":1.0,"County":1.0,"City":1.0,"PostalCode":1.0},"Location":{"LocationId":"NT_SqecjIL7gwdEJ.o0jmtH5A","LocationType":"point","DisplayPosition":{"Latitude":45.4695541,"Longitude":8.8937504},"MapView":{"TopLeft":{"Latitude":45.48304,"Longitude":8.81328},"BottomRight":{"Latitude":45.41988,"Longitude":8.90742}},"Address":{"Label":"Magenta, Lombardia, Italia","Country":"ITA","State":"Lombardia","County":"MI","City":"Magenta","PostalCode":"20013","AdditionalData":[{"value":"Italia","key":"CountryName"},{"value":"Lombardia","key":"StateName"},{"value":"Milano","key":"CountyName"}]},"MapReference":{"ReferenceId":"561983231","SideOfStreet":"neither","CountryId":"20110484","StateId":"20114907","CountyId":"20116116","CityId":"20116433"}}},{"Relevance":1.0,"Distance":38.5,"MatchLevel":"houseNumber","MatchQuality":{"Country":1.0,"State":1.0,"County":1.0,"City":1.0,"Street":[1.0],"HouseNumber":1.0,"PostalCode":1.0},"MatchType":"interpolated","Location":{"LocationId":"NT_OipsyfvDJb0L4dBRBge94B_zgD","LocationType":"point","DisplayPosition":{"Latitude":45.46951,"Longitude":8.89424},"MapView":{"TopLeft":{"Latitude":45.4706342,"Longitude":8.892637},"BottomRight":{"Latitude":45.4683858,"Longitude":8.895843}},"Address":{"Label":"Via Gioacchino Rossini, 38, 20013 Magenta MI, Italia","Country":"ITA","State":"Lombardia","County":"MI","City":"Magenta","Street":"Via Gioacchino Rossini","HouseNumber":"38","PostalCode":"20013","AdditionalData":[{"value":"Italia","key":"CountryName"},{"value":"Lombardia","key":"StateName"},{"value":"Milano","key":"CountyName"}]},"MapReference":{"ReferenceId":"561992422","Spot":0.16,"SideOfStreet":"right","CountryId":"20110484","StateId":"20114907","CountyId":"20116116","CityId":"20116433","AddressId":"372135009","RoadLinkId":"55141637"}}},{"Relevance":1.0,"Distance":39.3,"MatchLevel":"houseNumber","MatchQuality":{"Country":1.0,"State":1.0,"County":1.0,"City":1.0,"Street":[1.0],"HouseNumber":1.0,"PostalCode":1.0},"MatchType":"interpolated","Location":{"LocationId":"NT_OipsyfvDJb0L4dBRBge94B_zID","LocationType":"point","DisplayPosition":{"Latitude":45.46937,"Longitude":8.89418},"MapView":{"TopLeft":{"Latitude":45.4704942,"Longitude":8.892577},"BottomRight":{"Latitude":45.4682458,"Longitude":8.895783}},"Address":{"Label":"Via Gioacchino Rossini, 32, 20013 Magenta MI, Italia","Country":"ITA","State":"Lombardia","County":"MI","City":"Magenta","Street":"Via Gioacchino Rossini","HouseNumber":"32","PostalCode":"20013","AdditionalData":[{"value":"Italia","key":"CountryName"},{"value":"Lombardia","key":"StateName"},{"value":"Milano","key":"CountyName"}]},"MapReference":{"ReferenceId":"561992421","Spot":0.83,"SideOfStreet":"right","CountryId":"20110484","StateId":"20114907","CountyId":"20116116","CityId":"20116433","AddressId":"738023905","RoadLinkId":"54913776"}}},{"Relevance":1.0,"Distance":42.5,"MatchLevel":"houseNumber","MatchQuality":{"Country":1.0,"State":1.0,"County":1.0,"City":1.0,"Street":[1.0],"HouseNumber":1.0,"PostalCode":1.0},"MatchType":"interpolated","Location":{"LocationId":"NT_5IlYDjw-8s7rdCnR0Hz65B_xQD","LocationType":"point","DisplayPosition":{"Latitude":45.46918,"Longitude":8.89386},"MapView":{"TopLeft":{"Latitude":45.4703042,"Longitude":8.892257},"BottomRight":{"Latitude":45.4680558,"Longitude":8.895463}},"Address":{"Label":"Via Don S. Celeste Tragella, 14, 20013 Magenta MI, Italia","Country":"ITA","State":"Lombardia","County":"MI","City":"Magenta","Street":"Via Don S. Celeste Tragella","HouseNumber":"14","PostalCode":"20013","AdditionalData":[{"value":"Italia","key":"CountryName"},{"value":"Lombardia","key":"StateName"},{"value":"Milano","key":"CountyName"}]},"MapReference":{"ReferenceId":"561976116","Spot":0.78,"SideOfStreet":"right","CountryId":"20110484","StateId":"20114907","CountyId":"20116116","CityId":"20116433","AddressId":"372153074","RoadLinkId":"55175564"}}},{"Relevance":1.0,"Distance":66.1,"MatchLevel":"houseNumber","MatchQuality":{"Country":1.0,"State":1.0,"County":1.0,"City":1.0,"Street":[1.0],"HouseNumber":1.0,"PostalCode":1.0},"MatchType":"interpolated","Location":{"LocationId":"NT_OipsyfvDJb0L4dBRBge94B_zAD","LocationType":"point","DisplayPosition":{"Latitude":45.46923,"Longitude":8.89304},"MapView":{"TopLeft":{"Latitude":45.4703542,"Longitude":8.891437},"BottomRight":{"Latitude":45.4681058,"Longitude":8.894643}},"Address":{"Label":"Via Gioacchino Rossini, 30, 20013 Magenta MI, Italia","Country":"ITA","State":"Lombardia","County":"MI","City":"Magenta","Street":"Via Gioacchino Rossini","HouseNumber":"30","PostalCode":"20013","AdditionalData":[{"value":"Italia","key":"CountryName"},{"value":"Lombardia","key":"StateName"},{"value":"Milano","key":"CountyName"}]},"MapReference":{"ReferenceId":"561975891","Spot":0.58,"SideOfStreet":"right","CountryId":"20110484","StateId":"20114907","CountyId":"20116116","CityId":"20116433","AddressId":"372181178","RoadLinkId":"54982312"}}},{"Relevance":1.0,"Distance":85.9,"MatchLevel":"houseNumber","MatchQuality":{"Country":1.0,"State":1.0,"County":1.0,"City":1.0,"Street":[1.0],"HouseNumber":1.0,"PostalCode":1.0},"MatchType":"interpolated","Location":{"LocationId":"NT_10FcOuJ4sCvVomorYkQVzA_xA","LocationType":"point","DisplayPosition":{"Latitude":45.46883,"Longitude":8.89442},"MapView":{"TopLeft":{"Latitude":45.4699542,"Longitude":8.892817},"BottomRight":{"Latitude":45.4677058,"Longitude":8.896023}},"Address":{"Label":"Via Giacomo Puccini, 1, 20013 Magenta MI, Italia","Country":"ITA","State":"Lombardia","County":"MI","City":"Magenta","Street":"Via Giacomo Puccini","HouseNumber":"1","PostalCode":"20013","AdditionalData":[{"value":"Italia","key":"CountryName"},{"value":"Lombardia","key":"StateName"},{"value":"Milano","key":"CountyName"}]},"MapReference":{"ReferenceId":"561976114","Spot":0.21,"SideOfStreet":"left","CountryId":"20110484","StateId":"20114907","CountyId":"20116116","CityId":"20116433","AddressId":"372133850","RoadLinkId":"55144814"}}},{"Relevance":1.0,"Distance":119.7,"MatchLevel":"street","MatchQuality":{"Country":1.0,"State":1.0,"County":1.0,"City":1.0,"Street":[1.0],"PostalCode":1.0},"Location":{"LocationId":"NT_2TyFbXg-5-Dx-zk7zYl78B_l_592389752_R","LocationType":"point","DisplayPosition":{"Latitude":45.46984,"Longitude":8.89227},"MapView":{"TopLeft":{"Latitude":45.46984,"Longitude":8.89187},"BottomRight":{"Latitude":45.46981,"Longitude":8.89227}},"Address":{"Label":"Via al Donatore di Sangue, 20013 Magenta MI, Italia","Country":"ITA","State":"Lombardia","County":"MI","City":"Magenta","Street":"Via al Donatore di Sangue","PostalCode":"20013","AdditionalData":[{"value":"Italia","key":"CountryName"},{"value":"Lombardia","key":"StateName"},{"value":"Milano","key":"CountyName"}]},"MapReference":{"ReferenceId":"592389752","Spot":1.0,"SideOfStreet":"right","CountryId":"20110484","StateId":"20114907","CountyId":"20116116","CityId":"20116433"}}},{"Relevance":1.0,"Distance":123.3,"MatchLevel":"houseNumber","MatchQuality":{"Country":1.0,"State":1.0,"County":1.0,"City":1.0,"Street":[1.0],"HouseNumber":1.0,"PostalCode":1.0},"MatchType":"interpolated","Location":{"LocationId":"NT_ONTh2WzOSFbc4UGEuvpqbC_xID","LocationType":"point","DisplayPosition":{"Latitude":45.46847,"Longitude":8.89408},"MapView":{"TopLeft":{"Latitude":45.4695942,"Longitude":8.892477},"BottomRight":{"Latitude":45.4673458,"Longitude":8.895683}},"Address":{"Label":"Via Don Tragella, 12, 20013 Magenta MI, Italia","Country":"ITA","State":"Lombardia","County":"MI","City":"Magenta","Street":"Via Don Tragella","HouseNumber":"12","PostalCode":"20013","AdditionalData":[{"value":"Italia","key":"CountryName"},{"value":"Lombardia","key":"StateName"},{"value":"Milano","key":"CountyName"}]},"MapReference":{"ReferenceId":"1157132508","Spot":0.62,"SideOfStreet":"right","CountryId":"20110484","StateId":"20114907","CountyId":"20116116","CityId":"20116433","AddressId":"776953864","RoadLinkId":"555066066"}}},{"Relevance":1.0,"Distance":143.8,"MatchLevel":"houseNumber","MatchQuality":{"Country":1.0,"State":1.0,"County":1.0,"City":1.0,"Street":[1.0],"HouseNumber":1.0,"PostalCode":1.0},"MatchType":"interpolated","Location":{"LocationId":"NT_2TyFbXg-5-Dx-zk7zYl78B_zcD","LocationType":"point","DisplayPosition":{"Latitude":45.46931,"Longitude":8.89194},"MapView":{"TopLeft":{"Latitude":45.4704342,"Longitude":8.890337},"BottomRight":{"Latitude":45.4681858,"Longitude":8.893543}},"Address":{"Label":"Via al Donatore di Sangue, 37, 20013 Magenta MI, Italia","Country":"ITA","State":"Lombardia","County":"MI","City":"Magenta","Street":"Via al Donatore di Sangue","HouseNumber":"37","PostalCode":"20013","AdditionalData":[{"value":"Italia","key":"CountryName"},{"value":"Lombardia","key":"StateName"},{"value":"Milano","key":"CountyName"}]},"MapReference":{"ReferenceId":"592389753","Spot":0.22,"SideOfStreet":"left","CountryId":"20110484","StateId":"20114907","CountyId":"20116116","CityId":"20116433","AddressId":"372184514","RoadLinkId":"54933923"}}},{"Relevance":1.0,"Distance":147.5,"MatchLevel":"houseNumber","MatchQuality":{"Country":1.0,"State":1.0,"County":1.0,"City":1.0,"Street":[1.0],"HouseNumber":1.0,"PostalCode":1.0},"MatchType":"interpolated","Location":{"LocationId":"NT_2TyFbXg-5-Dx-zk7zYl78B_0AD","LocationType":"point","DisplayPosition":{"Latitude":45.46869,"Longitude":8.89212},"MapView":{"TopLeft":{"Latitude":45.4698142,"Longitude":8.890517},"BottomRight":{"Latitude":45.4675658,"Longitude":8.893723}},"Address":{"Label":"Via al Donatore di Sangue, 40, 20013 Magenta MI, Italia","Country":"ITA","State":"Lombardia","County":"MI","City":"Magenta","Street":"Via al Donatore di Sangue","HouseNumber":"40","PostalCode":"20013","AdditionalData":[{"value":"Italia","key":"CountryName"},{"value":"Lombardia","key":"StateName"},{"value":"Milano","key":"CountyName"}]},"MapReference":{"ReferenceId":"1211043873","Spot":0.15,"SideOfStreet":"right","CountryId":"20110484","StateId":"20114907","CountyId":"20116116","CityId":"20116433","AddressId":"372133789","RoadLinkId":"526201655"}}}]}]}}