{"Response":{"MetaInfo":{"Timestamp":"2020-03-28T10:28:24.013+0000","NextPageInformation":"2"},"View":[{"_type":"SearchResultsViewType","ViewId":0,"Result":[{"Relevance":1.0,"Distance":0.0,"Direction":0.0,"MatchLevel":"city","MatchQuality":{"Country":1.0,"State":1.0,"County":1.0,"City":1.0,"PostalCode":1.0},"Location":{"LocationId":"NT_Se9UOYoebk7-NG.4MF3ByB","LocationType":"point","DisplayPosition":{"Latitude":45.4807413,"Longitude":0.2734961},"MapView":{"TopLeft":{"Latitude":45.49982,"Longitude":0.26179},"BottomRight":{"Latitude":45.45636,"Longitude":0.30237}},"Address":{"Label":"Villebois-Lavalette, Nouvelle-Aquitaine, France","Country":"FRA","State":"Nouvelle-Aquitaine","County":"Charente","City":"Villebois-Lavalette","PostalCode":"16320","AdditionalData":[{"value":"France","key":"CountryName"},{"value":"Nouvelle-Aquitaine","key":"StateName"},{"value":"Charente","key":"CountyName"}]},"MapReference":{"ReferenceId":"57552384","SideOfStreet":"neither","CountryId":"20000001","StateId":"20000383","CountyId":"20087642","CityId":"20088804"}}},{"Relevance":1.0,"Distance":50.2,"MatchLevel":"houseNumber","MatchQuality":{"Country":1.0,"State":1.0,"County":1.0,"City":1.0,"Street":[1.0],"HouseNumber":1.0,"PostalCode":1.0},"MatchType":"interpolated","Location":{"LocationId":"NT_Vf-uCMyq3g6qJpR0hS-msC_xAzN","LocationType":"point","DisplayPosition":{"Latitude":45.48117,"Longitude":0.27293},"MapView":{"TopLeft":{"Latitude":45.4822942,"Longitude":0.2713267},"BottomRight":{"Latitude":45.4800458,"Longitude":0.2745333}},"Address":{"Label":"107 Impasse du Lion d'Or, 16320 Villebois-Lavalette, France","Country":"FRA","State":"Nouvelle-Aquitaine","County":"Charente","City":"Villebois-Lavalette","Street":"Impasse du Lion d'Or","HouseNumber":"107","PostalCode":"16320","AdditionalData":[{"value":"France","key":"CountryName"},{"value":"Nouvelle-Aquitaine","key":"StateName"},{"value":"Charente","key":"CountyName"}]},"MapReference":{"ReferenceId":"566884210","Spot":1.0,"SideOfStreet":"right","CountryId":"20000001","StateId":"20000383","CountyId":"20087642","CityId":"20088804","AddressId":"388674632","RoadLinkId":"47515630"}}},{"Relevance":1.0,"Distance":59.1,"MatchLevel":"houseNumber","MatchQuality":{"Country":1.0,"State":1.0,"County":1.0,"City":1.0,"Street":[1.0],"HouseNumber":1.0,"PostalCode":1.0},"MatchType":"interpolated","Location":{"LocationId":"NT_szVPKsCVDSzo8DtFqUro8A_yAD","LocationType":"point","DisplayPosition":{"Latitude":45.48042,"Longitude":0.27416},"MapView":{"TopLeft":{"Latitude":45.4815442,"Longitude":0.2725567},"BottomRight":{"Latitude":45.4792958,"Longitude":0.2757633}},"Address":{"Label":"20 Rue du Collège, 16320 Villebois-Lavalette, France","Country":"FRA","State":"Nouvelle-Aquitaine","County":"Charente","City":"Villebois-Lavalette","Street":"Rue du Collège","HouseNumber":"20","PostalCode":"16320","AdditionalData":[{"value":"France","key":"CountryName"},{"value":"Nouvelle-Aquitaine","key":"StateName"},{"value":"Charente","key":"CountyName"}]},"MapReference":{"ReferenceId":"858791104","Spot":0.0,"SideOfStreet":"left","CountryId":"20000001","StateId":"20000383","CountyId":"20087642","CityId":"20088804","AddressId":"573159669","RoadLinkId":"234579819"}}},{"Relevance":1.0,"Distance":62.8,"MatchLevel":"houseNumber","MatchQuality":{"Country":1.0,"State":1.0,"County":1.0,"City":1.0,"Street":[1.0],"HouseNumber":1.0,"PostalCode":1.0},"MatchType":"interpolated","Location":{"LocationId":"NT_szVPKsCVDSzo8DtFqUro8A_yID","LocationType":"point","DisplayPosition":{"Latitude":45.48027,"Longitude":0.27407},"MapView":{"TopLeft":{"Latitude":45.4813942,"Longitude":0.2724667},"BottomRight":{"Latitude":45.4791458,"Longitude":0.2756733}},"Address":{"Label":"22 Rue du Collège, 16320 Villebois-Lavalette, France","Country":"FRA","State":"Nouvelle-Aquitaine","County":"Charente","City":"Villebois-Lavalette","Street":"Rue du Collège","HouseNumber":"22","PostalCode":"16320","AdditionalData":[{"value":"France","key":"CountryName"},{"value":"Nouvelle-Aquitaine","key":"StateName"},{"value":"Charente","key":"CountyName"}]},"MapReference":{"ReferenceId":"858791103","Spot":0.85,"SideOfStreet":"left","CountryId":"20000001","StateId":"20000383","CountyId":"20087642","CityId":"20088804","AddressId":"388668333","RoadLinkId":"234579818"}}},{"Relevance":1.0,"Distance":78.5,"MatchLevel":"houseNumber","MatchQuality":{"Country":1.0,"State":1.0,"County":1.0,"City":1.0,"Street":[1.0],"HouseNumber":1.0,"PostalCode":1.0},"MatchType":"interpolated","Location":{"LocationId":"NT_K4rKKVEHbF-3GM4zf1KlNA_xUD","LocationType":"point","DisplayPosition":{"Latitude":45.48023,"Longitude":0.27268},"MapView":{"TopLeft":{"Latitude":45.4813542,"Longitude":0.2710767},"BottomRight":{"Latitude":45.4791058,"Longitude":0.2742833}},"Address":{"Label":"15 Rue du Lion d'Or, 16320 Villebois-Lavalette, France","Country":"FRA","State":"Nouvelle-Aquitaine","County":"Charente","City":"Villebois-Lavalette","Street":"Rue du Lion d'Or","HouseNumber":"15","PostalCode":"16320","AdditionalData":[{"value":"France","key":"CountryName"},{"value":"Nouvelle-Aquitaine","key":"StateName"},{"value":"Charente","key":"CountyName"}]},"MapReference":{"ReferenceId":"566884217","Spot":0.39,"SideOfStreet":"right","CountryId":"20000001","StateId":"20000383","CountyId":"20087642","CityId":"20088804","AddressId":"388678296","RoadLinkId":"46841454"}}},{"Relevance":1.0,"Distance":118.2,"MatchLevel":"houseNumber","MatchQuality":{"Country":1.0,"State":1.0,"County":1.0,"City":1.0,"Street":[1.0],"HouseNumber":1.0,"PostalCode":1.0},"MatchType":"interpolated","Location":{"LocationId":"NT_K4rKKVEHbF-3GM4zf1KlNA_1A","LocationType":"point","DisplayPosition":{"Latitude":45.48109,"Longitude":0.27203},"MapView":{"TopLeft":{"Latitude":45.4822142,"Longitude":0.2704267},"BottomRight":{"Latitude":45.4799658,"Longitude":0.2736333}},"Address":{"Label":"5 Rue du Lion d'Or, 16320 Villebois-Lavalette, France","Country":"FRA","State":"Nouvelle-Aquitaine","County":"Charente","City":"Villebois-Lavalette","Street":"Rue du Lion d'Or","HouseNumber":"5","PostalCode":"16320","AdditionalData":[{"value":"France","key":"CountryName"},{"value":"Nouvelle-Aquitaine","key":"StateName"},{"value":"Charente","key":"CountyName"}]},"MapReference":{"ReferenceId":"566884209","Spot":0.16,"SideOfStreet":"right","CountryId":"20000001","StateId":"20000383","CountyId":"20087642","CityId":"20088804","AddressId":"388678746","RoadLinkId":"47874433"}}},{"Relevance":1.0,"Distance":118.4,"MatchLevel":"houseNumber","MatchQuality":{"Country":1.0,"State":1.0,"County":1.0,"City":1.0,"Street":[1.0],"HouseNumber":1.0,"PostalCode":1.0},"MatchType":"interpolated","Location":{"LocationId":"NT_K4rKKVEHbF-3GM4zf1KlNA_yED","LocationType":"point","DisplayPosition":{"Latitude":45.47969,"Longitude":0.27304},"MapView":{"TopLeft":{"Latitude":45.4808142,"Longitude":0.2714367},"BottomRight":{"Latitude":45.4785658,"Longitude":0.2746433}},"Address":{"Label":"21 Rue du Lion d'Or, 16320 Villebois-Lavalette, France","Country":"FRA","State":"Nouvelle-Aquitaine","County":"Charente","City":"Villebois-Lavalette","Street":"Rue du Lion d'Or","HouseNumber":"21","PostalCode":"16320","AdditionalData":[{"value":"France","key":"CountryName"},{"value":"Nouvelle-Aquitaine","key":"StateName"},{"value":"Charente","key":"CountyName"}]},"MapReference":{"ReferenceId":"566884219","Spot":0.87,"SideOfStreet":"right","CountryId":"20000001","StateId":"20000383","CountyId":"20087642","CityId":"20088804","AddressId":"388678735","RoadLinkId":"46819266"}}},{"Relevance":1.0,"Distance":122.3,"MatchLevel":"houseNumber","MatchQuality":{"Country":1.0,"State":1.0,"County":1.0,"City":1.0,"Street":[1.0],"HouseNumber":1.0,"PostalCode":1.0},"MatchType":"interpolated","Location":{"LocationId":"NT_OEu6KHzupmBJdqSYsGTurA_4UD","LocationType":"point","DisplayPosition":{"Latitude":45.48194,"Longitude":0.27318},"MapView":{"TopLeft":{"Latitude":45.4830642,"Longitude":0.2715767},"BottomRight":{"Latitude":45.4808158,"Longitude":0.2747833}},"Address":{"Label":"85 Grand'Rue, 16320 Villebois-Lavalette, France","Country":"FRA","State":"Nouvelle-Aquitaine","County":"Charente","City":"Villebois-Lavalette","Street":"Grand'Rue","HouseNumber":"85","PostalCode":"16320","AdditionalData":[{"value":"France","key":"CountryName"},{"value":"Nouvelle-Aquitaine","key":"StateName"},{"value":"Charente","key":"CountyName"}]},"MapReference":{"ReferenceId":"548582153","Spot":0.29,"SideOfStreet":"right","CountryId":"20000001","StateId":"20000383","CountyId":"20087642","CityId":"20088804","AddressId":"388676097","RoadLinkId":"151820301"}}},{"Relevance":1.0,"Distance":126.5,"MatchLevel":"houseNumber","MatchQuality":{"Country":1.0,"State":1.0,"County":1.0,"City":1.0,"Street":[1.0],"HouseNumber":1.0,"PostalCode":1.0},"MatchType":"interpolated","Location":{"LocationId":"NT_K4rKKVEHbF-3GM4zf1KlNA_yID","LocationType":"point","DisplayPosition":{"Latitude":45.47967,"Longitude":0.27295},"MapView":{"TopLeft":{"Latitude":45.4807942,"Longitude":0.2713467},"BottomRight":{"Latitude":45.4785458,"Longitude":0.2745533}},"Address":{"Label":"22 Rue du Lion d'Or, 16320 Villebois-Lavalette, France","Country":"FRA","State":"Nouvelle-Aquitaine","County":"Charente","City":"Villebois-Lavalette","Street":"Rue du Lion d'Or","HouseNumber":"22","PostalCode":"16320","AdditionalData":[{"value":"France","key":"CountryName"},{"value":"Nouvelle-Aquitaine","key":"StateName"},{"value":"Charente","key":"CountyName"}]},"MapReference":{"ReferenceId":"566884221","Spot":0.0,"SideOfStreet":"left","CountryId":"20000001","StateId":"20000383","CountyId":"20087642","CityId":"20088804","AddressId":"388678614","RoadLinkId":"46296912"}}},{"Relevance":1.0,"Distance":133.1,"MatchLevel":"houseNumber","MatchQuality":{"Country":1.0,"State":1.0,"County":1.0,"City":1.0,"Street":[1.0],"HouseNumber":1.0,"PostalCode":1.0},"MatchType":"interpolated","Location":{"LocationId":"NT_K4rKKVEHbF-3GM4zf1KlNA_yQD","LocationType":"point","DisplayPosition":{"Latitude":45.4796,"Longitude":0.27298},"MapView":{"TopLeft":{"Latitude":45.4807242,"Longitude":0.2713767},"BottomRight":{"Latitude":45.4784758,"Longitude":0.2745833}},"Address":{"Label":"24 Rue du Lion d'Or, 16320 Villebois-Lavalette, France","Country":"FRA","State":"Nouvelle-Aquitaine","County":"Charente","City":"Villebois-Lavalette","Street":"Rue du Lion d'Or","HouseNumber":"24","PostalCode":"16320","AdditionalData":[{"value":"France","key":"CountryName"},{"value":"Nouvelle-Aquitaine","key":"StateName"},{"value":"Charente","key":"CountyName"}]},"MapReference":{"ReferenceId":"566884220","Spot":0.84,"SideOfStreet":"left","CountryId":"20000001","StateId":"20000383","CountyId":"20087642","CityId":"20088804","AddressId":"388678388","RoadLinkId":"46830304"}}}]}]}}