{"Response":{"MetaInfo":{"Timestamp":"2020-03-28T11:35:07.372+0000","NextPageInformation":"2"},"View":[{"_type":"SearchResultsViewType","ViewId":0,"Result":[{"Relevance":1.0,"Distance":0.0,"Direction":0.0,"MatchLevel":"city","MatchQuality":{"Country":1.0,"County":1.0,"City":1.0,"PostalCode":1.0},"Location":{"LocationId":"NT_kJQCcvPKqAnDa09xbnge4A","LocationType":"point","DisplayPosition":{"Latitude":45.4276826,"Longitude":25.5541617},"MapView":{"TopLeft":{"Latitude":45.50067,"Longitude":25.53165},"BottomRight":{"Latitude":45.40973,"Longitude":25.71162}},"Address":{"Label":"Azuga, România","Country":"ROU","County":"Prahova","City":"Azuga","PostalCode":"105100","AdditionalData":[{"value":"România","key":"CountryName"},{"value":"Prahova","key":"CountyName"}]},"MapReference":{"ReferenceId":"845646393","SideOfStreet":"neither","CountryId":"20656215","CountyId":"20661777","CityId":"23766043"}}},{"Relevance":1.0,"Distance":62.3,"MatchLevel":"landmark","MatchQuality":{"Country":1.0,"County":1.0,"City":1.0,"Street":[1.0],"PostalCode":1.0,"Name":1.0},"Location":{"LocationId":"NT_KIvyNAnifuBxsQZY3dbdMA_p_lErRH7u-KAyxC2MJOEUqXA","LocationType":"park","Name":"Parcul Natural Bucegi","DisplayPosition":{"Latitude":45.38383,"Longitude":25.47495},"MapView":{"TopLeft":{"Latitude":45.51624,"Longitude":25.34056},"BottomRight":{"Latitude":45.24749,"Longitude":25.68241}},"Address":{"Label":"DJ713, 137310 Moroeni, România","Country":"ROU","County":"Dâmbovița","City":"Moroeni","Street":"DJ713","PostalCode":"137310","AdditionalData":[{"value":"România","key":"CountryName"},{"value":"Dâmbovița","key":"CountyName"}]},"MapReference":{"CountryId":"20656215","CountyId":"20659026","CityId":"23759626","PlaceId":"1159535262"}}},{"Relevance":1.0,"Distance":62.5,"MatchLevel":"street","MatchQuality":{"Country":1.0,"County":1.0,"City":1.0,"Street":[1.0],"PostalCode":1.0},"Location":{"LocationId":"NT_FdrOKdFqWFV9QXbvTtAl9A_l_1130357076_R","LocationType":"point","DisplayPosition":{"Latitude":45.42824,"Longitude":25.55426},"MapView":{"TopLeft":{"Latitude":45.42927,"Longitude":25.55426},"BottomRight":{"Latitude":45.42824,"Longitude":25.55456}},"Address":{"Label":"Strada Victoriei, 105100 Azuga, România","Country":"ROU","County":"Prahova","City":"Azuga","Street":"Strada Victoriei","PostalCode":"105100","AdditionalData":[{"value":"România","key":"CountryName"},{"value":"Prahova","key":"CountyName"}]},"MapReference":{"ReferenceId":"1130357076","Spot":0.0,"SideOfStreet":"right","CountryId":"20656215","CountyId":"20661777","CityId":"23766043"}}},{"Relevance":1.0,"Distance":84.6,"MatchLevel":"houseNumber","MatchQuality":{"Country":1.0,"County":1.0,"City":1.0,"Street":[1.0],"HouseNumber":1.0,"PostalCode":1.0},"MatchType":"interpolated","Location":{"LocationId":"NT_FdrOKdFqWFV9QXbvTtAl9A_yA","LocationType":"point","DisplayPosition":{"Latitude":45.42694,"Longitude":25.55386},"MapView":{"TopLeft":{"Latitude":45.4280642,"Longitude":25.5522582},"BottomRight":{"Latitude":45.4258158,"Longitude":25.5554618}},"Address":{"Label":"Strada Victoriei 2, 105100 Azuga, România","Country":"ROU","County":"Prahova","City":"Azuga","Street":"Strada Victoriei","HouseNumber":"2","PostalCode":"105100","AdditionalData":[{"value":"România","key":"CountryName"},{"value":"Prahova","key":"CountyName"}]},"MapReference":{"ReferenceId":"1130357075","Spot":0.55,"SideOfStreet":"right","CountryId":"20656215","CountyId":"20661777","CityId":"23766043","AddressId":"677446589","RoadLinkId":"440382260"}}},{"Relevance":1.0,"Distance":96.6,"MatchLevel":"landmark","MatchQuality":{"Country":1.0,"Name":1.0},"Location":{"LocationId":"NT_JcNQqhIxdXoFdj0D.2urLA","LocationType":"river","Name":"Prahova","DisplayPosition":{"Latitude":44.88522,"Longitude":25.87499},"MapView":{"TopLeft":{"Latitude":45.49846,"Longitude":25.53638},"BottomRight":{"Latitude":44.75275,"Longitude":26.45797}},"Address":{"Label":"România","Country":"ROU","AdditionalData":[{"value":"România","key":"CountryName"}]},"MapReference":{"CountryId":"20656215","PlaceId":"1515508851"}}},{"Relevance":1.0,"Distance":103.6,"MatchLevel":"street","MatchQuality":{"Country":1.0,"County":1.0,"City":1.0,"Street":[1.0],"PostalCode":1.0},"Location":{"LocationId":"NT_djF-PtOymjb9nABrrjy1OD_l_916135614_R","LocationType":"point","DisplayPosition":{"Latitude":45.42842,"Longitude":25.55335},"MapView":{"TopLeft":{"Latitude":45.42842,"Longitude":25.55276},"BottomRight":{"Latitude":45.42741,"Longitude":25.55335}},"Address":{"Label":"DN1, 105100 Azuga, România","Country":"ROU","County":"Prahova","City":"Azuga","Street":"DN1","PostalCode":"105100","AdditionalData":[{"value":"România","key":"CountryName"},{"value":"Prahova","key":"CountyName"}]},"MapReference":{"ReferenceId":"916135614","Spot":1.0,"SideOfStreet":"right","CountryId":"20656215","CountyId":"20661777","CityId":"23766043"}}},{"Relevance":1.0,"Distance":105.2,"MatchLevel":"street","MatchQuality":{"Country":1.0,"County":1.0,"City":1.0,"Street":[1.0],"PostalCode":1.0},"Location":{"LocationId":"NT_AJYaDRUo7mt8qNKQihjeHC_l_1194772090_R","LocationType":"point","DisplayPosition":{"Latitude":45.4284572,"Longitude":25.5533872},"MapView":{"TopLeft":{"Latitude":45.42915,"Longitude":25.55335},"BottomRight":{"Latitude":45.42842,"Longitude":25.55418}},"Address":{"Label":"DN1, 105100 Azuga, România","Country":"ROU","County":"Prahova","City":"Azuga","Street":"DN1","PostalCode":"105100","AdditionalData":[{"value":"România","key":"CountryName"},{"value":"Prahova","key":"CountyName"}]},"MapReference":{"ReferenceId":"1194772090","Spot":0.05,"SideOfStreet":"right","CountryId":"20656215","CountyId":"20661777","CityId":"23766043"}}},{"Relevance":1.0,"Distance":113.5,"MatchLevel":"street","MatchQuality":{"Country":1.0,"County":1.0,"City":1.0,"Street":[1.0],"PostalCode":1.0},"Location":{"LocationId":"NT_AJYaDRUo7mt8qNKQihjeHC_l_837246286_R","LocationType":"point","DisplayPosition":{"Latitude":45.42741,"Longitude":25.55276},"MapView":{"TopLeft":{"Latitude":45.42741,"Longitude":25.55274},"BottomRight":{"Latitude":45.42697,"Longitude":25.55277}},"Address":{"Label":"DN1, 105100 Azuga, România","Country":"ROU","County":"Prahova","City":"Azuga","Street":"DN1","PostalCode":"105100","AdditionalData":[{"value":"România","key":"CountryName"},{"value":"Prahova","key":"CountyName"}]},"MapReference":{"ReferenceId":"837246286","Spot":1.0,"SideOfStreet":"right","CountryId":"20656215","CountyId":"20661777","CityId":"23766043"}}},{"Relevance":1.0,"Distance":126.6,"MatchLevel":"street","MatchQuality":{"Country":1.0,"County":1.0,"City":1.0,"PostalCode":1.0},"Location":{"LocationId":"NT_dniu096edqiQpavUQUfzOB_l_1194930849_R","LocationType":"point","DisplayPosition":{"Latitude":45.42681,"Longitude":25.55312},"MapView":{"TopLeft":{"Latitude":45.42697,"Longitude":25.55277},"BottomRight":{"Latitude":45.42652,"Longitude":25.55315}},"Address":{"Label":"105100 Azuga, România","Country":"ROU","County":"Prahova","City":"Azuga","PostalCode":"105100","AdditionalData":[{"value":"România","key":"CountryName"},{"value":"Prahova","key":"CountyName"}]},"MapReference":{"ReferenceId":"1194930849","Spot":0.42,"SideOfStreet":"right","CountryId":"20656215","CountyId":"20661777","CityId":"23766043"}}},{"Relevance":1.0,"Distance":134.4,"MatchLevel":"street","MatchQuality":{"Country":1.0,"County":1.0,"City":1.0,"Street":[1.0],"PostalCode":1.0},"Location":{"LocationId":"NT_djF-PtOymjb9nABrrjy1OD_l_1194930847_R","LocationType":"point","DisplayPosition":{"Latitude":45.42697,"Longitude":25.55277},"MapView":{"TopLeft":{"Latitude":45.42697,"Longitude":25.55277},"BottomRight":{"Latitude":45.42617,"Longitude":25.55293}},"Address":{"Label":"DN1, 105100 Azuga, România","Country":"ROU","County":"Prahova","City":"Azuga","Street":"DN1","PostalCode":"105100","AdditionalData":[{"value":"România","key":"CountryName"},{"value":"Prahova","key":"CountyName"}]},"MapReference":{"ReferenceId":"1194930847","Spot":1.0,"SideOfStreet":"right","CountryId":"20656215","CountyId":"20661777","CityId":"23766043"}}}]}]}}