{"Response":{"MetaInfo":{"Timestamp":"2020-03-28T11:25:59.241+0000","NextPageInformation":"2"},"View":[{"_type":"SearchResultsViewType","ViewId":0,"Result":[{"Relevance":1.0,"Distance":0.0,"Direction":0.0,"MatchLevel":"district","MatchQuality":{"Country":1.0,"State":1.0,"County":1.0,"City":1.0,"District":1.0,"PostalCode":1.0},"Location":{"LocationId":"NT_PTrKt6ZGCirX4J-BCg.olB","LocationType":"point","DisplayPosition":{"Latitude":45.4641287,"Longitude":9.1715329},"MapView":{"TopLeft":{"Latitude":45.46794,"Longitude":9.16428},"BottomRight":{"Latitude":45.45742,"Longitude":9.17684}},"Address":{"Label":"Magenta, Milano, Lombardia, Italia","Country":"ITA","State":"Lombardia","County":"MI","City":"Milano","District":"Magenta","PostalCode":"20123","AdditionalData":[{"value":"Italia","key":"CountryName"},{"value":"Lombardia","key":"StateName"},{"value":"Milano","key":"CountyName"}]},"MapReference":{"ReferenceId":"55180943","SideOfStreet":"neither","CountryId":"20110484","StateId":"20114907","CountyId":"20116116","CityId":"20116469"}}},{"Relevance":1.0,"Distance":12.4,"MatchLevel":"houseNumber","MatchQuality":{"Country":1.0,"State":1.0,"County":1.0,"City":1.0,"District":1.0,"Street":[1.0],"HouseNumber":1.0,"PostalCode":1.0},"MatchType":"interpolated","Location":{"LocationId":"NT_qUDYThzER7qnMj4zNC3vnA_xA","LocationType":"point","DisplayPosition":{"Latitude":45.46424,"Longitude":9.17154},"MapView":{"TopLeft":{"Latitude":45.4653642,"Longitude":9.1699372},"BottomRight":{"Latitude":45.4631158,"Longitude":9.1731428}},"Address":{"Label":"Via San Giovanni di Dio, 1, 20123 Milano MI, Italia","Country":"ITA","State":"Lombardia","County":"MI","City":"Milano","District":"Magenta","Street":"Via San Giovanni di Dio","HouseNumber":"1","PostalCode":"20123","AdditionalData":[{"value":"Italia","key":"CountryName"},{"value":"Lombardia","key":"StateName"},{"value":"Milano","key":"CountyName"}]},"MapReference":{"ReferenceId":"55181873","Spot":0.87,"SideOfStreet":"right","CountryId":"20110484","StateId":"20114907","CountyId":"20116116","CityId":"20116469","AddressId":"728831926","RoadLinkId":"55567442"}}},{"Relevance":1.0,"Distance":23.1,"MatchLevel":"houseNumber","MatchQuality":{"Country":1.0,"State":1.0,"County":1.0,"City":1.0,"District":1.0,"Street":[1.0],"HouseNumber":1.0,"PostalCode":1.0},"MatchType":"interpolated","Location":{"LocationId":"NT_AGU5OcGfW-Uosex3praCkC_3A","LocationType":"point","DisplayPosition":{"Latitude":45.46435,"Longitude":9.1718},"MapView":{"TopLeft":{"Latitude":45.4654742,"Longitude":9.1701972},"BottomRight":{"Latitude":45.4632258,"Longitude":9.1734028}},"Address":{"Label":"Via Giovannino De Grassi, 7, 20123 Milano MI, Italia","Country":"ITA","State":"Lombardia","County":"MI","City":"Milano","District":"Magenta","Street":"Via Giovannino De Grassi","HouseNumber":"7","PostalCode":"20123","AdditionalData":[{"value":"Italia","key":"CountryName"},{"value":"Lombardia","key":"StateName"},{"value":"Milano","key":"CountyName"}]},"MapReference":{"ReferenceId":"55433343","Spot":0.87,"SideOfStreet":"left","CountryId":"20110484","StateId":"20114907","CountyId":"20116116","CityId":"20116469","AddressId":"574270825","RoadLinkId":"55873847"}}},{"Relevance":1.0,"Distance":29.4,"MatchLevel":"houseNumber","MatchQuality":{"Country":1.0,"State":1.0,"County":1.0,"City":1.0,"District":1.0,"Street":[1.0],"HouseNumber":1.0,"PostalCode":1.0},"MatchType":"interpolated","Location":{"LocationId":"NT_AGU5OcGfW-Uosex3praCkC_5A","LocationType":"point","DisplayPosition":{"Latitude":45.46447,"Longitude":9.17142},"MapView":{"TopLeft":{"Latitude":45.4655942,"Longitude":9.1698172},"BottomRight":{"Latitude":45.4633458,"Longitude":9.1730228}},"Address":{"Label":"Via Giovannino De Grassi, 9, 20123 Milano MI, Italia","Country":"ITA","State":"Lombardia","County":"MI","City":"Milano","District":"Magenta","Street":"Via Giovannino De Grassi","HouseNumber":"9","PostalCode":"20123","AdditionalData":[{"value":"Italia","key":"CountryName"},{"value":"Lombardia","key":"StateName"},{"value":"Milano","key":"CountyName"}]},"MapReference":{"ReferenceId":"55181871","Spot":0.13,"SideOfStreet":"left","CountryId":"20110484","StateId":"20114907","CountyId":"20116116","CityId":"20116469","AddressId":"574309815","RoadLinkId":"55601111"}}},{"Relevance":1.0,"Distance":108.4,"MatchLevel":"houseNumber","MatchQuality":{"Country":1.0,"State":1.0,"County":1.0,"City":1.0,"District":1.0,"Street":[1.0],"HouseNumber":1.0,"PostalCode":1.0},"MatchType":"interpolated","Location":{"LocationId":"NT_bHxDXuIwVxyQBBs9zHJdyA_yAD","LocationType":"point","DisplayPosition":{"Latitude":45.46358,"Longitude":9.17281},"MapView":{"TopLeft":{"Latitude":45.4647042,"Longitude":9.1712072},"BottomRight":{"Latitude":45.4624558,"Longitude":9.1744128}},"Address":{"Label":"Via Aristide De Togni, 20, 20123 Milano MI, Italia","Country":"ITA","State":"Lombardia","County":"MI","City":"Milano","District":"Magenta","Street":"Via Aristide De Togni","HouseNumber":"20","PostalCode":"20123","AdditionalData":[{"value":"Italia","key":"CountryName"},{"value":"Lombardia","key":"StateName"},{"value":"Milano","key":"CountyName"}]},"MapReference":{"ReferenceId":"55180964","Spot":0.67,"SideOfStreet":"left","CountryId":"20110484","StateId":"20114907","CountyId":"20116116","CityId":"20116469","AddressId":"574243641","RoadLinkId":"54715219"}}},{"Relevance":1.0,"Distance":108.6,"MatchLevel":"houseNumber","MatchQuality":{"Country":1.0,"State":1.0,"County":1.0,"City":1.0,"District":1.0,"Street":[1.0],"HouseNumber":1.0,"PostalCode":1.0},"MatchType":"interpolated","Location":{"LocationId":"NT_G-5OXG6oY8YjLj0TGI7LoD_xQD","LocationType":"point","DisplayPosition":{"Latitude":45.46312,"Longitude":9.17116},"MapView":{"TopLeft":{"Latitude":45.4642442,"Longitude":9.1695572},"BottomRight":{"Latitude":45.4619958,"Longitude":9.1727628}},"Address":{"Label":"Via San Vittore, 14, 20123 Milano MI, Italia","Country":"ITA","State":"Lombardia","County":"MI","City":"Milano","District":"Magenta","Street":"Via San Vittore","HouseNumber":"14","PostalCode":"20123","AdditionalData":[{"value":"Italia","key":"CountryName"},{"value":"Lombardia","key":"StateName"},{"value":"Milano","key":"CountyName"}]},"MapReference":{"ReferenceId":"55180942","Spot":0.79,"SideOfStreet":"right","CountryId":"20110484","StateId":"20114907","CountyId":"20116116","CityId":"20116469","AddressId":"574288541","RoadLinkId":"54695636"}}},{"Relevance":1.0,"Distance":110.1,"MatchLevel":"houseNumber","MatchQuality":{"Country":1.0,"State":1.0,"County":1.0,"City":1.0,"District":1.0,"Street":[1.0],"HouseNumber":1.0,"PostalCode":1.0},"MatchType":"interpolated","Location":{"LocationId":"NT_G-5OXG6oY8YjLj0TGI7LoD_xYD","LocationType":"point","DisplayPosition":{"Latitude":45.46327,"Longitude":9.17062},"MapView":{"TopLeft":{"Latitude":45.4643942,"Longitude":9.1690172},"BottomRight":{"Latitude":45.4621458,"Longitude":9.1722228}},"Address":{"Label":"Via San Vittore, 16, 20123 Milano MI, Italia","Country":"ITA","State":"Lombardia","County":"MI","City":"Milano","District":"Magenta","Street":"Via San Vittore","HouseNumber":"16","PostalCode":"20123","AdditionalData":[{"value":"Italia","key":"CountryName"},{"value":"Lombardia","key":"StateName"},{"value":"Milano","key":"CountyName"}]},"MapReference":{"ReferenceId":"55181872","Spot":0.47,"SideOfStreet":"right","CountryId":"20110484","StateId":"20114907","CountyId":"20116116","CityId":"20116469","AddressId":"574325285","RoadLinkId":"55752680"}}},{"Relevance":1.0,"Distance":111.3,"MatchLevel":"houseNumber","MatchQuality":{"Country":1.0,"State":1.0,"County":1.0,"City":1.0,"District":1.0,"Street":[1.0],"HouseNumber":1.0,"PostalCode":1.0},"MatchType":"interpolated","Location":{"LocationId":"NT_bHxDXuIwVxyQBBs9zHJdyA_xYD","LocationType":"point","DisplayPosition":{"Latitude":45.46411,"Longitude":9.17312},"MapView":{"TopLeft":{"Latitude":45.4652342,"Longitude":9.1715172},"BottomRight":{"Latitude":45.4629858,"Longitude":9.1747228}},"Address":{"Label":"Via Aristide De Togni, 16, 20123 Milano MI, Italia","Country":"ITA","State":"Lombardia","County":"MI","City":"Milano","District":"Magenta","Street":"Via Aristide De Togni","HouseNumber":"16","PostalCode":"20123","AdditionalData":[{"value":"Italia","key":"CountryName"},{"value":"Lombardia","key":"StateName"},{"value":"Milano","key":"CountyName"}]},"MapReference":{"ReferenceId":"55180963","Spot":0.39,"SideOfStreet":"left","CountryId":"20110484","StateId":"20114907","CountyId":"20116116","CityId":"20116469","AddressId":"574251988","RoadLinkId":"55382373"}}},{"Relevance":1.0,"Distance":121.6,"MatchLevel":"houseNumber","MatchQuality":{"Country":1.0,"State":1.0,"County":1.0,"City":1.0,"District":1.0,"Street":[1.0],"HouseNumber":1.0,"PostalCode":1.0},"MatchType":"interpolated","Location":{"LocationId":"NT_G-5OXG6oY8YjLj0TGI7LoD_xgD","LocationType":"point","DisplayPosition":{"Latitude":45.46337,"Longitude":9.17027},"MapView":{"TopLeft":{"Latitude":45.4644942,"Longitude":9.1686672},"BottomRight":{"Latitude":45.4622458,"Longitude":9.1718728}},"Address":{"Label":"Via San Vittore, 18, 20123 Milano MI, Italia","Country":"ITA","State":"Lombardia","County":"MI","City":"Milano","District":"Magenta","Street":"Via San Vittore","HouseNumber":"18","PostalCode":"20123","AdditionalData":[{"value":"Italia","key":"CountryName"},{"value":"Lombardia","key":"StateName"},{"value":"Milano","key":"CountyName"}]},"MapReference":{"ReferenceId":"55180943","Spot":0.11,"SideOfStreet":"right","CountryId":"20110484","StateId":"20114907","CountyId":"20116116","CityId":"20116469","AddressId":"574240433","RoadLinkId":"55264556"}}},{"Relevance":1.0,"Distance":122.5,"MatchLevel":"houseNumber","MatchQuality":{"Country":1.0,"State":1.0,"County":1.0,"City":1.0,"District":1.0,"Street":[1.0],"HouseNumber":1.0,"PostalCode":1.0},"MatchType":"interpolated","Location":{"LocationId":"NT_r5CpWZmgHtWRVou3tPHXCA_3A","LocationType":"point","DisplayPosition":{"Latitude":45.46473,"Longitude":9.17006},"MapView":{"TopLeft":{"Latitude":45.4658542,"Longitude":9.1684572},"BottomRight":{"Latitude":45.4636058,"Longitude":9.1716628}},"Address":{"Label":"Via Bernardino Zenale, 7, 20123 Milano MI, Italia","Country":"ITA","State":"Lombardia","County":"MI","City":"Milano","District":"Magenta","Street":"Via Bernardino Zenale","HouseNumber":"7","PostalCode":"20123","AdditionalData":[{"value":"Italia","key":"CountryName"},{"value":"Lombardia","key":"StateName"},{"value":"Milano","key":"CountyName"}]},"MapReference":{"ReferenceId":"543242206","Spot":0.91,"SideOfStreet":"right","CountryId":"20110484","StateId":"20114907","CountyId":"20116116","CityId":"20116469","AddressId":"574230528","RoadLinkId":"55315709"}}}]}]}}