{"Response":{"MetaInfo":{"Timestamp":"2020-03-28T11:36:07.428+0000","NextPageInformation":"2"},"View":[{"_type":"SearchResultsViewType","ViewId":0,"Result":[{"Relevance":1.0,"Distance":0.0,"Direction":0.0,"MatchLevel":"district","MatchQuality":{"Country":1.0,"County":1.0,"City":1.0,"District":1.0,"PostalCode":1.0},"Location":{"LocationId":"NT_CAd0Mpo1nS7-vg4y0QbrJA","LocationType":"point","DisplayPosition":{"Latitude":45.4081015,"Longitude":23.3772517},"MapView":{"TopLeft":{"Latitude":45.44366,"Longitude":23.34705},"BottomRight":{"Latitude":45.36963,"Longitude":23.40263}},"Address":{"Label":"Petroșani, România","Country":"ROU","County":"Hunedoara","City":"Petroșani","District":"Petroșani","PostalCode":"332019","AdditionalData":[{"value":"România","key":"CountryName"},{"value":"Hunedoara","key":"CountyName"}]},"MapReference":{"ReferenceId":"1089862262","SideOfStreet":"neither","CountryId":"20656215","CountyId":"20660116","CityId":"20660220","DistrictId":"20660221"}}},{"Relevance":1.0,"Distance":10.6,"MatchLevel":"street","MatchQuality":{"Country":1.0,"County":1.0,"City":1.0,"District":1.0,"Street":[1.0],"PostalCode":1.0},"Location":{"LocationId":"NT_JHWB64K-DyEEVbkmRLpnNA_l_995372726_R","LocationType":"point","DisplayPosition":{"Latitude":45.4081966,"Longitude":23.3772505},"MapView":{"TopLeft":{"Latitude":45.4082,"Longitude":23.37673},"BottomRight":{"Latitude":45.40819,"Longitude":23.37752}},"Address":{"Label":"Strada Nicolae Titulescu, 332019 Petroșani, România","Country":"ROU","County":"Hunedoara","City":"Petroșani","District":"Petroșani","Street":"Strada Nicolae Titulescu","PostalCode":"332019","AdditionalData":[{"value":"România","key":"CountryName"},{"value":"Hunedoara","key":"CountyName"}]},"MapReference":{"ReferenceId":"995372726","Spot":0.66,"SideOfStreet":"right","CountryId":"20656215","CountyId":"20660116","CityId":"20660220","DistrictId":"20660221"}}},{"Relevance":1.0,"Distance":23.6,"MatchLevel":"street","MatchQuality":{"Country":1.0,"County":1.0,"City":1.0,"District":1.0,"Street":[1.0],"PostalCode":1.0},"Location":{"LocationId":"NT_JHWB64K-DyEEVbkmRLpnNA_l_995372723_L","LocationType":"point","DisplayPosition":{"Latitude":45.4082,"Longitude":23.37752},"MapView":{"TopLeft":{"Latitude":45.40918,"Longitude":23.37735},"BottomRight":{"Latitude":45.4082,"Longitude":23.37752}},"Address":{"Label":"Strada Nicolae Titulescu, 332058 Petroșani, România","Country":"ROU","County":"Hunedoara","City":"Petroșani","District":"Petroșani","Street":"Strada Nicolae Titulescu","PostalCode":"332058","AdditionalData":[{"value":"România","key":"CountryName"},{"value":"Hunedoara","key":"CountyName"}]},"MapReference":{"ReferenceId":"995372723","Spot":0.0,"SideOfStreet":"left","CountryId":"20656215","CountyId":"20660116","CityId":"20660220","DistrictId":"20660221"}}},{"Relevance":1.0,"Distance":23.6,"MatchLevel":"street","MatchQuality":{"Country":1.0,"County":1.0,"City":1.0,"District":1.0,"Street":[1.0],"PostalCode":1.0},"Location":{"LocationId":"NT_8TFIVMtt2ph3rvbAFXmFfB_l_995372721_R","LocationType":"point","DisplayPosition":{"Latitude":45.4082,"Longitude":23.37752},"MapView":{"TopLeft":{"Latitude":45.40821,"Longitude":23.37752},"BottomRight":{"Latitude":45.4082,"Longitude":23.37813}},"Address":{"Label":"Strada Nicolae Titulescu, 332019 Petroșani, România","Country":"ROU","County":"Hunedoara","City":"Petroșani","District":"Petroșani","Street":"Strada Nicolae Titulescu","PostalCode":"332019","AdditionalData":[{"value":"România","key":"CountryName"},{"value":"Hunedoara","key":"CountyName"}]},"MapReference":{"ReferenceId":"995372721","Spot":0.0,"SideOfStreet":"right","CountryId":"20656215","CountyId":"20660116","CityId":"20660220","DistrictId":"20660221"}}},{"Relevance":1.0,"Distance":41.9,"MatchLevel":"street","MatchQuality":{"Country":1.0,"County":1.0,"City":1.0,"District":1.0,"Street":[1.0],"PostalCode":1.0},"Location":{"LocationId":"NT_8TFIVMtt2ph3rvbAFXmFfB_l_1002156170_R","LocationType":"point","DisplayPosition":{"Latitude":45.40819,"Longitude":23.37673},"MapView":{"TopLeft":{"Latitude":45.4085,"Longitude":23.37673},"BottomRight":{"Latitude":45.40819,"Longitude":23.37681}},"Address":{"Label":"Strada Nicolae Titulescu, 332058 Petroșani, România","Country":"ROU","County":"Hunedoara","City":"Petroșani","District":"Petroșani","Street":"Strada Nicolae Titulescu","PostalCode":"332058","AdditionalData":[{"value":"România","key":"CountryName"},{"value":"Hunedoara","key":"CountyName"}]},"MapReference":{"ReferenceId":"1002156170","Spot":0.0,"SideOfStreet":"right","CountryId":"20656215","CountyId":"20660116","CityId":"20660220","DistrictId":"20660221"}}},{"Relevance":1.0,"Distance":41.9,"MatchLevel":"street","MatchQuality":{"Country":1.0,"County":1.0,"City":1.0,"District":1.0,"Street":[1.0],"PostalCode":1.0},"Location":{"LocationId":"NT_8TFIVMtt2ph3rvbAFXmFfB_l_995372727_L","LocationType":"point","DisplayPosition":{"Latitude":45.40819,"Longitude":23.37673},"MapView":{"TopLeft":{"Latitude":45.40847,"Longitude":23.37598},"BottomRight":{"Latitude":45.40819,"Longitude":23.37673}},"Address":{"Label":"Strada Nicolae Titulescu, 332019 Petroșani, România","Country":"ROU","County":"Hunedoara","City":"Petroșani","District":"Petroșani","Street":"Strada Nicolae Titulescu","PostalCode":"332019","AdditionalData":[{"value":"România","key":"CountryName"},{"value":"Hunedoara","key":"CountyName"}]},"MapReference":{"ReferenceId":"995372727","Spot":0.0,"SideOfStreet":"left","CountryId":"20656215","CountyId":"20660116","CityId":"20660220","DistrictId":"20660221"}}},{"Relevance":1.0,"Distance":42.3,"MatchLevel":"street","MatchQuality":{"Country":1.0,"County":1.0,"City":1.0,"District":1.0,"PostalCode":1.0},"Location":{"LocationId":"NT_OMrz-r31qEWBws7mY..zfA_l_1142812535_R","LocationType":"point","DisplayPosition":{"Latitude":45.40834,"Longitude":23.37683},"MapView":{"TopLeft":{"Latitude":45.4085,"Longitude":23.37681},"BottomRight":{"Latitude":45.40834,"Longitude":23.37683}},"Address":{"Label":"332058 Petroșani, România","Country":"ROU","County":"Hunedoara","City":"Petroșani","District":"Petroșani","PostalCode":"332058","AdditionalData":[{"value":"România","key":"CountryName"},{"value":"Hunedoara","key":"CountyName"}]},"MapReference":{"ReferenceId":"1142812535","Spot":0.0,"SideOfStreet":"right","CountryId":"20656215","CountyId":"20660116","CityId":"20660220","DistrictId":"20660221"}}},{"Relevance":1.0,"Distance":45.7,"MatchLevel":"street","MatchQuality":{"Country":1.0,"County":1.0,"City":1.0,"District":1.0,"Street":[1.0],"PostalCode":1.0},"Location":{"LocationId":"NT_8TFIVMtt2ph3rvbAFXmFfB_l_1143145564_R","LocationType":"point","DisplayPosition":{"Latitude":45.4085,"Longitude":23.37711},"MapView":{"TopLeft":{"Latitude":45.40872,"Longitude":23.3771},"BottomRight":{"Latitude":45.4085,"Longitude":23.37711}},"Address":{"Label":"Strada Nicolae Titulescu, 332019 Petroșani, România","Country":"ROU","County":"Hunedoara","City":"Petroșani","District":"Petroșani","Street":"Strada Nicolae Titulescu","PostalCode":"332019","AdditionalData":[{"value":"România","key":"CountryName"},{"value":"Hunedoara","key":"CountyName"}]},"MapReference":{"ReferenceId":"1143145564","Spot":0.0,"SideOfStreet":"right","CountryId":"20656215","CountyId":"20660116","CityId":"20660220","DistrictId":"20660221"}}},{"Relevance":1.0,"Distance":56.1,"MatchLevel":"street","MatchQuality":{"Country":1.0,"County":1.0,"City":1.0,"District":1.0,"Street":[1.0],"PostalCode":1.0},"Location":{"LocationId":"NT_8TFIVMtt2ph3rvbAFXmFfB_l_1089823496_R","LocationType":"point","DisplayPosition":{"Latitude":45.4085,"Longitude":23.37681},"MapView":{"TopLeft":{"Latitude":45.40871,"Longitude":23.37681},"BottomRight":{"Latitude":45.4085,"Longitude":23.37683}},"Address":{"Label":"Strada Nicolae Titulescu, 332058 Petroșani, România","Country":"ROU","County":"Hunedoara","City":"Petroșani","District":"Petroșani","Street":"Strada Nicolae Titulescu","PostalCode":"332058","AdditionalData":[{"value":"România","key":"CountryName"},{"value":"Hunedoara","key":"CountyName"}]},"MapReference":{"ReferenceId":"1089823496","Spot":0.0,"SideOfStreet":"right","CountryId":"20656215","CountyId":"20660116","CityId":"20660220","DistrictId":"20660221"}}},{"Relevance":1.0,"Distance":69.1,"MatchLevel":"street","MatchQuality":{"Country":1.0,"County":1.0,"City":1.0,"District":1.0,"PostalCode":1.0},"Location":{"LocationId":"NT_fdf3btLU7tmXYXOwNsxW7A_l_995366658_L","LocationType":"point","DisplayPosition":{"Latitude":45.408159,"Longitude":23.3781333},"MapView":{"TopLeft":{"Latitude":45.40821,"Longitude":23.37813},"BottomRight":{"Latitude":45.40706,"Longitude":23.37878}},"Address":{"Label":"332019 Petroșani, România","Country":"ROU","County":"Hunedoara","City":"Petroșani","District":"Petroșani","PostalCode":"332019","AdditionalData":[{"value":"România","key":"CountryName"},{"value":"Hunedoara","key":"CountyName"}]},"MapReference":{"ReferenceId":"995366658","Spot":0.97,"SideOfStreet":"left","CountryId":"20656215","CountyId":"20660116","CityId":"20660220","DistrictId":"20660221"}}}]}]}}