{"Response":{"MetaInfo":{"Timestamp":"2020-03-28T11:26:49.385+0000","NextPageInformation":"2"},"View":[{"_type":"SearchResultsViewType","ViewId":0,"Result":[{"Relevance":1.0,"Distance":0.0,"Direction":0.0,"MatchLevel":"city","MatchQuality":{"Country":1.0,"State":1.0,"County":1.0,"City":1.0,"PostalCode":1.0},"Location":{"LocationId":"NT_ik61aCd0vGy6a0WI2zoaRA","LocationType":"point","DisplayPosition":{"Latitude":45.5905943,"Longitude":10.151866},"MapView":{"TopLeft":{"Latitude":45.63193,"Longitude":10.12481},"BottomRight":{"Latitude":45.54848,"Longitude":10.17763}},"Address":{"Label":"Gussago, Lombardia, Italia","Country":"ITA","State":"Lombardia","County":"BS","City":"Gussago","PostalCode":"25064","AdditionalData":[{"value":"Italia","key":"CountryName"},{"value":"Lombardia","key":"StateName"},{"value":"Brescia","key":"CountyName"}]},"MapReference":{"ReferenceId":"573674035","SideOfStreet":"neither","CountryId":"20110484","StateId":"20114907","CountyId":"20117513","CityId":"20117794"}}},{"Relevance":1.0,"Distance":83.6,"MatchLevel":"houseNumber","MatchQuality":{"Country":1.0,"State":1.0,"County":1.0,"City":1.0,"Street":[1.0],"HouseNumber":1.0,"PostalCode":1.0},"MatchType":"interpolated","Location":{"LocationId":"NT_4.iWJ34iasaYCvgPoEtNqD_xED","LocationType":"point","DisplayPosition":{"Latitude":45.59104,"Longitude":10.15087},"MapView":{"TopLeft":{"Latitude":45.5921642,"Longitude":10.1492636},"BottomRight":{"Latitude":45.5899158,"Longitude":10.1524764}},"Address":{"Label":"Via Santissima, 11, 25064 Gussago BS, Italia","Country":"ITA","State":"Lombardia","County":"BS","City":"Gussago","Street":"Via Santissima","HouseNumber":"11","PostalCode":"25064","AdditionalData":[{"value":"Italia","key":"CountryName"},{"value":"Lombardia","key":"StateName"},{"value":"Brescia","key":"CountyName"}]},"MapReference":{"ReferenceId":"574301623","Spot":0.55,"SideOfStreet":"right","CountryId":"20110484","StateId":"20114907","CountyId":"20117513","CityId":"20117794","AddressId":"246525928","RoadLinkId":"55100945"}}},{"Relevance":1.0,"Distance":87.3,"MatchLevel":"houseNumber","MatchQuality":{"Country":1.0,"State":1.0,"County":1.0,"City":1.0,"Street":[1.0],"HouseNumber":1.0,"PostalCode":1.0},"MatchType":"interpolated","Location":{"LocationId":"NT_DqVv1Z2NbvPHqZF30JoSbA_4A","LocationType":"point","DisplayPosition":{"Latitude":45.59122,"Longitude":10.15269},"MapView":{"TopLeft":{"Latitude":45.5923442,"Longitude":10.1510835},"BottomRight":{"Latitude":45.5900958,"Longitude":10.1542965}},"Address":{"Label":"Via Paolo Richiedei, 8, 25064 Gussago BS, Italia","Country":"ITA","State":"Lombardia","County":"BS","City":"Gussago","Street":"Via Paolo Richiedei","HouseNumber":"8","PostalCode":"25064","AdditionalData":[{"value":"Italia","key":"CountryName"},{"value":"Lombardia","key":"StateName"},{"value":"Brescia","key":"CountyName"}]},"MapReference":{"ReferenceId":"1195788367","Spot":1.0,"SideOfStreet":"left","CountryId":"20110484","StateId":"20114907","CountyId":"20117513","CityId":"20117794","AddressId":"246606057","RoadLinkId":"506117998"}}},{"Relevance":1.0,"Distance":115.8,"MatchLevel":"houseNumber","MatchQuality":{"Country":1.0,"State":1.0,"County":1.0,"City":1.0,"Street":[1.0],"HouseNumber":1.0,"PostalCode":1.0},"MatchType":"interpolated","Location":{"LocationId":"NT_DqVv1Z2NbvPHqZF30JoSbA_xAD","LocationType":"point","DisplayPosition":{"Latitude":45.59044,"Longitude":10.15344},"MapView":{"TopLeft":{"Latitude":45.5915642,"Longitude":10.1518336},"BottomRight":{"Latitude":45.5893158,"Longitude":10.1550464}},"Address":{"Label":"Via Paolo Richiedei, 10, 25064 Gussago BS, Italia","Country":"ITA","State":"Lombardia","County":"BS","City":"Gussago","Street":"Via Paolo Richiedei","HouseNumber":"10","PostalCode":"25064","AdditionalData":[{"value":"Italia","key":"CountryName"},{"value":"Lombardia","key":"StateName"},{"value":"Brescia","key":"CountyName"}]},"MapReference":{"ReferenceId":"574301647","Spot":0.97,"SideOfStreet":"left","CountryId":"20110484","StateId":"20114907","CountyId":"20117513","CityId":"20117794","AddressId":"246658546","RoadLinkId":"54818730"}}},{"Relevance":1.0,"Distance":116.1,"MatchLevel":"houseNumber","MatchQuality":{"Country":1.0,"State":1.0,"County":1.0,"City":1.0,"Street":[1.0],"HouseNumber":1.0,"PostalCode":1.0},"MatchType":"interpolated","Location":{"LocationId":"NT_OoZgCIslR39e3SUgVAjUCD_5A","LocationType":"point","DisplayPosition":{"Latitude":45.59165,"Longitude":10.15199},"MapView":{"TopLeft":{"Latitude":45.5927742,"Longitude":10.1503835},"BottomRight":{"Latitude":45.5905258,"Longitude":10.1535965}},"Address":{"Label":"Via Pinidolo, 9, 25064 Gussago BS, Italia","Country":"ITA","State":"Lombardia","County":"BS","City":"Gussago","Street":"Via Pinidolo","HouseNumber":"9","PostalCode":"25064","AdditionalData":[{"value":"Italia","key":"CountryName"},{"value":"Lombardia","key":"StateName"},{"value":"Brescia","key":"CountyName"}]},"MapReference":{"ReferenceId":"574300948","Spot":0.73,"SideOfStreet":"right","CountryId":"20110484","StateId":"20114907","CountyId":"20117513","CityId":"20117794","AddressId":"246530492","RoadLinkId":"55820320"}}},{"Relevance":1.0,"Distance":117.1,"MatchLevel":"houseNumber","MatchQuality":{"Country":1.0,"State":1.0,"County":1.0,"City":1.0,"Street":[1.0],"HouseNumber":1.0,"PostalCode":1.0},"MatchType":"interpolated","Location":{"LocationId":"NT_DqVv1Z2NbvPHqZF30JoSbA_4IE","LocationType":"point","DisplayPosition":{"Latitude":45.59088,"Longitude":10.15349},"MapView":{"TopLeft":{"Latitude":45.5920042,"Longitude":10.1518836},"BottomRight":{"Latitude":45.5897558,"Longitude":10.1550964}},"Address":{"Label":"Via Paolo Richiedei, 8B, 25064 Gussago BS, Italia","Country":"ITA","State":"Lombardia","County":"BS","City":"Gussago","Street":"Via Paolo Richiedei","HouseNumber":"8B","PostalCode":"25064","AdditionalData":[{"value":"Italia","key":"CountryName"},{"value":"Lombardia","key":"StateName"},{"value":"Brescia","key":"CountyName"}]},"MapReference":{"ReferenceId":"573674108","Spot":0.59,"SideOfStreet":"left","CountryId":"20110484","StateId":"20114907","CountyId":"20117513","CityId":"20117794","AddressId":"737904595","RoadLinkId":"54690416"}}},{"Relevance":1.0,"Distance":117.4,"MatchLevel":"houseNumber","MatchQuality":{"Country":1.0,"State":1.0,"County":1.0,"City":1.0,"Street":[1.0],"HouseNumber":1.0,"PostalCode":1.0},"MatchType":"interpolated","Location":{"LocationId":"NT_OoZgCIslR39e3SUgVAjUCD_xID","LocationType":"point","DisplayPosition":{"Latitude":45.58982,"Longitude":10.15082},"MapView":{"TopLeft":{"Latitude":45.5909442,"Longitude":10.1492136},"BottomRight":{"Latitude":45.5886958,"Longitude":10.1524264}},"Address":{"Label":"Via Pinidolo, 12, 25064 Gussago BS, Italia","Country":"ITA","State":"Lombardia","County":"BS","City":"Gussago","Street":"Via Pinidolo","HouseNumber":"12","PostalCode":"25064","AdditionalData":[{"value":"Italia","key":"CountryName"},{"value":"Lombardia","key":"StateName"},{"value":"Brescia","key":"CountyName"}]},"MapReference":{"ReferenceId":"574300947","Spot":0.49,"SideOfStreet":"left","CountryId":"20110484","StateId":"20114907","CountyId":"20117513","CityId":"20117794","AddressId":"246584569","RoadLinkId":"54821599"}}},{"Relevance":1.0,"Distance":123.3,"MatchLevel":"street","MatchQuality":{"Country":1.0,"State":1.0,"County":1.0,"City":1.0,"Street":[1.0],"PostalCode":1.0},"Location":{"LocationId":"NT_DqVv1Z2NbvPHqZF30JoSbA_l_573674101_L","LocationType":"point","DisplayPosition":{"Latitude":45.59047,"Longitude":10.15344},"MapView":{"TopLeft":{"Latitude":45.59047,"Longitude":10.15344},"BottomRight":{"Latitude":45.59047,"Longitude":10.15362}},"Address":{"Label":"Via Paolo Richiedei, 25064 Gussago BS, Italia","Country":"ITA","State":"Lombardia","County":"BS","City":"Gussago","Street":"Via Paolo Richiedei","PostalCode":"25064","AdditionalData":[{"value":"Italia","key":"CountryName"},{"value":"Lombardia","key":"StateName"},{"value":"Brescia","key":"CountyName"}]},"MapReference":{"ReferenceId":"573674101","Spot":0.0,"SideOfStreet":"left","CountryId":"20110484","StateId":"20114907","CountyId":"20117513","CityId":"20117794"}}},{"Relevance":1.0,"Distance":137.2,"MatchLevel":"street","MatchQuality":{"Country":1.0,"State":1.0,"County":1.0,"City":1.0,"Street":[1.0],"PostalCode":1.0},"Location":{"LocationId":"NT_DqVv1Z2NbvPHqZF30JoSbA_l_573674097_L","LocationType":"point","DisplayPosition":{"Latitude":45.59047,"Longitude":10.15362},"MapView":{"TopLeft":{"Latitude":45.59053,"Longitude":10.15362},"BottomRight":{"Latitude":45.59047,"Longitude":10.15363}},"Address":{"Label":"Via Paolo Richiedei, 25064 Gussago BS, Italia","Country":"ITA","State":"Lombardia","County":"BS","City":"Gussago","Street":"Via Paolo Richiedei","PostalCode":"25064","AdditionalData":[{"value":"Italia","key":"CountryName"},{"value":"Lombardia","key":"StateName"},{"value":"Brescia","key":"CountyName"}]},"MapReference":{"ReferenceId":"573674097","Spot":0.0,"SideOfStreet":"left","CountryId":"20110484","StateId":"20114907","CountyId":"20117513","CityId":"20117794"}}},{"Relevance":1.0,"Distance":137.6,"MatchLevel":"houseNumber","MatchQuality":{"Country":1.0,"State":1.0,"County":1.0,"City":1.0,"Street":[1.0],"HouseNumber":1.0,"PostalCode":1.0},"MatchType":"interpolated","Location":{"LocationId":"NT_DqVv1Z2NbvPHqZF30JoSbA_ycD","LocationType":"point","DisplayPosition":{"Latitude":45.59035,"Longitude":10.1536},"MapView":{"TopLeft":{"Latitude":45.5914742,"Longitude":10.1519936},"BottomRight":{"Latitude":45.5892258,"Longitude":10.1552064}},"Address":{"Label":"Via Paolo Richiedei, 27, 25064 Gussago BS, Italia","Country":"ITA","State":"Lombardia","County":"BS","City":"Gussago","Street":"Via Paolo Richiedei","HouseNumber":"27","PostalCode":"25064","AdditionalData":[{"value":"Italia","key":"CountryName"},{"value":"Lombardia","key":"StateName"},{"value":"Brescia","key":"CountyName"}]},"MapReference":{"ReferenceId":"574301650","Spot":0.87,"SideOfStreet":"right","CountryId":"20110484","StateId":"20114907","CountyId":"20117513","CityId":"20117794","AddressId":"246473589","RoadLinkId":"55227070"}}}]}]}}