{"Response":{"MetaInfo":{"Timestamp":"2020-03-28T12:03:24.774+0000","NextPageInformation":"2"},"View":[{"_type":"SearchResultsViewType","ViewId":0,"Result":[{"Relevance":1.0,"Distance":0.0,"Direction":0.0,"MatchLevel":"city","MatchQuality":{"Country":1.0,"State":1.0,"County":1.0,"City":1.0,"PostalCode":1.0},"Location":{"LocationId":"NT_71q4Roda3bCvcXUve3CCIC","LocationType":"point","DisplayPosition":{"Latitude":45.5044319,"Longitude":11.4175788},"MapView":{"TopLeft":{"Latitude":45.56337,"Longitude":11.37501},"BottomRight":{"Latitude":45.47737,"Longitude":11.45841}},"Address":{"Label":"Montecchio Maggiore, Veneto, Italia","Country":"ITA","State":"Veneto","County":"VI","City":"Montecchio Maggiore","PostalCode":"36075","AdditionalData":[{"value":"Italia","key":"CountryName"},{"value":"Veneto","key":"StateName"},{"value":"Vicenza","key":"CountyName"}]},"MapReference":{"ReferenceId":"556500386","SideOfStreet":"neither","CountryId":"20110484","StateId":"20120537","CountyId":"20120918","CityId":"20121129"}}},{"Relevance":1.0,"Distance":2.6,"MatchLevel":"houseNumber","MatchQuality":{"Country":1.0,"State":1.0,"County":1.0,"City":1.0,"Street":[1.0],"HouseNumber":1.0,"PostalCode":1.0},"MatchType":"interpolated","Location":{"LocationId":"NT_NbOHuivEFMlkIzAEbVJgZC_ykzLxA","LocationType":"point","DisplayPosition":{"Latitude":45.50444,"Longitude":11.41761},"MapView":{"TopLeft":{"Latitude":45.5055642,"Longitude":11.416006},"BottomRight":{"Latitude":45.5033158,"Longitude":11.419214}},"Address":{"Label":"Via Giacomo Matteotti, 29/1, 36075 Montecchio Maggiore VI, Italia","Country":"ITA","State":"Veneto","County":"VI","City":"Montecchio Maggiore","Street":"Via Giacomo Matteotti","HouseNumber":"29/1","PostalCode":"36075","AdditionalData":[{"value":"Italia","key":"CountryName"},{"value":"Veneto","key":"StateName"},{"value":"Vicenza","key":"CountyName"}]},"MapReference":{"ReferenceId":"556504363","Spot":0.46,"SideOfStreet":"left","CountryId":"20110484","StateId":"20120537","CountyId":"20120918","CityId":"20121129","AddressId":"387980277","RoadLinkId":"58395904"}}},{"Relevance":1.0,"Distance":50.2,"MatchLevel":"houseNumber","MatchQuality":{"Country":1.0,"State":1.0,"County":1.0,"City":1.0,"Street":[1.0],"HouseNumber":1.0,"PostalCode":1.0},"MatchType":"interpolated","Location":{"LocationId":"NT_KCJc-gNuvpneU3ng5VBwvD_4ID","LocationType":"point","DisplayPosition":{"Latitude":45.50534,"Longitude":11.41727},"MapView":{"TopLeft":{"Latitude":45.5064642,"Longitude":11.415666},"BottomRight":{"Latitude":45.5042158,"Longitude":11.418874}},"Address":{"Label":"Via Alcide De Gasperi, 82, 36075 Montecchio Maggiore VI, Italia","Country":"ITA","State":"Veneto","County":"VI","City":"Montecchio Maggiore","Street":"Via Alcide De Gasperi","HouseNumber":"82","PostalCode":"36075","AdditionalData":[{"value":"Italia","key":"CountryName"},{"value":"Veneto","key":"StateName"},{"value":"Vicenza","key":"CountyName"}]},"MapReference":{"ReferenceId":"556500388","Spot":0.83,"SideOfStreet":"left","CountryId":"20110484","StateId":"20120537","CountyId":"20120918","CityId":"20121129","AddressId":"833194016","RoadLinkId":"58715128"}}},{"Relevance":1.0,"Distance":59.4,"MatchLevel":"street","MatchQuality":{"Country":1.0,"State":1.0,"County":1.0,"City":1.0,"PostalCode":1.0},"Location":{"LocationId":"NT_R31yXOfRe4-NgIES0FmerB_l_1243176614_L","LocationType":"point","DisplayPosition":{"Latitude":45.50471,"Longitude":11.41823},"MapView":{"TopLeft":{"Latitude":45.50471,"Longitude":11.41823},"BottomRight":{"Latitude":45.50395,"Longitude":11.41929}},"Address":{"Label":"36075 Montecchio Maggiore VI, Italia","Country":"ITA","State":"Veneto","County":"VI","City":"Montecchio Maggiore","PostalCode":"36075","AdditionalData":[{"value":"Italia","key":"CountryName"},{"value":"Veneto","key":"StateName"},{"value":"Vicenza","key":"CountyName"}]},"MapReference":{"ReferenceId":"1243176614","Spot":1.0,"SideOfStreet":"left","CountryId":"20110484","StateId":"20120537","CountyId":"20120918","CityId":"20121129"}}},{"Relevance":1.0,"Distance":71.5,"MatchLevel":"houseNumber","MatchQuality":{"Country":1.0,"State":1.0,"County":1.0,"City":1.0,"Street":[1.0],"HouseNumber":1.0,"PostalCode":1.0},"MatchType":"interpolated","Location":{"LocationId":"NT_ot-cSIYBhWGffDugecem0A_2MzLxA","LocationType":"point","DisplayPosition":{"Latitude":45.50452,"Longitude":11.41667},"MapView":{"TopLeft":{"Latitude":45.5056442,"Longitude":11.415066},"BottomRight":{"Latitude":45.5033958,"Longitude":11.418274}},"Address":{"Label":"Via Lorenzoni, 63/1, 36075 Montecchio Maggiore VI, Italia","Country":"ITA","State":"Veneto","County":"VI","City":"Montecchio Maggiore","Street":"Via Lorenzoni","HouseNumber":"63/1","PostalCode":"36075","AdditionalData":[{"value":"Italia","key":"CountryName"},{"value":"Veneto","key":"StateName"},{"value":"Vicenza","key":"CountyName"}]},"MapReference":{"ReferenceId":"556500391","Spot":0.0,"SideOfStreet":"left","CountryId":"20110484","StateId":"20120537","CountyId":"20120918","CityId":"20121129","AddressId":"387645815","RoadLinkId":"59408560"}}},{"Relevance":1.0,"Distance":78.5,"MatchLevel":"houseNumber","MatchQuality":{"Country":1.0,"State":1.0,"County":1.0,"City":1.0,"Street":[1.0],"HouseNumber":1.0,"PostalCode":1.0},"MatchType":"interpolated","Location":{"LocationId":"NT_liHECnbwLc0uJHHKKLzHrA_xED","LocationType":"point","DisplayPosition":{"Latitude":45.50354,"Longitude":11.41731},"MapView":{"TopLeft":{"Latitude":45.5046642,"Longitude":11.4157061},"BottomRight":{"Latitude":45.5024158,"Longitude":11.4189139}},"Address":{"Label":"Via Madonnetta, 11, 36075 Montecchio Maggiore VI, Italia","Country":"ITA","State":"Veneto","County":"VI","City":"Montecchio Maggiore","Street":"Via Madonnetta","HouseNumber":"11","PostalCode":"36075","AdditionalData":[{"value":"Italia","key":"CountryName"},{"value":"Veneto","key":"StateName"},{"value":"Vicenza","key":"CountyName"}]},"MapReference":{"ReferenceId":"556500386","Spot":0.73,"SideOfStreet":"right","CountryId":"20110484","StateId":"20120537","CountyId":"20120918","CityId":"20121129","AddressId":"811809589","RoadLinkId":"59535685"}}},{"Relevance":1.0,"Distance":83.2,"MatchLevel":"street","MatchQuality":{"Country":1.0,"State":1.0,"County":1.0,"City":1.0,"PostalCode":1.0},"Location":{"LocationId":"NT_R31yXOfRe4-NgIES0FmerB_l_1243355990_L","LocationType":"point","DisplayPosition":{"Latitude":45.50456,"Longitude":11.41863},"MapView":{"TopLeft":{"Latitude":45.50472,"Longitude":11.41863},"BottomRight":{"Latitude":45.50456,"Longitude":11.41884}},"Address":{"Label":"36075 Montecchio Maggiore VI, Italia","Country":"ITA","State":"Veneto","County":"VI","City":"Montecchio Maggiore","PostalCode":"36075","AdditionalData":[{"value":"Italia","key":"CountryName"},{"value":"Veneto","key":"StateName"},{"value":"Vicenza","key":"CountyName"}]},"MapReference":{"ReferenceId":"1243355990","Spot":0.0,"SideOfStreet":"left","CountryId":"20110484","StateId":"20120537","CountyId":"20120918","CityId":"20121129"}}},{"Relevance":1.0,"Distance":84.6,"MatchLevel":"street","MatchQuality":{"Country":1.0,"State":1.0,"County":1.0,"City":1.0,"PostalCode":1.0},"Location":{"LocationId":"NT_R31yXOfRe4-NgIES0FmerB_l_556500392_R","LocationType":"point","DisplayPosition":{"Latitude":45.50508,"Longitude":11.41701},"MapView":{"TopLeft":{"Latitude":45.50534,"Longitude":11.41701},"BottomRight":{"Latitude":45.50508,"Longitude":11.41705}},"Address":{"Label":"36075 Montecchio Maggiore VI, Italia","Country":"ITA","State":"Veneto","County":"VI","City":"Montecchio Maggiore","PostalCode":"36075","AdditionalData":[{"value":"Italia","key":"CountryName"},{"value":"Veneto","key":"StateName"},{"value":"Vicenza","key":"CountyName"}]},"MapReference":{"ReferenceId":"556500392","Spot":0.0,"SideOfStreet":"right","CountryId":"20110484","StateId":"20120537","CountyId":"20120918","CityId":"20121129"}}},{"Relevance":1.0,"Distance":84.6,"MatchLevel":"street","MatchQuality":{"Country":1.0,"State":1.0,"County":1.0,"City":1.0,"PostalCode":1.0},"Location":{"LocationId":"NT_R31yXOfRe4-NgIES0FmerB_l_556500395_L","LocationType":"point","DisplayPosition":{"Latitude":45.50508,"Longitude":11.41701},"MapView":{"TopLeft":{"Latitude":45.50517,"Longitude":11.41445},"BottomRight":{"Latitude":45.50508,"Longitude":11.41701}},"Address":{"Label":"36075 Montecchio Maggiore VI, Italia","Country":"ITA","State":"Veneto","County":"VI","City":"Montecchio Maggiore","PostalCode":"36075","AdditionalData":[{"value":"Italia","key":"CountryName"},{"value":"Veneto","key":"StateName"},{"value":"Vicenza","key":"CountyName"}]},"MapReference":{"ReferenceId":"556500395","Spot":0.0,"SideOfStreet":"left","CountryId":"20110484","StateId":"20120537","CountyId":"20120918","CityId":"20121129"}}},{"Relevance":1.0,"Distance":91.5,"MatchLevel":"houseNumber","MatchQuality":{"Country":1.0,"State":1.0,"County":1.0,"City":1.0,"Street":[1.0],"HouseNumber":1.0,"PostalCode":1.0},"MatchType":"interpolated","Location":{"LocationId":"NT_KCJc-gNuvpneU3ng5VBwvD_3ATQ","LocationType":"point","DisplayPosition":{"Latitude":45.50534,"Longitude":11.41699},"MapView":{"TopLeft":{"Latitude":45.5064642,"Longitude":11.415386},"BottomRight":{"Latitude":45.5042158,"Longitude":11.418594}},"Address":{"Label":"Via Alcide De Gasperi, 70A, 36075 Montecchio Maggiore VI, Italia","Country":"ITA","State":"Veneto","County":"VI","City":"Montecchio Maggiore","Street":"Via Alcide De Gasperi","HouseNumber":"70A","PostalCode":"36075","AdditionalData":[{"value":"Italia","key":"CountryName"},{"value":"Veneto","key":"StateName"},{"value":"Vicenza","key":"CountyName"}]},"MapReference":{"ReferenceId":"1260316513","Spot":0.21,"SideOfStreet":"left","CountryId":"20110484","StateId":"20120537","CountyId":"20120918","CityId":"20121129","AddressId":"811632711","RoadLinkId":"585766975"}}}]}]}}