{"Response":{"MetaInfo":{"Timestamp":"2020-03-28T10:50:37.110+0000","NextPageInformation":"2"},"View":[{"_type":"SearchResultsViewType","ViewId":0,"Result":[{"Relevance":1.0,"Distance":0.0,"Direction":0.0,"MatchLevel":"district","MatchQuality":{"Country":1.0,"County":1.0,"City":1.0,"District":1.0,"PostalCode":1.0},"Location":{"LocationId":"NT_Z4imD3rHMehgfQsApFJHoD","LocationType":"point","DisplayPosition":{"Latitude":45.5042136,"Longitude":13.6375986},"MapView":{"TopLeft":{"Latitude":45.51301,"Longitude":13.6277},"BottomRight":{"Latitude":45.49936,"Longitude":13.64412}},"Address":{"Label":"Malija, Izola, Slovenija","Country":"SVN","County":"Izola","City":"Izola","District":"Malija","PostalCode":"6310","AdditionalData":[{"value":"Slovenija","key":"CountryName"},{"value":"Izola","key":"CountyName"}]},"MapReference":{"ReferenceId":"895251435","SideOfStreet":"neither","CountryId":"20633685","CountyId":"20636216","CityId":"20636217","DistrictId":"22692306"}}},{"Relevance":1.0,"Distance":6.3,"MatchLevel":"houseNumber","MatchQuality":{"Country":1.0,"County":1.0,"City":1.0,"District":1.0,"Street":[1.0],"HouseNumber":1.0,"PostalCode":1.0},"MatchType":"interpolated","Location":{"LocationId":"NT_fPYRSmcY5UWcMXJdKPMLnC_zED","LocationType":"point","DisplayPosition":{"Latitude":45.5042,"Longitude":13.63735},"MapView":{"TopLeft":{"Latitude":45.5053242,"Longitude":13.635746},"BottomRight":{"Latitude":45.5030758,"Longitude":13.638954}},"Address":{"Label":"Malija 31, SI- 6310 Izola, Slovenija","Country":"SVN","County":"Izola","City":"Izola","District":"Malija","Street":"Malija","HouseNumber":"31","PostalCode":"6310","AdditionalData":[{"value":"Slovenija","key":"CountryName"},{"value":"Izola","key":"CountyName"}]},"MapReference":{"ReferenceId":"710456484","Spot":0.76,"SideOfStreet":"right","CountryId":"20633685","CountyId":"20636216","CityId":"20636217","DistrictId":"22692306","AddressId":"406958418","RoadLinkId":"115639738"}}},{"Relevance":1.0,"Distance":20.6,"MatchLevel":"street","MatchQuality":{"Country":1.0,"County":1.0,"City":1.0,"District":1.0,"Street":[1.0],"PostalCode":1.0},"Location":{"LocationId":"NT_fPYRSmcY5UWcMXJdKPMLnC_l_710416996_R","LocationType":"point","DisplayPosition":{"Latitude":45.50425,"Longitude":13.63734},"MapView":{"TopLeft":{"Latitude":45.50449,"Longitude":13.63733},"BottomRight":{"Latitude":45.50425,"Longitude":13.63736}},"Address":{"Label":"Malija, SI- 6310 Izola, Slovenija","Country":"SVN","County":"Izola","City":"Izola","District":"Malija","Street":"Malija","PostalCode":"6310","AdditionalData":[{"value":"Slovenija","key":"CountryName"},{"value":"Izola","key":"CountyName"}]},"MapReference":{"ReferenceId":"710416996","Spot":0.0,"SideOfStreet":"right","CountryId":"20633685","CountyId":"20636216","CityId":"20636217","DistrictId":"22692306"}}},{"Relevance":1.0,"Distance":27.1,"MatchLevel":"houseNumber","MatchQuality":{"Country":1.0,"County":1.0,"City":1.0,"District":1.0,"Street":[1.0],"HouseNumber":1.0,"PostalCode":1.0},"MatchType":"interpolated","Location":{"LocationId":"NT_fPYRSmcY5UWcMXJdKPMLnC_zID","LocationType":"point","DisplayPosition":{"Latitude":45.50397,"Longitude":13.63736},"MapView":{"TopLeft":{"Latitude":45.5050942,"Longitude":13.635756},"BottomRight":{"Latitude":45.5028458,"Longitude":13.638964}},"Address":{"Label":"Malija 32, SI- 6310 Izola, Slovenija","Country":"SVN","County":"Izola","City":"Izola","District":"Malija","Street":"Malija","HouseNumber":"32","PostalCode":"6310","AdditionalData":[{"value":"Slovenija","key":"CountryName"},{"value":"Izola","key":"CountyName"}]},"MapReference":{"ReferenceId":"710442164","Spot":0.86,"SideOfStreet":"right","CountryId":"20633685","CountyId":"20636216","CityId":"20636217","DistrictId":"22692306","AddressId":"406910146","RoadLinkId":"115646730"}}},{"Relevance":1.0,"Distance":35.9,"MatchLevel":"street","MatchQuality":{"Country":1.0,"County":1.0,"City":1.0,"District":1.0,"Street":[1.0],"PostalCode":1.0},"Location":{"LocationId":"NT_fPYRSmcY5UWcMXJdKPMLnC_l_710420191_L","LocationType":"point","DisplayPosition":{"Latitude":45.50449,"Longitude":13.63736},"MapView":{"TopLeft":{"Latitude":45.50461,"Longitude":13.63708},"BottomRight":{"Latitude":45.50449,"Longitude":13.63736}},"Address":{"Label":"Malija, SI- 6310 Izola, Slovenija","Country":"SVN","County":"Izola","City":"Izola","District":"Malija","Street":"Malija","PostalCode":"6310","AdditionalData":[{"value":"Slovenija","key":"CountryName"},{"value":"Izola","key":"CountyName"}]},"MapReference":{"ReferenceId":"710420191","Spot":0.0,"SideOfStreet":"left","CountryId":"20633685","CountyId":"20636216","CityId":"20636217","DistrictId":"22692306"}}},{"Relevance":1.0,"Distance":35.9,"MatchLevel":"street","MatchQuality":{"Country":1.0,"County":1.0,"City":1.0,"District":1.0,"Street":[1.0],"PostalCode":1.0},"Location":{"LocationId":"NT_fPYRSmcY5UWcMXJdKPMLnC_l_716570756_R","LocationType":"point","DisplayPosition":{"Latitude":45.50449,"Longitude":13.63736},"MapView":{"TopLeft":{"Latitude":45.5046,"Longitude":13.63736},"BottomRight":{"Latitude":45.50449,"Longitude":13.63739}},"Address":{"Label":"Malija, SI- 6310 Izola, Slovenija","Country":"SVN","County":"Izola","City":"Izola","District":"Malija","Street":"Malija","PostalCode":"6310","AdditionalData":[{"value":"Slovenija","key":"CountryName"},{"value":"Izola","key":"CountyName"}]},"MapReference":{"ReferenceId":"716570756","Spot":0.0,"SideOfStreet":"right","CountryId":"20633685","CountyId":"20636216","CityId":"20636217","DistrictId":"22692306"}}},{"Relevance":1.0,"Distance":36.3,"MatchLevel":"houseNumber","MatchQuality":{"Country":1.0,"County":1.0,"City":1.0,"District":1.0,"Street":[1.0],"HouseNumber":1.0,"PostalCode":1.0},"MatchType":"interpolated","Location":{"LocationId":"NT_fPYRSmcY5UWcMXJdKPMLnC_zETQ","LocationType":"point","DisplayPosition":{"Latitude":45.50466,"Longitude":13.63754},"MapView":{"TopLeft":{"Latitude":45.5057842,"Longitude":13.635936},"BottomRight":{"Latitude":45.5035358,"Longitude":13.639144}},"Address":{"Label":"Malija 31A, SI- 6310 Izola, Slovenija","Country":"SVN","County":"Izola","City":"Izola","District":"Malija","Street":"Malija","HouseNumber":"31A","PostalCode":"6310","AdditionalData":[{"value":"Slovenija","key":"CountryName"},{"value":"Izola","key":"CountyName"}]},"MapReference":{"ReferenceId":"716570757","Spot":0.89,"SideOfStreet":"right","CountryId":"20633685","CountyId":"20636216","CityId":"20636217","DistrictId":"22692306","AddressId":"406836033","RoadLinkId":"121526712"}}},{"Relevance":1.0,"Distance":36.7,"MatchLevel":"houseNumber","MatchQuality":{"Country":1.0,"County":1.0,"City":1.0,"District":1.0,"Street":[1.0],"HouseNumber":1.0,"PostalCode":1.0},"MatchType":"interpolated","Location":{"LocationId":"NT_fPYRSmcY5UWcMXJdKPMLnC_zcD","LocationType":"point","DisplayPosition":{"Latitude":45.504,"Longitude":13.63725},"MapView":{"TopLeft":{"Latitude":45.5051242,"Longitude":13.635646},"BottomRight":{"Latitude":45.5028758,"Longitude":13.638854}},"Address":{"Label":"Malija 37, SI- 6310 Izola, Slovenija","Country":"SVN","County":"Izola","City":"Izola","District":"Malija","Street":"Malija","HouseNumber":"37","PostalCode":"6310","AdditionalData":[{"value":"Slovenija","key":"CountryName"},{"value":"Izola","key":"CountyName"}]},"MapReference":{"ReferenceId":"710433780","Spot":0.83,"SideOfStreet":"right","CountryId":"20633685","CountyId":"20636216","CityId":"20636217","DistrictId":"22692306","AddressId":"406880514","RoadLinkId":"115607442"}}},{"Relevance":1.0,"Distance":45.9,"MatchLevel":"street","MatchQuality":{"Country":1.0,"County":1.0,"City":1.0,"District":1.0,"Street":[1.0],"PostalCode":1.0},"Location":{"LocationId":"NT_fPYRSmcY5UWcMXJdKPMLnC_l_710477852_L","LocationType":"point","DisplayPosition":{"Latitude":45.5046,"Longitude":13.63739},"MapView":{"TopLeft":{"Latitude":45.50481,"Longitude":13.63723},"BottomRight":{"Latitude":45.5046,"Longitude":13.63746}},"Address":{"Label":"Malija, SI- 6310 Izola, Slovenija","Country":"SVN","County":"Izola","City":"Izola","District":"Malija","Street":"Malija","PostalCode":"6310","AdditionalData":[{"value":"Slovenija","key":"CountryName"},{"value":"Izola","key":"CountyName"}]},"MapReference":{"ReferenceId":"710477852","Spot":0.0,"SideOfStreet":"left","CountryId":"20633685","CountyId":"20636216","CityId":"20636217","DistrictId":"22692306"}}},{"Relevance":1.0,"Distance":50.3,"MatchLevel":"houseNumber","MatchQuality":{"Country":1.0,"County":1.0,"City":1.0,"District":1.0,"Street":[1.0],"HouseNumber":1.0,"PostalCode":1.0},"MatchType":"interpolated","Location":{"LocationId":"NT_fPYRSmcY5UWcMXJdKPMLnC_ykD","LocationType":"point","DisplayPosition":{"Latitude":45.50436,"Longitude":13.63698},"MapView":{"TopLeft":{"Latitude":45.5054842,"Longitude":13.635376},"BottomRight":{"Latitude":45.5032358,"Longitude":13.638584}},"Address":{"Label":"Malija 29, SI- 6310 Izola, Slovenija","Country":"SVN","County":"Izola","City":"Izola","District":"Malija","Street":"Malija","HouseNumber":"29","PostalCode":"6310","AdditionalData":[{"value":"Slovenija","key":"CountryName"},{"value":"Izola","key":"CountyName"}]},"MapReference":{"ReferenceId":"710431063","Spot":0.65,"SideOfStreet":"right","CountryId":"20633685","CountyId":"20636216","CityId":"20636217","DistrictId":"22692306","AddressId":"406703325","RoadLinkId":"115626050"}}}]}]}}