{"Response":{"MetaInfo":{"Timestamp":"2020-03-31T17:06:54.047+0000","NextPageInformation":"2"},"View":[{"_type":"SearchResultsViewType","ViewId":0,"Result":[{"Relevance":1.0,"Distance":0.0,"Direction":0.0,"MatchLevel":"city","MatchQuality":{"Country":1.0,"County":1.0,"City":1.0,"PostalCode":1.0},"Location":{"LocationId":"NT_Awdr-CwlJ2X01dG.1R33ND","LocationType":"point","DisplayPosition":{"Latitude":45.5292,"Longitude":13.9528},"MapView":{"TopLeft":{"Latitude":45.6095,"Longitude":13.67026},"BottomRight":{"Latitude":45.42507,"Longitude":14.00187}},"Address":{"Label":"Koper, Slovenija","Country":"SVN","County":"Koper","City":"Koper","PostalCode":"6000","AdditionalData":[{"value":"Slovenija","key":"CountryName"},{"value":"Koper","key":"CountyName"}]},"MapReference":{"ReferenceId":"778690632","SideOfStreet":"neither","CountryId":"20633685","CountyId":"20636550","CityId":"20636551"}}},{"Relevance":1.0,"Distance":13.4,"MatchLevel":"houseNumber","MatchQuality":{"Country":1.0,"County":1.0,"City":1.0,"District":1.0,"Street":[1.0],"HouseNumber":1.0,"PostalCode":1.0},"MatchType":"interpolated","Location":{"LocationId":"NT_tAhNwqs9tNIai5Z76totWA_xkD","LocationType":"point","DisplayPosition":{"Latitude":45.52922,"Longitude":13.95263},"MapView":{"TopLeft":{"Latitude":45.5303442,"Longitude":13.9510253},"BottomRight":{"Latitude":45.5280958,"Longitude":13.9542347}},"Address":{"Label":"Podgorje 19, SI- 6216 Koper, Slovenija","Country":"SVN","County":"Koper","City":"Koper","District":"Podgorje","Street":"Podgorje","HouseNumber":"19","PostalCode":"6216","AdditionalData":[{"value":"Slovenija","key":"CountryName"},{"value":"Koper","key":"CountyName"}]},"MapReference":{"ReferenceId":"1057647764","Spot":0.83,"SideOfStreet":"left","CountryId":"20633685","CountyId":"20636550","CityId":"20636551","DistrictId":"22691496","AddressId":"406792479","RoadLinkId":"380690120"}}},{"Relevance":1.0,"Distance":20.8,"MatchLevel":"houseNumber","MatchQuality":{"Country":1.0,"County":1.0,"City":1.0,"District":1.0,"Street":[1.0],"HouseNumber":1.0,"PostalCode":1.0},"MatchType":"interpolated","Location":{"LocationId":"NT_tAhNwqs9tNIai5Z76totWA_xgD","LocationType":"point","DisplayPosition":{"Latitude":45.52938,"Longitude":13.95256},"MapView":{"TopLeft":{"Latitude":45.5305042,"Longitude":13.9509553},"BottomRight":{"Latitude":45.5282558,"Longitude":13.9541647}},"Address":{"Label":"Podgorje 18, SI- 6216 Koper, Slovenija","Country":"SVN","County":"Koper","City":"Koper","District":"Podgorje","Street":"Podgorje","HouseNumber":"18","PostalCode":"6216","AdditionalData":[{"value":"Slovenija","key":"CountryName"},{"value":"Koper","key":"CountyName"}]},"MapReference":{"ReferenceId":"710441895","Spot":0.34,"SideOfStreet":"right","CountryId":"20633685","CountyId":"20636550","CityId":"20636551","DistrictId":"22691496","AddressId":"406559064","RoadLinkId":"115654630"}}},{"Relevance":1.0,"Distance":27.3,"MatchLevel":"street","MatchQuality":{"Country":1.0,"County":1.0,"City":1.0,"District":1.0,"Street":[1.0],"PostalCode":1.0},"Location":{"LocationId":"NT_tAhNwqs9tNIai5Z76totWA_l_710489552_R","LocationType":"point","DisplayPosition":{"Latitude":45.52926,"Longitude":13.95246},"MapView":{"TopLeft":{"Latitude":45.52926,"Longitude":13.95219},"BottomRight":{"Latitude":45.52925,"Longitude":13.95246}},"Address":{"Label":"Podgorje, SI- 6216 Koper, Slovenija","Country":"SVN","County":"Koper","City":"Koper","District":"Podgorje","Street":"Podgorje","PostalCode":"6216","AdditionalData":[{"value":"Slovenija","key":"CountryName"},{"value":"Koper","key":"CountyName"}]},"MapReference":{"ReferenceId":"710489552","Spot":1.0,"SideOfStreet":"right","CountryId":"20633685","CountyId":"20636550","CityId":"20636551","DistrictId":"22691496"}}},{"Relevance":1.0,"Distance":32.5,"MatchLevel":"houseNumber","MatchQuality":{"Country":1.0,"County":1.0,"City":1.0,"District":1.0,"Street":[1.0],"HouseNumber":1.0,"PostalCode":1.0},"MatchType":"interpolated","Location":{"LocationId":"NT_tAhNwqs9tNIai5Z76totWA_yAD","LocationType":"point","DisplayPosition":{"Latitude":45.52907,"Longitude":13.95225},"MapView":{"TopLeft":{"Latitude":45.5301942,"Longitude":13.9506453},"BottomRight":{"Latitude":45.5279458,"Longitude":13.9538547}},"Address":{"Label":"Podgorje 20, SI- 6216 Koper, Slovenija","Country":"SVN","County":"Koper","City":"Koper","District":"Podgorje","Street":"Podgorje","HouseNumber":"20","PostalCode":"6216","AdditionalData":[{"value":"Slovenija","key":"CountryName"},{"value":"Koper","key":"CountyName"}]},"MapReference":{"ReferenceId":"1220631477","Spot":0.57,"SideOfStreet":"right","CountryId":"20633685","CountyId":"20636550","CityId":"20636551","DistrictId":"22691496","AddressId":"406807949","RoadLinkId":"537809918"}}},{"Relevance":1.0,"Distance":47.8,"MatchLevel":"street","MatchQuality":{"Country":1.0,"County":1.0,"City":1.0,"District":1.0,"Street":[1.0],"PostalCode":1.0},"Location":{"LocationId":"NT_tAhNwqs9tNIai5Z76totWA_l_710492306_R","LocationType":"point","DisplayPosition":{"Latitude":45.52925,"Longitude":13.95219},"MapView":{"TopLeft":{"Latitude":45.52964,"Longitude":13.95192},"BottomRight":{"Latitude":45.52925,"Longitude":13.95219}},"Address":{"Label":"Podgorje, SI- 6216 Koper, Slovenija","Country":"SVN","County":"Koper","City":"Koper","District":"Podgorje","Street":"Podgorje","PostalCode":"6216","AdditionalData":[{"value":"Slovenija","key":"CountryName"},{"value":"Koper","key":"CountyName"}]},"MapReference":{"ReferenceId":"710492306","Spot":0.0,"SideOfStreet":"right","CountryId":"20633685","CountyId":"20636550","CityId":"20636551","DistrictId":"22691496"}}},{"Relevance":1.0,"Distance":54.8,"MatchLevel":"houseNumber","MatchQuality":{"Country":1.0,"County":1.0,"City":1.0,"District":1.0,"Street":[1.0],"HouseNumber":1.0,"PostalCode":1.0},"MatchType":"interpolated","Location":{"LocationId":"NT_tAhNwqs9tNIai5Z76totWA_yED","LocationType":"point","DisplayPosition":{"Latitude":45.52865,"Longitude":13.95246},"MapView":{"TopLeft":{"Latitude":45.5297742,"Longitude":13.9508553},"BottomRight":{"Latitude":45.5275258,"Longitude":13.9540647}},"Address":{"Label":"Podgorje 21, SI- 6216 Koper, Slovenija","Country":"SVN","County":"Koper","City":"Koper","District":"Podgorje","Street":"Podgorje","HouseNumber":"21","PostalCode":"6216","AdditionalData":[{"value":"Slovenija","key":"CountryName"},{"value":"Koper","key":"CountyName"}]},"MapReference":{"ReferenceId":"1220631476","Spot":0.76,"SideOfStreet":"right","CountryId":"20633685","CountyId":"20636550","CityId":"20636551","DistrictId":"22691496","AddressId":"406807950","RoadLinkId":"537809917"}}},{"Relevance":1.0,"Distance":62.8,"MatchLevel":"street","MatchQuality":{"Country":1.0,"County":1.0,"City":1.0,"District":1.0,"Street":[1.0],"PostalCode":1.0},"Location":{"LocationId":"NT_tAhNwqs9tNIai5Z76totWA_l_1057647763_R","LocationType":"point","DisplayPosition":{"Latitude":45.5288,"Longitude":13.95337},"MapView":{"TopLeft":{"Latitude":45.5288,"Longitude":13.95337},"BottomRight":{"Latitude":45.52271,"Longitude":13.95767}},"Address":{"Label":"Podgorje, SI- 6216 Koper, Slovenija","Country":"SVN","County":"Koper","City":"Koper","District":"Podgorje","Street":"Podgorje","PostalCode":"6216","AdditionalData":[{"value":"Slovenija","key":"CountryName"},{"value":"Koper","key":"CountyName"}]},"MapReference":{"ReferenceId":"1057647763","Spot":1.0,"SideOfStreet":"right","CountryId":"20633685","CountyId":"20636550","CityId":"20636551","DistrictId":"22691496"}}},{"Relevance":1.0,"Distance":64.9,"MatchLevel":"houseNumber","MatchQuality":{"Country":1.0,"County":1.0,"City":1.0,"District":1.0,"Street":[1.0],"HouseNumber":1.0,"PostalCode":1.0},"MatchType":"interpolated","Location":{"LocationId":"NT_tAhNwqs9tNIai5Z76totWA_xcD","LocationType":"point","DisplayPosition":{"Latitude":45.52975,"Longitude":13.95239},"MapView":{"TopLeft":{"Latitude":45.5308742,"Longitude":13.9507853},"BottomRight":{"Latitude":45.5286258,"Longitude":13.9539947}},"Address":{"Label":"Podgorje 17, SI- 6216 Koper, Slovenija","Country":"SVN","County":"Koper","City":"Koper","District":"Podgorje","Street":"Podgorje","HouseNumber":"17","PostalCode":"6216","AdditionalData":[{"value":"Slovenija","key":"CountryName"},{"value":"Koper","key":"CountyName"}]},"MapReference":{"ReferenceId":"716396976","Spot":0.83,"SideOfStreet":"right","CountryId":"20633685","CountyId":"20636550","CityId":"20636551","DistrictId":"22691496","AddressId":"406505562","RoadLinkId":"121330397"}}},{"Relevance":1.0,"Distance":83.2,"MatchLevel":"street","MatchQuality":{"Country":1.0,"County":1.0,"City":1.0,"District":1.0,"Street":[1.0],"PostalCode":1.0},"Location":{"LocationId":"NT_tAhNwqs9tNIai5Z76totWA_l_716396974_R","LocationType":"point","DisplayPosition":{"Latitude":45.52974,"Longitude":13.95206},"MapView":{"TopLeft":{"Latitude":45.52974,"Longitude":13.95192},"BottomRight":{"Latitude":45.52964,"Longitude":13.95206}},"Address":{"Label":"Podgorje, SI- 6216 Koper, Slovenija","Country":"SVN","County":"Koper","City":"Koper","District":"Podgorje","Street":"Podgorje","PostalCode":"6216","AdditionalData":[{"value":"Slovenija","key":"CountryName"},{"value":"Koper","key":"CountyName"}]},"MapReference":{"ReferenceId":"716396974","Spot":1.0,"SideOfStreet":"right","CountryId":"20633685","CountyId":"20636550","CityId":"20636551","DistrictId":"22691496"}}}]}]}}