{"Response":{"MetaInfo":{"Timestamp":"2020-03-28T09:55:59.891+0000","NextPageInformation":"2"},"View":[{"_type":"SearchResultsViewType","ViewId":0,"Result":[{"Relevance":1.0,"Distance":0.0,"Direction":0.0,"MatchLevel":"city","MatchQuality":{"Country":1.0,"State":1.0,"County":1.0,"City":1.0,"PostalCode":1.0},"Location":{"LocationId":"NT_P.0tRWheAkXt1.1ObHMvsA","LocationType":"point","DisplayPosition":{"Latitude":45.5579181,"Longitude":11.5594057},"MapView":{"TopLeft":{"Latitude":45.60907,"Longitude":11.48657},"BottomRight":{"Latitude":45.48342,"Longitude":11.61473}},"Address":{"Label":"Vicenza, Veneto, Italia","Country":"ITA","State":"Veneto","County":"VI","City":"Vicenza","PostalCode":"36100","AdditionalData":[{"value":"Italia","key":"CountryName"},{"value":"Veneto","key":"StateName"},{"value":"Vicenza","key":"CountyName"}]},"MapReference":{"ReferenceId":"556522902","SideOfStreet":"neither","CountryId":"20110484","StateId":"20120537","CountyId":"20120918","CityId":"20121336"}}},{"Relevance":1.0,"Distance":11.7,"MatchLevel":"houseNumber","MatchQuality":{"Country":1.0,"State":1.0,"County":1.0,"City":1.0,"Street":[1.0],"HouseNumber":1.0,"PostalCode":1.0},"MatchType":"interpolated","Location":{"LocationId":"NT_IQ0a9rvPb5YKsfydpybq1A_xA","LocationType":"point","DisplayPosition":{"Latitude":45.55779,"Longitude":11.55949},"MapView":{"TopLeft":{"Latitude":45.5589142,"Longitude":11.5578845},"BottomRight":{"Latitude":45.5566658,"Longitude":11.5610955}},"Address":{"Label":"Via Olinto Grandesso Silvestri, 1, 36100 Vicenza VI, Italia","Country":"ITA","State":"Veneto","County":"VI","City":"Vicenza","Street":"Via Olinto Grandesso Silvestri","HouseNumber":"1","PostalCode":"36100","AdditionalData":[{"value":"Italia","key":"CountryName"},{"value":"Veneto","key":"StateName"},{"value":"Vicenza","key":"CountyName"}]},"MapReference":{"ReferenceId":"556522275","Spot":0.28,"SideOfStreet":"left","CountryId":"20110484","StateId":"20120537","CountyId":"20120918","CityId":"20121336","AddressId":"412257233","RoadLinkId":"58677582"}}},{"Relevance":1.0,"Distance":22.2,"MatchLevel":"houseNumber","MatchQuality":{"Country":1.0,"State":1.0,"County":1.0,"City":1.0,"Street":[1.0],"HouseNumber":1.0,"PostalCode":1.0},"MatchType":"interpolated","Location":{"LocationId":"NT_tG15YBp7lxOItC.coDPdIB_1A","LocationType":"point","DisplayPosition":{"Latitude":45.55779,"Longitude":11.5591},"MapView":{"TopLeft":{"Latitude":45.5589142,"Longitude":11.5574945},"BottomRight":{"Latitude":45.5566658,"Longitude":11.5607055}},"Address":{"Label":"Via Alessandro Massaria, 5, 36100 Vicenza VI, Italia","Country":"ITA","State":"Veneto","County":"VI","City":"Vicenza","Street":"Via Alessandro Massaria","HouseNumber":"5","PostalCode":"36100","AdditionalData":[{"value":"Italia","key":"CountryName"},{"value":"Veneto","key":"StateName"},{"value":"Vicenza","key":"CountyName"}]},"MapReference":{"ReferenceId":"556522276","Spot":0.3,"SideOfStreet":"right","CountryId":"20110484","StateId":"20120537","CountyId":"20120918","CityId":"20121336","AddressId":"412258441","RoadLinkId":"58721617"}}},{"Relevance":1.0,"Distance":39.1,"MatchLevel":"houseNumber","MatchQuality":{"Country":1.0,"State":1.0,"County":1.0,"City":1.0,"Street":[1.0],"HouseNumber":1.0,"PostalCode":1.0},"MatchType":"interpolated","Location":{"LocationId":"NT_tG15YBp7lxOItC.coDPdIB_3A","LocationType":"point","DisplayPosition":{"Latitude":45.55755,"Longitude":11.55944},"MapView":{"TopLeft":{"Latitude":45.5586742,"Longitude":11.5578345},"BottomRight":{"Latitude":45.5564258,"Longitude":11.5610455}},"Address":{"Label":"Via Alessandro Massaria, 7, 36100 Vicenza VI, Italia","Country":"ITA","State":"Veneto","County":"VI","City":"Vicenza","Street":"Via Alessandro Massaria","HouseNumber":"7","PostalCode":"36100","AdditionalData":[{"value":"Italia","key":"CountryName"},{"value":"Veneto","key":"StateName"},{"value":"Vicenza","key":"CountyName"}]},"MapReference":{"ReferenceId":"556522292","Spot":0.64,"SideOfStreet":"right","CountryId":"20110484","StateId":"20120537","CountyId":"20120918","CityId":"20121336","AddressId":"412220462","RoadLinkId":"58471341"}}},{"Relevance":1.0,"Distance":48.5,"MatchLevel":"houseNumber","MatchQuality":{"Country":1.0,"State":1.0,"County":1.0,"City":1.0,"Street":[1.0],"HouseNumber":1.0,"PostalCode":1.0},"MatchType":"interpolated","Location":{"LocationId":"NT_EPtfbcGu6ujfBor4kryXsB_xMjN","LocationType":"point","DisplayPosition":{"Latitude":45.55837,"Longitude":11.55915},"MapView":{"TopLeft":{"Latitude":45.5594942,"Longitude":11.5575445},"BottomRight":{"Latitude":45.5572458,"Longitude":11.5607555}},"Address":{"Label":"Viale Trieste, 136, 36100 Vicenza VI, Italia","Country":"ITA","State":"Veneto","County":"VI","City":"Vicenza","Street":"Viale Trieste","HouseNumber":"136","PostalCode":"36100","AdditionalData":[{"value":"Italia","key":"CountryName"},{"value":"Veneto","key":"StateName"},{"value":"Vicenza","key":"CountyName"}]},"MapReference":{"ReferenceId":"866116477","Spot":0.39,"SideOfStreet":"right","CountryId":"20110484","StateId":"20120537","CountyId":"20120918","CityId":"20121336","AddressId":"412245706","RoadLinkId":"239239160"}}},{"Relevance":1.0,"Distance":58.0,"MatchLevel":"houseNumber","MatchQuality":{"Country":1.0,"State":1.0,"County":1.0,"City":1.0,"Street":[1.0],"HouseNumber":1.0,"PostalCode":1.0},"MatchType":"interpolated","Location":{"LocationId":"NT_EPtfbcGu6ujfBor4kryXsB_xIDN","LocationType":"point","DisplayPosition":{"Latitude":45.55802,"Longitude":11.55863},"MapView":{"TopLeft":{"Latitude":45.5591442,"Longitude":11.5570245},"BottomRight":{"Latitude":45.5568958,"Longitude":11.5602355}},"Address":{"Label":"Viale Trieste, 124, 36100 Vicenza VI, Italia","Country":"ITA","State":"Veneto","County":"VI","City":"Vicenza","Street":"Viale Trieste","HouseNumber":"124","PostalCode":"36100","AdditionalData":[{"value":"Italia","key":"CountryName"},{"value":"Veneto","key":"StateName"},{"value":"Vicenza","key":"CountyName"}]},"MapReference":{"ReferenceId":"1035032369","Spot":0.52,"SideOfStreet":"right","CountryId":"20110484","StateId":"20120537","CountyId":"20120918","CityId":"20121336","AddressId":"412236416","RoadLinkId":"356946285"}}},{"Relevance":1.0,"Distance":62.1,"MatchLevel":"houseNumber","MatchQuality":{"Country":1.0,"State":1.0,"County":1.0,"City":1.0,"Street":[1.0],"HouseNumber":1.0,"PostalCode":1.0},"MatchType":"interpolated","Location":{"LocationId":"NT_EPtfbcGu6ujfBor4kryXsB_xIDM","LocationType":"point","DisplayPosition":{"Latitude":45.55796,"Longitude":11.55858},"MapView":{"TopLeft":{"Latitude":45.5590842,"Longitude":11.5569745},"BottomRight":{"Latitude":45.5568358,"Longitude":11.5601855}},"Address":{"Label":"Viale Trieste, 120, 36100 Vicenza VI, Italia","Country":"ITA","State":"Veneto","County":"VI","City":"Vicenza","Street":"Viale Trieste","HouseNumber":"120","PostalCode":"36100","AdditionalData":[{"value":"Italia","key":"CountryName"},{"value":"Veneto","key":"StateName"},{"value":"Vicenza","key":"CountyName"}]},"MapReference":{"ReferenceId":"1035032368","Spot":0.99,"SideOfStreet":"right","CountryId":"20110484","StateId":"20120537","CountyId":"20120918","CityId":"20121336","AddressId":"412236418","RoadLinkId":"356946284"}}},{"Relevance":1.0,"Distance":64.7,"MatchLevel":"houseNumber","MatchQuality":{"Country":1.0,"State":1.0,"County":1.0,"City":1.0,"Street":[1.0],"HouseNumber":1.0,"PostalCode":1.0},"MatchType":"interpolated","Location":{"LocationId":"NT_NDpAv6HBOvGaEWsj2NOeEB_xA","LocationType":"point","DisplayPosition":{"Latitude":45.55739,"Longitude":11.55983},"MapView":{"TopLeft":{"Latitude":45.5585142,"Longitude":11.5582245},"BottomRight":{"Latitude":45.5562658,"Longitude":11.5614355}},"Address":{"Label":"Via Antonio Fracanzan, 1, 36100 Vicenza VI, Italia","Country":"ITA","State":"Veneto","County":"VI","City":"Vicenza","Street":"Via Antonio Fracanzan","HouseNumber":"1","PostalCode":"36100","AdditionalData":[{"value":"Italia","key":"CountryName"},{"value":"Veneto","key":"StateName"},{"value":"Vicenza","key":"CountyName"}]},"MapReference":{"ReferenceId":"556522291","Spot":0.06,"SideOfStreet":"left","CountryId":"20110484","StateId":"20120537","CountyId":"20120918","CityId":"20121336","AddressId":"412252665","RoadLinkId":"59293216"}}},{"Relevance":1.0,"Distance":80.1,"MatchLevel":"houseNumber","MatchQuality":{"Country":1.0,"State":1.0,"County":1.0,"City":1.0,"Street":[1.0],"HouseNumber":1.0,"PostalCode":1.0},"MatchType":"interpolated","Location":{"LocationId":"NT_tG15YBp7lxOItC.coDPdIB_xED","LocationType":"point","DisplayPosition":{"Latitude":45.55725,"Longitude":11.55979},"MapView":{"TopLeft":{"Latitude":45.5583742,"Longitude":11.5581845},"BottomRight":{"Latitude":45.5561258,"Longitude":11.5613955}},"Address":{"Label":"Via Alessandro Massaria, 11, 36100 Vicenza VI, Italia","Country":"ITA","State":"Veneto","County":"VI","City":"Vicenza","Street":"Via Alessandro Massaria","HouseNumber":"11","PostalCode":"36100","AdditionalData":[{"value":"Italia","key":"CountryName"},{"value":"Veneto","key":"StateName"},{"value":"Vicenza","key":"CountyName"}]},"MapReference":{"ReferenceId":"556522302","Spot":0.78,"SideOfStreet":"right","CountryId":"20110484","StateId":"20120537","CountyId":"20120918","CityId":"20121336","AddressId":"412220871","RoadLinkId":"59136697"}}},{"Relevance":1.0,"Distance":100.0,"MatchLevel":"street","MatchQuality":{"Country":1.0,"State":1.0,"County":1.0,"City":1.0,"PostalCode":1.0},"Location":{"LocationId":"NT_X1Ep7xMBsD9dmyP3tpfNzD_l_866134169_L","LocationType":"point","DisplayPosition":{"Latitude":45.55867,"Longitude":11.56011},"MapView":{"TopLeft":{"Latitude":45.55867,"Longitude":11.56011},"BottomRight":{"Latitude":45.55839,"Longitude":11.56044}},"Address":{"Label":"36100 Vicenza VI, Italia","Country":"ITA","State":"Veneto","County":"VI","City":"Vicenza","PostalCode":"36100","AdditionalData":[{"value":"Italia","key":"CountryName"},{"value":"Veneto","key":"StateName"},{"value":"Vicenza","key":"CountyName"}]},"MapReference":{"ReferenceId":"866134169","Spot":1.0,"SideOfStreet":"left","CountryId":"20110484","StateId":"20120537","CountyId":"20120918","CityId":"20121336"}}}]}]}}