{"Response":{"MetaInfo":{"Timestamp":"2020-03-28T11:25:20.827+0000","NextPageInformation":"2"},"View":[{"_type":"SearchResultsViewType","ViewId":0,"Result":[{"Relevance":1.0,"Distance":0.0,"Direction":0.0,"MatchLevel":"city","MatchQuality":{"Country":1.0,"State":1.0,"County":1.0,"City":1.0,"PostalCode":1.0},"Location":{"LocationId":"NT_P.0tRWheAkXt1.1ObHMvsA","LocationType":"point","DisplayPosition":{"Latitude":45.5571335,"Longitude":11.543188},"MapView":{"TopLeft":{"Latitude":45.60907,"Longitude":11.48657},"BottomRight":{"Latitude":45.48342,"Longitude":11.61473}},"Address":{"Label":"Vicenza, Veneto, Italia","Country":"ITA","State":"Veneto","County":"VI","City":"Vicenza","PostalCode":"36100","AdditionalData":[{"value":"Italia","key":"CountryName"},{"value":"Veneto","key":"StateName"},{"value":"Vicenza","key":"CountyName"}]},"MapReference":{"ReferenceId":"556522902","SideOfStreet":"neither","CountryId":"20110484","StateId":"20120537","CountyId":"20120918","CityId":"20121336"}}},{"Relevance":1.0,"Distance":3.0,"MatchLevel":"houseNumber","MatchQuality":{"Country":1.0,"State":1.0,"County":1.0,"City":1.0,"Street":[1.0],"HouseNumber":1.0,"PostalCode":1.0},"MatchType":"interpolated","Location":{"LocationId":"NT_cNAiTn-XG7T1ipIk9PUZQB_yQD","LocationType":"point","DisplayPosition":{"Latitude":45.55693,"Longitude":11.54344},"MapView":{"TopLeft":{"Latitude":45.5580542,"Longitude":11.5418345},"BottomRight":{"Latitude":45.5558058,"Longitude":11.5450455}},"Address":{"Label":"Stradella dell'Ospedale, 24, 36100 Vicenza VI, Italia","Country":"ITA","State":"Veneto","County":"VI","City":"Vicenza","Street":"Stradella dell'Ospedale","HouseNumber":"24","PostalCode":"36100","AdditionalData":[{"value":"Italia","key":"CountryName"},{"value":"Veneto","key":"StateName"},{"value":"Vicenza","key":"CountyName"}]},"MapReference":{"ReferenceId":"556522336","Spot":1.0,"SideOfStreet":"right","CountryId":"20110484","StateId":"20120537","CountyId":"20120918","CityId":"20121336","AddressId":"412222786","RoadLinkId":"58550388"}}},{"Relevance":1.0,"Distance":70.2,"MatchLevel":"houseNumber","MatchQuality":{"Country":1.0,"State":1.0,"County":1.0,"City":1.0,"Street":[1.0],"HouseNumber":1.0,"PostalCode":1.0},"MatchType":"interpolated","Location":{"LocationId":"NT_uz8XHiHDoBuz8aFi5gye0B_4UD","LocationType":"point","DisplayPosition":{"Latitude":45.55677,"Longitude":11.54408},"MapView":{"TopLeft":{"Latitude":45.5578942,"Longitude":11.5424745},"BottomRight":{"Latitude":45.5556458,"Longitude":11.5456855}},"Address":{"Label":"Contra' San Bortolo, 85, 36100 Vicenza VI, Italia","Country":"ITA","State":"Veneto","County":"VI","City":"Vicenza","Street":"Contra' San Bortolo","HouseNumber":"85","PostalCode":"36100","AdditionalData":[{"value":"Italia","key":"CountryName"},{"value":"Veneto","key":"StateName"},{"value":"Vicenza","key":"CountyName"}]},"MapReference":{"ReferenceId":"1230281647","Spot":0.08,"SideOfStreet":"left","CountryId":"20110484","StateId":"20120537","CountyId":"20120918","CityId":"20121336","AddressId":"412255976","RoadLinkId":"549638894"}}},{"Relevance":1.0,"Distance":72.4,"MatchLevel":"houseNumber","MatchQuality":{"Country":1.0,"State":1.0,"County":1.0,"City":1.0,"Street":[1.0],"HouseNumber":1.0,"PostalCode":1.0},"MatchType":"interpolated","Location":{"LocationId":"NT_wMcaGBMLe-TBXwHYUJeUkA_xID","LocationType":"point","DisplayPosition":{"Latitude":45.55775,"Longitude":11.54259},"MapView":{"TopLeft":{"Latitude":45.5588742,"Longitude":11.5409845},"BottomRight":{"Latitude":45.5566258,"Longitude":11.5441955}},"Address":{"Label":"Viale Bortolomeo d'Alviano, 12, 36100 Vicenza VI, Italia","Country":"ITA","State":"Veneto","County":"VI","City":"Vicenza","Street":"Viale Bortolomeo d'Alviano","HouseNumber":"12","PostalCode":"36100","AdditionalData":[{"value":"Italia","key":"CountryName"},{"value":"Veneto","key":"StateName"},{"value":"Vicenza","key":"CountyName"}]},"MapReference":{"ReferenceId":"556521401","Spot":0.19,"SideOfStreet":"right","CountryId":"20110484","StateId":"20120537","CountyId":"20120918","CityId":"20121336","AddressId":"412256737","RoadLinkId":"58704027"}}},{"Relevance":1.0,"Distance":73.4,"MatchLevel":"houseNumber","MatchQuality":{"Country":1.0,"State":1.0,"County":1.0,"City":1.0,"Street":[1.0],"HouseNumber":1.0,"PostalCode":1.0},"MatchType":"interpolated","Location":{"LocationId":"NT_wMcaGBMLe-TBXwHYUJeUkA_xAD","LocationType":"point","DisplayPosition":{"Latitude":45.5577,"Longitude":11.5425},"MapView":{"TopLeft":{"Latitude":45.5588242,"Longitude":11.5408945},"BottomRight":{"Latitude":45.5565758,"Longitude":11.5441055}},"Address":{"Label":"Viale Bortolomeo d'Alviano, 10, 36100 Vicenza VI, Italia","Country":"ITA","State":"Veneto","County":"VI","City":"Vicenza","Street":"Viale Bortolomeo d'Alviano","HouseNumber":"10","PostalCode":"36100","AdditionalData":[{"value":"Italia","key":"CountryName"},{"value":"Veneto","key":"StateName"},{"value":"Vicenza","key":"CountyName"}]},"MapReference":{"ReferenceId":"1201993899","Spot":0.92,"SideOfStreet":"right","CountryId":"20110484","StateId":"20120537","CountyId":"20120918","CityId":"20121336","AddressId":"412244790","RoadLinkId":"514706938"}}},{"Relevance":1.0,"Distance":78.1,"MatchLevel":"houseNumber","MatchQuality":{"Country":1.0,"State":1.0,"County":1.0,"City":1.0,"Street":[1.0],"HouseNumber":1.0,"PostalCode":1.0},"MatchType":"interpolated","Location":{"LocationId":"NT_THkgnVlwPgXQMUdPD8oUIA_2QD","LocationType":"point","DisplayPosition":{"Latitude":45.55684,"Longitude":11.54227},"MapView":{"TopLeft":{"Latitude":45.5579642,"Longitude":11.5406645},"BottomRight":{"Latitude":45.5557158,"Longitude":11.5438755}},"Address":{"Label":"Via Giambattista Pagliarino, 64, 36100 Vicenza VI, Italia","Country":"ITA","State":"Veneto","County":"VI","City":"Vicenza","Street":"Via Giambattista Pagliarino","HouseNumber":"64","PostalCode":"36100","AdditionalData":[{"value":"Italia","key":"CountryName"},{"value":"Veneto","key":"StateName"},{"value":"Vicenza","key":"CountyName"}]},"MapReference":{"ReferenceId":"1219824855","Spot":0.57,"SideOfStreet":"right","CountryId":"20110484","StateId":"20120537","CountyId":"20120918","CityId":"20121336","AddressId":"412219122","RoadLinkId":"536827473"}}},{"Relevance":1.0,"Distance":81.3,"MatchLevel":"houseNumber","MatchQuality":{"Country":1.0,"State":1.0,"County":1.0,"City":1.0,"Street":[1.0],"HouseNumber":1.0,"PostalCode":1.0},"MatchType":"interpolated","Location":{"LocationId":"NT_uz8XHiHDoBuz8aFi5gye0B_2kD","LocationType":"point","DisplayPosition":{"Latitude":45.5564,"Longitude":11.54364},"MapView":{"TopLeft":{"Latitude":45.5575242,"Longitude":11.5420345},"BottomRight":{"Latitude":45.5552758,"Longitude":11.5452455}},"Address":{"Label":"Contra' San Bortolo, 69, 36100 Vicenza VI, Italia","Country":"ITA","State":"Veneto","County":"VI","City":"Vicenza","Street":"Contra' San Bortolo","HouseNumber":"69","PostalCode":"36100","AdditionalData":[{"value":"Italia","key":"CountryName"},{"value":"Veneto","key":"StateName"},{"value":"Vicenza","key":"CountyName"}]},"MapReference":{"ReferenceId":"556522407","Spot":0.71,"SideOfStreet":"left","CountryId":"20110484","StateId":"20120537","CountyId":"20120918","CityId":"20121336","AddressId":"412230601","RoadLinkId":"58378676"}}},{"Relevance":1.0,"Distance":85.6,"MatchLevel":"landmark","MatchQuality":{"Country":1.0,"State":1.0,"County":1.0,"City":1.0,"Street":[1.0],"HouseNumber":1.0,"PostalCode":1.0,"Name":1.0},"Location":{"LocationId":"NT_BLD.99h6Bejpesg1.wpp9B_p_tOODnl5GlezQRp1ONlojZB","LocationType":"hospital","Name":"Ospedale San Bortolo","DisplayPosition":{"Latitude":45.5561,"Longitude":11.54819},"MapView":{"TopLeft":{"Latitude":45.5572242,"Longitude":11.5465846},"BottomRight":{"Latitude":45.5549758,"Longitude":11.5497954}},"Address":{"Label":"Viale Ferdinando Rodolfi, 37, 36100 Vicenza VI, Italia","Country":"ITA","State":"Veneto","County":"VI","City":"Vicenza","Street":"Viale Ferdinando Rodolfi","HouseNumber":"37","PostalCode":"36100","AdditionalData":[{"value":"Italia","key":"CountryName"},{"value":"Veneto","key":"StateName"},{"value":"Vicenza","key":"CountyName"}]},"MapReference":{"CountryId":"20110484","StateId":"20120537","CountyId":"20120918","CityId":"20121336","PlaceId":"538116828"}}},{"Relevance":1.0,"Distance":85.9,"MatchLevel":"houseNumber","MatchQuality":{"Country":1.0,"State":1.0,"County":1.0,"City":1.0,"Street":[1.0],"HouseNumber":1.0,"PostalCode":1.0},"MatchType":"interpolated","Location":{"LocationId":"NT_THkgnVlwPgXQMUdPD8oUIA_2gD","LocationType":"point","DisplayPosition":{"Latitude":45.55696,"Longitude":11.542},"MapView":{"TopLeft":{"Latitude":45.5580842,"Longitude":11.5403945},"BottomRight":{"Latitude":45.5558358,"Longitude":11.5436055}},"Address":{"Label":"Via Giambattista Pagliarino, 68, 36100 Vicenza VI, Italia","Country":"ITA","State":"Veneto","County":"VI","City":"Vicenza","Street":"Via Giambattista Pagliarino","HouseNumber":"68","PostalCode":"36100","AdditionalData":[{"value":"Italia","key":"CountryName"},{"value":"Veneto","key":"StateName"},{"value":"Vicenza","key":"CountyName"}]},"MapReference":{"ReferenceId":"1230129830","Spot":0.65,"SideOfStreet":"right","CountryId":"20110484","StateId":"20120537","CountyId":"20120918","CityId":"20121336","AddressId":"412219120","RoadLinkId":"549460231"}}},{"Relevance":1.0,"Distance":86.5,"MatchLevel":"houseNumber","MatchQuality":{"Country":1.0,"State":1.0,"County":1.0,"City":1.0,"Street":[1.0],"HouseNumber":1.0,"PostalCode":1.0},"MatchType":"interpolated","Location":{"LocationId":"NT_THkgnVlwPgXQMUdPD8oUIA_3AD","LocationType":"point","DisplayPosition":{"Latitude":45.55707,"Longitude":11.54198},"MapView":{"TopLeft":{"Latitude":45.5581942,"Longitude":11.5403745},"BottomRight":{"Latitude":45.5559458,"Longitude":11.5435855}},"Address":{"Label":"Via Giambattista Pagliarino, 70, 36100 Vicenza VI, Italia","Country":"ITA","State":"Veneto","County":"VI","City":"Vicenza","Street":"Via Giambattista Pagliarino","HouseNumber":"70","PostalCode":"36100","AdditionalData":[{"value":"Italia","key":"CountryName"},{"value":"Veneto","key":"StateName"},{"value":"Vicenza","key":"CountyName"}]},"MapReference":{"ReferenceId":"1230129831","Spot":0.18,"SideOfStreet":"right","CountryId":"20110484","StateId":"20120537","CountyId":"20120918","CityId":"20121336","AddressId":"412219119","RoadLinkId":"549460232"}}}]}]}}