{"Response":{"MetaInfo":{"Timestamp":"2020-03-28T12:03:37.206+0000","NextPageInformation":"2"},"View":[{"_type":"SearchResultsViewType","ViewId":0,"Result":[{"Relevance":1.0,"Distance":0.0,"Direction":0.0,"MatchLevel":"city","MatchQuality":{"Country":1.0,"State":1.0,"County":1.0,"City":1.0,"PostalCode":1.0},"Location":{"LocationId":"NT_HR.qoJFAiT81uzq3mWBUMB","LocationType":"point","DisplayPosition":{"Latitude":45.5486972,"Longitude":10.418601},"MapView":{"TopLeft":{"Latitude":45.5676,"Longitude":10.39729},"BottomRight":{"Latitude":45.52091,"Longitude":10.44207}},"Address":{"Label":"Prevalle, Lombardia, Italia","Country":"ITA","State":"Lombardia","County":"BS","City":"Prevalle","PostalCode":"25080","AdditionalData":[{"value":"Italia","key":"CountryName"},{"value":"Lombardia","key":"StateName"},{"value":"Brescia","key":"CountyName"}]},"MapReference":{"ReferenceId":"844787440","SideOfStreet":"neither","CountryId":"20110484","StateId":"20114907","CountyId":"20117513","CityId":"20118041"}}},{"Relevance":1.0,"Distance":8.8,"MatchLevel":"houseNumber","MatchQuality":{"Country":1.0,"State":1.0,"County":1.0,"City":1.0,"Street":[1.0],"HouseNumber":1.0,"PostalCode":1.0},"MatchType":"interpolated","Location":{"LocationId":"NT_Sxw.0couL21cgBmRMOosXD_xMTO","LocationType":"point","DisplayPosition":{"Latitude":45.54932,"Longitude":10.41761},"MapView":{"TopLeft":{"Latitude":45.5504442,"Longitude":10.4160047},"BottomRight":{"Latitude":45.5481958,"Longitude":10.4192153}},"Address":{"Label":"Via Bonsignori, 139, 25080 Prevalle BS, Italia","Country":"ITA","State":"Lombardia","County":"BS","City":"Prevalle","Street":"Via Bonsignori","HouseNumber":"139","PostalCode":"25080","AdditionalData":[{"value":"Italia","key":"CountryName"},{"value":"Lombardia","key":"StateName"},{"value":"Brescia","key":"CountyName"}]},"MapReference":{"ReferenceId":"573686373","Spot":1.0,"SideOfStreet":"right","CountryId":"20110484","StateId":"20114907","CountyId":"20117513","CityId":"20118041","AddressId":"752557158","RoadLinkId":"55641085"}}},{"Relevance":1.0,"Distance":13.9,"MatchLevel":"houseNumber","MatchQuality":{"Country":1.0,"State":1.0,"County":1.0,"City":1.0,"Street":[1.0],"HouseNumber":1.0,"PostalCode":1.0},"MatchType":"interpolated","Location":{"LocationId":"NT_Sxw.0couL21cgBmRMOosXD_xQzM","LocationType":"point","DisplayPosition":{"Latitude":45.54857,"Longitude":10.41884},"MapView":{"TopLeft":{"Latitude":45.5496942,"Longitude":10.4172348},"BottomRight":{"Latitude":45.5474458,"Longitude":10.4204452}},"Address":{"Label":"Via Bonsignori, 143, 25080 Prevalle BS, Italia","Country":"ITA","State":"Lombardia","County":"BS","City":"Prevalle","Street":"Via Bonsignori","HouseNumber":"143","PostalCode":"25080","AdditionalData":[{"value":"Italia","key":"CountryName"},{"value":"Lombardia","key":"StateName"},{"value":"Brescia","key":"CountyName"}]},"MapReference":{"ReferenceId":"573686340","Spot":0.06,"SideOfStreet":"left","CountryId":"20110484","StateId":"20114907","CountyId":"20117513","CityId":"20118041","AddressId":"752967488","RoadLinkId":"55762707"}}},{"Relevance":1.0,"Distance":24.1,"MatchLevel":"houseNumber","MatchQuality":{"Country":1.0,"State":1.0,"County":1.0,"City":1.0,"Street":[1.0],"HouseNumber":1.0,"PostalCode":1.0},"MatchType":"interpolated","Location":{"LocationId":"NT_Sxw.0couL21cgBmRMOosXD_xITN","LocationType":"point","DisplayPosition":{"Latitude":45.5485,"Longitude":10.41873},"MapView":{"TopLeft":{"Latitude":45.5496242,"Longitude":10.4171248},"BottomRight":{"Latitude":45.5473758,"Longitude":10.4203352}},"Address":{"Label":"Via Bonsignori, 125, 25080 Prevalle BS, Italia","Country":"ITA","State":"Lombardia","County":"BS","City":"Prevalle","Street":"Via Bonsignori","HouseNumber":"125","PostalCode":"25080","AdditionalData":[{"value":"Italia","key":"CountryName"},{"value":"Lombardia","key":"StateName"},{"value":"Brescia","key":"CountyName"}]},"MapReference":{"ReferenceId":"573686384","Spot":1.0,"SideOfStreet":"left","CountryId":"20110484","StateId":"20114907","CountyId":"20117513","CityId":"20118041","AddressId":"752761582","RoadLinkId":"55729548"}}},{"Relevance":1.0,"Distance":72.6,"MatchLevel":"houseNumber","MatchQuality":{"Country":1.0,"State":1.0,"County":1.0,"City":1.0,"Street":[1.0],"HouseNumber":1.0,"PostalCode":1.0},"MatchType":"interpolated","Location":{"LocationId":"NT_cPiRS6E3JRn7V4bzvqqRmB_xA","LocationType":"point","DisplayPosition":{"Latitude":45.54842,"Longitude":10.41768},"MapView":{"TopLeft":{"Latitude":45.5495442,"Longitude":10.4160748},"BottomRight":{"Latitude":45.5472958,"Longitude":10.4192852}},"Address":{"Label":"Via Fornace, 1, 25080 Prevalle BS, Italia","Country":"ITA","State":"Lombardia","County":"BS","City":"Prevalle","Street":"Via Fornace","HouseNumber":"1","PostalCode":"25080","AdditionalData":[{"value":"Italia","key":"CountryName"},{"value":"Lombardia","key":"StateName"},{"value":"Brescia","key":"CountyName"}]},"MapReference":{"ReferenceId":"584415035","Spot":1.0,"SideOfStreet":"right","CountryId":"20110484","StateId":"20114907","CountyId":"20117513","CityId":"20118041","AddressId":"752617443","RoadLinkId":"54626095"}}},{"Relevance":1.0,"Distance":74.1,"MatchLevel":"houseNumber","MatchQuality":{"Country":1.0,"State":1.0,"County":1.0,"City":1.0,"Street":[1.0],"HouseNumber":1.0,"PostalCode":1.0},"MatchType":"interpolated","Location":{"LocationId":"NT_Sxw.0couL21cgBmRMOosXD_xATO","LocationType":"point","DisplayPosition":{"Latitude":45.54811,"Longitude":10.41815},"MapView":{"TopLeft":{"Latitude":45.5492342,"Longitude":10.4165448},"BottomRight":{"Latitude":45.5469858,"Longitude":10.4197552}},"Address":{"Label":"Via Bonsignori, 109, 25080 Prevalle BS, Italia","Country":"ITA","State":"Lombardia","County":"BS","City":"Prevalle","Street":"Via Bonsignori","HouseNumber":"109","PostalCode":"25080","AdditionalData":[{"value":"Italia","key":"CountryName"},{"value":"Lombardia","key":"StateName"},{"value":"Brescia","key":"CountyName"}]},"MapReference":{"ReferenceId":"1197671933","Spot":1.0,"SideOfStreet":"left","CountryId":"20110484","StateId":"20114907","CountyId":"20117513","CityId":"20118041","AddressId":"246644948","RoadLinkId":"508515963"}}},{"Relevance":1.0,"Distance":99.9,"MatchLevel":"houseNumber","MatchQuality":{"Country":1.0,"State":1.0,"County":1.0,"City":1.0,"Street":[1.0],"HouseNumber":1.0,"PostalCode":1.0},"MatchType":"interpolated","Location":{"LocationId":"NT_ZQxawS.wIHdktqCmEXtkoD_xMD","LocationType":"point","DisplayPosition":{"Latitude":45.54737,"Longitude":10.41828},"MapView":{"TopLeft":{"Latitude":45.5484942,"Longitude":10.4166748},"BottomRight":{"Latitude":45.5462458,"Longitude":10.4198852}},"Address":{"Label":"Viale Alcide De Gasperi, 13, 25080 Prevalle BS, Italia","Country":"ITA","State":"Lombardia","County":"BS","City":"Prevalle","Street":"Viale Alcide De Gasperi","HouseNumber":"13","PostalCode":"25080","AdditionalData":[{"value":"Italia","key":"CountryName"},{"value":"Lombardia","key":"StateName"},{"value":"Brescia","key":"CountyName"}]},"MapReference":{"ReferenceId":"584414859","Spot":0.54,"SideOfStreet":"right","CountryId":"20110484","StateId":"20114907","CountyId":"20117513","CityId":"20118041","AddressId":"260996026","RoadLinkId":"55872804"}}},{"Relevance":1.0,"Distance":124.6,"MatchLevel":"houseNumber","MatchQuality":{"Country":1.0,"State":1.0,"County":1.0,"City":1.0,"Street":[1.0],"HouseNumber":1.0,"PostalCode":1.0},"MatchType":"interpolated","Location":{"LocationId":"NT_a4bUMQw6MNp1laOw4EsCsB_1IE","LocationType":"point","DisplayPosition":{"Latitude":45.54987,"Longitude":10.4187},"MapView":{"TopLeft":{"Latitude":45.5509942,"Longitude":10.4170947},"BottomRight":{"Latitude":45.5487458,"Longitude":10.4203053}},"Address":{"Label":"Via Giuseppe Zanardelli, 5B, 25080 Prevalle BS, Italia","Country":"ITA","State":"Lombardia","County":"BS","City":"Prevalle","Street":"Via Giuseppe Zanardelli","HouseNumber":"5B","PostalCode":"25080","AdditionalData":[{"value":"Italia","key":"CountryName"},{"value":"Lombardia","key":"StateName"},{"value":"Brescia","key":"CountyName"}]},"MapReference":{"ReferenceId":"584415034","Spot":0.21,"SideOfStreet":"right","CountryId":"20110484","StateId":"20114907","CountyId":"20117513","CityId":"20118041","AddressId":"246512444","RoadLinkId":"55500769"}}},{"Relevance":1.0,"Distance":125.9,"MatchLevel":"houseNumber","MatchQuality":{"Country":1.0,"State":1.0,"County":1.0,"City":1.0,"Street":[1.0],"HouseNumber":1.0,"PostalCode":1.0},"MatchType":"interpolated","Location":{"LocationId":"NT_Sxw.0couL21cgBmRMOosXD_xATM","LocationType":"point","DisplayPosition":{"Latitude":45.54801,"Longitude":10.41713},"MapView":{"TopLeft":{"Latitude":45.5491342,"Longitude":10.4155248},"BottomRight":{"Latitude":45.5468858,"Longitude":10.4187352}},"Address":{"Label":"Via Bonsignori, 101, 25080 Prevalle BS, Italia","Country":"ITA","State":"Lombardia","County":"BS","City":"Prevalle","Street":"Via Bonsignori","HouseNumber":"101","PostalCode":"25080","AdditionalData":[{"value":"Italia","key":"CountryName"},{"value":"Lombardia","key":"StateName"},{"value":"Brescia","key":"CountyName"}]},"MapReference":{"ReferenceId":"844739543","Spot":0.96,"SideOfStreet":"right","CountryId":"20110484","StateId":"20114907","CountyId":"20117513","CityId":"20118041","AddressId":"246474900","RoadLinkId":"226134766"}}},{"Relevance":1.0,"Distance":127.4,"MatchLevel":"houseNumber","MatchQuality":{"Country":1.0,"State":1.0,"County":1.0,"City":1.0,"Street":[1.0],"HouseNumber":1.0,"PostalCode":1.0},"MatchType":"interpolated","Location":{"LocationId":"NT_Sxw.0couL21cgBmRMOosXD_xATN","LocationType":"point","DisplayPosition":{"Latitude":45.54772,"Longitude":10.41754},"MapView":{"TopLeft":{"Latitude":45.5488442,"Longitude":10.4159348},"BottomRight":{"Latitude":45.5465958,"Longitude":10.4191452}},"Address":{"Label":"Via Bonsignori, 105, 25080 Prevalle BS, Italia","Country":"ITA","State":"Lombardia","County":"BS","City":"Prevalle","Street":"Via Bonsignori","HouseNumber":"105","PostalCode":"25080","AdditionalData":[{"value":"Italia","key":"CountryName"},{"value":"Lombardia","key":"StateName"},{"value":"Brescia","key":"CountyName"}]},"MapReference":{"ReferenceId":"1197671932","Spot":0.0,"SideOfStreet":"left","CountryId":"20110484","StateId":"20114907","CountyId":"20117513","CityId":"20118041","AddressId":"752602553","RoadLinkId":"508515962"}}}]}]}}