{"Response":{"MetaInfo":{"Timestamp":"2020-03-28T11:24:32.879+0000","NextPageInformation":"2"},"View":[{"_type":"SearchResultsViewType","ViewId":0,"Result":[{"Relevance":1.0,"Distance":0.0,"Direction":0.0,"MatchLevel":"city","MatchQuality":{"Country":1.0,"State":1.0,"County":1.0,"City":1.0,"PostalCode":1.0},"Location":{"LocationId":"NT_LatHSWc3jlT05jRXZ4ESdA","LocationType":"point","DisplayPosition":{"Latitude":45.5533956,"Longitude":10.2265245},"MapView":{"TopLeft":{"Latitude":45.58998,"Longitude":10.14729},"BottomRight":{"Latitude":45.48058,"Longitude":10.29984}},"Address":{"Label":"Brescia, Lombardia, Italia","Country":"ITA","State":"Lombardia","County":"BS","City":"Brescia","PostalCode":"25123","AdditionalData":[{"value":"Italia","key":"CountryName"},{"value":"Lombardia","key":"StateName"},{"value":"Brescia","key":"CountyName"}]},"MapReference":{"ReferenceId":"1219531656","SideOfStreet":"neither","CountryId":"20110484","StateId":"20114907","CountyId":"20117513","CityId":"20117608"}}},{"Relevance":1.0,"Distance":17.7,"MatchLevel":"houseNumber","MatchQuality":{"Country":1.0,"State":1.0,"County":1.0,"City":1.0,"Street":[1.0],"HouseNumber":1.0,"PostalCode":1.0},"MatchType":"interpolated","Location":{"LocationId":"NT_CoGYzfKjN5uQClr4LEip7D_xA","LocationType":"point","DisplayPosition":{"Latitude":45.55342,"Longitude":10.2263},"MapView":{"TopLeft":{"Latitude":45.5545442,"Longitude":10.2246946},"BottomRight":{"Latitude":45.5522958,"Longitude":10.2279054}},"Address":{"Label":"Via Antonio Federico Ozanam, 1, 25128 Brescia BS, Italia","Country":"ITA","State":"Lombardia","County":"BS","City":"Brescia","Street":"Via Antonio Federico Ozanam","HouseNumber":"1","PostalCode":"25128","AdditionalData":[{"value":"Italia","key":"CountryName"},{"value":"Lombardia","key":"StateName"},{"value":"Brescia","key":"CountyName"}]},"MapReference":{"ReferenceId":"1172476207","Spot":0.62,"SideOfStreet":"right","CountryId":"20110484","StateId":"20114907","CountyId":"20117513","CityId":"20117608","AddressId":"337563995","RoadLinkId":"479657270"}}},{"Relevance":1.0,"Distance":32.7,"MatchLevel":"houseNumber","MatchQuality":{"Country":1.0,"State":1.0,"County":1.0,"City":1.0,"Street":[1.0],"HouseNumber":1.0,"PostalCode":1.0},"MatchType":"interpolated","Location":{"LocationId":"NT_h0QPwePHEK5HwUvD3eOAaA_ygjQ","LocationType":"point","DisplayPosition":{"Latitude":45.55366,"Longitude":10.22603},"MapView":{"TopLeft":{"Latitude":45.5547842,"Longitude":10.2244246},"BottomRight":{"Latitude":45.5525358,"Longitude":10.2276354}},"Address":{"Label":"Via Guglielmo Marconi, 28B, 25128 Brescia BS, Italia","Country":"ITA","State":"Lombardia","County":"BS","City":"Brescia","Street":"Via Guglielmo Marconi","HouseNumber":"28B","PostalCode":"25128","AdditionalData":[{"value":"Italia","key":"CountryName"},{"value":"Lombardia","key":"StateName"},{"value":"Brescia","key":"CountyName"}]},"MapReference":{"ReferenceId":"1038514734","Spot":0.13,"SideOfStreet":"right","CountryId":"20110484","StateId":"20114907","CountyId":"20117513","CityId":"20117608","AddressId":"737999069","RoadLinkId":"360317450"}}},{"Relevance":1.0,"Distance":44.7,"MatchLevel":"houseNumber","MatchQuality":{"Country":1.0,"State":1.0,"County":1.0,"City":1.0,"Street":[1.0],"HouseNumber":1.0,"PostalCode":1.0},"MatchType":"interpolated","Location":{"LocationId":"NT_CoGYzfKjN5uQClr4LEip7D_0A","LocationType":"point","DisplayPosition":{"Latitude":45.55327,"Longitude":10.22707},"MapView":{"TopLeft":{"Latitude":45.5543942,"Longitude":10.2254646},"BottomRight":{"Latitude":45.5521458,"Longitude":10.2286754}},"Address":{"Label":"Via Antonio Federico Ozanam, 4, 25128 Brescia BS, Italia","Country":"ITA","State":"Lombardia","County":"BS","City":"Brescia","Street":"Via Antonio Federico Ozanam","HouseNumber":"4","PostalCode":"25128","AdditionalData":[{"value":"Italia","key":"CountryName"},{"value":"Lombardia","key":"StateName"},{"value":"Brescia","key":"CountyName"}]},"MapReference":{"ReferenceId":"1172476206","Spot":0.86,"SideOfStreet":"left","CountryId":"20110484","StateId":"20114907","CountyId":"20117513","CityId":"20117608","AddressId":"337563994","RoadLinkId":"479657269"}}},{"Relevance":1.0,"Distance":54.0,"MatchLevel":"houseNumber","MatchQuality":{"Country":1.0,"State":1.0,"County":1.0,"City":1.0,"Street":[1.0],"HouseNumber":1.0,"PostalCode":1.0},"MatchType":"interpolated","Location":{"LocationId":"NT_h0QPwePHEK5HwUvD3eOAaA_yYD","LocationType":"point","DisplayPosition":{"Latitude":45.55319,"Longitude":10.22568},"MapView":{"TopLeft":{"Latitude":45.5543142,"Longitude":10.2240746},"BottomRight":{"Latitude":45.5520658,"Longitude":10.2272854}},"Address":{"Label":"Via Guglielmo Marconi, 26, 25128 Brescia BS, Italia","Country":"ITA","State":"Lombardia","County":"BS","City":"Brescia","Street":"Via Guglielmo Marconi","HouseNumber":"26","PostalCode":"25128","AdditionalData":[{"value":"Italia","key":"CountryName"},{"value":"Lombardia","key":"StateName"},{"value":"Brescia","key":"CountyName"}]},"MapReference":{"ReferenceId":"63310707","Spot":0.42,"SideOfStreet":"right","CountryId":"20110484","StateId":"20114907","CountyId":"20117513","CityId":"20117608","AddressId":"338022838","RoadLinkId":"55584325"}}},{"Relevance":1.0,"Distance":84.3,"MatchLevel":"houseNumber","MatchQuality":{"Country":1.0,"State":1.0,"County":1.0,"City":1.0,"Street":[1.0],"HouseNumber":1.0,"PostalCode":1.0},"MatchType":"interpolated","Location":{"LocationId":"NT_PcYMN6zSk3RSCFrlFK4VdD_yED","LocationType":"point","DisplayPosition":{"Latitude":45.55362,"Longitude":10.22549},"MapView":{"TopLeft":{"Latitude":45.5547442,"Longitude":10.2238846},"BottomRight":{"Latitude":45.5524958,"Longitude":10.2270954}},"Address":{"Label":"Via Gian Battista Cipani, 21, 25128 Brescia BS, Italia","Country":"ITA","State":"Lombardia","County":"BS","City":"Brescia","Street":"Via Gian Battista Cipani","HouseNumber":"21","PostalCode":"25128","AdditionalData":[{"value":"Italia","key":"CountryName"},{"value":"Lombardia","key":"StateName"},{"value":"Brescia","key":"CountyName"}]},"MapReference":{"ReferenceId":"1248043408","Spot":0.68,"SideOfStreet":"left","CountryId":"20110484","StateId":"20114907","CountyId":"20117513","CityId":"20117608","AddressId":"337614402","RoadLinkId":"569945168"}}},{"Relevance":1.0,"Distance":87.0,"MatchLevel":"houseNumber","MatchQuality":{"Country":1.0,"State":1.0,"County":1.0,"City":1.0,"Street":[1.0],"HouseNumber":1.0,"PostalCode":1.0},"MatchType":"interpolated","Location":{"LocationId":"NT_NVRA-eNb041uJt6TGfmGiB_l_1158398545_L_xUD","LocationType":"point","DisplayPosition":{"Latitude":45.553632,"Longitude":10.2277896},"MapView":{"TopLeft":{"Latitude":45.5547562,"Longitude":10.2261842},"BottomRight":{"Latitude":45.5525079,"Longitude":10.229395}},"Address":{"Label":"Via Bartolomeo Gualla, 15, 25128 Brescia BS, Italia","Country":"ITA","State":"Lombardia","County":"BS","City":"Brescia","Street":"Via Bartolomeo Gualla","HouseNumber":"15","PostalCode":"25128","AdditionalData":[{"value":"Italia","key":"CountryName"},{"value":"Lombardia","key":"StateName"},{"value":"Brescia","key":"CountyName"}]},"MapReference":{"ReferenceId":"1158398545","Spot":0.51,"SideOfStreet":"left","CountryId":"20110484","StateId":"20114907","CountyId":"20117513","CityId":"20117608"}}},{"Relevance":1.0,"Distance":87.1,"MatchLevel":"houseNumber","MatchQuality":{"Country":1.0,"State":1.0,"County":1.0,"City":1.0,"Street":[1.0],"HouseNumber":1.0,"PostalCode":1.0},"MatchType":"interpolated","Location":{"LocationId":"NT_h0QPwePHEK5HwUvD3eOAaA_yQD","LocationType":"point","DisplayPosition":{"Latitude":45.55295,"Longitude":10.22549},"MapView":{"TopLeft":{"Latitude":45.5540742,"Longitude":10.2238846},"BottomRight":{"Latitude":45.5518258,"Longitude":10.2270954}},"Address":{"Label":"Via Guglielmo Marconi, 24, 25128 Brescia BS, Italia","Country":"ITA","State":"Lombardia","County":"BS","City":"Brescia","Street":"Via Guglielmo Marconi","HouseNumber":"24","PostalCode":"25128","AdditionalData":[{"value":"Italia","key":"CountryName"},{"value":"Lombardia","key":"StateName"},{"value":"Brescia","key":"CountyName"}]},"MapReference":{"ReferenceId":"63310792","Spot":0.97,"SideOfStreet":"right","CountryId":"20110484","StateId":"20114907","CountyId":"20117513","CityId":"20117608","AddressId":"737920651","RoadLinkId":"55716994"}}},{"Relevance":1.0,"Distance":87.4,"MatchLevel":"houseNumber","MatchQuality":{"Country":1.0,"State":1.0,"County":1.0,"City":1.0,"Street":[1.0],"HouseNumber":1.0,"PostalCode":1.0},"MatchType":"interpolated","Location":{"LocationId":"NT_NVRA-eNb041uJt6TGfmGiB_xUD","LocationType":"point","DisplayPosition":{"Latitude":45.55372,"Longitude":10.22777},"MapView":{"TopLeft":{"Latitude":45.5548442,"Longitude":10.2261646},"BottomRight":{"Latitude":45.5525958,"Longitude":10.2293754}},"Address":{"Label":"Via Bartolomeo Gualla, 15, 25128 Brescia BS, Italia","Country":"ITA","State":"Lombardia","County":"BS","City":"Brescia","Street":"Via Bartolomeo Gualla","HouseNumber":"15","PostalCode":"25128","AdditionalData":[{"value":"Italia","key":"CountryName"},{"value":"Lombardia","key":"StateName"},{"value":"Brescia","key":"CountyName"}]},"MapReference":{"ReferenceId":"1044186625","Spot":0.02,"SideOfStreet":"left","CountryId":"20110484","StateId":"20114907","CountyId":"20117513","CityId":"20117608","AddressId":"737940568","RoadLinkId":"364380165"}}},{"Relevance":1.0,"Distance":99.1,"MatchLevel":"houseNumber","MatchQuality":{"Country":1.0,"State":1.0,"County":1.0,"City":1.0,"Street":[1.0],"HouseNumber":1.0,"PostalCode":1.0},"MatchType":"interpolated","Location":{"LocationId":"NT_h0QPwePHEK5HwUvD3eOAaA_yUjQ","LocationType":"point","DisplayPosition":{"Latitude":45.55313,"Longitude":10.22519},"MapView":{"TopLeft":{"Latitude":45.5542542,"Longitude":10.2235846},"BottomRight":{"Latitude":45.5520058,"Longitude":10.2267954}},"Address":{"Label":"Via Guglielmo Marconi, 25B, 25128 Brescia BS, Italia","Country":"ITA","State":"Lombardia","County":"BS","City":"Brescia","Street":"Via Guglielmo Marconi","HouseNumber":"25B","PostalCode":"25128","AdditionalData":[{"value":"Italia","key":"CountryName"},{"value":"Lombardia","key":"StateName"},{"value":"Brescia","key":"CountyName"}]},"MapReference":{"ReferenceId":"63320196","Spot":0.49,"SideOfStreet":"right","CountryId":"20110484","StateId":"20114907","CountyId":"20117513","CityId":"20117608","AddressId":"738020652","RoadLinkId":"55147676"}}}]}]}}