{"Response":{"MetaInfo":{"Timestamp":"2020-03-28T09:55:28.616+0000","NextPageInformation":"2"},"View":[{"_type":"SearchResultsViewType","ViewId":0,"Result":[{"Relevance":1.0,"Distance":0.0,"Direction":0.0,"MatchLevel":"city","MatchQuality":{"Country":1.0,"State":1.0,"County":1.0,"City":1.0,"PostalCode":1.0},"Location":{"LocationId":"NT_B02HHVAXE35i2CuxU0q27D","LocationType":"point","DisplayPosition":{"Latitude":45.6667358,"Longitude":8.632989},"MapView":{"TopLeft":{"Latitude":45.69197,"Longitude":8.6062},"BottomRight":{"Latitude":45.64737,"Longitude":8.68181}},"Address":{"Label":"Varallo Pombia, Piemonte, Italia","Country":"ITA","State":"Piemonte","County":"NO","City":"Varallo Pombia","PostalCode":"28040","AdditionalData":[{"value":"Italia","key":"CountryName"},{"value":"Piemonte","key":"StateName"},{"value":"Novara","key":"CountyName"}]},"MapReference":{"ReferenceId":"569144527","SideOfStreet":"neither","CountryId":"20110484","StateId":"20110485","CountyId":"20111784","CityId":"20112064"}}},{"Relevance":1.0,"Distance":16.7,"MatchLevel":"houseNumber","MatchQuality":{"Country":1.0,"State":1.0,"County":1.0,"City":1.0,"Street":[1.0],"HouseNumber":1.0,"PostalCode":1.0},"MatchType":"interpolated","Location":{"LocationId":"NT_S7Ykjavg7jpmqge5yokBVA_yA","LocationType":"point","DisplayPosition":{"Latitude":45.66656,"Longitude":8.63291},"MapView":{"TopLeft":{"Latitude":45.6676842,"Longitude":8.6313014},"BottomRight":{"Latitude":45.6654358,"Longitude":8.6345186}},"Address":{"Label":"Via Martiri della Libertà, 2, 28040 Varallo Pombia NO, Italia","Country":"ITA","State":"Piemonte","County":"NO","City":"Varallo Pombia","Street":"Via Martiri della Libertà","HouseNumber":"2","PostalCode":"28040","AdditionalData":[{"value":"Italia","key":"CountryName"},{"value":"Piemonte","key":"StateName"},{"value":"Novara","key":"CountyName"}]},"MapReference":{"ReferenceId":"569143936","Spot":0.07,"SideOfStreet":"right","CountryId":"20110484","StateId":"20110485","CountyId":"20111784","CityId":"20112064","AddressId":"669828511","RoadLinkId":"55924084"}}},{"Relevance":1.0,"Distance":17.5,"MatchLevel":"houseNumber","MatchQuality":{"Country":1.0,"State":1.0,"County":1.0,"City":1.0,"Street":[1.0],"HouseNumber":1.0,"PostalCode":1.0},"MatchType":"interpolated","Location":{"LocationId":"NT_m5bsd.56bH0F4BC1k6m3tB_4A","LocationType":"point","DisplayPosition":{"Latitude":45.66657,"Longitude":8.63303},"MapView":{"TopLeft":{"Latitude":45.6676942,"Longitude":8.6314214},"BottomRight":{"Latitude":45.6654458,"Longitude":8.6346386}},"Address":{"Label":"Piazza Giuseppe Mazzini, 8, 28040 Varallo Pombia NO, Italia","Country":"ITA","State":"Piemonte","County":"NO","City":"Varallo Pombia","Street":"Piazza Giuseppe Mazzini","HouseNumber":"8","PostalCode":"28040","AdditionalData":[{"value":"Italia","key":"CountryName"},{"value":"Piemonte","key":"StateName"},{"value":"Novara","key":"CountyName"}]},"MapReference":{"ReferenceId":"567586210","Spot":0.58,"SideOfStreet":"left","CountryId":"20110484","StateId":"20110485","CountyId":"20111784","CityId":"20112064","AddressId":"669842775","RoadLinkId":"55221764"}}},{"Relevance":1.0,"Distance":18.9,"MatchLevel":"houseNumber","MatchQuality":{"Country":1.0,"State":1.0,"County":1.0,"City":1.0,"Street":[1.0],"HouseNumber":1.0,"PostalCode":1.0},"MatchType":"interpolated","Location":{"LocationId":"NT_UzujvhO-iMyb1ys2kvMIcD_xA","LocationType":"point","DisplayPosition":{"Latitude":45.66675,"Longitude":8.63329},"MapView":{"TopLeft":{"Latitude":45.6678742,"Longitude":8.6316814},"BottomRight":{"Latitude":45.6656258,"Longitude":8.6348986}},"Address":{"Label":"Via Simonetta, 1, 28040 Varallo Pombia NO, Italia","Country":"ITA","State":"Piemonte","County":"NO","City":"Varallo Pombia","Street":"Via Simonetta","HouseNumber":"1","PostalCode":"28040","AdditionalData":[{"value":"Italia","key":"CountryName"},{"value":"Piemonte","key":"StateName"},{"value":"Novara","key":"CountyName"}]},"MapReference":{"ReferenceId":"569144038","Spot":0.13,"SideOfStreet":"left","CountryId":"20110484","StateId":"20110485","CountyId":"20111784","CityId":"20112064","AddressId":"669831943","RoadLinkId":"55402898"}}},{"Relevance":1.0,"Distance":31.7,"MatchLevel":"houseNumber","MatchQuality":{"Country":1.0,"State":1.0,"County":1.0,"City":1.0,"Street":[1.0],"HouseNumber":1.0,"PostalCode":1.0},"MatchType":"interpolated","Location":{"LocationId":"NT_nAQwy8wcNYfzfn0Y7YL6cA_yA","LocationType":"point","DisplayPosition":{"Latitude":45.66651,"Longitude":8.63268},"MapView":{"TopLeft":{"Latitude":45.6676342,"Longitude":8.6310714},"BottomRight":{"Latitude":45.6653858,"Longitude":8.6342886}},"Address":{"Label":"Via Antonio Gramsci, 2, 28040 Varallo Pombia NO, Italia","Country":"ITA","State":"Piemonte","County":"NO","City":"Varallo Pombia","Street":"Via Antonio Gramsci","HouseNumber":"2","PostalCode":"28040","AdditionalData":[{"value":"Italia","key":"CountryName"},{"value":"Piemonte","key":"StateName"},{"value":"Novara","key":"CountyName"}]},"MapReference":{"ReferenceId":"567586158","Spot":0.62,"SideOfStreet":"left","CountryId":"20110484","StateId":"20110485","CountyId":"20111784","CityId":"20112064","AddressId":"669842822","RoadLinkId":"54956860"}}},{"Relevance":1.0,"Distance":32.4,"MatchLevel":"houseNumber","MatchQuality":{"Country":1.0,"State":1.0,"County":1.0,"City":1.0,"Street":[1.0],"HouseNumber":1.0,"PostalCode":1.0},"MatchType":"interpolated","Location":{"LocationId":"NT_A4ABgdd3M4uEz2WJUjkq7D_xEE","LocationType":"point","DisplayPosition":{"Latitude":45.66652,"Longitude":8.63327},"MapView":{"TopLeft":{"Latitude":45.6676442,"Longitude":8.6316614},"BottomRight":{"Latitude":45.6653958,"Longitude":8.6348786}},"Address":{"Label":"Via 20 Settembre, 1A, 28040 Varallo Pombia NO, Italia","Country":"ITA","State":"Piemonte","County":"NO","City":"Varallo Pombia","Street":"Via 20 Settembre","HouseNumber":"1A","PostalCode":"28040","AdditionalData":[{"value":"Italia","key":"CountryName"},{"value":"Piemonte","key":"StateName"},{"value":"Novara","key":"CountyName"}]},"MapReference":{"ReferenceId":"569144040","Spot":0.91,"SideOfStreet":"right","CountryId":"20110484","StateId":"20110485","CountyId":"20111784","CityId":"20112064","AddressId":"669831919","RoadLinkId":"54647294"}}},{"Relevance":1.0,"Distance":48.8,"MatchLevel":"houseNumber","MatchQuality":{"Country":1.0,"State":1.0,"County":1.0,"City":1.0,"Street":[1.0],"HouseNumber":1.0,"PostalCode":1.0},"MatchType":"interpolated","Location":{"LocationId":"NT_CGgNK81rlafij6ZkmyAEwD_xA","LocationType":"point","DisplayPosition":{"Latitude":45.6663,"Longitude":8.63306},"MapView":{"TopLeft":{"Latitude":45.6674242,"Longitude":8.6314514},"BottomRight":{"Latitude":45.6651758,"Longitude":8.6346686}},"Address":{"Label":"Via Roma, 1, 28040 Varallo Pombia NO, Italia","Country":"ITA","State":"Piemonte","County":"NO","City":"Varallo Pombia","Street":"Via Roma","HouseNumber":"1","PostalCode":"28040","AdditionalData":[{"value":"Italia","key":"CountryName"},{"value":"Piemonte","key":"StateName"},{"value":"Novara","key":"CountyName"}]},"MapReference":{"ReferenceId":"569144041","Spot":0.61,"SideOfStreet":"right","CountryId":"20110484","StateId":"20110485","CountyId":"20111784","CityId":"20112064","AddressId":"669830129","RoadLinkId":"55666722"}}},{"Relevance":1.0,"Distance":52.2,"MatchLevel":"street","MatchQuality":{"Country":1.0,"State":1.0,"County":1.0,"City":1.0,"Street":[1.0],"PostalCode":1.0},"Location":{"LocationId":"NT_wSLxhII4xlCXDbF6GkKqpC_l_569143937_R","LocationType":"point","DisplayPosition":{"Latitude":45.66678,"Longitude":8.63232},"MapView":{"TopLeft":{"Latitude":45.66678,"Longitude":8.63222},"BottomRight":{"Latitude":45.66678,"Longitude":8.63232}},"Address":{"Label":"Piazza Guglielmo Marconi, 28040 Varallo Pombia NO, Italia","Country":"ITA","State":"Piemonte","County":"NO","City":"Varallo Pombia","Street":"Piazza Guglielmo Marconi","PostalCode":"28040","AdditionalData":[{"value":"Italia","key":"CountryName"},{"value":"Piemonte","key":"StateName"},{"value":"Novara","key":"CountyName"}]},"MapReference":{"ReferenceId":"569143937","Spot":1.0,"SideOfStreet":"right","CountryId":"20110484","StateId":"20110485","CountyId":"20111784","CityId":"20112064"}}},{"Relevance":1.0,"Distance":53.8,"MatchLevel":"houseNumber","MatchQuality":{"Country":1.0,"State":1.0,"County":1.0,"City":1.0,"Street":[1.0],"HouseNumber":1.0,"PostalCode":1.0},"MatchType":"interpolated","Location":{"LocationId":"NT_S7Ykjavg7jpmqge5yokBVA_yID","LocationType":"point","DisplayPosition":{"Latitude":45.66682,"Longitude":8.63229},"MapView":{"TopLeft":{"Latitude":45.6679442,"Longitude":8.6306814},"BottomRight":{"Latitude":45.6656958,"Longitude":8.6338986}},"Address":{"Label":"Via Martiri della Libertà, 22, 28040 Varallo Pombia NO, Italia","Country":"ITA","State":"Piemonte","County":"NO","City":"Varallo Pombia","Street":"Via Martiri della Libertà","HouseNumber":"22","PostalCode":"28040","AdditionalData":[{"value":"Italia","key":"CountryName"},{"value":"Piemonte","key":"StateName"},{"value":"Novara","key":"CountyName"}]},"MapReference":{"ReferenceId":"569143813","Spot":0.12,"SideOfStreet":"right","CountryId":"20110484","StateId":"20110485","CountyId":"20111784","CityId":"20112064","AddressId":"669828532","RoadLinkId":"54825343"}}},{"Relevance":1.0,"Distance":57.2,"MatchLevel":"houseNumber","MatchQuality":{"Country":1.0,"State":1.0,"County":1.0,"City":1.0,"Street":[1.0],"HouseNumber":1.0,"PostalCode":1.0},"MatchType":"interpolated","Location":{"LocationId":"NT_klJtT5wflUfL0wnqjL4xlD_0A","LocationType":"point","DisplayPosition":{"Latitude":45.66714,"Longitude":8.63211},"MapView":{"TopLeft":{"Latitude":45.6682642,"Longitude":8.6305014},"BottomRight":{"Latitude":45.6660158,"Longitude":8.6337186}},"Address":{"Label":"Vicolo Marazzini, 4, 28040 Varallo Pombia NO, Italia","Country":"ITA","State":"Piemonte","County":"NO","City":"Varallo Pombia","Street":"Vicolo Marazzini","HouseNumber":"4","PostalCode":"28040","AdditionalData":[{"value":"Italia","key":"CountryName"},{"value":"Piemonte","key":"StateName"},{"value":"Novara","key":"CountyName"}]},"MapReference":{"ReferenceId":"567586198","Spot":1.0,"SideOfStreet":"right","CountryId":"20110484","StateId":"20110485","CountyId":"20111784","CityId":"20112064","AddressId":"669842772","RoadLinkId":"55305015"}}}]}]}}