{"Response":{"MetaInfo":{"Timestamp":"2020-03-28T11:27:37.056+0000","NextPageInformation":"2"},"View":[{"_type":"SearchResultsViewType","ViewId":0,"Result":[{"Relevance":1.0,"Distance":0.0,"Direction":0.0,"MatchLevel":"city","MatchQuality":{"Country":1.0,"State":1.0,"County":1.0,"City":1.0,"PostalCode":1.0},"Location":{"LocationId":"NT_m1dmEdVQmFQMNbliIAqQRC","LocationType":"point","DisplayPosition":{"Latitude":45.6049988,"Longitude":9.1165109},"MapView":{"TopLeft":{"Latitude":45.62442,"Longitude":9.09301},"BottomRight":{"Latitude":45.58375,"Longitude":9.147}},"Address":{"Label":"Limbiate, Lombardia, Italia","Country":"ITA","State":"Lombardia","County":"MB","City":"Limbiate","PostalCode":"20812","AdditionalData":[{"value":"Italia","key":"CountryName"},{"value":"Lombardia","key":"StateName"},{"value":"Monza e Brianza","key":"CountyName"}]},"MapReference":{"ReferenceId":"1202327008","SideOfStreet":"neither","CountryId":"20110484","StateId":"20114907","CountyId":"23517944","CityId":"20116416"}}},{"Relevance":1.0,"Distance":13.6,"MatchLevel":"landmark","MatchQuality":{"Country":1.0,"State":1.0,"County":1.0,"City":1.0,"Street":[1.0],"PostalCode":1.0,"Name":1.0},"Location":{"LocationId":"NT_n613SZ9-dUM22Hg.SBxWZB_p_wXBgv5w088mVtj-B7UVh1B","LocationType":"park","Name":"Parco delle Groane","DisplayPosition":{"Latitude":45.59046,"Longitude":9.08815},"MapView":{"TopLeft":{"Latitude":45.67756,"Longitude":9.06019},"BottomRight":{"Latitude":45.54334,"Longitude":9.13817}},"Address":{"Label":"Via per Senago, 20020 Cesate MI, Italia","Country":"ITA","State":"Lombardia","County":"MI","City":"Cesate","Street":"Via per Senago","PostalCode":"20020","AdditionalData":[{"value":"Italia","key":"CountryName"},{"value":"Lombardia","key":"StateName"},{"value":"Milano","key":"CountyName"}]},"MapReference":{"CountryId":"20110484","StateId":"20114907","CountyId":"20116116","CityId":"20116307","PlaceId":"51908538"}}},{"Relevance":1.0,"Distance":32.7,"MatchLevel":"houseNumber","MatchQuality":{"Country":1.0,"State":1.0,"County":1.0,"City":1.0,"Street":[1.0],"HouseNumber":1.0,"PostalCode":1.0},"MatchType":"interpolated","Location":{"LocationId":"NT_kXQASZ0XhQISid2nsnowgD_xA","LocationType":"point","DisplayPosition":{"Latitude":45.60471,"Longitude":9.11643},"MapView":{"TopLeft":{"Latitude":45.6058342,"Longitude":9.1148232},"BottomRight":{"Latitude":45.6035858,"Longitude":9.1180368}},"Address":{"Label":"Via della Salute, 1, 20812 Limbiate MB, Italia","Country":"ITA","State":"Lombardia","County":"MB","City":"Limbiate","Street":"Via della Salute","HouseNumber":"1","PostalCode":"20812","AdditionalData":[{"value":"Italia","key":"CountryName"},{"value":"Lombardia","key":"StateName"},{"value":"Monza e Brianza","key":"CountyName"}]},"MapReference":{"ReferenceId":"69411761","Spot":0.0,"SideOfStreet":"left","CountryId":"20110484","StateId":"20114907","CountyId":"23517944","CityId":"20116416","AddressId":"373267725","RoadLinkId":"54779681"}}},{"Relevance":1.0,"Distance":32.7,"MatchLevel":"houseNumber","MatchQuality":{"Country":1.0,"State":1.0,"County":1.0,"City":1.0,"Street":[1.0],"HouseNumber":1.0,"PostalCode":1.0},"MatchType":"interpolated","Location":{"LocationId":"NT_-hXmJSLniawBXsOAIzV.pC_4A","LocationType":"point","DisplayPosition":{"Latitude":45.60471,"Longitude":9.11643},"MapView":{"TopLeft":{"Latitude":45.6058342,"Longitude":9.1148232},"BottomRight":{"Latitude":45.6035858,"Longitude":9.1180368}},"Address":{"Label":"Via Vittorio Pisani, 8, 20812 Limbiate MB, Italia","Country":"ITA","State":"Lombardia","County":"MB","City":"Limbiate","Street":"Via Vittorio Pisani","HouseNumber":"8","PostalCode":"20812","AdditionalData":[{"value":"Italia","key":"CountryName"},{"value":"Lombardia","key":"StateName"},{"value":"Monza e Brianza","key":"CountyName"}]},"MapReference":{"ReferenceId":"69416996","Spot":1.0,"SideOfStreet":"left","CountryId":"20110484","StateId":"20114907","CountyId":"23517944","CityId":"20116416","AddressId":"752538909","RoadLinkId":"55204215"}}},{"Relevance":1.0,"Distance":39.8,"MatchLevel":"houseNumber","MatchQuality":{"Country":1.0,"State":1.0,"County":1.0,"City":1.0,"Street":[1.0],"HouseNumber":1.0,"PostalCode":1.0},"MatchType":"interpolated","Location":{"LocationId":"NT_kXQASZ0XhQISid2nsnowgD_4A","LocationType":"point","DisplayPosition":{"Latitude":45.60485,"Longitude":9.11598},"MapView":{"TopLeft":{"Latitude":45.6059742,"Longitude":9.1143732},"BottomRight":{"Latitude":45.6037258,"Longitude":9.1175868}},"Address":{"Label":"Via della Salute, 8, 20812 Limbiate MB, Italia","Country":"ITA","State":"Lombardia","County":"MB","City":"Limbiate","Street":"Via della Salute","HouseNumber":"8","PostalCode":"20812","AdditionalData":[{"value":"Italia","key":"CountryName"},{"value":"Lombardia","key":"StateName"},{"value":"Monza e Brianza","key":"CountyName"}]},"MapReference":{"ReferenceId":"69411883","Spot":1.0,"SideOfStreet":"left","CountryId":"20110484","StateId":"20114907","CountyId":"23517944","CityId":"20116416","AddressId":"337518157","RoadLinkId":"55293834"}}},{"Relevance":1.0,"Distance":54.7,"MatchLevel":"houseNumber","MatchQuality":{"Country":1.0,"State":1.0,"County":1.0,"City":1.0,"Street":[1.0],"HouseNumber":1.0,"PostalCode":1.0},"MatchType":"interpolated","Location":{"LocationId":"NT_kXQASZ0XhQISid2nsnowgD_1A","LocationType":"point","DisplayPosition":{"Latitude":45.60455,"Longitude":9.1168},"MapView":{"TopLeft":{"Latitude":45.6056742,"Longitude":9.1151932},"BottomRight":{"Latitude":45.6034258,"Longitude":9.1184068}},"Address":{"Label":"Via della Salute, 5, 20812 Limbiate MB, Italia","Country":"ITA","State":"Lombardia","County":"MB","City":"Limbiate","Street":"Via della Salute","HouseNumber":"5","PostalCode":"20812","AdditionalData":[{"value":"Italia","key":"CountryName"},{"value":"Lombardia","key":"StateName"},{"value":"Monza e Brianza","key":"CountyName"}]},"MapReference":{"ReferenceId":"69411814","Spot":0.63,"SideOfStreet":"left","CountryId":"20110484","StateId":"20114907","CountyId":"23517944","CityId":"20116416","AddressId":"337567841","RoadLinkId":"55877271"}}},{"Relevance":1.0,"Distance":67.3,"MatchLevel":"houseNumber","MatchQuality":{"Country":1.0,"State":1.0,"County":1.0,"City":1.0,"Street":[1.0],"HouseNumber":1.0,"PostalCode":1.0},"MatchType":"interpolated","Location":{"LocationId":"NT_Lv0fZJvawBBvNG-Lo9BUHA_xYD","LocationType":"point","DisplayPosition":{"Latitude":45.6046,"Longitude":9.11579},"MapView":{"TopLeft":{"Latitude":45.6057242,"Longitude":9.1141832},"BottomRight":{"Latitude":45.6034758,"Longitude":9.1173968}},"Address":{"Label":"Via Alfonso La Marmora, 16, 20812 Limbiate MB, Italia","Country":"ITA","State":"Lombardia","County":"MB","City":"Limbiate","Street":"Via Alfonso La Marmora","HouseNumber":"16","PostalCode":"20812","AdditionalData":[{"value":"Italia","key":"CountryName"},{"value":"Lombardia","key":"StateName"},{"value":"Monza e Brianza","key":"CountyName"}]},"MapReference":{"ReferenceId":"1216882969","Spot":0.46,"SideOfStreet":"right","CountryId":"20110484","StateId":"20114907","CountyId":"23517944","CityId":"20116416","AddressId":"752631034","RoadLinkId":"533274339"}}},{"Relevance":1.0,"Distance":74.4,"MatchLevel":"houseNumber","MatchQuality":{"Country":1.0,"State":1.0,"County":1.0,"City":1.0,"Street":[1.0],"HouseNumber":1.0,"PostalCode":1.0},"MatchType":"interpolated","Location":{"LocationId":"NT_Lj6xt6dOLW9NK6eYa3SWzD_zA","LocationType":"point","DisplayPosition":{"Latitude":45.60464,"Longitude":9.11733},"MapView":{"TopLeft":{"Latitude":45.6057642,"Longitude":9.1157232},"BottomRight":{"Latitude":45.6035158,"Longitude":9.1189368}},"Address":{"Label":"Via Fratelli Bandiera, 3, 20812 Limbiate MB, Italia","Country":"ITA","State":"Lombardia","County":"MB","City":"Limbiate","Street":"Via Fratelli Bandiera","HouseNumber":"3","PostalCode":"20812","AdditionalData":[{"value":"Italia","key":"CountryName"},{"value":"Lombardia","key":"StateName"},{"value":"Monza e Brianza","key":"CountyName"}]},"MapReference":{"ReferenceId":"69411782","Spot":0.08,"SideOfStreet":"left","CountryId":"20110484","StateId":"20114907","CountyId":"23517944","CityId":"20116416","AddressId":"373352370","RoadLinkId":"55561922"}}},{"Relevance":1.0,"Distance":95.9,"MatchLevel":"street","MatchQuality":{"Country":1.0,"State":1.0,"County":1.0,"City":1.0,"Street":[1.0],"PostalCode":1.0},"Location":{"LocationId":"NT_-hXmJSLniawBXsOAIzV.pC_l_69416995_R","LocationType":"point","DisplayPosition":{"Latitude":45.60422,"Longitude":9.11598},"MapView":{"TopLeft":{"Latitude":45.60437,"Longitude":9.11561},"BottomRight":{"Latitude":45.60422,"Longitude":9.11598}},"Address":{"Label":"Via Vittorio Pisani, 20812 Limbiate MB, Italia","Country":"ITA","State":"Lombardia","County":"MB","City":"Limbiate","Street":"Via Vittorio Pisani","PostalCode":"20812","AdditionalData":[{"value":"Italia","key":"CountryName"},{"value":"Lombardia","key":"StateName"},{"value":"Monza e Brianza","key":"CountyName"}]},"MapReference":{"ReferenceId":"69416995","Spot":0.0,"SideOfStreet":"right","CountryId":"20110484","StateId":"20114907","CountyId":"23517944","CityId":"20116416"}}},{"Relevance":1.0,"Distance":96.3,"MatchLevel":"street","MatchQuality":{"Country":1.0,"State":1.0,"County":1.0,"City":1.0,"Street":[1.0],"PostalCode":1.0},"Location":{"LocationId":"NT_Lv0fZJvawBBvNG-Lo9BUHA_l_1216882968_R","LocationType":"point","DisplayPosition":{"Latitude":45.60439,"Longitude":9.11563},"MapView":{"TopLeft":{"Latitude":45.60439,"Longitude":9.11561},"BottomRight":{"Latitude":45.60437,"Longitude":9.11563}},"Address":{"Label":"Via Alfonso La Marmora, 20812 Limbiate MB, Italia","Country":"ITA","State":"Lombardia","County":"MB","City":"Limbiate","Street":"Via Alfonso La Marmora","PostalCode":"20812","AdditionalData":[{"value":"Italia","key":"CountryName"},{"value":"Lombardia","key":"StateName"},{"value":"Monza e Brianza","key":"CountyName"}]},"MapReference":{"ReferenceId":"1216882968","Spot":1.0,"SideOfStreet":"right","CountryId":"20110484","StateId":"20114907","CountyId":"23517944","CityId":"20116416"}}}]}]}}