{"Response":{"MetaInfo":{"Timestamp":"2020-03-28T11:23:11.796+0000","NextPageInformation":"2"},"View":[{"_type":"SearchResultsViewType","ViewId":0,"Result":[{"Relevance":1.0,"Distance":0.0,"Direction":0.0,"MatchLevel":"city","MatchQuality":{"Country":1.0,"State":1.0,"County":1.0,"City":1.0,"PostalCode":1.0},"Location":{"LocationId":"NT_g-OadpJfNFizoLa.RlgOvC","LocationType":"point","DisplayPosition":{"Latitude":45.6726811,"Longitude":8.1591287},"MapView":{"TopLeft":{"Latitude":45.73882,"Longitude":8.00508},"BottomRight":{"Latitude":45.61552,"Longitude":8.21905}},"Address":{"Label":"Valdilana, Piemonte, Italia","Country":"ITA","State":"Piemonte","County":"BI","City":"Valdilana","PostalCode":"13835","AdditionalData":[{"value":"Italia","key":"CountryName"},{"value":"Piemonte","key":"StateName"},{"value":"Biella","key":"CountyName"}]},"MapReference":{"ReferenceId":"1074886990","SideOfStreet":"neither","CountryId":"20110484","StateId":"20110485","CountyId":"20123756","CityId":"20123973"}}},{"Relevance":1.0,"Distance":16.1,"MatchLevel":"houseNumber","MatchQuality":{"Country":1.0,"State":1.0,"County":1.0,"City":1.0,"Street":[1.0],"HouseNumber":1.0,"PostalCode":1.0},"MatchType":"interpolated","Location":{"LocationId":"NT_HpyX7qGZQeQnUuJXH6ZhIC_2A","LocationType":"point","DisplayPosition":{"Latitude":45.67254,"Longitude":8.15908},"MapView":{"TopLeft":{"Latitude":45.6736642,"Longitude":8.1574712},"BottomRight":{"Latitude":45.6714158,"Longitude":8.1606888}},"Address":{"Label":"Frazione Ferla, 6, 13835 Valdilana BI, Italia","Country":"ITA","State":"Piemonte","County":"BI","City":"Valdilana","Street":"Frazione Ferla","HouseNumber":"6","PostalCode":"13835","AdditionalData":[{"value":"Italia","key":"CountryName"},{"value":"Piemonte","key":"StateName"},{"value":"Biella","key":"CountyName"}]},"MapReference":{"ReferenceId":"589164372","Spot":0.44,"SideOfStreet":"left","CountryId":"20110484","StateId":"20110485","CountyId":"20123756","CityId":"20123973","AddressId":"373415515","RoadLinkId":"55442242"}}},{"Relevance":1.0,"Distance":28.7,"MatchLevel":"houseNumber","MatchQuality":{"Country":1.0,"State":1.0,"County":1.0,"City":1.0,"Street":[1.0],"HouseNumber":1.0,"PostalCode":1.0},"MatchType":"interpolated","Location":{"LocationId":"NT_HpyX7qGZQeQnUuJXH6ZhIC_5A","LocationType":"point","DisplayPosition":{"Latitude":45.67298,"Longitude":8.1597},"MapView":{"TopLeft":{"Latitude":45.6741042,"Longitude":8.1580912},"BottomRight":{"Latitude":45.6718558,"Longitude":8.1613088}},"Address":{"Label":"Frazione Ferla, 9, 13835 Valdilana BI, Italia","Country":"ITA","State":"Piemonte","County":"BI","City":"Valdilana","Street":"Frazione Ferla","HouseNumber":"9","PostalCode":"13835","AdditionalData":[{"value":"Italia","key":"CountryName"},{"value":"Piemonte","key":"StateName"},{"value":"Biella","key":"CountyName"}]},"MapReference":{"ReferenceId":"577095170","Spot":1.0,"SideOfStreet":"left","CountryId":"20110484","StateId":"20110485","CountyId":"20123756","CityId":"20123973","AddressId":"373426965","RoadLinkId":"55174801"}}},{"Relevance":1.0,"Distance":33.3,"MatchLevel":"houseNumber","MatchQuality":{"Country":1.0,"State":1.0,"County":1.0,"City":1.0,"Street":[1.0],"HouseNumber":1.0,"PostalCode":1.0},"MatchType":"interpolated","Location":{"LocationId":"NT_U2gsS9zhVDZFDYrgrlr7FC_l_589164369_L_1AD","LocationType":"point","DisplayPosition":{"Latitude":45.67245,"Longitude":8.15961},"MapView":{"TopLeft":{"Latitude":45.6735742,"Longitude":8.1580013},"BottomRight":{"Latitude":45.6713259,"Longitude":8.1612188}},"Address":{"Label":"Frazione Ferla, 50, 13835 Valdilana BI, Italia","Country":"ITA","State":"Piemonte","County":"BI","City":"Valdilana","Street":"Frazione Ferla","HouseNumber":"50","PostalCode":"13835","AdditionalData":[{"value":"Italia","key":"CountryName"},{"value":"Piemonte","key":"StateName"},{"value":"Biella","key":"CountyName"}]},"MapReference":{"ReferenceId":"589164369","Spot":0.17,"SideOfStreet":"left","CountryId":"20110484","StateId":"20110485","CountyId":"20123756","CityId":"20123973"}}},{"Relevance":1.0,"Distance":44.1,"MatchLevel":"street","MatchQuality":{"Country":1.0,"State":1.0,"County":1.0,"City":1.0,"Street":[1.0],"PostalCode":1.0},"Location":{"LocationId":"NT_U2gsS9zhVDZFDYrgrlr7FC_l_589164371_R","LocationType":"point","DisplayPosition":{"Latitude":45.6722933,"Longitude":8.1590124},"MapView":{"TopLeft":{"Latitude":45.67236,"Longitude":8.15879},"BottomRight":{"Latitude":45.67227,"Longitude":8.15909}},"Address":{"Label":"Frazione Ferla, 13835 Valdilana BI, Italia","Country":"ITA","State":"Piemonte","County":"BI","City":"Valdilana","Street":"Frazione Ferla","PostalCode":"13835","AdditionalData":[{"value":"Italia","key":"CountryName"},{"value":"Piemonte","key":"StateName"},{"value":"Biella","key":"CountyName"}]},"MapReference":{"ReferenceId":"589164371","Spot":0.26,"SideOfStreet":"right","CountryId":"20110484","StateId":"20110485","CountyId":"20123756","CityId":"20123973"}}},{"Relevance":1.0,"Distance":46.6,"MatchLevel":"street","MatchQuality":{"Country":1.0,"State":1.0,"County":1.0,"City":1.0,"Street":[1.0],"PostalCode":1.0},"Location":{"LocationId":"NT_U2gsS9zhVDZFDYrgrlr7FC_l_589164370_L","LocationType":"point","DisplayPosition":{"Latitude":45.6722964,"Longitude":8.1593675},"MapView":{"TopLeft":{"Latitude":45.67236,"Longitude":8.15918},"BottomRight":{"Latitude":45.67218,"Longitude":8.15947}},"Address":{"Label":"Frazione Ferla, 13835 Valdilana BI, Italia","Country":"ITA","State":"Piemonte","County":"BI","City":"Valdilana","Street":"Frazione Ferla","PostalCode":"13835","AdditionalData":[{"value":"Italia","key":"CountryName"},{"value":"Piemonte","key":"StateName"},{"value":"Biella","key":"CountyName"}]},"MapReference":{"ReferenceId":"589164370","Spot":0.65,"SideOfStreet":"left","CountryId":"20110484","StateId":"20110485","CountyId":"20123756","CityId":"20123973"}}},{"Relevance":1.0,"Distance":55.9,"MatchLevel":"street","MatchQuality":{"Country":1.0,"State":1.0,"County":1.0,"City":1.0,"Street":[1.0],"PostalCode":1.0},"Location":{"LocationId":"NT_HpyX7qGZQeQnUuJXH6ZhIC_l_589164368_L","LocationType":"point","DisplayPosition":{"Latitude":45.67218,"Longitude":8.15918},"MapView":{"TopLeft":{"Latitude":45.67218,"Longitude":8.15824},"BottomRight":{"Latitude":45.67109,"Longitude":8.15918}},"Address":{"Label":"Frazione Ferla, 13835 Valdilana BI, Italia","Country":"ITA","State":"Piemonte","County":"BI","City":"Valdilana","Street":"Frazione Ferla","PostalCode":"13835","AdditionalData":[{"value":"Italia","key":"CountryName"},{"value":"Piemonte","key":"StateName"},{"value":"Biella","key":"CountyName"}]},"MapReference":{"ReferenceId":"589164368","Spot":1.0,"SideOfStreet":"left","CountryId":"20110484","StateId":"20110485","CountyId":"20123756","CityId":"20123973"}}},{"Relevance":1.0,"Distance":74.9,"MatchLevel":"houseNumber","MatchQuality":{"Country":1.0,"State":1.0,"County":1.0,"City":1.0,"Street":[1.0],"HouseNumber":1.0,"PostalCode":1.0},"MatchType":"interpolated","Location":{"LocationId":"NT_U2gsS9zhVDZFDYrgrlr7FC_0kD","LocationType":"point","DisplayPosition":{"Latitude":45.67217,"Longitude":8.1585},"MapView":{"TopLeft":{"Latitude":45.6732942,"Longitude":8.1568912},"BottomRight":{"Latitude":45.6710458,"Longitude":8.1601088}},"Address":{"Label":"Via Guglielmo Marconi, 49, 13835 Valdilana BI, Italia","Country":"ITA","State":"Piemonte","County":"BI","City":"Valdilana","Street":"Via Guglielmo Marconi","HouseNumber":"49","PostalCode":"13835","AdditionalData":[{"value":"Italia","key":"CountryName"},{"value":"Piemonte","key":"StateName"},{"value":"Biella","key":"CountyName"}]},"MapReference":{"ReferenceId":"589164367","Spot":0.86,"SideOfStreet":"left","CountryId":"20110484","StateId":"20110485","CountyId":"20123756","CityId":"20123973","AddressId":"373416891","RoadLinkId":"54702294"}}},{"Relevance":1.0,"Distance":76.5,"MatchLevel":"houseNumber","MatchQuality":{"Country":1.0,"State":1.0,"County":1.0,"City":1.0,"Street":[1.0],"HouseNumber":1.0,"PostalCode":1.0},"MatchType":"interpolated","Location":{"LocationId":"NT_.HKRNF1OFJ-dQoxCv8E7jD_zA","LocationType":"point","DisplayPosition":{"Latitude":45.67339,"Longitude":8.15858},"MapView":{"TopLeft":{"Latitude":45.6745142,"Longitude":8.1569712},"BottomRight":{"Latitude":45.6722658,"Longitude":8.1601888}},"Address":{"Label":"SR232, 3, 13835 Valdilana BI, Italia","Country":"ITA","State":"Piemonte","County":"BI","City":"Valdilana","Street":"SR232","HouseNumber":"3","PostalCode":"13835","AdditionalData":[{"value":"Italia","key":"CountryName"},{"value":"Piemonte","key":"StateName"},{"value":"Biella","key":"CountyName"}]},"MapReference":{"ReferenceId":"577091822","Spot":0.13,"SideOfStreet":"left","CountryId":"20110484","StateId":"20110485","CountyId":"20123756","CityId":"20123973","AddressId":"373415205","RoadLinkId":"54933777"}}},{"Relevance":1.0,"Distance":84.3,"MatchLevel":"houseNumber","MatchQuality":{"Country":1.0,"State":1.0,"County":1.0,"City":1.0,"Street":[1.0],"HouseNumber":1.0,"PostalCode":1.0},"MatchType":"interpolated","Location":{"LocationId":"NT_.HKRNF1OFJ-dQoxCv8E7jD_yA","LocationType":"point","DisplayPosition":{"Latitude":45.67281,"Longitude":8.15806},"MapView":{"TopLeft":{"Latitude":45.6739342,"Longitude":8.1564512},"BottomRight":{"Latitude":45.6716858,"Longitude":8.1596688}},"Address":{"Label":"SR232, 2, 13835 Valdilana BI, Italia","Country":"ITA","State":"Piemonte","County":"BI","City":"Valdilana","Street":"SR232","HouseNumber":"2","PostalCode":"13835","AdditionalData":[{"value":"Italia","key":"CountryName"},{"value":"Piemonte","key":"StateName"},{"value":"Biella","key":"CountyName"}]},"MapReference":{"ReferenceId":"577091821","Spot":0.46,"SideOfStreet":"left","CountryId":"20110484","StateId":"20110485","CountyId":"20123756","CityId":"20123973","AddressId":"373414022","RoadLinkId":"55436114"}}}]}]}}