{"Response":{"MetaInfo":{"Timestamp":"2020-03-28T11:26:02.106+0000","NextPageInformation":"2"},"View":[{"_type":"SearchResultsViewType","ViewId":0,"Result":[{"Relevance":1.0,"Distance":0.0,"Direction":0.0,"MatchLevel":"city","MatchQuality":{"Country":1.0,"State":1.0,"County":1.0,"City":1.0,"PostalCode":1.0},"Location":{"LocationId":"NT_fo.TczEjTT4Uw5Vsr.MxYC","LocationType":"point","DisplayPosition":{"Latitude":45.6465751,"Longitude":11.3089649},"MapView":{"TopLeft":{"Latitude":45.69077,"Longitude":11.22626},"BottomRight":{"Latitude":45.59843,"Longitude":11.3316}},"Address":{"Label":"Valdagno, Veneto, Italia","Country":"ITA","State":"Veneto","County":"VI","City":"Valdagno","PostalCode":"36078","AdditionalData":[{"value":"Italia","key":"CountryName"},{"value":"Veneto","key":"StateName"},{"value":"Vicenza","key":"CountyName"}]},"MapReference":{"ReferenceId":"556518130","SideOfStreet":"neither","CountryId":"20110484","StateId":"20120537","CountyId":"20120918","CityId":"20121313"}}},{"Relevance":1.0,"Distance":10.5,"MatchLevel":"street","MatchQuality":{"Country":1.0,"State":1.0,"County":1.0,"City":1.0,"Street":[1.0],"PostalCode":1.0},"Location":{"LocationId":"NT_df70p2g.9cl3fM5l3AkvgD_l_584485646_L","LocationType":"point","DisplayPosition":{"Latitude":45.6466281,"Longitude":11.3090767},"MapView":{"TopLeft":{"Latitude":45.64692,"Longitude":11.30895},"BottomRight":{"Latitude":45.64251,"Longitude":11.31005}},"Address":{"Label":"Galleria Valle Miara, 36078 Valdagno VI, Italia","Country":"ITA","State":"Veneto","County":"VI","City":"Valdagno","Street":"Galleria Valle Miara","PostalCode":"36078","AdditionalData":[{"value":"Italia","key":"CountryName"},{"value":"Veneto","key":"StateName"},{"value":"Vicenza","key":"CountyName"}]},"MapReference":{"ReferenceId":"584485646","Spot":0.93,"SideOfStreet":"left","CountryId":"20110484","StateId":"20120537","CountyId":"20120918","CityId":"20121313"}}},{"Relevance":1.0,"Distance":15.6,"MatchLevel":"houseNumber","MatchQuality":{"Country":1.0,"State":1.0,"County":1.0,"City":1.0,"Street":[1.0],"HouseNumber":1.0,"PostalCode":1.0},"MatchType":"interpolated","Location":{"LocationId":"NT_9c8Uwhh1AdoSnuItHZkvjA_xIE","LocationType":"point","DisplayPosition":{"Latitude":45.64675,"Longitude":11.30725},"MapView":{"TopLeft":{"Latitude":45.6478742,"Longitude":11.305642},"BottomRight":{"Latitude":45.6456258,"Longitude":11.308858}},"Address":{"Label":"Via Galileo Galilei, 1B, 36078 Valdagno VI, Italia","Country":"ITA","State":"Veneto","County":"VI","City":"Valdagno","Street":"Via Galileo Galilei","HouseNumber":"1B","PostalCode":"36078","AdditionalData":[{"value":"Italia","key":"CountryName"},{"value":"Veneto","key":"StateName"},{"value":"Vicenza","key":"CountyName"}]},"MapReference":{"ReferenceId":"556517884","Spot":0.0,"SideOfStreet":"right","CountryId":"20110484","StateId":"20120537","CountyId":"20120918","CityId":"20121313","AddressId":"752552312","RoadLinkId":"58623745"}}},{"Relevance":1.0,"Distance":34.9,"MatchLevel":"landmark","MatchQuality":{"Country":1.0,"State":1.0,"County":1.0,"City":1.0,"Street":[1.0],"PostalCode":1.0,"Name":1.0},"Location":{"LocationId":"NT_-pl7KbSPQ3T9VHe6-QnAGC_p_EHNgy2sM7pZO9hMCyfGbrC","LocationType":"hospital","Name":"Ospedale Civile San Lorenzo","DisplayPosition":{"Latitude":45.64754,"Longitude":11.30727},"MapView":{"TopLeft":{"Latitude":45.64862,"Longitude":11.30678},"BottomRight":{"Latitude":45.64675,"Longitude":11.30881}},"Address":{"Label":"Via Galileo Galilei, 36078 Valdagno VI, Italia","Country":"ITA","State":"Veneto","County":"VI","City":"Valdagno","Street":"Via Galileo Galilei","PostalCode":"36078","AdditionalData":[{"value":"Italia","key":"CountryName"},{"value":"Veneto","key":"StateName"},{"value":"Vicenza","key":"CountyName"}]},"MapReference":{"CountryId":"20110484","StateId":"20120537","CountyId":"20120918","CityId":"20121313","PlaceId":"552736746"}}},{"Relevance":1.0,"Distance":38.4,"MatchLevel":"street","MatchQuality":{"Country":1.0,"State":1.0,"County":1.0,"City":1.0,"Street":[1.0],"PostalCode":1.0},"Location":{"LocationId":"NT_df70p2g.9cl3fM5l3AkvgD_l_766667830_L","LocationType":"point","DisplayPosition":{"Latitude":45.64692,"Longitude":11.30895},"MapView":{"TopLeft":{"Latitude":45.64797,"Longitude":11.30876},"BottomRight":{"Latitude":45.64692,"Longitude":11.30895}},"Address":{"Label":"Galleria Valle Miara, 36078 Valdagno VI, Italia","Country":"ITA","State":"Veneto","County":"VI","City":"Valdagno","Street":"Galleria Valle Miara","PostalCode":"36078","AdditionalData":[{"value":"Italia","key":"CountryName"},{"value":"Veneto","key":"StateName"},{"value":"Vicenza","key":"CountyName"}]},"MapReference":{"ReferenceId":"766667830","Spot":0.0,"SideOfStreet":"left","CountryId":"20110484","StateId":"20120537","CountyId":"20120918","CityId":"20121313"}}},{"Relevance":1.0,"Distance":53.4,"MatchLevel":"houseNumber","MatchQuality":{"Country":1.0,"State":1.0,"County":1.0,"City":1.0,"Street":[1.0],"HouseNumber":1.0,"PostalCode":1.0},"MatchType":"interpolated","Location":{"LocationId":"NT_ExJwVwTTDvo-cgC7BIDVzC_yEE","LocationType":"point","DisplayPosition":{"Latitude":45.64813,"Longitude":11.30891},"MapView":{"TopLeft":{"Latitude":45.6492542,"Longitude":11.3073019},"BottomRight":{"Latitude":45.6470058,"Longitude":11.3105181}},"Address":{"Label":"Via Carlo Forlanini, 2A, 36078 Valdagno VI, Italia","Country":"ITA","State":"Veneto","County":"VI","City":"Valdagno","Street":"Via Carlo Forlanini","HouseNumber":"2A","PostalCode":"36078","AdditionalData":[{"value":"Italia","key":"CountryName"},{"value":"Veneto","key":"StateName"},{"value":"Vicenza","key":"CountyName"}]},"MapReference":{"ReferenceId":"586681685","Spot":1.0,"SideOfStreet":"left","CountryId":"20110484","StateId":"20120537","CountyId":"20120918","CityId":"20121313","AddressId":"752871813","RoadLinkId":"59183596"}}},{"Relevance":1.0,"Distance":86.7,"MatchLevel":"houseNumber","MatchQuality":{"Country":1.0,"State":1.0,"County":1.0,"City":1.0,"Street":[1.0],"HouseNumber":1.0,"PostalCode":1.0},"MatchType":"interpolated","Location":{"LocationId":"NT_ExJwVwTTDvo-cgC7BIDVzC_zA","LocationType":"point","DisplayPosition":{"Latitude":45.64659,"Longitude":11.31008},"MapView":{"TopLeft":{"Latitude":45.6477142,"Longitude":11.308472},"BottomRight":{"Latitude":45.6454658,"Longitude":11.311688}},"Address":{"Label":"Via Carlo Forlanini, 3, 36078 Valdagno VI, Italia","Country":"ITA","State":"Veneto","County":"VI","City":"Valdagno","Street":"Via Carlo Forlanini","HouseNumber":"3","PostalCode":"36078","AdditionalData":[{"value":"Italia","key":"CountryName"},{"value":"Veneto","key":"StateName"},{"value":"Vicenza","key":"CountyName"}]},"MapReference":{"ReferenceId":"586681692","Spot":1.0,"SideOfStreet":"right","CountryId":"20110484","StateId":"20120537","CountyId":"20120918","CityId":"20121313","AddressId":"373642051","RoadLinkId":"58563858"}}},{"Relevance":1.0,"Distance":117.9,"MatchLevel":"houseNumber","MatchQuality":{"Country":1.0,"State":1.0,"County":1.0,"City":1.0,"Street":[1.0],"HouseNumber":1.0,"PostalCode":1.0},"MatchType":"interpolated","Location":{"LocationId":"NT_9c8Uwhh1AdoSnuItHZkvjA_xME","LocationType":"point","DisplayPosition":{"Latitude":45.64675,"Longitude":11.30725},"MapView":{"TopLeft":{"Latitude":45.6478742,"Longitude":11.305642},"BottomRight":{"Latitude":45.6456258,"Longitude":11.308858}},"Address":{"Label":"Via Galileo Galilei, 1C, 36078 Valdagno VI, Italia","Country":"ITA","State":"Veneto","County":"VI","City":"Valdagno","Street":"Via Galileo Galilei","HouseNumber":"1C","PostalCode":"36078","AdditionalData":[{"value":"Italia","key":"CountryName"},{"value":"Veneto","key":"StateName"},{"value":"Vicenza","key":"CountyName"}]},"MapReference":{"ReferenceId":"556518189","Spot":1.0,"SideOfStreet":"right","CountryId":"20110484","StateId":"20120537","CountyId":"20120918","CityId":"20121313","AddressId":"752829876","RoadLinkId":"59174095"}}},{"Relevance":1.0,"Distance":136.4,"MatchLevel":"houseNumber","MatchQuality":{"Country":1.0,"State":1.0,"County":1.0,"City":1.0,"Street":[1.0],"HouseNumber":1.0,"PostalCode":1.0},"MatchType":"interpolated","Location":{"LocationId":"NT_h6wxsB6aOWbNVZogDvIFLA_yEE","LocationType":"point","DisplayPosition":{"Latitude":45.64713,"Longitude":11.31053},"MapView":{"TopLeft":{"Latitude":45.6482542,"Longitude":11.3089219},"BottomRight":{"Latitude":45.6460058,"Longitude":11.3121381}},"Address":{"Label":"Contrada Meggiara, 2A, 36078 Valdagno VI, Italia","Country":"ITA","State":"Veneto","County":"VI","City":"Valdagno","Street":"Contrada Meggiara","HouseNumber":"2A","PostalCode":"36078","AdditionalData":[{"value":"Italia","key":"CountryName"},{"value":"Veneto","key":"StateName"},{"value":"Vicenza","key":"CountyName"}]},"MapReference":{"ReferenceId":"556519349","Spot":0.0,"SideOfStreet":"right","CountryId":"20110484","StateId":"20120537","CountyId":"20120918","CityId":"20121313","AddressId":"738215167","RoadLinkId":"59141568"}}},{"Relevance":1.0,"Distance":136.4,"MatchLevel":"street","MatchQuality":{"Country":1.0,"State":1.0,"County":1.0,"City":1.0,"Street":[1.0],"PostalCode":1.0},"Location":{"LocationId":"NT_pZq6HHAJvjdz3mlpoGrcAC_l_556519350_L","LocationType":"point","DisplayPosition":{"Latitude":45.64713,"Longitude":11.31053},"MapView":{"TopLeft":{"Latitude":45.64759,"Longitude":11.31049},"BottomRight":{"Latitude":45.64713,"Longitude":11.31053}},"Address":{"Label":"Località Casetta, 36078 Valdagno VI, Italia","Country":"ITA","State":"Veneto","County":"VI","City":"Valdagno","Street":"Località Casetta","PostalCode":"36078","AdditionalData":[{"value":"Italia","key":"CountryName"},{"value":"Veneto","key":"StateName"},{"value":"Vicenza","key":"CountyName"}]},"MapReference":{"ReferenceId":"556519350","Spot":0.0,"SideOfStreet":"left","CountryId":"20110484","StateId":"20120537","CountyId":"20120918","CityId":"20121313"}}}]}]}}