{"Response":{"MetaInfo":{"Timestamp":"2020-03-28T09:56:22.081+0000","NextPageInformation":"2"},"View":[{"_type":"SearchResultsViewType","ViewId":0,"Result":[{"Relevance":1.0,"Distance":0.0,"Direction":0.0,"MatchLevel":"city","MatchQuality":{"Country":1.0,"State":1.0,"County":1.0,"City":1.0,"PostalCode":1.0},"Location":{"LocationId":"NT_bavfNLbUoN-NpV7XpV6WuA","LocationType":"point","DisplayPosition":{"Latitude":45.6759723,"Longitude":8.4548628},"MapView":{"TopLeft":{"Latitude":45.68538,"Longitude":8.43072},"BottomRight":{"Latitude":45.65263,"Longitude":8.479}},"Address":{"Label":"Cureggio, Piemonte, Italia","Country":"ITA","State":"Piemonte","County":"NO","City":"Cureggio","PostalCode":"28060","AdditionalData":[{"value":"Italia","key":"CountryName"},{"value":"Piemonte","key":"StateName"},{"value":"Novara","key":"CountyName"}]},"MapReference":{"ReferenceId":"1041514882","SideOfStreet":"neither","CountryId":"20110484","StateId":"20110485","CountyId":"20111784","CityId":"20111888"}}},{"Relevance":1.0,"Distance":17.1,"MatchLevel":"street","MatchQuality":{"Country":1.0,"State":1.0,"County":1.0,"City":1.0,"Street":[1.0],"PostalCode":1.0},"Location":{"LocationId":"NT_72L5FRbnsyEBIBY63SUbaB_l_568511004_R","LocationType":"point","DisplayPosition":{"Latitude":45.6759499,"Longitude":8.454645},"MapView":{"TopLeft":{"Latitude":45.67629,"Longitude":8.45461},"BottomRight":{"Latitude":45.67561,"Longitude":8.45468}},"Address":{"Label":"Via Ronchetto, 28060 Cureggio NO, Italia","Country":"ITA","State":"Piemonte","County":"NO","City":"Cureggio","Street":"Via Ronchetto","PostalCode":"28060","AdditionalData":[{"value":"Italia","key":"CountryName"},{"value":"Piemonte","key":"StateName"},{"value":"Novara","key":"CountyName"}]},"MapReference":{"ReferenceId":"568511004","Spot":0.5,"SideOfStreet":"right","CountryId":"20110484","StateId":"20110485","CountyId":"20111784","CityId":"20111888"}}},{"Relevance":1.0,"Distance":40.4,"MatchLevel":"street","MatchQuality":{"Country":1.0,"State":1.0,"County":1.0,"City":1.0,"Street":[1.0],"PostalCode":1.0},"Location":{"LocationId":"NT_72L5FRbnsyEBIBY63SUbaB_l_586353864_R","LocationType":"point","DisplayPosition":{"Latitude":45.67629,"Longitude":8.45461},"MapView":{"TopLeft":{"Latitude":45.67674,"Longitude":8.45457},"BottomRight":{"Latitude":45.67629,"Longitude":8.45461}},"Address":{"Label":"Via Ronchetto, 28060 Cureggio NO, Italia","Country":"ITA","State":"Piemonte","County":"NO","City":"Cureggio","Street":"Via Ronchetto","PostalCode":"28060","AdditionalData":[{"value":"Italia","key":"CountryName"},{"value":"Piemonte","key":"StateName"},{"value":"Novara","key":"CountyName"}]},"MapReference":{"ReferenceId":"586353864","Spot":0.0,"SideOfStreet":"right","CountryId":"20110484","StateId":"20110485","CountyId":"20111784","CityId":"20111888"}}},{"Relevance":1.0,"Distance":54.7,"MatchLevel":"houseNumber","MatchQuality":{"Country":1.0,"State":1.0,"County":1.0,"City":1.0,"Street":[1.0],"HouseNumber":1.0,"PostalCode":1.0},"MatchType":"interpolated","Location":{"LocationId":"NT_72L5FRbnsyEBIBY63SUbaB_xEE","LocationType":"point","DisplayPosition":{"Latitude":45.67555,"Longitude":8.45443},"MapView":{"TopLeft":{"Latitude":45.6766742,"Longitude":8.4528211},"BottomRight":{"Latitude":45.6744258,"Longitude":8.4560389}},"Address":{"Label":"Via Ronchetto, 1A, 28060 Cureggio NO, Italia","Country":"ITA","State":"Piemonte","County":"NO","City":"Cureggio","Street":"Via Ronchetto","HouseNumber":"1A","PostalCode":"28060","AdditionalData":[{"value":"Italia","key":"CountryName"},{"value":"Piemonte","key":"StateName"},{"value":"Novara","key":"CountyName"}]},"MapReference":{"ReferenceId":"568510992","Spot":0.81,"SideOfStreet":"left","CountryId":"20110484","StateId":"20110485","CountyId":"20111784","CityId":"20111888","AddressId":"246675051","RoadLinkId":"54956459"}}},{"Relevance":1.0,"Distance":61.0,"MatchLevel":"houseNumber","MatchQuality":{"Country":1.0,"State":1.0,"County":1.0,"City":1.0,"Street":[1.0],"HouseNumber":1.0,"PostalCode":1.0},"MatchType":"interpolated","Location":{"LocationId":"NT_i5agzyXcbrhT7xQLL26uyA_zID","LocationType":"point","DisplayPosition":{"Latitude":45.67572,"Longitude":8.45604},"MapView":{"TopLeft":{"Latitude":45.6768442,"Longitude":8.4544311},"BottomRight":{"Latitude":45.6745958,"Longitude":8.4576489}},"Address":{"Label":"Via Torino, 32, 28060 Cureggio NO, Italia","Country":"ITA","State":"Piemonte","County":"NO","City":"Cureggio","Street":"Via Torino","HouseNumber":"32","PostalCode":"28060","AdditionalData":[{"value":"Italia","key":"CountryName"},{"value":"Piemonte","key":"StateName"},{"value":"Novara","key":"CountyName"}]},"MapReference":{"ReferenceId":"1162361383","Spot":0.69,"SideOfStreet":"left","CountryId":"20110484","StateId":"20110485","CountyId":"20111784","CityId":"20111888","AddressId":"246663209","RoadLinkId":"468606002"}}},{"Relevance":1.0,"Distance":87.0,"MatchLevel":"houseNumber","MatchQuality":{"Country":1.0,"State":1.0,"County":1.0,"City":1.0,"Street":[1.0],"HouseNumber":1.0,"PostalCode":1.0},"MatchType":"interpolated","Location":{"LocationId":"NT_i5agzyXcbrhT7xQLL26uyA_zAD","LocationType":"point","DisplayPosition":{"Latitude":45.67624,"Longitude":8.45605},"MapView":{"TopLeft":{"Latitude":45.6773642,"Longitude":8.4544411},"BottomRight":{"Latitude":45.6751158,"Longitude":8.4576589}},"Address":{"Label":"Via Torino, 30, 28060 Cureggio NO, Italia","Country":"ITA","State":"Piemonte","County":"NO","City":"Cureggio","Street":"Via Torino","HouseNumber":"30","PostalCode":"28060","AdditionalData":[{"value":"Italia","key":"CountryName"},{"value":"Piemonte","key":"StateName"},{"value":"Novara","key":"CountyName"}]},"MapReference":{"ReferenceId":"1162361384","Spot":0.33,"SideOfStreet":"left","CountryId":"20110484","StateId":"20110485","CountyId":"20111784","CityId":"20111888","AddressId":"246663222","RoadLinkId":"468606003"}}},{"Relevance":1.0,"Distance":88.3,"MatchLevel":"street","MatchQuality":{"Country":1.0,"State":1.0,"County":1.0,"City":1.0,"Street":[1.0],"PostalCode":1.0},"Location":{"LocationId":"NT_72L5FRbnsyEBIBY63SUbaB_l_586353863_R","LocationType":"point","DisplayPosition":{"Latitude":45.67674,"Longitude":8.45457},"MapView":{"TopLeft":{"Latitude":45.67825,"Longitude":8.45457},"BottomRight":{"Latitude":45.67674,"Longitude":8.45501}},"Address":{"Label":"Via Ronchetto, 28060 Cureggio NO, Italia","Country":"ITA","State":"Piemonte","County":"NO","City":"Cureggio","Street":"Via Ronchetto","PostalCode":"28060","AdditionalData":[{"value":"Italia","key":"CountryName"},{"value":"Piemonte","key":"StateName"},{"value":"Novara","key":"CountyName"}]},"MapReference":{"ReferenceId":"586353863","Spot":0.0,"SideOfStreet":"right","CountryId":"20110484","StateId":"20110485","CountyId":"20111784","CityId":"20111888"}}},{"Relevance":1.0,"Distance":98.0,"MatchLevel":"houseNumber","MatchQuality":{"Country":1.0,"State":1.0,"County":1.0,"City":1.0,"Street":[1.0],"HouseNumber":1.0,"PostalCode":1.0},"MatchType":"interpolated","Location":{"LocationId":"NT_72L5FRbnsyEBIBY63SUbaB_xMD","LocationType":"point","DisplayPosition":{"Latitude":45.67676,"Longitude":8.45413},"MapView":{"TopLeft":{"Latitude":45.6778842,"Longitude":8.4525211},"BottomRight":{"Latitude":45.6756358,"Longitude":8.4557389}},"Address":{"Label":"Via Ronchetto, 13, 28060 Cureggio NO, Italia","Country":"ITA","State":"Piemonte","County":"NO","City":"Cureggio","Street":"Via Ronchetto","HouseNumber":"13","PostalCode":"28060","AdditionalData":[{"value":"Italia","key":"CountryName"},{"value":"Piemonte","key":"StateName"},{"value":"Novara","key":"CountyName"}]},"MapReference":{"ReferenceId":"568510968","Spot":0.37,"SideOfStreet":"left","CountryId":"20110484","StateId":"20110485","CountyId":"20111784","CityId":"20111888","AddressId":"246665351","RoadLinkId":"55572719"}}},{"Relevance":1.0,"Distance":118.1,"MatchLevel":"houseNumber","MatchQuality":{"Country":1.0,"State":1.0,"County":1.0,"City":1.0,"Street":[1.0],"HouseNumber":1.0,"PostalCode":1.0},"MatchType":"interpolated","Location":{"LocationId":"NT_i5agzyXcbrhT7xQLL26uyA_zgTQ","LocationType":"point","DisplayPosition":{"Latitude":45.67508,"Longitude":8.45605},"MapView":{"TopLeft":{"Latitude":45.6762042,"Longitude":8.4544411},"BottomRight":{"Latitude":45.6739558,"Longitude":8.4576589}},"Address":{"Label":"Via Torino, 38A, 28060 Cureggio NO, Italia","Country":"ITA","State":"Piemonte","County":"NO","City":"Cureggio","Street":"Via Torino","HouseNumber":"38A","PostalCode":"28060","AdditionalData":[{"value":"Italia","key":"CountryName"},{"value":"Piemonte","key":"StateName"},{"value":"Novara","key":"CountyName"}]},"MapReference":{"ReferenceId":"1162361381","Spot":0.8,"SideOfStreet":"left","CountryId":"20110484","StateId":"20110485","CountyId":"20111784","CityId":"20111888","AddressId":"246663214","RoadLinkId":"468605996"}}},{"Relevance":1.0,"Distance":119.1,"MatchLevel":"houseNumber","MatchQuality":{"Country":1.0,"State":1.0,"County":1.0,"City":1.0,"Street":[1.0],"HouseNumber":1.0,"PostalCode":1.0},"MatchType":"interpolated","Location":{"LocationId":"NT_i5agzyXcbrhT7xQLL26uyA_yYD","LocationType":"point","DisplayPosition":{"Latitude":45.67691,"Longitude":8.45609},"MapView":{"TopLeft":{"Latitude":45.6780342,"Longitude":8.4544811},"BottomRight":{"Latitude":45.6757858,"Longitude":8.4576989}},"Address":{"Label":"Via Torino, 26, 28060 Cureggio NO, Italia","Country":"ITA","State":"Piemonte","County":"NO","City":"Cureggio","Street":"Via Torino","HouseNumber":"26","PostalCode":"28060","AdditionalData":[{"value":"Italia","key":"CountryName"},{"value":"Piemonte","key":"StateName"},{"value":"Novara","key":"CountyName"}]},"MapReference":{"ReferenceId":"1162361382","Spot":0.14,"SideOfStreet":"left","CountryId":"20110484","StateId":"20110485","CountyId":"20111784","CityId":"20111888","AddressId":"246663215","RoadLinkId":"468606001"}}}]}]}}