{"Response":{"MetaInfo":{"Timestamp":"2020-03-28T12:03:25.714+0000","NextPageInformation":"2"},"View":[{"_type":"SearchResultsViewType","ViewId":0,"Result":[{"Relevance":1.0,"Distance":0.0,"Direction":0.0,"MatchLevel":"city","MatchQuality":{"Country":1.0,"State":1.0,"County":1.0,"City":1.0,"PostalCode":1.0},"Location":{"LocationId":"NT_Gmn-5SVILIyfxpBnpAq1uC","LocationType":"point","DisplayPosition":{"Latitude":45.6863027,"Longitude":8.2462763},"MapView":{"TopLeft":{"Latitude":45.75697,"Longitude":8.09562},"BottomRight":{"Latitude":45.66751,"Longitude":8.27001}},"Address":{"Label":"Crevacuore, Piemonte, Italia","Country":"ITA","State":"Piemonte","County":"BI","City":"Crevacuore","PostalCode":"13864","AdditionalData":[{"value":"Italia","key":"CountryName"},{"value":"Piemonte","key":"StateName"},{"value":"Biella","key":"CountyName"}]},"MapReference":{"ReferenceId":"766751964","SideOfStreet":"neither","CountryId":"20110484","StateId":"20110485","CountyId":"20123756","CityId":"20123823"}}},{"Relevance":1.0,"Distance":5.4,"MatchLevel":"houseNumber","MatchQuality":{"Country":1.0,"State":1.0,"County":1.0,"City":1.0,"Street":[1.0],"HouseNumber":1.0,"PostalCode":1.0},"MatchType":"interpolated","Location":{"LocationId":"NT_uAN5HaObaiHfcCUHZnJgjD_xED","LocationType":"point","DisplayPosition":{"Latitude":45.68636,"Longitude":8.24643},"MapView":{"TopLeft":{"Latitude":45.6874842,"Longitude":8.2448208},"BottomRight":{"Latitude":45.6852358,"Longitude":8.2480392}},"Address":{"Label":"Via Giacomo Matteotti, 11, 13864 Crevacuore BI, Italia","Country":"ITA","State":"Piemonte","County":"BI","City":"Crevacuore","Street":"Via Giacomo Matteotti","HouseNumber":"11","PostalCode":"13864","AdditionalData":[{"value":"Italia","key":"CountryName"},{"value":"Piemonte","key":"StateName"},{"value":"Biella","key":"CountyName"}]},"MapReference":{"ReferenceId":"577095383","Spot":0.81,"SideOfStreet":"left","CountryId":"20110484","StateId":"20110485","CountyId":"20123756","CityId":"20123823","AddressId":"387083761","RoadLinkId":"55906204"}}},{"Relevance":1.0,"Distance":19.5,"MatchLevel":"houseNumber","MatchQuality":{"Country":1.0,"State":1.0,"County":1.0,"City":1.0,"Street":[1.0],"HouseNumber":1.0,"PostalCode":1.0},"MatchType":"interpolated","Location":{"LocationId":"NT_uAN5HaObaiHfcCUHZnJgjD_xYD","LocationType":"point","DisplayPosition":{"Latitude":45.68647,"Longitude":8.24638},"MapView":{"TopLeft":{"Latitude":45.6875942,"Longitude":8.2447708},"BottomRight":{"Latitude":45.6853458,"Longitude":8.2479892}},"Address":{"Label":"Via Giacomo Matteotti, 16, 13864 Crevacuore BI, Italia","Country":"ITA","State":"Piemonte","County":"BI","City":"Crevacuore","Street":"Via Giacomo Matteotti","HouseNumber":"16","PostalCode":"13864","AdditionalData":[{"value":"Italia","key":"CountryName"},{"value":"Piemonte","key":"StateName"},{"value":"Biella","key":"CountyName"}]},"MapReference":{"ReferenceId":"577095384","Spot":0.32,"SideOfStreet":"left","CountryId":"20110484","StateId":"20110485","CountyId":"20123756","CityId":"20123823","AddressId":"386533417","RoadLinkId":"55722813"}}},{"Relevance":1.0,"Distance":26.4,"MatchLevel":"houseNumber","MatchQuality":{"Country":1.0,"State":1.0,"County":1.0,"City":1.0,"Street":[1.0],"HouseNumber":1.0,"PostalCode":1.0},"MatchType":"interpolated","Location":{"LocationId":"NT_uAN5HaObaiHfcCUHZnJgjD_xETQ","LocationType":"point","DisplayPosition":{"Latitude":45.68654,"Longitude":8.24629},"MapView":{"TopLeft":{"Latitude":45.6876642,"Longitude":8.2446808},"BottomRight":{"Latitude":45.6854158,"Longitude":8.2478992}},"Address":{"Label":"Via Giacomo Matteotti, 11A, 13864 Crevacuore BI, Italia","Country":"ITA","State":"Piemonte","County":"BI","City":"Crevacuore","Street":"Via Giacomo Matteotti","HouseNumber":"11A","PostalCode":"13864","AdditionalData":[{"value":"Italia","key":"CountryName"},{"value":"Piemonte","key":"StateName"},{"value":"Biella","key":"CountyName"}]},"MapReference":{"ReferenceId":"577095439","Spot":0.87,"SideOfStreet":"left","CountryId":"20110484","StateId":"20110485","CountyId":"20123756","CityId":"20123823","AddressId":"583357909","RoadLinkId":"55656427"}}},{"Relevance":1.0,"Distance":26.5,"MatchLevel":"houseNumber","MatchQuality":{"Country":1.0,"State":1.0,"County":1.0,"City":1.0,"Street":[1.0],"HouseNumber":1.0,"PostalCode":1.0},"MatchType":"interpolated","Location":{"LocationId":"NT_uAN5HaObaiHfcCUHZnJgjD_xgD","LocationType":"point","DisplayPosition":{"Latitude":45.68657,"Longitude":8.24635},"MapView":{"TopLeft":{"Latitude":45.6876942,"Longitude":8.2447408},"BottomRight":{"Latitude":45.6854458,"Longitude":8.2479592}},"Address":{"Label":"Via Giacomo Matteotti, 18, 13864 Crevacuore BI, Italia","Country":"ITA","State":"Piemonte","County":"BI","City":"Crevacuore","Street":"Via Giacomo Matteotti","HouseNumber":"18","PostalCode":"13864","AdditionalData":[{"value":"Italia","key":"CountryName"},{"value":"Piemonte","key":"StateName"},{"value":"Biella","key":"CountyName"}]},"MapReference":{"ReferenceId":"589151842","Spot":0.0,"SideOfStreet":"left","CountryId":"20110484","StateId":"20110485","CountyId":"20123756","CityId":"20123823","AddressId":"386359964","RoadLinkId":"55693959"}}},{"Relevance":1.0,"Distance":27.7,"MatchLevel":"houseNumber","MatchQuality":{"Country":1.0,"State":1.0,"County":1.0,"City":1.0,"Street":[1.0],"HouseNumber":1.0,"PostalCode":1.0},"MatchType":"interpolated","Location":{"LocationId":"NT_mP0lMFD-9ZeznXiGk.k8NB_l_589151846_R_xkD","LocationType":"point","DisplayPosition":{"Latitude":45.68649,"Longitude":8.2465801},"MapView":{"TopLeft":{"Latitude":45.6876142,"Longitude":8.2449709},"BottomRight":{"Latitude":45.6853659,"Longitude":8.2481893}},"Address":{"Label":"Via Roma, 19, 13864 Crevacuore BI, Italia","Country":"ITA","State":"Piemonte","County":"BI","City":"Crevacuore","Street":"Via Roma","HouseNumber":"19","PostalCode":"13864","AdditionalData":[{"value":"Italia","key":"CountryName"},{"value":"Piemonte","key":"StateName"},{"value":"Biella","key":"CountyName"}]},"MapReference":{"ReferenceId":"589151846","Spot":0.19,"SideOfStreet":"right","CountryId":"20110484","StateId":"20110485","CountyId":"20123756","CityId":"20123823"}}},{"Relevance":1.0,"Distance":33.9,"MatchLevel":"houseNumber","MatchQuality":{"Country":1.0,"State":1.0,"County":1.0,"City":1.0,"Street":[1.0],"HouseNumber":1.0,"PostalCode":1.0},"MatchType":"interpolated","Location":{"LocationId":"NT_BA6E-pWUOgNxZEje3722LB_1AD","LocationType":"point","DisplayPosition":{"Latitude":45.68614,"Longitude":8.24672},"MapView":{"TopLeft":{"Latitude":45.6872642,"Longitude":8.2451108},"BottomRight":{"Latitude":45.6850158,"Longitude":8.2483292}},"Address":{"Label":"Via Don Francesco Campi, 50, 13864 Crevacuore BI, Italia","Country":"ITA","State":"Piemonte","County":"BI","City":"Crevacuore","Street":"Via Don Francesco Campi","HouseNumber":"50","PostalCode":"13864","AdditionalData":[{"value":"Italia","key":"CountryName"},{"value":"Piemonte","key":"StateName"},{"value":"Biella","key":"CountyName"}]},"MapReference":{"ReferenceId":"577095517","Spot":0.2,"SideOfStreet":"left","CountryId":"20110484","StateId":"20110485","CountyId":"20123756","CityId":"20123823","AddressId":"386721037","RoadLinkId":"55098758"}}},{"Relevance":1.0,"Distance":44.9,"MatchLevel":"houseNumber","MatchQuality":{"Country":1.0,"State":1.0,"County":1.0,"City":1.0,"Street":[1.0],"HouseNumber":1.0,"PostalCode":1.0},"MatchType":"interpolated","Location":{"LocationId":"NT_BA6E-pWUOgNxZEje3722LB_1ID","LocationType":"point","DisplayPosition":{"Latitude":45.68591,"Longitude":8.24647},"MapView":{"TopLeft":{"Latitude":45.6870342,"Longitude":8.2448608},"BottomRight":{"Latitude":45.6847858,"Longitude":8.2480792}},"Address":{"Label":"Via Don Francesco Campi, 52, 13864 Crevacuore BI, Italia","Country":"ITA","State":"Piemonte","County":"BI","City":"Crevacuore","Street":"Via Don Francesco Campi","HouseNumber":"52","PostalCode":"13864","AdditionalData":[{"value":"Italia","key":"CountryName"},{"value":"Piemonte","key":"StateName"},{"value":"Biella","key":"CountyName"}]},"MapReference":{"ReferenceId":"589152009","Spot":0.35,"SideOfStreet":"left","CountryId":"20110484","StateId":"20110485","CountyId":"20123756","CityId":"20123823","AddressId":"387045284","RoadLinkId":"55652718"}}},{"Relevance":1.0,"Distance":44.9,"MatchLevel":"houseNumber","MatchQuality":{"Country":1.0,"State":1.0,"County":1.0,"City":1.0,"Street":[1.0],"HouseNumber":1.0,"PostalCode":1.0},"MatchType":"interpolated","Location":{"LocationId":"NT_BA6E-pWUOgNxZEje3722LB_1QD","LocationType":"point","DisplayPosition":{"Latitude":45.68587,"Longitude":8.24634},"MapView":{"TopLeft":{"Latitude":45.6869942,"Longitude":8.2447308},"BottomRight":{"Latitude":45.6847458,"Longitude":8.2479492}},"Address":{"Label":"Via Don Francesco Campi, 54, 13864 Crevacuore BI, Italia","Country":"ITA","State":"Piemonte","County":"BI","City":"Crevacuore","Street":"Via Don Francesco Campi","HouseNumber":"54","PostalCode":"13864","AdditionalData":[{"value":"Italia","key":"CountryName"},{"value":"Piemonte","key":"StateName"},{"value":"Biella","key":"CountyName"}]},"MapReference":{"ReferenceId":"589152008","Spot":0.64,"SideOfStreet":"left","CountryId":"20110484","StateId":"20110485","CountyId":"20123756","CityId":"20123823","AddressId":"386834538","RoadLinkId":"55312967"}}},{"Relevance":1.0,"Distance":45.2,"MatchLevel":"houseNumber","MatchQuality":{"Country":1.0,"State":1.0,"County":1.0,"City":1.0,"Street":[1.0],"HouseNumber":1.0,"PostalCode":1.0},"MatchType":"interpolated","Location":{"LocationId":"NT_uAN5HaObaiHfcCUHZnJgjD_2A","LocationType":"point","DisplayPosition":{"Latitude":45.68596,"Longitude":8.2466},"MapView":{"TopLeft":{"Latitude":45.6870842,"Longitude":8.2449908},"BottomRight":{"Latitude":45.6848358,"Longitude":8.2482092}},"Address":{"Label":"Via Giacomo Matteotti, 6, 13864 Crevacuore BI, Italia","Country":"ITA","State":"Piemonte","County":"BI","City":"Crevacuore","Street":"Via Giacomo Matteotti","HouseNumber":"6","PostalCode":"13864","AdditionalData":[{"value":"Italia","key":"CountryName"},{"value":"Piemonte","key":"StateName"},{"value":"Biella","key":"CountyName"}]},"MapReference":{"ReferenceId":"577095382","Spot":0.07,"SideOfStreet":"right","CountryId":"20110484","StateId":"20110485","CountyId":"20123756","CityId":"20123823","AddressId":"386448473","RoadLinkId":"55854224"}}}]}]}}