{"Response":{"MetaInfo":{"Timestamp":"2020-03-28T11:24:20.173+0000","NextPageInformation":"2"},"View":[{"_type":"SearchResultsViewType","ViewId":0,"Result":[{"Relevance":1.0,"Distance":0.0,"Direction":0.0,"MatchLevel":"district","MatchQuality":{"Country":1.0,"State":1.0,"County":1.0,"City":1.0,"District":1.0,"PostalCode":1.0},"Location":{"LocationId":"NT_3LLf.slJsKZET0nm7C3QaB","LocationType":"point","DisplayPosition":{"Latitude":45.6520157,"Longitude":10.2515127},"MapView":{"TopLeft":{"Latitude":45.6539,"Longitude":10.24508},"BottomRight":{"Latitude":45.64276,"Longitude":10.27269}},"Address":{"Label":"San Sebastiano, Lumezzane, Lombardia, Italia","Country":"ITA","State":"Lombardia","County":"BS","City":"Lumezzane","District":"San Sebastiano","PostalCode":"25065","AdditionalData":[{"value":"Italia","key":"CountryName"},{"value":"Lombardia","key":"StateName"},{"value":"Brescia","key":"CountyName"}]},"MapReference":{"ReferenceId":"1200683799","SideOfStreet":"neither","CountryId":"20110484","StateId":"20114907","CountyId":"20117513","CityId":"20117846","DistrictId":"20117848"}}},{"Relevance":1.0,"Distance":10.8,"MatchLevel":"houseNumber","MatchQuality":{"Country":1.0,"State":1.0,"County":1.0,"City":1.0,"District":1.0,"Street":[1.0],"HouseNumber":1.0,"PostalCode":1.0},"MatchType":"interpolated","Location":{"LocationId":"NT_zKiwGqi-xdujvl7NnRH7kC_xITO","LocationType":"point","DisplayPosition":{"Latitude":45.65209,"Longitude":10.2517},"MapView":{"TopLeft":{"Latitude":45.6532142,"Longitude":10.2500918},"BottomRight":{"Latitude":45.6509658,"Longitude":10.2533082}},"Address":{"Label":"Via Giuseppe Mazzini, 129, 25065 Lumezzane BS, Italia","Country":"ITA","State":"Lombardia","County":"BS","City":"Lumezzane","District":"San Sebastiano","Street":"Via Giuseppe Mazzini","HouseNumber":"129","PostalCode":"25065","AdditionalData":[{"value":"Italia","key":"CountryName"},{"value":"Lombardia","key":"StateName"},{"value":"Brescia","key":"CountyName"}]},"MapReference":{"ReferenceId":"1002834092","Spot":0.59,"SideOfStreet":"left","CountryId":"20110484","StateId":"20114907","CountyId":"20117513","CityId":"20117846","DistrictId":"20117848","AddressId":"782920205","RoadLinkId":"329080782"}}},{"Relevance":1.0,"Distance":29.1,"MatchLevel":"houseNumber","MatchQuality":{"Country":1.0,"State":1.0,"County":1.0,"City":1.0,"District":1.0,"Street":[1.0],"HouseNumber":1.0,"PostalCode":1.0},"MatchType":"interpolated","Location":{"LocationId":"NT_zKiwGqi-xdujvl7NnRH7kC_xYjN","LocationType":"point","DisplayPosition":{"Latitude":45.65226,"Longitude":10.25138},"MapView":{"TopLeft":{"Latitude":45.6533842,"Longitude":10.2497718},"BottomRight":{"Latitude":45.6511358,"Longitude":10.2529882}},"Address":{"Label":"Via Giuseppe Mazzini, 166, 25065 Lumezzane BS, Italia","Country":"ITA","State":"Lombardia","County":"BS","City":"Lumezzane","District":"San Sebastiano","Street":"Via Giuseppe Mazzini","HouseNumber":"166","PostalCode":"25065","AdditionalData":[{"value":"Italia","key":"CountryName"},{"value":"Lombardia","key":"StateName"},{"value":"Brescia","key":"CountyName"}]},"MapReference":{"ReferenceId":"1002834093","Spot":0.08,"SideOfStreet":"right","CountryId":"20110484","StateId":"20114907","CountyId":"20117513","CityId":"20117846","DistrictId":"20117848","AddressId":"782922176","RoadLinkId":"329080783"}}},{"Relevance":1.0,"Distance":31.8,"MatchLevel":"houseNumber","MatchQuality":{"Country":1.0,"State":1.0,"County":1.0,"City":1.0,"District":1.0,"Street":[1.0],"HouseNumber":1.0,"PostalCode":1.0},"MatchType":"interpolated","Location":{"LocationId":"NT_jKs05mscFTQj3sX96.Ta9B_zUD","LocationType":"point","DisplayPosition":{"Latitude":45.65234,"Longitude":10.25179},"MapView":{"TopLeft":{"Latitude":45.6534642,"Longitude":10.2501818},"BottomRight":{"Latitude":45.6512158,"Longitude":10.2533982}},"Address":{"Label":"Via Maestro Simoncelli, 35, 25065 Lumezzane BS, Italia","Country":"ITA","State":"Lombardia","County":"BS","City":"Lumezzane","District":"San Sebastiano","Street":"Via Maestro Simoncelli","HouseNumber":"35","PostalCode":"25065","AdditionalData":[{"value":"Italia","key":"CountryName"},{"value":"Lombardia","key":"StateName"},{"value":"Brescia","key":"CountyName"}]},"MapReference":{"ReferenceId":"1265826306","Spot":0.15,"SideOfStreet":"left","CountryId":"20110484","StateId":"20114907","CountyId":"20117513","CityId":"20117846","DistrictId":"20117848","AddressId":"815496952","RoadLinkId":"592211960"}}},{"Relevance":1.0,"Distance":35.2,"MatchLevel":"houseNumber","MatchQuality":{"Country":1.0,"State":1.0,"County":1.0,"City":1.0,"District":1.0,"Street":[1.0],"HouseNumber":1.0,"PostalCode":1.0},"MatchType":"interpolated","Location":{"LocationId":"NT_ZodZ022ba3xcw5C2B1MSaB_xEE","LocationType":"point","DisplayPosition":{"Latitude":45.65205,"Longitude":10.25099},"MapView":{"TopLeft":{"Latitude":45.6531742,"Longitude":10.2493818},"BottomRight":{"Latitude":45.6509258,"Longitude":10.2525982}},"Address":{"Label":"Via Cavaliere del Lavoro Umberto Gnutti, 1A, 25065 Lumezzane BS, Italia","Country":"ITA","State":"Lombardia","County":"BS","City":"Lumezzane","District":"San Sebastiano","Street":"Via Cavaliere del Lavoro Umberto Gnutti","HouseNumber":"1A","PostalCode":"25065","AdditionalData":[{"value":"Italia","key":"CountryName"},{"value":"Lombardia","key":"StateName"},{"value":"Brescia","key":"CountyName"}]},"MapReference":{"ReferenceId":"584442952","Spot":0.29,"SideOfStreet":"right","CountryId":"20110484","StateId":"20114907","CountyId":"20117513","CityId":"20117846","DistrictId":"20117848","AddressId":"738011133","RoadLinkId":"55232267"}}},{"Relevance":1.0,"Distance":49.6,"MatchLevel":"houseNumber","MatchQuality":{"Country":1.0,"State":1.0,"County":1.0,"City":1.0,"District":1.0,"Street":[1.0],"HouseNumber":1.0,"PostalCode":1.0},"MatchType":"interpolated","Location":{"LocationId":"NT_jKs05mscFTQj3sX96.Ta9B_2YD","LocationType":"point","DisplayPosition":{"Latitude":45.65246,"Longitude":10.2518},"MapView":{"TopLeft":{"Latitude":45.6535842,"Longitude":10.2501918},"BottomRight":{"Latitude":45.6513358,"Longitude":10.2534082}},"Address":{"Label":"Via Maestro Simoncelli, 66, 25065 Lumezzane BS, Italia","Country":"ITA","State":"Lombardia","County":"BS","City":"Lumezzane","District":"San Sebastiano","Street":"Via Maestro Simoncelli","HouseNumber":"66","PostalCode":"25065","AdditionalData":[{"value":"Italia","key":"CountryName"},{"value":"Lombardia","key":"StateName"},{"value":"Brescia","key":"CountyName"}]},"MapReference":{"ReferenceId":"1265826307","Spot":0.33,"SideOfStreet":"left","CountryId":"20110484","StateId":"20114907","CountyId":"20117513","CityId":"20117846","DistrictId":"20117848","AddressId":"246435276","RoadLinkId":"592211961"}}},{"Relevance":1.0,"Distance":52.4,"MatchLevel":"houseNumber","MatchQuality":{"Country":1.0,"State":1.0,"County":1.0,"City":1.0,"District":1.0,"Street":[1.0],"HouseNumber":1.0,"PostalCode":1.0},"MatchType":"interpolated","Location":{"LocationId":"NT_ZodZ022ba3xcw5C2B1MSaB_1A","LocationType":"point","DisplayPosition":{"Latitude":45.65202,"Longitude":10.25083},"MapView":{"TopLeft":{"Latitude":45.6531442,"Longitude":10.2492218},"BottomRight":{"Latitude":45.6508958,"Longitude":10.2524382}},"Address":{"Label":"Via Cavaliere del Lavoro Umberto Gnutti, 5, 25065 Lumezzane BS, Italia","Country":"ITA","State":"Lombardia","County":"BS","City":"Lumezzane","District":"San Sebastiano","Street":"Via Cavaliere del Lavoro Umberto Gnutti","HouseNumber":"5","PostalCode":"25065","AdditionalData":[{"value":"Italia","key":"CountryName"},{"value":"Lombardia","key":"StateName"},{"value":"Brescia","key":"CountyName"}]},"MapReference":{"ReferenceId":"573396261","Spot":0.0,"SideOfStreet":"right","CountryId":"20110484","StateId":"20114907","CountyId":"20117513","CityId":"20117846","DistrictId":"20117848","AddressId":"737905909","RoadLinkId":"54879521"}}},{"Relevance":1.0,"Distance":52.6,"MatchLevel":"houseNumber","MatchQuality":{"Country":1.0,"State":1.0,"County":1.0,"City":1.0,"District":1.0,"Street":[1.0],"HouseNumber":1.0,"PostalCode":1.0},"MatchType":"interpolated","Location":{"LocationId":"NT_..AnAoTRFutNdXpcXEmYOB_zA","LocationType":"point","DisplayPosition":{"Latitude":45.65185,"Longitude":10.25082},"MapView":{"TopLeft":{"Latitude":45.6529742,"Longitude":10.2492118},"BottomRight":{"Latitude":45.6507258,"Longitude":10.2524282}},"Address":{"Label":"Via Ravinaglio Sud, 3, 25065 Lumezzane BS, Italia","Country":"ITA","State":"Lombardia","County":"BS","City":"Lumezzane","District":"San Sebastiano","Street":"Via Ravinaglio Sud","HouseNumber":"3","PostalCode":"25065","AdditionalData":[{"value":"Italia","key":"CountryName"},{"value":"Lombardia","key":"StateName"},{"value":"Brescia","key":"CountyName"}]},"MapReference":{"ReferenceId":"584442951","Spot":0.82,"SideOfStreet":"right","CountryId":"20110484","StateId":"20114907","CountyId":"20117513","CityId":"20117846","DistrictId":"20117848","AddressId":"737932099","RoadLinkId":"55167112"}}},{"Relevance":1.0,"Distance":57.5,"MatchLevel":"houseNumber","MatchQuality":{"Country":1.0,"State":1.0,"County":1.0,"City":1.0,"District":1.0,"Street":[1.0],"HouseNumber":1.0,"PostalCode":1.0},"MatchType":"interpolated","Location":{"LocationId":"NT_2-zYDOsYHKXXsUS6khPOIA_xA","LocationType":"point","DisplayPosition":{"Latitude":45.65149,"Longitude":10.25143},"MapView":{"TopLeft":{"Latitude":45.6526142,"Longitude":10.2498218},"BottomRight":{"Latitude":45.6503658,"Longitude":10.2530382}},"Address":{"Label":"Via Nicolò Tartaglia, 1, 25065 Lumezzane BS, Italia","Country":"ITA","State":"Lombardia","County":"BS","City":"Lumezzane","District":"San Sebastiano","Street":"Via Nicolò Tartaglia","HouseNumber":"1","PostalCode":"25065","AdditionalData":[{"value":"Italia","key":"CountryName"},{"value":"Lombardia","key":"StateName"},{"value":"Brescia","key":"CountyName"}]},"MapReference":{"ReferenceId":"842245879","Spot":0.15,"SideOfStreet":"right","CountryId":"20110484","StateId":"20114907","CountyId":"20117513","CityId":"20117846","DistrictId":"20117848","AddressId":"737955112","RoadLinkId":"224187114"}}},{"Relevance":1.0,"Distance":65.1,"MatchLevel":"houseNumber","MatchQuality":{"Country":1.0,"State":1.0,"County":1.0,"City":1.0,"District":1.0,"Street":[1.0],"HouseNumber":1.0,"PostalCode":1.0},"MatchType":"interpolated","Location":{"LocationId":"NT_ZodZ022ba3xcw5C2B1MSaB_yEE","LocationType":"point","DisplayPosition":{"Latitude":45.6524,"Longitude":10.25088},"MapView":{"TopLeft":{"Latitude":45.6535242,"Longitude":10.2492718},"BottomRight":{"Latitude":45.6512758,"Longitude":10.2524882}},"Address":{"Label":"Via Cavaliere del Lavoro Umberto Gnutti, 2A, 25065 Lumezzane BS, Italia","Country":"ITA","State":"Lombardia","County":"BS","City":"Lumezzane","District":"San Sebastiano","Street":"Via Cavaliere del Lavoro Umberto Gnutti","HouseNumber":"2A","PostalCode":"25065","AdditionalData":[{"value":"Italia","key":"CountryName"},{"value":"Lombardia","key":"StateName"},{"value":"Brescia","key":"CountyName"}]},"MapReference":{"ReferenceId":"573396258","Spot":0.49,"SideOfStreet":"left","CountryId":"20110484","StateId":"20114907","CountyId":"20117513","CityId":"20117846","DistrictId":"20117848","AddressId":"737991323","RoadLinkId":"55667898"}}}]}]}}