{"Response":{"MetaInfo":{"Timestamp":"2020-03-28T10:42:16.111+0000","NextPageInformation":"2"},"View":[{"_type":"SearchResultsViewType","ViewId":0,"Result":[{"Relevance":1.0,"Distance":0.0,"Direction":0.0,"MatchLevel":"district","MatchQuality":{"Country":1.0,"County":1.0,"City":1.0,"District":1.0,"PostalCode":1.0},"Location":{"LocationId":"NT_NqFkQIGcRyEThwg59DLNiB","LocationType":"point","DisplayPosition":{"Latitude":45.6737042,"Longitude":15.6582833},"MapView":{"TopLeft":{"Latitude":45.68747,"Longitude":15.63608},"BottomRight":{"Latitude":45.65593,"Longitude":15.66659}},"Address":{"Label":"Jastrebarsko, Hrvatska","Country":"HRV","County":"Zagrebačka županija","City":"Jastrebarsko","District":"Jastrebarsko","PostalCode":"10450","AdditionalData":[{"value":"Hrvatska","key":"CountryName"},{"value":"Zagrebačka županija","key":"CountyName"}]},"MapReference":{"ReferenceId":"1115420062","SideOfStreet":"neither","CountryId":"20633739","CountyId":"20642487","CityId":"22871261","DistrictId":"22876974"}}},{"Relevance":1.0,"Distance":21.1,"MatchLevel":"houseNumber","MatchQuality":{"Country":1.0,"County":1.0,"City":1.0,"District":1.0,"Street":[1.0],"HouseNumber":1.0,"PostalCode":1.0},"MatchType":"interpolated","Location":{"LocationId":"NT_7swCGgFfO.lVqav.Ty4pNA_ykzLxA","LocationType":"point","DisplayPosition":{"Latitude":45.67316,"Longitude":15.6578},"MapView":{"TopLeft":{"Latitude":45.6742842,"Longitude":15.6561912},"BottomRight":{"Latitude":45.6720358,"Longitude":15.6594088}},"Address":{"Label":"Ulica kralja Tomislava 29/1, HR-10450 Jastrebarsko, Hrvatska","Country":"HRV","County":"Zagrebačka županija","City":"Jastrebarsko","District":"Jastrebarsko","Street":"Ulica kralja Tomislava","HouseNumber":"29/1","PostalCode":"10450","AdditionalData":[{"value":"Hrvatska","key":"CountryName"},{"value":"Zagrebačka županija","key":"CountyName"}]},"MapReference":{"ReferenceId":"756559493","Spot":0.74,"SideOfStreet":"right","CountryId":"20633739","CountyId":"20642487","CityId":"22871261","DistrictId":"22876974","AddressId":"624160998","RoadLinkId":"151677747"}}},{"Relevance":1.0,"Distance":60.0,"MatchLevel":"houseNumber","MatchQuality":{"Country":1.0,"County":1.0,"City":1.0,"District":1.0,"Street":[1.0],"HouseNumber":1.0,"PostalCode":1.0},"MatchType":"interpolated","Location":{"LocationId":"NT_YHF8NbgF9fdwEjTTrmKMiD_3EE","LocationType":"point","DisplayPosition":{"Latitude":45.67406,"Longitude":15.6574},"MapView":{"TopLeft":{"Latitude":45.6751842,"Longitude":15.6557912},"BottomRight":{"Latitude":45.6729358,"Longitude":15.6590088}},"Address":{"Label":"Ulica Petra Svačića 7A, HR-10450 Jastrebarsko, Hrvatska","Country":"HRV","County":"Zagrebačka županija","City":"Jastrebarsko","District":"Jastrebarsko","Street":"Ulica Petra Svačića","HouseNumber":"7A","PostalCode":"10450","AdditionalData":[{"value":"Hrvatska","key":"CountryName"},{"value":"Zagrebačka županija","key":"CountyName"}]},"MapReference":{"ReferenceId":"756559487","Spot":0.83,"SideOfStreet":"right","CountryId":"20633739","CountyId":"20642487","CityId":"22871261","DistrictId":"22876974","AddressId":"624139367","RoadLinkId":"151677742"}}},{"Relevance":1.0,"Distance":70.2,"MatchLevel":"houseNumber","MatchQuality":{"Country":1.0,"County":1.0,"City":1.0,"District":1.0,"Street":[1.0],"HouseNumber":1.0,"PostalCode":1.0},"MatchType":"interpolated","Location":{"LocationId":"NT_YHF8NbgF9fdwEjTTrmKMiD_zA","LocationType":"point","DisplayPosition":{"Latitude":45.67343,"Longitude":15.65747},"MapView":{"TopLeft":{"Latitude":45.6745542,"Longitude":15.6558612},"BottomRight":{"Latitude":45.6723058,"Longitude":15.6590788}},"Address":{"Label":"Ulica Petra Svačića 3, HR-10450 Jastrebarsko, Hrvatska","Country":"HRV","County":"Zagrebačka županija","City":"Jastrebarsko","District":"Jastrebarsko","Street":"Ulica Petra Svačića","HouseNumber":"3","PostalCode":"10450","AdditionalData":[{"value":"Hrvatska","key":"CountryName"},{"value":"Zagrebačka županija","key":"CountyName"}]},"MapReference":{"ReferenceId":"990163516","Spot":0.7,"SideOfStreet":"left","CountryId":"20633739","CountyId":"20642487","CityId":"22871261","DistrictId":"22876974","AddressId":"624133417","RoadLinkId":"318812400"}}},{"Relevance":1.0,"Distance":77.6,"MatchLevel":"houseNumber","MatchQuality":{"Country":1.0,"County":1.0,"City":1.0,"District":1.0,"Street":[1.0],"HouseNumber":1.0,"PostalCode":1.0},"MatchType":"interpolated","Location":{"LocationId":"NT_dkIEt.CITuWcDssLNG3RKC_0A","LocationType":"point","DisplayPosition":{"Latitude":45.67452,"Longitude":15.65826},"MapView":{"TopLeft":{"Latitude":45.6756442,"Longitude":15.6566512},"BottomRight":{"Latitude":45.6733958,"Longitude":15.6598688}},"Address":{"Label":"Ulica kneza Branimira 4, HR-10450 Jastrebarsko, Hrvatska","Country":"HRV","County":"Zagrebačka županija","City":"Jastrebarsko","District":"Jastrebarsko","Street":"Ulica kneza Branimira","HouseNumber":"4","PostalCode":"10450","AdditionalData":[{"value":"Hrvatska","key":"CountryName"},{"value":"Zagrebačka županija","key":"CountyName"}]},"MapReference":{"ReferenceId":"990163520","Spot":0.28,"SideOfStreet":"right","CountryId":"20633739","CountyId":"20642487","CityId":"22871261","DistrictId":"22876974","AddressId":"768208386","RoadLinkId":"318812404"}}},{"Relevance":1.0,"Distance":83.9,"MatchLevel":"houseNumber","MatchQuality":{"Country":1.0,"County":1.0,"City":1.0,"District":1.0,"Street":[1.0],"HouseNumber":1.0,"PostalCode":1.0},"MatchType":"interpolated","Location":{"LocationId":"NT_YHF8NbgF9fdwEjTTrmKMiD_xA","LocationType":"point","DisplayPosition":{"Latitude":45.67317,"Longitude":15.65752},"MapView":{"TopLeft":{"Latitude":45.6742942,"Longitude":15.6559112},"BottomRight":{"Latitude":45.6720458,"Longitude":15.6591288}},"Address":{"Label":"Ulica Petra Svačića 1, HR-10450 Jastrebarsko, Hrvatska","Country":"HRV","County":"Zagrebačka županija","City":"Jastrebarsko","District":"Jastrebarsko","Street":"Ulica Petra Svačića","HouseNumber":"1","PostalCode":"10450","AdditionalData":[{"value":"Hrvatska","key":"CountryName"},{"value":"Zagrebačka županija","key":"CountyName"}]},"MapReference":{"ReferenceId":"990163515","Spot":0.9,"SideOfStreet":"left","CountryId":"20633739","CountyId":"20642487","CityId":"22871261","DistrictId":"22876974","AddressId":"624151919","RoadLinkId":"318812399"}}},{"Relevance":1.0,"Distance":93.2,"MatchLevel":"street","MatchQuality":{"Country":1.0,"County":1.0,"City":1.0,"District":1.0,"PostalCode":1.0},"Location":{"LocationId":"NT_46W2dM3CM3X-oYBpT1BUpB_l_990163519_L","LocationType":"point","DisplayPosition":{"Latitude":45.6730366,"Longitude":15.6590089},"MapView":{"TopLeft":{"Latitude":45.67518,"Longitude":15.65869},"BottomRight":{"Latitude":45.67269,"Longitude":15.66082}},"Address":{"Label":"HR-10450 Jastrebarsko, Hrvatska","Country":"HRV","County":"Zagrebačka županija","City":"Jastrebarsko","District":"Jastrebarsko","PostalCode":"10450","AdditionalData":[{"value":"Hrvatska","key":"CountryName"},{"value":"Zagrebačka županija","key":"CountyName"}]},"MapReference":{"ReferenceId":"990163519","Spot":0.14,"SideOfStreet":"left","CountryId":"20633739","CountyId":"20642487","CityId":"22871261","DistrictId":"22876974"}}},{"Relevance":1.0,"Distance":99.8,"MatchLevel":"houseNumber","MatchQuality":{"Country":1.0,"County":1.0,"City":1.0,"District":1.0,"Street":[1.0],"HouseNumber":1.0,"PostalCode":1.0},"MatchType":"interpolated","Location":{"LocationId":"NT_YHF8NbgF9fdwEjTTrmKMiD_4A","LocationType":"point","DisplayPosition":{"Latitude":45.67429,"Longitude":15.65731},"MapView":{"TopLeft":{"Latitude":45.6754142,"Longitude":15.6557012},"BottomRight":{"Latitude":45.6731658,"Longitude":15.6589188}},"Address":{"Label":"Ulica Petra Svačića 8, HR-10450 Jastrebarsko, Hrvatska","Country":"HRV","County":"Zagrebačka županija","City":"Jastrebarsko","District":"Jastrebarsko","Street":"Ulica Petra Svačića","HouseNumber":"8","PostalCode":"10450","AdditionalData":[{"value":"Hrvatska","key":"CountryName"},{"value":"Zagrebačka županija","key":"CountyName"}]},"MapReference":{"ReferenceId":"990329001","Spot":0.17,"SideOfStreet":"left","CountryId":"20633739","CountyId":"20642487","CityId":"22871261","DistrictId":"22876974","AddressId":"624109260","RoadLinkId":"319005196"}}},{"Relevance":1.0,"Distance":117.1,"MatchLevel":"houseNumber","MatchQuality":{"Country":1.0,"County":1.0,"City":1.0,"District":1.0,"Street":[1.0],"HouseNumber":1.0,"PostalCode":1.0},"MatchType":"interpolated","Location":{"LocationId":"NT_0GGtSeczG0Lu7qEMLhac2A_xEE","LocationType":"point","DisplayPosition":{"Latitude":45.67269,"Longitude":15.65869},"MapView":{"TopLeft":{"Latitude":45.6738142,"Longitude":15.6570812},"BottomRight":{"Latitude":45.6715658,"Longitude":15.6602988}},"Address":{"Label":"Ulica Augusta Šenoe 1A, HR-10450 Jastrebarsko, Hrvatska","Country":"HRV","County":"Zagrebačka županija","City":"Jastrebarsko","District":"Jastrebarsko","Street":"Ulica Augusta Šenoe","HouseNumber":"1A","PostalCode":"10450","AdditionalData":[{"value":"Hrvatska","key":"CountryName"},{"value":"Zagrebačka županija","key":"CountyName"}]},"MapReference":{"ReferenceId":"756559494","Spot":1.0,"SideOfStreet":"right","CountryId":"20633739","CountyId":"20642487","CityId":"22871261","DistrictId":"22876974","AddressId":"624087506","RoadLinkId":"151677748"}}},{"Relevance":1.0,"Distance":117.1,"MatchLevel":"street","MatchQuality":{"Country":1.0,"County":1.0,"City":1.0,"District":1.0,"Street":[1.0],"PostalCode":1.0},"Location":{"LocationId":"NT_xAmvZ049BMfoeXqcgvJu9A_l_990164976_R","LocationType":"point","DisplayPosition":{"Latitude":45.67269,"Longitude":15.65869},"MapView":{"TopLeft":{"Latitude":45.67271,"Longitude":15.65869},"BottomRight":{"Latitude":45.67243,"Longitude":15.66294}},"Address":{"Label":"Radnička cesta, HR-10450 Jastrebarsko, Hrvatska","Country":"HRV","County":"Zagrebačka županija","City":"Jastrebarsko","District":"Jastrebarsko","Street":"Radnička cesta","PostalCode":"10450","AdditionalData":[{"value":"Hrvatska","key":"CountryName"},{"value":"Zagrebačka županija","key":"CountyName"}]},"MapReference":{"ReferenceId":"990164976","Spot":1.0,"SideOfStreet":"right","CountryId":"20633739","CountyId":"20642487","CityId":"22871261","DistrictId":"22876974"}}}]}]}}