{"Response":{"MetaInfo":{"Timestamp":"2020-03-28T11:24:38.823+0000","NextPageInformation":"2"},"View":[{"_type":"SearchResultsViewType","ViewId":0,"Result":[{"Relevance":1.0,"Distance":0.0,"Direction":0.0,"MatchLevel":"city","MatchQuality":{"Country":1.0,"State":1.0,"County":1.0,"City":1.0,"PostalCode":1.0},"Location":{"LocationId":"NT_q9FqX3Ns-uqkwJNLbpYJIA","LocationType":"point","DisplayPosition":{"Latitude":45.6957583,"Longitude":8.533192},"MapView":{"TopLeft":{"Latitude":45.73337,"Longitude":8.48227},"BottomRight":{"Latitude":45.67911,"Longitude":8.57181}},"Address":{"Label":"Gattico-Veruno, Piemonte, Italia","Country":"ITA","State":"Piemonte","County":"NO","City":"Gattico-Veruno","PostalCode":"28013","AdditionalData":[{"value":"Italia","key":"CountryName"},{"value":"Piemonte","key":"StateName"},{"value":"Novara","key":"CountyName"}]},"MapReference":{"ReferenceId":"833252111","SideOfStreet":"neither","CountryId":"20110484","StateId":"20110485","CountyId":"20111784","CityId":"20111914"}}},{"Relevance":1.0,"Distance":121.0,"MatchLevel":"street","MatchQuality":{"Country":1.0,"State":1.0,"County":1.0,"City":1.0,"Street":[1.0],"PostalCode":1.0},"Location":{"LocationId":"NT_VqveCI6xyq3FyZ9lGbxB0A_l_780440331_R","LocationType":"point","DisplayPosition":{"Latitude":45.69467,"Longitude":8.533192},"MapView":{"TopLeft":{"Latitude":45.69467,"Longitude":8.5307},"BottomRight":{"Latitude":45.69311,"Longitude":8.53442}},"Address":{"Label":"Via 25 Aprile, 28013 Gattico-Veruno NO, Italia","Country":"ITA","State":"Piemonte","County":"NO","City":"Gattico-Veruno","Street":"Via 25 Aprile","PostalCode":"28013","AdditionalData":[{"value":"Italia","key":"CountryName"},{"value":"Piemonte","key":"StateName"},{"value":"Novara","key":"CountyName"}]},"MapReference":{"ReferenceId":"780440331","Spot":0.41,"SideOfStreet":"right","CountryId":"20110484","StateId":"20110485","CountyId":"20111784","CityId":"20111914"}}},{"Relevance":1.0,"Distance":309.5,"MatchLevel":"street","MatchQuality":{"Country":1.0,"State":1.0,"County":1.0,"City":1.0,"Street":[1.0],"PostalCode":1.0},"Location":{"LocationId":"NT_VqveCI6xyq3FyZ9lGbxB0A_l_1041549306_R","LocationType":"point","DisplayPosition":{"Latitude":45.69311,"Longitude":8.53442},"MapView":{"TopLeft":{"Latitude":45.69311,"Longitude":8.53442},"BottomRight":{"Latitude":45.69284,"Longitude":8.53457}},"Address":{"Label":"Via 25 Aprile, 28013 Gattico-Veruno NO, Italia","Country":"ITA","State":"Piemonte","County":"NO","City":"Gattico-Veruno","Street":"Via 25 Aprile","PostalCode":"28013","AdditionalData":[{"value":"Italia","key":"CountryName"},{"value":"Piemonte","key":"StateName"},{"value":"Novara","key":"CountyName"}]},"MapReference":{"ReferenceId":"1041549306","Spot":1.0,"SideOfStreet":"right","CountryId":"20110484","StateId":"20110485","CountyId":"20111784","CityId":"20111914"}}},{"Relevance":1.0,"Distance":315.0,"MatchLevel":"street","MatchQuality":{"Country":1.0,"State":1.0,"County":1.0,"City":1.0,"Street":[1.0],"PostalCode":1.0},"Location":{"LocationId":"NT_24kyPYgB6B3nxVwmuLza5B_l_781324670_L","LocationType":"point","DisplayPosition":{"Latitude":45.69458,"Longitude":8.53688},"MapView":{"TopLeft":{"Latitude":45.69683,"Longitude":8.53688},"BottomRight":{"Latitude":45.69458,"Longitude":8.53955}},"Address":{"Label":"Via Revislate, 28013 Gattico-Veruno NO, Italia","Country":"ITA","State":"Piemonte","County":"NO","City":"Gattico-Veruno","Street":"Via Revislate","PostalCode":"28013","AdditionalData":[{"value":"Italia","key":"CountryName"},{"value":"Piemonte","key":"StateName"},{"value":"Novara","key":"CountyName"}]},"MapReference":{"ReferenceId":"781324670","Spot":0.0,"SideOfStreet":"left","CountryId":"20110484","StateId":"20110485","CountyId":"20111784","CityId":"20111914"}}},{"Relevance":1.0,"Distance":330.8,"MatchLevel":"street","MatchQuality":{"Country":1.0,"State":1.0,"County":1.0,"City":1.0,"Street":[1.0],"PostalCode":1.0},"Location":{"LocationId":"NT_24kyPYgB6B3nxVwmuLza5B_l_781577740_L","LocationType":"point","DisplayPosition":{"Latitude":45.6939733,"Longitude":8.5365998},"MapView":{"TopLeft":{"Latitude":45.69458,"Longitude":8.53633},"BottomRight":{"Latitude":45.69351,"Longitude":8.53688}},"Address":{"Label":"Via Revislate, 28013 Gattico-Veruno NO, Italia","Country":"ITA","State":"Piemonte","County":"NO","City":"Gattico-Veruno","Street":"Via Revislate","PostalCode":"28013","AdditionalData":[{"value":"Italia","key":"CountryName"},{"value":"Piemonte","key":"StateName"},{"value":"Novara","key":"CountyName"}]},"MapReference":{"ReferenceId":"781577740","Spot":0.45,"SideOfStreet":"left","CountryId":"20110484","StateId":"20110485","CountyId":"20111784","CityId":"20111914"}}},{"Relevance":1.0,"Distance":334.9,"MatchLevel":"street","MatchQuality":{"Country":1.0,"State":1.0,"County":1.0,"City":1.0,"District":1.0,"Street":[1.0],"PostalCode":1.0},"Location":{"LocationId":"NT_pbfurSzpz9pihCGBCg.vTC_l_1042177138_L","LocationType":"point","DisplayPosition":{"Latitude":45.6933,"Longitude":8.5307},"MapView":{"TopLeft":{"Latitude":45.6933,"Longitude":8.53042},"BottomRight":{"Latitude":45.69303,"Longitude":8.5307}},"Address":{"Label":"Via 25 Aprile, 28013 Gattico-Veruno NO, Italia","Country":"ITA","State":"Piemonte","County":"NO","City":"Gattico-Veruno","District":"Veruno","Street":"Via 25 Aprile","PostalCode":"28013","AdditionalData":[{"value":"Italia","key":"CountryName"},{"value":"Piemonte","key":"StateName"},{"value":"Novara","key":"CountyName"}]},"MapReference":{"ReferenceId":"1042177138","Spot":1.0,"SideOfStreet":"left","CountryId":"20110484","StateId":"20110485","CountyId":"20111784","CityId":"20111914","DistrictId":"20112070"}}},{"Relevance":1.0,"Distance":341.7,"MatchLevel":"street","MatchQuality":{"Country":1.0,"State":1.0,"County":1.0,"City":1.0,"Street":[1.0],"PostalCode":1.0},"Location":{"LocationId":"NT_VqveCI6xyq3FyZ9lGbxB0A_l_1041549305_R","LocationType":"point","DisplayPosition":{"Latitude":45.69284,"Longitude":8.53457},"MapView":{"TopLeft":{"Latitude":45.69284,"Longitude":8.53457},"BottomRight":{"Latitude":45.69253,"Longitude":8.53475}},"Address":{"Label":"Via 25 Aprile, 28013 Gattico-Veruno NO, Italia","Country":"ITA","State":"Piemonte","County":"NO","City":"Gattico-Veruno","Street":"Via 25 Aprile","PostalCode":"28013","AdditionalData":[{"value":"Italia","key":"CountryName"},{"value":"Piemonte","key":"StateName"},{"value":"Novara","key":"CountyName"}]},"MapReference":{"ReferenceId":"1041549305","Spot":1.0,"SideOfStreet":"right","CountryId":"20110484","StateId":"20110485","CountyId":"20111784","CityId":"20111914"}}},{"Relevance":1.0,"Distance":349.1,"MatchLevel":"street","MatchQuality":{"Country":1.0,"State":1.0,"County":1.0,"City":1.0,"Street":[1.0],"PostalCode":1.0},"Location":{"LocationId":"NT_24kyPYgB6B3nxVwmuLza5B_l_781577739_L","LocationType":"point","DisplayPosition":{"Latitude":45.69351,"Longitude":8.53633},"MapView":{"TopLeft":{"Latitude":45.69351,"Longitude":8.53628},"BottomRight":{"Latitude":45.69344,"Longitude":8.53633}},"Address":{"Label":"Via Revislate, 28013 Gattico-Veruno NO, Italia","Country":"ITA","State":"Piemonte","County":"NO","City":"Gattico-Veruno","Street":"Via Revislate","PostalCode":"28013","AdditionalData":[{"value":"Italia","key":"CountryName"},{"value":"Piemonte","key":"StateName"},{"value":"Novara","key":"CountyName"}]},"MapReference":{"ReferenceId":"781577739","Spot":1.0,"SideOfStreet":"left","CountryId":"20110484","StateId":"20110485","CountyId":"20111784","CityId":"20111914"}}},{"Relevance":1.0,"Distance":353.7,"MatchLevel":"houseNumber","MatchQuality":{"Country":1.0,"State":1.0,"County":1.0,"City":1.0,"Street":[1.0],"HouseNumber":1.0,"PostalCode":1.0},"MatchType":"interpolated","Location":{"LocationId":"NT_24kyPYgB6B3nxVwmuLza5B_xUD","LocationType":"point","DisplayPosition":{"Latitude":45.69344,"Longitude":8.53634},"MapView":{"TopLeft":{"Latitude":45.6945642,"Longitude":8.5347306},"BottomRight":{"Latitude":45.6923158,"Longitude":8.5379494}},"Address":{"Label":"Via Revislate, 15, 28013 Gattico-Veruno NO, Italia","Country":"ITA","State":"Piemonte","County":"NO","City":"Gattico-Veruno","Street":"Via Revislate","HouseNumber":"15","PostalCode":"28013","AdditionalData":[{"value":"Italia","key":"CountryName"},{"value":"Piemonte","key":"StateName"},{"value":"Novara","key":"CountyName"}]},"MapReference":{"ReferenceId":"55209949","Spot":0.02,"SideOfStreet":"left","CountryId":"20110484","StateId":"20110485","CountyId":"20111784","CityId":"20111914","AddressId":"386825859","RoadLinkId":"54916842"}}},{"Relevance":1.0,"Distance":375.1,"MatchLevel":"houseNumber","MatchQuality":{"Country":1.0,"State":1.0,"County":1.0,"City":1.0,"Street":[1.0],"HouseNumber":1.0,"PostalCode":1.0},"MatchType":"interpolated","Location":{"LocationId":"NT_24kyPYgB6B3nxVwmuLza5B_4A","LocationType":"point","DisplayPosition":{"Latitude":45.69271,"Longitude":8.53526},"MapView":{"TopLeft":{"Latitude":45.6938342,"Longitude":8.5336506},"BottomRight":{"Latitude":45.6915858,"Longitude":8.5368694}},"Address":{"Label":"Via Revislate, 8, 28013 Gattico-Veruno NO, Italia","Country":"ITA","State":"Piemonte","County":"NO","City":"Gattico-Veruno","Street":"Via Revislate","HouseNumber":"8","PostalCode":"28013","AdditionalData":[{"value":"Italia","key":"CountryName"},{"value":"Piemonte","key":"StateName"},{"value":"Novara","key":"CountyName"}]},"MapReference":{"ReferenceId":"586352947","Spot":0.15,"SideOfStreet":"right","CountryId":"20110484","StateId":"20110485","CountyId":"20111784","CityId":"20111914","AddressId":"386778013","RoadLinkId":"54957875"}}}]}]}}