{"Response":{"MetaInfo":{"Timestamp":"2020-03-28T09:59:56.594+0000","NextPageInformation":"2"},"View":[{"_type":"SearchResultsViewType","ViewId":0,"Result":[{"Relevance":1.0,"Distance":0.0,"Direction":0.0,"MatchLevel":"district","MatchQuality":{"Country":1.0,"County":1.0,"City":1.0,"District":1.0,"PostalCode":1.0},"Location":{"LocationId":"NT_2mJl5h3PAah9C-CO7lrokB","LocationType":"point","DisplayPosition":{"Latitude":45.6409905,"Longitude":25.6230571},"MapView":{"TopLeft":{"Latitude":45.72291,"Longitude":25.53469},"BottomRight":{"Latitude":45.61122,"Longitude":25.67495}},"Address":{"Label":"Brașov, România","Country":"ROU","County":"Brașov","City":"Brașov","District":"Brașov","PostalCode":"500030","AdditionalData":[{"value":"România","key":"CountryName"},{"value":"Brașov","key":"CountyName"}]},"MapReference":{"ReferenceId":"1103385096","SideOfStreet":"neither","CountryId":"20656215","CountyId":"20657920","CityId":"20657930","DistrictId":"20657931"}}},{"Relevance":1.0,"Distance":4.9,"MatchLevel":"street","MatchQuality":{"Country":1.0,"County":1.0,"City":1.0,"District":1.0,"Street":[1.0],"PostalCode":1.0},"Location":{"LocationId":"NT_irueLqh7gmOt4e3tQAS9cC_l_958580331_R","LocationType":"point","DisplayPosition":{"Latitude":45.6409529,"Longitude":25.6230249},"MapView":{"TopLeft":{"Latitude":45.641,"Longitude":25.62297},"BottomRight":{"Latitude":45.64082,"Longitude":25.62318}},"Address":{"Label":"Strada Livada Vulturului, 500030 Brașov, România","Country":"ROU","County":"Brașov","City":"Brașov","District":"Brașov","Street":"Strada Livada Vulturului","PostalCode":"500030","AdditionalData":[{"value":"România","key":"CountryName"},{"value":"Brașov","key":"CountyName"}]},"MapReference":{"ReferenceId":"958580331","Spot":0.74,"SideOfStreet":"right","CountryId":"20656215","CountyId":"20657920","CityId":"20657930","DistrictId":"20657931"}}},{"Relevance":1.0,"Distance":6.9,"MatchLevel":"street","MatchQuality":{"Country":1.0,"County":1.0,"City":1.0,"District":1.0,"Street":[1.0],"PostalCode":1.0},"Location":{"LocationId":"NT_irueLqh7gmOt4e3tQAS9cC_l_958580324_R","LocationType":"point","DisplayPosition":{"Latitude":45.641,"Longitude":25.62297},"MapView":{"TopLeft":{"Latitude":45.641,"Longitude":25.6226},"BottomRight":{"Latitude":45.6408,"Longitude":25.62297}},"Address":{"Label":"Strada Livada Vulturului, 500030 Brașov, România","Country":"ROU","County":"Brașov","City":"Brașov","District":"Brașov","Street":"Strada Livada Vulturului","PostalCode":"500030","AdditionalData":[{"value":"România","key":"CountryName"},{"value":"Brașov","key":"CountyName"}]},"MapReference":{"ReferenceId":"958580324","Spot":1.0,"SideOfStreet":"right","CountryId":"20656215","CountyId":"20657920","CityId":"20657930","DistrictId":"20657931"}}},{"Relevance":1.0,"Distance":21.2,"MatchLevel":"street","MatchQuality":{"Country":1.0,"County":1.0,"City":1.0,"District":1.0,"Street":[1.0],"PostalCode":1.0},"Location":{"LocationId":"NT_irueLqh7gmOt4e3tQAS9cC_l_958580333_L","LocationType":"point","DisplayPosition":{"Latitude":45.64082,"Longitude":25.62318},"MapView":{"TopLeft":{"Latitude":45.6412,"Longitude":25.62318},"BottomRight":{"Latitude":45.64082,"Longitude":25.62391}},"Address":{"Label":"Strada Livada Vulturului, 500030 Brașov, România","Country":"ROU","County":"Brașov","City":"Brașov","District":"Brașov","Street":"Strada Livada Vulturului","PostalCode":"500030","AdditionalData":[{"value":"România","key":"CountryName"},{"value":"Brașov","key":"CountyName"}]},"MapReference":{"ReferenceId":"958580333","Spot":0.0,"SideOfStreet":"left","CountryId":"20656215","CountyId":"20657920","CityId":"20657930","DistrictId":"20657931"}}},{"Relevance":1.0,"Distance":21.2,"MatchLevel":"street","MatchQuality":{"Country":1.0,"County":1.0,"City":1.0,"District":1.0,"Street":[1.0],"PostalCode":1.0},"Location":{"LocationId":"NT_irueLqh7gmOt4e3tQAS9cC_l_958580330_R","LocationType":"point","DisplayPosition":{"Latitude":45.64082,"Longitude":25.62318},"MapView":{"TopLeft":{"Latitude":45.64082,"Longitude":25.62318},"BottomRight":{"Latitude":45.6406,"Longitude":25.62346}},"Address":{"Label":"Strada Livada Vulturului, 500030 Brașov, România","Country":"ROU","County":"Brașov","City":"Brașov","District":"Brașov","Street":"Strada Livada Vulturului","PostalCode":"500030","AdditionalData":[{"value":"România","key":"CountryName"},{"value":"Brașov","key":"CountyName"}]},"MapReference":{"ReferenceId":"958580330","Spot":1.0,"SideOfStreet":"right","CountryId":"20656215","CountyId":"20657920","CityId":"20657930","DistrictId":"20657931"}}},{"Relevance":1.0,"Distance":41.4,"MatchLevel":"street","MatchQuality":{"Country":1.0,"County":1.0,"City":1.0,"District":1.0,"Street":[1.0],"PostalCode":1.0},"Location":{"LocationId":"NT_irueLqh7gmOt4e3tQAS9cC_l_958580318_R","LocationType":"point","DisplayPosition":{"Latitude":45.6408,"Longitude":25.6226},"MapView":{"TopLeft":{"Latitude":45.6408,"Longitude":25.62226},"BottomRight":{"Latitude":45.64062,"Longitude":25.6226}},"Address":{"Label":"Strada Livada Vulturului, 500030 Brașov, România","Country":"ROU","County":"Brașov","City":"Brașov","District":"Brașov","Street":"Strada Livada Vulturului","PostalCode":"500030","AdditionalData":[{"value":"România","key":"CountryName"},{"value":"Brașov","key":"CountyName"}]},"MapReference":{"ReferenceId":"958580318","Spot":1.0,"SideOfStreet":"right","CountryId":"20656215","CountyId":"20657920","CityId":"20657930","DistrictId":"20657931"}}},{"Relevance":1.0,"Distance":43.9,"MatchLevel":"street","MatchQuality":{"Country":1.0,"County":1.0,"City":1.0,"District":1.0,"Street":[1.0],"PostalCode":1.0},"Location":{"LocationId":"NT_irueLqh7gmOt4e3tQAS9cC_l_958580322_R","LocationType":"point","DisplayPosition":{"Latitude":45.6406653,"Longitude":25.6227368},"MapView":{"TopLeft":{"Latitude":45.6408,"Longitude":25.6226},"BottomRight":{"Latitude":45.64015,"Longitude":25.62326}},"Address":{"Label":"Strada Livada Vulturului, 500030 Brașov, România","Country":"ROU","County":"Brașov","City":"Brașov","District":"Brașov","Street":"Strada Livada Vulturului","PostalCode":"500030","AdditionalData":[{"value":"România","key":"CountryName"},{"value":"Brașov","key":"CountyName"}]},"MapReference":{"ReferenceId":"958580322","Spot":0.79,"SideOfStreet":"right","CountryId":"20656215","CountyId":"20657920","CityId":"20657930","DistrictId":"20657931"}}},{"Relevance":1.0,"Distance":52.1,"MatchLevel":"houseNumber","MatchQuality":{"Country":1.0,"County":1.0,"City":1.0,"District":1.0,"Street":[1.0],"HouseNumber":1.0,"PostalCode":1.0},"MatchType":"interpolated","Location":{"LocationId":"NT_fwXfxxkDu4ZC9LpQBb4J6B_xAD","LocationType":"point","DisplayPosition":{"Latitude":45.6413,"Longitude":25.62356},"MapView":{"TopLeft":{"Latitude":45.6424242,"Longitude":25.6219521},"BottomRight":{"Latitude":45.6401758,"Longitude":25.6251679}},"Address":{"Label":"Strada Livada Vulturului 10, 500366 Brașov, România","Country":"ROU","County":"Brașov","City":"Brașov","District":"Brașov","Street":"Strada Livada Vulturului","HouseNumber":"10","PostalCode":"500366","AdditionalData":[{"value":"România","key":"CountryName"},{"value":"Brașov","key":"CountyName"}]},"MapReference":{"ReferenceId":"958580325","Spot":0.79,"SideOfStreet":"right","CountryId":"20656215","CountyId":"20657920","CityId":"20657930","DistrictId":"20657931","AddressId":"685964895","RoadLinkId":"312078804"}}},{"Relevance":1.0,"Distance":53.5,"MatchLevel":"street","MatchQuality":{"Country":1.0,"County":1.0,"City":1.0,"District":1.0,"Street":[1.0],"PostalCode":1.0},"Location":{"LocationId":"NT_irueLqh7gmOt4e3tQAS9cC_l_958580326_L","LocationType":"point","DisplayPosition":{"Latitude":45.6406,"Longitude":25.62346},"MapView":{"TopLeft":{"Latitude":45.64073,"Longitude":25.62346},"BottomRight":{"Latitude":45.6406,"Longitude":25.62375}},"Address":{"Label":"Strada Livada Vulturului, 500030 Brașov, România","Country":"ROU","County":"Brașov","City":"Brașov","District":"Brașov","Street":"Strada Livada Vulturului","PostalCode":"500030","AdditionalData":[{"value":"România","key":"CountryName"},{"value":"Brașov","key":"CountyName"}]},"MapReference":{"ReferenceId":"958580326","Spot":0.0,"SideOfStreet":"left","CountryId":"20656215","CountyId":"20657920","CityId":"20657930","DistrictId":"20657931"}}},{"Relevance":1.0,"Distance":53.5,"MatchLevel":"street","MatchQuality":{"Country":1.0,"County":1.0,"City":1.0,"District":1.0,"Street":[1.0],"PostalCode":1.0},"Location":{"LocationId":"NT_irueLqh7gmOt4e3tQAS9cC_l_958580329_L","LocationType":"point","DisplayPosition":{"Latitude":45.6406,"Longitude":25.62346},"MapView":{"TopLeft":{"Latitude":45.6406,"Longitude":25.62346},"BottomRight":{"Latitude":45.64039,"Longitude":25.62364}},"Address":{"Label":"Strada Livada Vulturului, 500030 Brașov, România","Country":"ROU","County":"Brașov","City":"Brașov","District":"Brașov","Street":"Strada Livada Vulturului","PostalCode":"500030","AdditionalData":[{"value":"România","key":"CountryName"},{"value":"Brașov","key":"CountyName"}]},"MapReference":{"ReferenceId":"958580329","Spot":1.0,"SideOfStreet":"left","CountryId":"20656215","CountyId":"20657920","CityId":"20657930","DistrictId":"20657931"}}}]}]}}