{"Response":{"MetaInfo":{"Timestamp":"2020-03-28T12:01:58.079+0000","NextPageInformation":"2"},"View":[{"_type":"SearchResultsViewType","ViewId":0,"Result":[{"Relevance":1.0,"Distance":0.0,"Direction":0.0,"MatchLevel":"district","MatchQuality":{"Country":1.0,"County":1.0,"City":1.0,"District":1.0,"PostalCode":1.0},"Location":{"LocationId":"NT_Gj5EQV0FBF7T2wlVCxn4hB","LocationType":"point","DisplayPosition":{"Latitude":45.662769,"Longitude":15.9420765},"MapView":{"TopLeft":{"Latitude":45.66701,"Longitude":15.93905},"BottomRight":{"Latitude":45.65753,"Longitude":15.95721}},"Address":{"Label":"Donji Dragonožec, Zagreb, Hrvatska","Country":"HRV","County":"Grad Zagreb","City":"Zagreb","District":"Donji Dragonožec","PostalCode":"10257","AdditionalData":[{"value":"Hrvatska","key":"CountryName"},{"value":"Grad Zagreb","key":"CountyName"}]},"MapReference":{"ReferenceId":"585727176","SideOfStreet":"neither","CountryId":"20633739","CountyId":"20641560","CityId":"20641561","DistrictId":"20676937"}}},{"Relevance":1.0,"Distance":6.7,"MatchLevel":"houseNumber","MatchQuality":{"Country":1.0,"County":1.0,"City":1.0,"District":1.0,"Street":[1.0],"HouseNumber":1.0,"PostalCode":1.0},"MatchType":"interpolated","Location":{"LocationId":"NT_IjRCyd9pNddB.MpT.AHFSD_xA","LocationType":"point","DisplayPosition":{"Latitude":45.66293,"Longitude":15.94218},"MapView":{"TopLeft":{"Latitude":45.6640542,"Longitude":15.9405715},"BottomRight":{"Latitude":45.6618058,"Longitude":15.9437885}},"Address":{"Label":"Šipkovina 1, HR-10257 Zagreb, Hrvatska","Country":"HRV","County":"Grad Zagreb","City":"Zagreb","District":"Donji Dragonožec","Street":"Šipkovina","HouseNumber":"1","PostalCode":"10257","AdditionalData":[{"value":"Hrvatska","key":"CountryName"},{"value":"Grad Zagreb","key":"CountyName"}]},"MapReference":{"ReferenceId":"957948777","Spot":0.54,"SideOfStreet":"left","CountryId":"20633739","CountyId":"20641560","CityId":"20641561","DistrictId":"20676937","AddressId":"623139658","RoadLinkId":"300924494"}}},{"Relevance":1.0,"Distance":12.4,"MatchLevel":"houseNumber","MatchQuality":{"Country":1.0,"County":1.0,"City":1.0,"District":1.0,"Street":[1.0],"HouseNumber":1.0,"PostalCode":1.0},"MatchType":"interpolated","Location":{"LocationId":"NT_DF9OoQtAyl9YqwKxgRhgLC_0QD","LocationType":"point","DisplayPosition":{"Latitude":45.66266,"Longitude":15.94211},"MapView":{"TopLeft":{"Latitude":45.6637842,"Longitude":15.9405015},"BottomRight":{"Latitude":45.6615358,"Longitude":15.9437185}},"Address":{"Label":"Donjodragonoška cesta 44, HR-10257 Zagreb, Hrvatska","Country":"HRV","County":"Grad Zagreb","City":"Zagreb","District":"Donji Dragonožec","Street":"Donjodragonoška cesta","HouseNumber":"44","PostalCode":"10257","AdditionalData":[{"value":"Hrvatska","key":"CountryName"},{"value":"Grad Zagreb","key":"CountyName"}]},"MapReference":{"ReferenceId":"585730033","Spot":0.8,"SideOfStreet":"left","CountryId":"20633739","CountyId":"20641560","CityId":"20641561","DistrictId":"20676937","AddressId":"623144817","RoadLinkId":"53664514"}}},{"Relevance":1.0,"Distance":24.4,"MatchLevel":"houseNumber","MatchQuality":{"Country":1.0,"County":1.0,"City":1.0,"District":1.0,"Street":[1.0],"HouseNumber":1.0,"PostalCode":1.0},"MatchType":"interpolated","Location":{"LocationId":"NT_-W4ay6AMaysZCFduT-SkXD_yA","LocationType":"point","DisplayPosition":{"Latitude":45.6628,"Longitude":15.94245},"MapView":{"TopLeft":{"Latitude":45.6639242,"Longitude":15.9408415},"BottomRight":{"Latitude":45.6616758,"Longitude":15.9440585}},"Address":{"Label":"Turopoljska cesta 2, HR-10257 Zagreb, Hrvatska","Country":"HRV","County":"Grad Zagreb","City":"Zagreb","District":"Donji Dragonožec","Street":"Turopoljska cesta","HouseNumber":"2","PostalCode":"10257","AdditionalData":[{"value":"Hrvatska","key":"CountryName"},{"value":"Grad Zagreb","key":"CountyName"}]},"MapReference":{"ReferenceId":"585727216","Spot":0.83,"SideOfStreet":"left","CountryId":"20633739","CountyId":"20641560","CityId":"20641561","DistrictId":"20676937","AddressId":"623137564","RoadLinkId":"53641586"}}},{"Relevance":1.0,"Distance":44.8,"MatchLevel":"houseNumber","MatchQuality":{"Country":1.0,"County":1.0,"City":1.0,"District":1.0,"Street":[1.0],"HouseNumber":1.0,"PostalCode":1.0},"MatchType":"interpolated","Location":{"LocationId":"NT_DF9OoQtAyl9YqwKxgRhgLC_0ID","LocationType":"point","DisplayPosition":{"Latitude":45.663,"Longitude":15.94257},"MapView":{"TopLeft":{"Latitude":45.6641242,"Longitude":15.9409615},"BottomRight":{"Latitude":45.6618758,"Longitude":15.9441785}},"Address":{"Label":"Donjodragonoška cesta 42, HR-10257 Zagreb, Hrvatska","Country":"HRV","County":"Grad Zagreb","City":"Zagreb","District":"Donji Dragonožec","Street":"Donjodragonoška cesta","HouseNumber":"42","PostalCode":"10257","AdditionalData":[{"value":"Hrvatska","key":"CountryName"},{"value":"Grad Zagreb","key":"CountyName"}]},"MapReference":{"ReferenceId":"957948780","Spot":0.7,"SideOfStreet":"left","CountryId":"20633739","CountyId":"20641560","CityId":"20641561","DistrictId":"20676937","AddressId":"623131050","RoadLinkId":"300924497"}}},{"Relevance":1.0,"Distance":65.2,"MatchLevel":"houseNumber","MatchQuality":{"Country":1.0,"County":1.0,"City":1.0,"District":1.0,"Street":[1.0],"HouseNumber":1.0,"PostalCode":1.0},"MatchType":"interpolated","Location":{"LocationId":"NT_IjRCyd9pNddB.MpT.AHFSD_yA","LocationType":"point","DisplayPosition":{"Latitude":45.6633,"Longitude":15.94172},"MapView":{"TopLeft":{"Latitude":45.6644242,"Longitude":15.9401115},"BottomRight":{"Latitude":45.6621758,"Longitude":15.9433285}},"Address":{"Label":"Šipkovina 2, HR-10257 Zagreb, Hrvatska","Country":"HRV","County":"Grad Zagreb","City":"Zagreb","District":"Donji Dragonožec","Street":"Šipkovina","HouseNumber":"2","PostalCode":"10257","AdditionalData":[{"value":"Hrvatska","key":"CountryName"},{"value":"Grad Zagreb","key":"CountyName"}]},"MapReference":{"ReferenceId":"957948778","Spot":0.78,"SideOfStreet":"right","CountryId":"20633739","CountyId":"20641560","CityId":"20641561","DistrictId":"20676937","AddressId":"623136217","RoadLinkId":"300924495"}}},{"Relevance":1.0,"Distance":80.1,"MatchLevel":"houseNumber","MatchQuality":{"Country":1.0,"County":1.0,"City":1.0,"District":1.0,"Street":[1.0],"HouseNumber":1.0,"PostalCode":1.0},"MatchType":"interpolated","Location":{"LocationId":"NT_KG5QOkgGIy.sgLNbN9yViD_yA","LocationType":"point","DisplayPosition":{"Latitude":45.66226,"Longitude":15.94301},"MapView":{"TopLeft":{"Latitude":45.6633842,"Longitude":15.9414015},"BottomRight":{"Latitude":45.6611358,"Longitude":15.9446185}},"Address":{"Label":"Vodovodna ulica 2, HR-10257 Zagreb, Hrvatska","Country":"HRV","County":"Grad Zagreb","City":"Zagreb","District":"Donji Dragonožec","Street":"Vodovodna ulica","HouseNumber":"2","PostalCode":"10257","AdditionalData":[{"value":"Hrvatska","key":"CountryName"},{"value":"Grad Zagreb","key":"CountyName"}]},"MapReference":{"ReferenceId":"585727217","Spot":0.83,"SideOfStreet":"left","CountryId":"20633739","CountyId":"20641560","CityId":"20641561","DistrictId":"20676937","AddressId":"623141845","RoadLinkId":"53649929"}}},{"Relevance":1.0,"Distance":82.3,"MatchLevel":"houseNumber","MatchQuality":{"Country":1.0,"County":1.0,"City":1.0,"District":1.0,"Street":[1.0],"HouseNumber":1.0,"PostalCode":1.0},"MatchType":"interpolated","Location":{"LocationId":"NT_DF9OoQtAyl9YqwKxgRhgLC_0AD","LocationType":"point","DisplayPosition":{"Latitude":45.66324,"Longitude":15.94289},"MapView":{"TopLeft":{"Latitude":45.6643642,"Longitude":15.9412815},"BottomRight":{"Latitude":45.6621158,"Longitude":15.9444985}},"Address":{"Label":"Donjodragonoška cesta 40, HR-10257 Zagreb, Hrvatska","Country":"HRV","County":"Grad Zagreb","City":"Zagreb","District":"Donji Dragonožec","Street":"Donjodragonoška cesta","HouseNumber":"40","PostalCode":"10257","AdditionalData":[{"value":"Hrvatska","key":"CountryName"},{"value":"Grad Zagreb","key":"CountyName"}]},"MapReference":{"ReferenceId":"957948781","Spot":0.38,"SideOfStreet":"left","CountryId":"20633739","CountyId":"20641560","CityId":"20641561","DistrictId":"20676937","AddressId":"623133891","RoadLinkId":"300924498"}}},{"Relevance":1.0,"Distance":86.9,"MatchLevel":"houseNumber","MatchQuality":{"Country":1.0,"County":1.0,"City":1.0,"District":1.0,"Street":[1.0],"HouseNumber":1.0,"PostalCode":1.0},"MatchType":"interpolated","Location":{"LocationId":"NT_-W4ay6AMaysZCFduT-SkXD_xA","LocationType":"point","DisplayPosition":{"Latitude":45.66255,"Longitude":15.94315},"MapView":{"TopLeft":{"Latitude":45.6636742,"Longitude":15.9415415},"BottomRight":{"Latitude":45.6614258,"Longitude":15.9447585}},"Address":{"Label":"Turopoljska cesta 1, HR-10257 Zagreb, Hrvatska","Country":"HRV","County":"Grad Zagreb","City":"Zagreb","District":"Donji Dragonožec","Street":"Turopoljska cesta","HouseNumber":"1","PostalCode":"10257","AdditionalData":[{"value":"Hrvatska","key":"CountryName"},{"value":"Grad Zagreb","key":"CountyName"}]},"MapReference":{"ReferenceId":"883637426","Spot":0.76,"SideOfStreet":"right","CountryId":"20633739","CountyId":"20641560","CityId":"20641561","DistrictId":"20676937","AddressId":"623134064","RoadLinkId":"250806366"}}},{"Relevance":1.0,"Distance":87.6,"MatchLevel":"houseNumber","MatchQuality":{"Country":1.0,"County":1.0,"City":1.0,"District":1.0,"Street":[1.0],"HouseNumber":1.0,"PostalCode":1.0},"MatchType":"interpolated","Location":{"LocationId":"NT_IjRCyd9pNddB.MpT.AHFSD_1A","LocationType":"point","DisplayPosition":{"Latitude":45.66345,"Longitude":15.94151},"MapView":{"TopLeft":{"Latitude":45.6645742,"Longitude":15.9399015},"BottomRight":{"Latitude":45.6623258,"Longitude":15.9431185}},"Address":{"Label":"Šipkovina 5, HR-10257 Zagreb, Hrvatska","Country":"HRV","County":"Grad Zagreb","City":"Zagreb","District":"Donji Dragonožec","Street":"Šipkovina","HouseNumber":"5","PostalCode":"10257","AdditionalData":[{"value":"Hrvatska","key":"CountryName"},{"value":"Grad Zagreb","key":"CountyName"}]},"MapReference":{"ReferenceId":"957948775","Spot":0.32,"SideOfStreet":"left","CountryId":"20633739","CountyId":"20641560","CityId":"20641561","DistrictId":"20676937","AddressId":"768252171","RoadLinkId":"300924492"}}}]}]}}