{"Response":{"MetaInfo":{"Timestamp":"2020-03-28T11:35:04.074+0000","NextPageInformation":"2"},"View":[{"_type":"SearchResultsViewType","ViewId":0,"Result":[{"Relevance":1.0,"Distance":0.0,"Direction":0.0,"MatchLevel":"district","MatchQuality":{"Country":1.0,"County":1.0,"City":1.0,"District":1.0,"PostalCode":1.0},"Location":{"LocationId":"NT_B1oRBaPLLsNKk9Fz99ZcpD","LocationType":"point","DisplayPosition":{"Latitude":45.7618355,"Longitude":21.2163911},"MapView":{"TopLeft":{"Latitude":45.78933,"Longitude":21.14756},"BottomRight":{"Latitude":45.71242,"Longitude":21.29336}},"Address":{"Label":"Timișoara, România","Country":"ROU","County":"Timiș","City":"Timișoara","District":"Timișoara","PostalCode":"300002","AdditionalData":[{"value":"România","key":"CountryName"},{"value":"Timiș","key":"CountyName"}]},"MapReference":{"ReferenceId":"588406210","SideOfStreet":"neither","CountryId":"20656215","CountyId":"20662987","CityId":"20663186","DistrictId":"20663187"}}},{"Relevance":1.0,"Distance":9.2,"MatchLevel":"houseNumber","MatchQuality":{"Country":1.0,"County":1.0,"City":1.0,"District":1.0,"Street":[1.0],"HouseNumber":1.0,"PostalCode":1.0},"MatchType":"interpolated","Location":{"LocationId":"NT_.QgfUZExBEqcHf.2dz.2ZA_xA","LocationType":"point","DisplayPosition":{"Latitude":45.76175,"Longitude":21.21671},"MapView":{"TopLeft":{"Latitude":45.7628742,"Longitude":21.2150986},"BottomRight":{"Latitude":45.7606258,"Longitude":21.2183214}},"Address":{"Label":"Strada Teiului 1, 300659 Timișoara, România","Country":"ROU","County":"Timiș","City":"Timișoara","District":"Timișoara","Street":"Strada Teiului","HouseNumber":"1","PostalCode":"300659","AdditionalData":[{"value":"România","key":"CountryName"},{"value":"Timiș","key":"CountyName"}]},"MapReference":{"ReferenceId":"839102958","Spot":0.51,"SideOfStreet":"left","CountryId":"20656215","CountyId":"20662987","CityId":"20663186","DistrictId":"20663187","AddressId":"687052364","RoadLinkId":"221448101"}}},{"Relevance":1.0,"Distance":21.0,"MatchLevel":"street","MatchQuality":{"Country":1.0,"County":1.0,"City":1.0,"District":1.0,"Street":[1.0],"PostalCode":1.0},"Location":{"LocationId":"NT_v76wUCgDZiaZBcXBDSAE3C_l_588405098_R","LocationType":"point","DisplayPosition":{"Latitude":45.76165,"Longitude":21.21634},"MapView":{"TopLeft":{"Latitude":45.76172,"Longitude":21.21542},"BottomRight":{"Latitude":45.76154,"Longitude":21.21655}},"Address":{"Label":"Strada Labirint, 300002 Timișoara, România","Country":"ROU","County":"Timiș","City":"Timișoara","District":"Timișoara","Street":"Strada Labirint","PostalCode":"300002","AdditionalData":[{"value":"România","key":"CountryName"},{"value":"Timiș","key":"CountyName"}]},"MapReference":{"ReferenceId":"588405098","Spot":0.18,"SideOfStreet":"right","CountryId":"20656215","CountyId":"20662987","CityId":"20663186","DistrictId":"20663187"}}},{"Relevance":1.0,"Distance":31.0,"MatchLevel":"street","MatchQuality":{"Country":1.0,"County":1.0,"City":1.0,"District":1.0,"Street":[1.0],"PostalCode":1.0},"Location":{"LocationId":"NT_XZI3hv23qizV.70JMRB3xA_l_869037965_L","LocationType":"point","DisplayPosition":{"Latitude":45.76158,"Longitude":21.21655},"MapView":{"TopLeft":{"Latitude":45.76158,"Longitude":21.21649},"BottomRight":{"Latitude":45.7615,"Longitude":21.21655}},"Address":{"Label":"Strada Teiului, 300002 Timișoara, România","Country":"ROU","County":"Timiș","City":"Timișoara","District":"Timișoara","Street":"Strada Teiului","PostalCode":"300002","AdditionalData":[{"value":"România","key":"CountryName"},{"value":"Timiș","key":"CountyName"}]},"MapReference":{"ReferenceId":"869037965","Spot":1.0,"SideOfStreet":"left","CountryId":"20656215","CountyId":"20662987","CityId":"20663186","DistrictId":"20663187"}}},{"Relevance":1.0,"Distance":38.1,"MatchLevel":"street","MatchQuality":{"Country":1.0,"County":1.0,"City":1.0,"District":1.0,"PostalCode":1.0},"Location":{"LocationId":"NT_9e5.4BCq.sv7YXEQi6XwbB_l_869037966_R","LocationType":"point","DisplayPosition":{"Latitude":45.7615,"Longitude":21.21649},"MapView":{"TopLeft":{"Latitude":45.7615,"Longitude":21.21649},"BottomRight":{"Latitude":45.76141,"Longitude":21.21676}},"Address":{"Label":"300002 Timișoara, România","Country":"ROU","County":"Timiș","City":"Timișoara","District":"Timișoara","PostalCode":"300002","AdditionalData":[{"value":"România","key":"CountryName"},{"value":"Timiș","key":"CountyName"}]},"MapReference":{"ReferenceId":"869037966","Spot":1.0,"SideOfStreet":"right","CountryId":"20656215","CountyId":"20662987","CityId":"20663186","DistrictId":"20663187"}}},{"Relevance":1.0,"Distance":38.5,"MatchLevel":"street","MatchQuality":{"Country":1.0,"County":1.0,"City":1.0,"District":1.0,"Street":[1.0],"PostalCode":1.0},"Location":{"LocationId":"NT_XZI3hv23qizV.70JMRB3xA_l_869037967_L","LocationType":"point","DisplayPosition":{"Latitude":45.7616988,"Longitude":21.2168467},"MapView":{"TopLeft":{"Latitude":45.7619,"Longitude":21.21676},"BottomRight":{"Latitude":45.76141,"Longitude":21.21688}},"Address":{"Label":"Strada Teiului, 300002 Timișoara, România","Country":"ROU","County":"Timiș","City":"Timișoara","District":"Timișoara","Street":"Strada Teiului","PostalCode":"300002","AdditionalData":[{"value":"România","key":"CountryName"},{"value":"Timiș","key":"CountyName"}]},"MapReference":{"ReferenceId":"869037967","Spot":0.59,"SideOfStreet":"left","CountryId":"20656215","CountyId":"20662987","CityId":"20663186","DistrictId":"20663187"}}},{"Relevance":1.0,"Distance":49.4,"MatchLevel":"houseNumber","MatchQuality":{"Country":1.0,"County":1.0,"City":1.0,"District":1.0,"Street":[1.0],"HouseNumber":1.0,"PostalCode":1.0},"MatchType":"interpolated","Location":{"LocationId":"NT_6tLod9uNdqn.db3d4x1K8C_yA","LocationType":"point","DisplayPosition":{"Latitude":45.76215,"Longitude":21.21575},"MapView":{"TopLeft":{"Latitude":45.7632742,"Longitude":21.2141386},"BottomRight":{"Latitude":45.7610258,"Longitude":21.2173614}},"Address":{"Label":"Strada Dropiei 2, 300658 Timișoara, România","Country":"ROU","County":"Timiș","City":"Timișoara","District":"Timișoara","Street":"Strada Dropiei","HouseNumber":"2","PostalCode":"300658","AdditionalData":[{"value":"România","key":"CountryName"},{"value":"Timiș","key":"CountyName"}]},"MapReference":{"ReferenceId":"588405052","Spot":0.59,"SideOfStreet":"right","CountryId":"20656215","CountyId":"20662987","CityId":"20663186","DistrictId":"20663187","AddressId":"687020642","RoadLinkId":"77385297"}}},{"Relevance":1.0,"Distance":49.7,"MatchLevel":"houseNumber","MatchQuality":{"Country":1.0,"County":1.0,"City":1.0,"District":1.0,"Street":[1.0],"HouseNumber":1.0,"PostalCode":1.0},"MatchType":"interpolated","Location":{"LocationId":"NT_XZI3hv23qizV.70JMRB3xA_l_869037964_R_yA","LocationType":"point","DisplayPosition":{"Latitude":45.7613883,"Longitude":21.2163845},"MapView":{"TopLeft":{"Latitude":45.7625124,"Longitude":21.2147731},"BottomRight":{"Latitude":45.7602641,"Longitude":21.2179958}},"Address":{"Label":"Strada Teiului 2, 300002 Timișoara, România","Country":"ROU","County":"Timiș","City":"Timișoara","District":"Timișoara","Street":"Strada Teiului","HouseNumber":"2","PostalCode":"300002","AdditionalData":[{"value":"România","key":"CountryName"},{"value":"Timiș","key":"CountyName"}]},"MapReference":{"ReferenceId":"869037964","Spot":0.51,"SideOfStreet":"right","CountryId":"20656215","CountyId":"20662987","CityId":"20663186","DistrictId":"20663187"}}},{"Relevance":1.0,"Distance":55.3,"MatchLevel":"street","MatchQuality":{"Country":1.0,"County":1.0,"City":1.0,"District":1.0,"PostalCode":1.0},"Location":{"LocationId":"NT_9e5.4BCq.sv7YXEQi6XwbB_l_869037969_L","LocationType":"point","DisplayPosition":{"Latitude":45.76141,"Longitude":21.21676},"MapView":{"TopLeft":{"Latitude":45.76141,"Longitude":21.21676},"BottomRight":{"Latitude":45.76073,"Longitude":21.21843}},"Address":{"Label":"300002 Timișoara, România","Country":"ROU","County":"Timiș","City":"Timișoara","District":"Timișoara","PostalCode":"300002","AdditionalData":[{"value":"România","key":"CountryName"},{"value":"Timiș","key":"CountyName"}]},"MapReference":{"ReferenceId":"869037969","Spot":1.0,"SideOfStreet":"left","CountryId":"20656215","CountyId":"20662987","CityId":"20663186","DistrictId":"20663187"}}},{"Relevance":1.0,"Distance":69.6,"MatchLevel":"houseNumber","MatchQuality":{"Country":1.0,"County":1.0,"City":1.0,"District":1.0,"Street":[1.0],"HouseNumber":1.0,"PostalCode":1.0},"MatchType":"interpolated","Location":{"LocationId":"NT_.QgfUZExBEqcHf.2dz.2ZA_zA","LocationType":"point","DisplayPosition":{"Latitude":45.76226,"Longitude":21.21712},"MapView":{"TopLeft":{"Latitude":45.7633842,"Longitude":21.2155086},"BottomRight":{"Latitude":45.7611358,"Longitude":21.2187314}},"Address":{"Label":"Strada Teiului 3, 300659 Timișoara, România","Country":"ROU","County":"Timiș","City":"Timișoara","District":"Timișoara","Street":"Strada Teiului","HouseNumber":"3","PostalCode":"300659","AdditionalData":[{"value":"România","key":"CountryName"},{"value":"Timiș","key":"CountyName"}]},"MapReference":{"ReferenceId":"1240199922","Spot":0.41,"SideOfStreet":"left","CountryId":"20656215","CountyId":"20662987","CityId":"20663186","DistrictId":"20663187","AddressId":"687052365","RoadLinkId":"561263767"}}}]}]}}