{"Response":{"MetaInfo":{"Timestamp":"2020-03-28T11:48:44.759+0000","NextPageInformation":"2"},"View":[{"_type":"SearchResultsViewType","ViewId":0,"Result":[{"Relevance":1.0,"Distance":0.0,"Direction":0.0,"MatchLevel":"city","MatchQuality":{"Country":1.0,"State":1.0,"County":1.0,"City":1.0,"PostalCode":1.0},"Location":{"LocationId":"NT_d2pfqy.AIEVh9A22Ievh4A","LocationType":"point","DisplayPosition":{"Latitude":45.7677462,"Longitude":4.8904257},"MapView":{"TopLeft":{"Latitude":45.79649,"Longitude":4.85874},"BottomRight":{"Latitude":45.74844,"Longitude":4.92124}},"Address":{"Label":"Villeurbanne, Auvergne-Rhône-Alpes, France","Country":"FRA","State":"Auvergne-Rhône-Alpes","County":"Rhône","City":"Villeurbanne","PostalCode":"69100","AdditionalData":[{"value":"France","key":"CountryName"},{"value":"Auvergne-Rhône-Alpes","key":"StateName"},{"value":"Rhône","key":"CountyName"}]},"MapReference":{"ReferenceId":"1215507719","SideOfStreet":"neither","CountryId":"20000001","StateId":"20006029","CountyId":"20035500","CityId":"20053615"}}},{"Relevance":1.0,"Distance":13.6,"MatchLevel":"houseNumber","MatchQuality":{"Country":1.0,"State":1.0,"County":1.0,"City":1.0,"Street":[1.0],"HouseNumber":1.0,"PostalCode":1.0},"MatchType":"interpolated","Location":{"LocationId":"NT_XCr9-GMg7Mlu8hDLdV0cGD_yczM","LocationType":"point","DisplayPosition":{"Latitude":45.7675,"Longitude":4.89043},"MapView":{"TopLeft":{"Latitude":45.7686242,"Longitude":4.8888185},"BottomRight":{"Latitude":45.7663758,"Longitude":4.8920415}},"Address":{"Label":"273 Cours Émile Zola, 69100 Villeurbanne, France","Country":"FRA","State":"Auvergne-Rhône-Alpes","County":"Rhône","City":"Villeurbanne","Street":"Cours Émile Zola","HouseNumber":"273","PostalCode":"69100","AdditionalData":[{"value":"France","key":"CountryName"},{"value":"Auvergne-Rhône-Alpes","key":"StateName"},{"value":"Rhône","key":"CountyName"}]},"MapReference":{"ReferenceId":"1204240537","Spot":0.89,"SideOfStreet":"right","CountryId":"20000001","StateId":"20006029","CountyId":"20035500","CityId":"20053615","AddressId":"319818156","RoadLinkId":"517457939"}}},{"Relevance":1.0,"Distance":15.4,"MatchLevel":"houseNumber","MatchQuality":{"Country":1.0,"State":1.0,"County":1.0,"City":1.0,"Street":[1.0],"HouseNumber":1.0,"PostalCode":1.0},"MatchType":"interpolated","Location":{"LocationId":"NT_XCr9-GMg7Mlu8hDLdV0cGD_ycTM","LocationType":"point","DisplayPosition":{"Latitude":45.76754,"Longitude":4.89022},"MapView":{"TopLeft":{"Latitude":45.7686642,"Longitude":4.8886085},"BottomRight":{"Latitude":45.7664158,"Longitude":4.8918315}},"Address":{"Label":"271 Cours Émile Zola, 69100 Villeurbanne, France","Country":"FRA","State":"Auvergne-Rhône-Alpes","County":"Rhône","City":"Villeurbanne","Street":"Cours Émile Zola","HouseNumber":"271","PostalCode":"69100","AdditionalData":[{"value":"France","key":"CountryName"},{"value":"Auvergne-Rhône-Alpes","key":"StateName"},{"value":"Rhône","key":"CountyName"}]},"MapReference":{"ReferenceId":"1204240538","Spot":0.25,"SideOfStreet":"right","CountryId":"20000001","StateId":"20006029","CountyId":"20035500","CityId":"20053615","AddressId":"319818155","RoadLinkId":"517457940"}}},{"Relevance":1.0,"Distance":22.0,"MatchLevel":"street","MatchQuality":{"Country":1.0,"State":1.0,"County":1.0,"City":1.0,"Street":[1.0],"PostalCode":1.0},"Location":{"LocationId":"NT_XCr9-GMg7Mlu8hDLdV0cGD_l_1246053208_L","LocationType":"point","DisplayPosition":{"Latitude":45.76793,"Longitude":4.89053},"MapView":{"TopLeft":{"Latitude":45.76815,"Longitude":4.89052},"BottomRight":{"Latitude":45.76781,"Longitude":4.89098}},"Address":{"Label":"Cours Émile Zola, 69100 Villeurbanne, France","Country":"FRA","State":"Auvergne-Rhône-Alpes","County":"Rhône","City":"Villeurbanne","Street":"Cours Émile Zola","PostalCode":"69100","AdditionalData":[{"value":"France","key":"CountryName"},{"value":"Auvergne-Rhône-Alpes","key":"StateName"},{"value":"Rhône","key":"CountyName"}]},"MapReference":{"ReferenceId":"1246053208","Spot":0.68,"SideOfStreet":"left","CountryId":"20000001","StateId":"20006029","CountyId":"20035500","CityId":"20053615"}}},{"Relevance":1.0,"Distance":32.0,"MatchLevel":"houseNumber","MatchQuality":{"Country":1.0,"State":1.0,"County":1.0,"City":1.0,"Street":[1.0],"HouseNumber":1.0,"PostalCode":1.0},"MatchType":"interpolated","Location":{"LocationId":"NT_iz2CesYyx..uAi6qPyUprC_0MjQ","LocationType":"point","DisplayPosition":{"Latitude":45.76797,"Longitude":4.88974},"MapView":{"TopLeft":{"Latitude":45.7690942,"Longitude":4.8881285},"BottomRight":{"Latitude":45.7668458,"Longitude":4.8913515}},"Address":{"Label":"43B Rue Flachet, 69100 Villeurbanne, France","Country":"FRA","State":"Auvergne-Rhône-Alpes","County":"Rhône","City":"Villeurbanne","Street":"Rue Flachet","HouseNumber":"43B","PostalCode":"69100","AdditionalData":[{"value":"France","key":"CountryName"},{"value":"Auvergne-Rhône-Alpes","key":"StateName"},{"value":"Rhône","key":"CountyName"}]},"MapReference":{"ReferenceId":"58230952","Spot":0.15,"SideOfStreet":"right","CountryId":"20000001","StateId":"20006029","CountyId":"20035500","CityId":"20053615","AddressId":"573629729","RoadLinkId":"45828347"}}},{"Relevance":1.0,"Distance":43.6,"MatchLevel":"street","MatchQuality":{"Country":1.0,"State":1.0,"County":1.0,"City":1.0,"Street":[1.0],"PostalCode":1.0},"Location":{"LocationId":"NT_XCr9-GMg7Mlu8hDLdV0cGD_l_1246053206_L","LocationType":"point","DisplayPosition":{"Latitude":45.76781,"Longitude":4.89098},"MapView":{"TopLeft":{"Latitude":45.76781,"Longitude":4.89098},"BottomRight":{"Latitude":45.76773,"Longitude":4.89128}},"Address":{"Label":"Cours Émile Zola, 69100 Villeurbanne, France","Country":"FRA","State":"Auvergne-Rhône-Alpes","County":"Rhône","City":"Villeurbanne","Street":"Cours Émile Zola","PostalCode":"69100","AdditionalData":[{"value":"France","key":"CountryName"},{"value":"Auvergne-Rhône-Alpes","key":"StateName"},{"value":"Rhône","key":"CountyName"}]},"MapReference":{"ReferenceId":"1246053206","Spot":1.0,"SideOfStreet":"left","CountryId":"20000001","StateId":"20006029","CountyId":"20035500","CityId":"20053615"}}},{"Relevance":1.0,"Distance":45.5,"MatchLevel":"street","MatchQuality":{"Country":1.0,"State":1.0,"County":1.0,"City":1.0,"Street":[1.0],"PostalCode":1.0},"Location":{"LocationId":"NT_XCr9-GMg7Mlu8hDLdV0cGD_l_1246053207_R","LocationType":"point","DisplayPosition":{"Latitude":45.76815,"Longitude":4.89052},"MapView":{"TopLeft":{"Latitude":45.76848,"Longitude":4.89052},"BottomRight":{"Latitude":45.76773,"Longitude":4.89133}},"Address":{"Label":"Cours Émile Zola, 69100 Villeurbanne, France","Country":"FRA","State":"Auvergne-Rhône-Alpes","County":"Rhône","City":"Villeurbanne","Street":"Cours Émile Zola","PostalCode":"69100","AdditionalData":[{"value":"France","key":"CountryName"},{"value":"Auvergne-Rhône-Alpes","key":"StateName"},{"value":"Rhône","key":"CountyName"}]},"MapReference":{"ReferenceId":"1246053207","Spot":1.0,"SideOfStreet":"right","CountryId":"20000001","StateId":"20006029","CountyId":"20035500","CityId":"20053615"}}},{"Relevance":1.0,"Distance":45.9,"MatchLevel":"houseNumber","MatchQuality":{"Country":1.0,"State":1.0,"County":1.0,"City":1.0,"Street":[1.0],"HouseNumber":1.0,"PostalCode":1.0},"MatchType":"interpolated","Location":{"LocationId":"NT_XCr9-GMg7Mlu8hDLdV0cGD_ycTO","LocationType":"point","DisplayPosition":{"Latitude":45.76742,"Longitude":4.89088},"MapView":{"TopLeft":{"Latitude":45.7685442,"Longitude":4.8892685},"BottomRight":{"Latitude":45.7662958,"Longitude":4.8924915}},"Address":{"Label":"279 Cours Émile Zola, 69100 Villeurbanne, France","Country":"FRA","State":"Auvergne-Rhône-Alpes","County":"Rhône","City":"Villeurbanne","Street":"Cours Émile Zola","HouseNumber":"279","PostalCode":"69100","AdditionalData":[{"value":"France","key":"CountryName"},{"value":"Auvergne-Rhône-Alpes","key":"StateName"},{"value":"Rhône","key":"CountyName"}]},"MapReference":{"ReferenceId":"1215638231","Spot":0.61,"SideOfStreet":"right","CountryId":"20000001","StateId":"20006029","CountyId":"20035500","CityId":"20053615","AddressId":"674477077","RoadLinkId":"531823219"}}},{"Relevance":1.0,"Distance":56.0,"MatchLevel":"street","MatchQuality":{"Country":1.0,"State":1.0,"County":1.0,"City":1.0,"Street":[1.0],"PostalCode":1.0},"Location":{"LocationId":"NT_mdV9Xn3rfjfmHUlbpDKWQB_l_1204157648_R","LocationType":"point","DisplayPosition":{"Latitude":45.76764,"Longitude":4.88972},"MapView":{"TopLeft":{"Latitude":45.76764,"Longitude":4.88967},"BottomRight":{"Latitude":45.76748,"Longitude":4.88972}},"Address":{"Label":"Rue du 1er Mars 1943, 69100 Villeurbanne, France","Country":"FRA","State":"Auvergne-Rhône-Alpes","County":"Rhône","City":"Villeurbanne","Street":"Rue du 1er Mars 1943","PostalCode":"69100","AdditionalData":[{"value":"France","key":"CountryName"},{"value":"Auvergne-Rhône-Alpes","key":"StateName"},{"value":"Rhône","key":"CountyName"}]},"MapReference":{"ReferenceId":"1204157648","Spot":1.0,"SideOfStreet":"right","CountryId":"20000001","StateId":"20006029","CountyId":"20035500","CityId":"20053615"}}},{"Relevance":1.0,"Distance":62.8,"MatchLevel":"houseNumber","MatchQuality":{"Country":1.0,"State":1.0,"County":1.0,"City":1.0,"Street":[1.0],"HouseNumber":1.0,"PostalCode":1.0},"MatchType":"interpolated","Location":{"LocationId":"NT_0hYXX1CBMzJrXtmd6h79uA_zA","LocationType":"point","DisplayPosition":{"Latitude":45.76719,"Longitude":4.89069},"MapView":{"TopLeft":{"Latitude":45.7683142,"Longitude":4.8890785},"BottomRight":{"Latitude":45.7660658,"Longitude":4.8923015}},"Address":{"Label":"3 Rue Jules Kumer, 69100 Villeurbanne, France","Country":"FRA","State":"Auvergne-Rhône-Alpes","County":"Rhône","City":"Villeurbanne","Street":"Rue Jules Kumer","HouseNumber":"3","PostalCode":"69100","AdditionalData":[{"value":"France","key":"CountryName"},{"value":"Auvergne-Rhône-Alpes","key":"StateName"},{"value":"Rhône","key":"CountyName"}]},"MapReference":{"ReferenceId":"1204241343","Spot":0.39,"SideOfStreet":"left","CountryId":"20000001","StateId":"20006029","CountyId":"20035500","CityId":"20053615","AddressId":"319646734","RoadLinkId":"517458796"}}}]}]}}