{"Response":{"MetaInfo":{"Timestamp":"2020-03-28T11:24:15.063+0000","NextPageInformation":"2"},"View":[{"_type":"SearchResultsViewType","ViewId":0,"Result":[{"Relevance":1.0,"Distance":0.0,"Direction":0.0,"MatchLevel":"city","MatchQuality":{"Country":1.0,"State":1.0,"County":1.0,"City":1.0,"PostalCode":1.0},"Location":{"LocationId":"NT_3JZDCWt8CUjVmjP9f0JpSC","LocationType":"point","DisplayPosition":{"Latitude":45.7622211,"Longitude":11.4316356},"MapView":{"TopLeft":{"Latitude":45.77822,"Longitude":11.39244},"BottomRight":{"Latitude":45.72916,"Longitude":11.45057}},"Address":{"Label":"Piovene Rocchette, Veneto, Italia","Country":"ITA","State":"Veneto","County":"VI","City":"Piovene Rocchette","PostalCode":"36013","AdditionalData":[{"value":"Italia","key":"CountryName"},{"value":"Veneto","key":"StateName"},{"value":"Vicenza","key":"CountyName"}]},"MapReference":{"ReferenceId":"586693831","SideOfStreet":"neither","CountryId":"20110484","StateId":"20120537","CountyId":"20120918","CityId":"20121188"}}},{"Relevance":1.0,"Distance":3.7,"MatchLevel":"houseNumber","MatchQuality":{"Country":1.0,"State":1.0,"County":1.0,"City":1.0,"Street":[1.0],"HouseNumber":1.0,"PostalCode":1.0},"MatchType":"interpolated","Location":{"LocationId":"NT_LU3ElSKZg-g4O-dtADM.gB_3AD","LocationType":"point","DisplayPosition":{"Latitude":45.76223,"Longitude":11.4315},"MapView":{"TopLeft":{"Latitude":45.7633542,"Longitude":11.4298886},"BottomRight":{"Latitude":45.7611058,"Longitude":11.4331114}},"Address":{"Label":"Piazzale della Vittoria, 70, 36013 Piovene Rocchette VI, Italia","Country":"ITA","State":"Veneto","County":"VI","City":"Piovene Rocchette","Street":"Piazzale della Vittoria","HouseNumber":"70","PostalCode":"36013","AdditionalData":[{"value":"Italia","key":"CountryName"},{"value":"Veneto","key":"StateName"},{"value":"Vicenza","key":"CountyName"}]},"MapReference":{"ReferenceId":"586693464","Spot":0.93,"SideOfStreet":"right","CountryId":"20110484","StateId":"20120537","CountyId":"20120918","CityId":"20121188","AddressId":"794080823","RoadLinkId":"58387320"}}},{"Relevance":1.0,"Distance":10.7,"MatchLevel":"street","MatchQuality":{"Country":1.0,"State":1.0,"County":1.0,"City":1.0,"PostalCode":1.0},"Location":{"LocationId":"NT_hABHgXPFGxDht-HJvOQSXB_l_556512750_L","LocationType":"point","DisplayPosition":{"Latitude":45.76226,"Longitude":11.43151},"MapView":{"TopLeft":{"Latitude":45.76229,"Longitude":11.43111},"BottomRight":{"Latitude":45.76226,"Longitude":11.43151}},"Address":{"Label":"36013 Piovene Rocchette VI, Italia","Country":"ITA","State":"Veneto","County":"VI","City":"Piovene Rocchette","PostalCode":"36013","AdditionalData":[{"value":"Italia","key":"CountryName"},{"value":"Veneto","key":"StateName"},{"value":"Vicenza","key":"CountyName"}]},"MapReference":{"ReferenceId":"556512750","Spot":0.0,"SideOfStreet":"left","CountryId":"20110484","StateId":"20120537","CountyId":"20120918","CityId":"20121188"}}},{"Relevance":1.0,"Distance":11.4,"MatchLevel":"houseNumber","MatchQuality":{"Country":1.0,"State":1.0,"County":1.0,"City":1.0,"Street":[1.0],"HouseNumber":1.0,"PostalCode":1.0},"MatchType":"interpolated","Location":{"LocationId":"NT_LU3ElSKZg-g4O-dtADM.gB_2kD","LocationType":"point","DisplayPosition":{"Latitude":45.76231,"Longitude":11.43151},"MapView":{"TopLeft":{"Latitude":45.7634342,"Longitude":11.4298986},"BottomRight":{"Latitude":45.7611858,"Longitude":11.4331214}},"Address":{"Label":"Piazzale della Vittoria, 69, 36013 Piovene Rocchette VI, Italia","Country":"ITA","State":"Veneto","County":"VI","City":"Piovene Rocchette","Street":"Piazzale della Vittoria","HouseNumber":"69","PostalCode":"36013","AdditionalData":[{"value":"Italia","key":"CountryName"},{"value":"Veneto","key":"StateName"},{"value":"Vicenza","key":"CountyName"}]},"MapReference":{"ReferenceId":"556512801","Spot":0.07,"SideOfStreet":"right","CountryId":"20110484","StateId":"20120537","CountyId":"20120918","CityId":"20121188","AddressId":"373131384","RoadLinkId":"59214988"}}},{"Relevance":1.0,"Distance":23.2,"MatchLevel":"houseNumber","MatchQuality":{"Country":1.0,"State":1.0,"County":1.0,"City":1.0,"Street":[1.0],"HouseNumber":1.0,"PostalCode":1.0},"MatchType":"interpolated","Location":{"LocationId":"NT_pKcSajNPeS56kX.YgN0DEA_3A","LocationType":"point","DisplayPosition":{"Latitude":45.76232,"Longitude":11.43204},"MapView":{"TopLeft":{"Latitude":45.7634442,"Longitude":11.4304286},"BottomRight":{"Latitude":45.7611958,"Longitude":11.4336514}},"Address":{"Label":"Piazza degli Alpini, 7, 36013 Piovene Rocchette VI, Italia","Country":"ITA","State":"Veneto","County":"VI","City":"Piovene Rocchette","Street":"Piazza degli Alpini","HouseNumber":"7","PostalCode":"36013","AdditionalData":[{"value":"Italia","key":"CountryName"},{"value":"Veneto","key":"StateName"},{"value":"Vicenza","key":"CountyName"}]},"MapReference":{"ReferenceId":"586693466","Spot":0.21,"SideOfStreet":"left","CountryId":"20110484","StateId":"20120537","CountyId":"20120918","CityId":"20121188","AddressId":"387637443","RoadLinkId":"58403167"}}},{"Relevance":1.0,"Distance":41.5,"MatchLevel":"street","MatchQuality":{"Country":1.0,"State":1.0,"County":1.0,"City":1.0,"PostalCode":1.0},"Location":{"LocationId":"NT_hABHgXPFGxDht-HJvOQSXB_l_556512742_R","LocationType":"point","DisplayPosition":{"Latitude":45.76229,"Longitude":11.43111},"MapView":{"TopLeft":{"Latitude":45.76325,"Longitude":11.43101},"BottomRight":{"Latitude":45.76229,"Longitude":11.43111}},"Address":{"Label":"36013 Piovene Rocchette VI, Italia","Country":"ITA","State":"Veneto","County":"VI","City":"Piovene Rocchette","PostalCode":"36013","AdditionalData":[{"value":"Italia","key":"CountryName"},{"value":"Veneto","key":"StateName"},{"value":"Vicenza","key":"CountyName"}]},"MapReference":{"ReferenceId":"556512742","Spot":0.0,"SideOfStreet":"right","CountryId":"20110484","StateId":"20120537","CountyId":"20120918","CityId":"20121188"}}},{"Relevance":1.0,"Distance":45.8,"MatchLevel":"houseNumber","MatchQuality":{"Country":1.0,"State":1.0,"County":1.0,"City":1.0,"Street":[1.0],"HouseNumber":1.0,"PostalCode":1.0},"MatchType":"interpolated","Location":{"LocationId":"NT_LU3ElSKZg-g4O-dtADM.gB_3YD","LocationType":"point","DisplayPosition":{"Latitude":45.76182,"Longitude":11.43143},"MapView":{"TopLeft":{"Latitude":45.7629442,"Longitude":11.4298186},"BottomRight":{"Latitude":45.7606958,"Longitude":11.4330414}},"Address":{"Label":"Piazzale della Vittoria, 76, 36013 Piovene Rocchette VI, Italia","Country":"ITA","State":"Veneto","County":"VI","City":"Piovene Rocchette","Street":"Piazzale della Vittoria","HouseNumber":"76","PostalCode":"36013","AdditionalData":[{"value":"Italia","key":"CountryName"},{"value":"Veneto","key":"StateName"},{"value":"Vicenza","key":"CountyName"}]},"MapReference":{"ReferenceId":"586693463","Spot":1.0,"SideOfStreet":"right","CountryId":"20110484","StateId":"20120537","CountyId":"20120918","CityId":"20121188","AddressId":"372885593","RoadLinkId":"58368491"}}},{"Relevance":1.0,"Distance":47.4,"MatchLevel":"street","MatchQuality":{"Country":1.0,"State":1.0,"County":1.0,"City":1.0,"PostalCode":1.0},"Location":{"LocationId":"NT_hABHgXPFGxDht-HJvOQSXB_l_556512781_R","LocationType":"point","DisplayPosition":{"Latitude":45.76182,"Longitude":11.43143},"MapView":{"TopLeft":{"Latitude":45.76229,"Longitude":11.431},"BottomRight":{"Latitude":45.76182,"Longitude":11.43143}},"Address":{"Label":"36013 Piovene Rocchette VI, Italia","Country":"ITA","State":"Veneto","County":"VI","City":"Piovene Rocchette","PostalCode":"36013","AdditionalData":[{"value":"Italia","key":"CountryName"},{"value":"Veneto","key":"StateName"},{"value":"Vicenza","key":"CountyName"}]},"MapReference":{"ReferenceId":"556512781","Spot":0.0,"SideOfStreet":"right","CountryId":"20110484","StateId":"20120537","CountyId":"20120918","CityId":"20121188"}}},{"Relevance":1.0,"Distance":64.4,"MatchLevel":"houseNumber","MatchQuality":{"Country":1.0,"State":1.0,"County":1.0,"City":1.0,"Street":[1.0],"HouseNumber":1.0,"PostalCode":1.0},"MatchType":"interpolated","Location":{"LocationId":"NT_pKcSajNPeS56kX.YgN0DEA_5A","LocationType":"point","DisplayPosition":{"Latitude":45.76211,"Longitude":11.43245},"MapView":{"TopLeft":{"Latitude":45.7632342,"Longitude":11.4308386},"BottomRight":{"Latitude":45.7609858,"Longitude":11.4340614}},"Address":{"Label":"Piazza degli Alpini, 9, 36013 Piovene Rocchette VI, Italia","Country":"ITA","State":"Veneto","County":"VI","City":"Piovene Rocchette","Street":"Piazza degli Alpini","HouseNumber":"9","PostalCode":"36013","AdditionalData":[{"value":"Italia","key":"CountryName"},{"value":"Veneto","key":"StateName"},{"value":"Vicenza","key":"CountyName"}]},"MapReference":{"ReferenceId":"586693470","Spot":0.28,"SideOfStreet":"right","CountryId":"20110484","StateId":"20120537","CountyId":"20120918","CityId":"20121188","AddressId":"387800279","RoadLinkId":"58804859"}}},{"Relevance":1.0,"Distance":75.5,"MatchLevel":"houseNumber","MatchQuality":{"Country":1.0,"State":1.0,"County":1.0,"City":1.0,"Street":[1.0],"HouseNumber":1.0,"PostalCode":1.0},"MatchType":"interpolated","Location":{"LocationId":"NT_pKcSajNPeS56kX.YgN0DEA_0A","LocationType":"point","DisplayPosition":{"Latitude":45.76252,"Longitude":11.43264},"MapView":{"TopLeft":{"Latitude":45.7636442,"Longitude":11.4310286},"BottomRight":{"Latitude":45.7613958,"Longitude":11.4342514}},"Address":{"Label":"Piazza degli Alpini, 4, 36013 Piovene Rocchette VI, Italia","Country":"ITA","State":"Veneto","County":"VI","City":"Piovene Rocchette","Street":"Piazza degli Alpini","HouseNumber":"4","PostalCode":"36013","AdditionalData":[{"value":"Italia","key":"CountryName"},{"value":"Veneto","key":"StateName"},{"value":"Vicenza","key":"CountyName"}]},"MapReference":{"ReferenceId":"586693474","Spot":0.61,"SideOfStreet":"left","CountryId":"20110484","StateId":"20120537","CountyId":"20120918","CityId":"20121188","AddressId":"387800280","RoadLinkId":"58972730"}}}]}]}}