{"Response":{"MetaInfo":{"Timestamp":"2020-03-28T11:49:01.815+0000","NextPageInformation":"2"},"View":[{"_type":"SearchResultsViewType","ViewId":0,"Result":[{"Relevance":1.0,"Distance":0.0,"Direction":0.0,"MatchLevel":"city","MatchQuality":{"Country":1.0,"State":1.0,"County":1.0,"City":1.0,"PostalCode":1.0},"Location":{"LocationId":"NT_Ify74SOdexWsFrN-q9wKpB","LocationType":"point","DisplayPosition":{"Latitude":45.772889,"Longitude":-0.422469},"MapView":{"TopLeft":{"Latitude":45.79284,"Longitude":-0.45679},"BottomRight":{"Latitude":45.76335,"Longitude":-0.40129}},"Address":{"Label":"Burie, Nouvelle-Aquitaine, France","Country":"FRA","State":"Nouvelle-Aquitaine","County":"Charente-Maritime","City":"Burie","PostalCode":"17770","AdditionalData":[{"value":"France","key":"CountryName"},{"value":"Nouvelle-Aquitaine","key":"StateName"},{"value":"Charente-Maritime","key":"CountyName"}]},"MapReference":{"ReferenceId":"57566968","SideOfStreet":"neither","CountryId":"20000001","StateId":"20000383","CountyId":"20088858","CityId":"20089068"}}},{"Relevance":1.0,"Distance":6.2,"MatchLevel":"houseNumber","MatchQuality":{"Country":1.0,"State":1.0,"County":1.0,"City":1.0,"Street":[1.0],"HouseNumber":1.0,"PostalCode":1.0},"MatchType":"interpolated","Location":{"LocationId":"NT_jzwYYUDU1EYMGkNx6sMZCC_2MD","LocationType":"point","DisplayPosition":{"Latitude":45.77288,"Longitude":-0.42239},"MapView":{"TopLeft":{"Latitude":45.7740042,"Longitude":-0.4240017},"BottomRight":{"Latitude":45.7717558,"Longitude":-0.4207783}},"Address":{"Label":"63 Avenue de la République, 17770 Burie, France","Country":"FRA","State":"Nouvelle-Aquitaine","County":"Charente-Maritime","City":"Burie","Street":"Avenue de la République","HouseNumber":"63","PostalCode":"17770","AdditionalData":[{"value":"France","key":"CountryName"},{"value":"Nouvelle-Aquitaine","key":"StateName"},{"value":"Charente-Maritime","key":"CountyName"}]},"MapReference":{"ReferenceId":"563527499","Spot":0.49,"SideOfStreet":"right","CountryId":"20000001","StateId":"20000383","CountyId":"20088858","CityId":"20089068","AddressId":"381577420","RoadLinkId":"46728456"}}},{"Relevance":1.0,"Distance":23.2,"MatchLevel":"street","MatchQuality":{"Country":1.0,"State":1.0,"County":1.0,"City":1.0,"Street":[1.0],"PostalCode":1.0},"Location":{"LocationId":"NT_QBRucKlKtU566IM8fEYZbB_l_563527500_R","LocationType":"point","DisplayPosition":{"Latitude":45.7727469,"Longitude":-0.4226886},"MapView":{"TopLeft":{"Latitude":45.77278,"Longitude":-0.42271},"BottomRight":{"Latitude":45.77261,"Longitude":-0.4226}},"Address":{"Label":"Rue Palestro, 17770 Burie, France","Country":"FRA","State":"Nouvelle-Aquitaine","County":"Charente-Maritime","City":"Burie","Street":"Rue Palestro","PostalCode":"17770","AdditionalData":[{"value":"France","key":"CountryName"},{"value":"Nouvelle-Aquitaine","key":"StateName"},{"value":"Charente-Maritime","key":"CountyName"}]},"MapReference":{"ReferenceId":"563527500","Spot":0.81,"SideOfStreet":"right","CountryId":"20000001","StateId":"20000383","CountyId":"20088858","CityId":"20089068"}}},{"Relevance":1.0,"Distance":24.1,"MatchLevel":"houseNumber","MatchQuality":{"Country":1.0,"State":1.0,"County":1.0,"City":1.0,"Street":[1.0],"HouseNumber":1.0,"PostalCode":1.0},"MatchType":"interpolated","Location":{"LocationId":"NT_L.YtT-Bz.g4be9fnhZ9aiA_1IjQ","LocationType":"point","DisplayPosition":{"Latitude":45.77287,"Longitude":-0.42286},"MapView":{"TopLeft":{"Latitude":45.7739942,"Longitude":-0.4244717},"BottomRight":{"Latitude":45.7717458,"Longitude":-0.4212483}},"Address":{"Label":"52B Rue de la Ponne, 17770 Burie, France","Country":"FRA","State":"Nouvelle-Aquitaine","County":"Charente-Maritime","City":"Burie","Street":"Rue de la Ponne","HouseNumber":"52B","PostalCode":"17770","AdditionalData":[{"value":"France","key":"CountryName"},{"value":"Nouvelle-Aquitaine","key":"StateName"},{"value":"Charente-Maritime","key":"CountyName"}]},"MapReference":{"ReferenceId":"563527497","Spot":0.22,"SideOfStreet":"right","CountryId":"20000001","StateId":"20000383","CountyId":"20088858","CityId":"20089068","AddressId":"317945147","RoadLinkId":"46286329"}}},{"Relevance":1.0,"Distance":25.4,"MatchLevel":"houseNumber","MatchQuality":{"Country":1.0,"State":1.0,"County":1.0,"City":1.0,"Street":[1.0],"HouseNumber":1.0,"PostalCode":1.0},"MatchType":"interpolated","Location":{"LocationId":"NT_jzwYYUDU1EYMGkNx6sMZCC_2kD","LocationType":"point","DisplayPosition":{"Latitude":45.77276,"Longitude":-0.42274},"MapView":{"TopLeft":{"Latitude":45.7738842,"Longitude":-0.4243517},"BottomRight":{"Latitude":45.7716358,"Longitude":-0.4211283}},"Address":{"Label":"69 Avenue de la République, 17770 Burie, France","Country":"FRA","State":"Nouvelle-Aquitaine","County":"Charente-Maritime","City":"Burie","Street":"Avenue de la République","HouseNumber":"69","PostalCode":"17770","AdditionalData":[{"value":"France","key":"CountryName"},{"value":"Nouvelle-Aquitaine","key":"StateName"},{"value":"Charente-Maritime","key":"CountyName"}]},"MapReference":{"ReferenceId":"563527498","Spot":0.59,"SideOfStreet":"right","CountryId":"20000001","StateId":"20000383","CountyId":"20088858","CityId":"20089068","AddressId":"381543186","RoadLinkId":"47830139"}}},{"Relevance":1.0,"Distance":25.5,"MatchLevel":"houseNumber","MatchQuality":{"Country":1.0,"State":1.0,"County":1.0,"City":1.0,"Street":[1.0],"HouseNumber":1.0,"PostalCode":1.0},"MatchType":"interpolated","Location":{"LocationId":"NT_0YI-McA5D2EfYaYqKSQ6GA_zA","LocationType":"point","DisplayPosition":{"Latitude":45.77308,"Longitude":-0.42216},"MapView":{"TopLeft":{"Latitude":45.7742042,"Longitude":-0.4237717},"BottomRight":{"Latitude":45.7719558,"Longitude":-0.4205483}},"Address":{"Label":"3 Rue de la Treille, 17770 Burie, France","Country":"FRA","State":"Nouvelle-Aquitaine","County":"Charente-Maritime","City":"Burie","Street":"Rue de la Treille","HouseNumber":"3","PostalCode":"17770","AdditionalData":[{"value":"France","key":"CountryName"},{"value":"Nouvelle-Aquitaine","key":"StateName"},{"value":"Charente-Maritime","key":"CountyName"}]},"MapReference":{"ReferenceId":"563527502","Spot":0.37,"SideOfStreet":"left","CountryId":"20000001","StateId":"20000383","CountyId":"20088858","CityId":"20089068","AddressId":"573182192","RoadLinkId":"47440268"}}},{"Relevance":1.0,"Distance":30.1,"MatchLevel":"houseNumber","MatchQuality":{"Country":1.0,"State":1.0,"County":1.0,"City":1.0,"Street":[1.0],"HouseNumber":1.0,"PostalCode":1.0},"MatchType":"interpolated","Location":{"LocationId":"NT_srL6Qo5RfiW5FKcOMGdbLB_3A","LocationType":"point","DisplayPosition":{"Latitude":45.77262,"Longitude":-0.42243},"MapView":{"TopLeft":{"Latitude":45.7737442,"Longitude":-0.4240417},"BottomRight":{"Latitude":45.7714958,"Longitude":-0.4208183}},"Address":{"Label":"7 Rue du Château, 17770 Burie, France","Country":"FRA","State":"Nouvelle-Aquitaine","County":"Charente-Maritime","City":"Burie","Street":"Rue du Château","HouseNumber":"7","PostalCode":"17770","AdditionalData":[{"value":"France","key":"CountryName"},{"value":"Nouvelle-Aquitaine","key":"StateName"},{"value":"Charente-Maritime","key":"CountyName"}]},"MapReference":{"ReferenceId":"782798090","Spot":0.32,"SideOfStreet":"right","CountryId":"20000001","StateId":"20000383","CountyId":"20088858","CityId":"20089068","AddressId":"381574830","RoadLinkId":"175588942"}}},{"Relevance":1.0,"Distance":33.9,"MatchLevel":"houseNumber","MatchQuality":{"Country":1.0,"State":1.0,"County":1.0,"City":1.0,"Street":[1.0],"HouseNumber":1.0,"PostalCode":1.0},"MatchType":"interpolated","Location":{"LocationId":"NT_srL6Qo5RfiW5FKcOMGdbLB_4A","LocationType":"point","DisplayPosition":{"Latitude":45.77259,"Longitude":-0.42269},"MapView":{"TopLeft":{"Latitude":45.7737142,"Longitude":-0.4243017},"BottomRight":{"Latitude":45.7714658,"Longitude":-0.4210783}},"Address":{"Label":"8 Rue du Château, 17770 Burie, France","Country":"FRA","State":"Nouvelle-Aquitaine","County":"Charente-Maritime","City":"Burie","Street":"Rue du Château","HouseNumber":"8","PostalCode":"17770","AdditionalData":[{"value":"France","key":"CountryName"},{"value":"Nouvelle-Aquitaine","key":"StateName"},{"value":"Charente-Maritime","key":"CountyName"}]},"MapReference":{"ReferenceId":"563527509","Spot":0.61,"SideOfStreet":"left","CountryId":"20000001","StateId":"20000383","CountyId":"20088858","CityId":"20089068","AddressId":"573174286","RoadLinkId":"47224787"}}},{"Relevance":1.0,"Distance":35.8,"MatchLevel":"houseNumber","MatchQuality":{"Country":1.0,"State":1.0,"County":1.0,"City":1.0,"Street":[1.0],"HouseNumber":1.0,"PostalCode":1.0},"MatchType":"interpolated","Location":{"LocationId":"NT_srL6Qo5RfiW5FKcOMGdbLB_xcD","LocationType":"point","DisplayPosition":{"Latitude":45.77277,"Longitude":-0.42204},"MapView":{"TopLeft":{"Latitude":45.7738942,"Longitude":-0.4236517},"BottomRight":{"Latitude":45.7716458,"Longitude":-0.4204283}},"Address":{"Label":"17 Rue du Château, 17770 Burie, France","Country":"FRA","State":"Nouvelle-Aquitaine","County":"Charente-Maritime","City":"Burie","Street":"Rue du Château","HouseNumber":"17","PostalCode":"17770","AdditionalData":[{"value":"France","key":"CountryName"},{"value":"Nouvelle-Aquitaine","key":"StateName"},{"value":"Charente-Maritime","key":"CountyName"}]},"MapReference":{"ReferenceId":"782798091","Spot":0.39,"SideOfStreet":"right","CountryId":"20000001","StateId":"20000383","CountyId":"20088858","CityId":"20089068","AddressId":"317966360","RoadLinkId":"175588943"}}},{"Relevance":1.0,"Distance":37.0,"MatchLevel":"houseNumber","MatchQuality":{"Country":1.0,"State":1.0,"County":1.0,"City":1.0,"Street":[1.0],"HouseNumber":1.0,"PostalCode":1.0},"MatchType":"interpolated","Location":{"LocationId":"NT_jzwYYUDU1EYMGkNx6sMZCC_0YD","LocationType":"point","DisplayPosition":{"Latitude":45.773,"Longitude":-0.42202},"MapView":{"TopLeft":{"Latitude":45.7741242,"Longitude":-0.4236317},"BottomRight":{"Latitude":45.7718758,"Longitude":-0.4204083}},"Address":{"Label":"46 Avenue de la République, 17770 Burie, France","Country":"FRA","State":"Nouvelle-Aquitaine","County":"Charente-Maritime","City":"Burie","Street":"Avenue de la République","HouseNumber":"46","PostalCode":"17770","AdditionalData":[{"value":"France","key":"CountryName"},{"value":"Nouvelle-Aquitaine","key":"StateName"},{"value":"Charente-Maritime","key":"CountyName"}]},"MapReference":{"ReferenceId":"563527475","Spot":0.17,"SideOfStreet":"left","CountryId":"20000001","StateId":"20000383","CountyId":"20088858","CityId":"20089068","AddressId":"317976251","RoadLinkId":"48029268"}}}]}]}}