{"Response":{"MetaInfo":{"Timestamp":"2020-03-28T11:35:40.688+0000","NextPageInformation":"2"},"View":[{"_type":"SearchResultsViewType","ViewId":0,"Result":[{"Relevance":1.0,"Distance":0.0,"Direction":0.0,"MatchLevel":"district","MatchQuality":{"Country":1.0,"County":1.0,"City":1.0,"District":1.0,"PostalCode":1.0},"Location":{"LocationId":"NT_TWbZXHHWmjqvCHpe6U99yB","LocationType":"point","DisplayPosition":{"Latitude":45.7505611,"Longitude":22.9051789},"MapView":{"TopLeft":{"Latitude":45.79911,"Longitude":22.8781},"BottomRight":{"Latitude":45.72697,"Longitude":22.92981}},"Address":{"Label":"Hunedoara, România","Country":"ROU","County":"Hunedoara","City":"Hunedoara","District":"Hunedoara","PostalCode":"331079","AdditionalData":[{"value":"România","key":"CountryName"},{"value":"Hunedoara","key":"CountyName"}]},"MapReference":{"ReferenceId":"990184937","SideOfStreet":"neither","CountryId":"20656215","CountyId":"20660116","CityId":"20660190","DistrictId":"20660191"}}},{"Relevance":1.0,"Distance":11.5,"MatchLevel":"street","MatchQuality":{"Country":1.0,"County":1.0,"City":1.0,"District":1.0,"PostalCode":1.0},"Location":{"LocationId":"NT_MmSBrMGr46v4Zp7yPp2wrD_l_1249656833_L","LocationType":"point","DisplayPosition":{"Latitude":45.75053,"Longitude":22.90532},"MapView":{"TopLeft":{"Latitude":45.75053,"Longitude":22.90527},"BottomRight":{"Latitude":45.75018,"Longitude":22.90532}},"Address":{"Label":"331079 Hunedoara, România","Country":"ROU","County":"Hunedoara","City":"Hunedoara","District":"Hunedoara","PostalCode":"331079","AdditionalData":[{"value":"România","key":"CountryName"},{"value":"Hunedoara","key":"CountyName"}]},"MapReference":{"ReferenceId":"1249656833","Spot":1.0,"SideOfStreet":"left","CountryId":"20656215","CountyId":"20660116","CityId":"20660190","DistrictId":"20660191"}}},{"Relevance":1.0,"Distance":26.5,"MatchLevel":"street","MatchQuality":{"Country":1.0,"County":1.0,"City":1.0,"District":1.0},"Location":{"LocationId":"NT_D3TUkeixqBUS1VZqw1eS.D_l_588411836_L","LocationType":"point","DisplayPosition":{"Latitude":45.7505501,"Longitude":22.9055206},"MapView":{"TopLeft":{"Latitude":45.75084,"Longitude":22.90552},"BottomRight":{"Latitude":45.75053,"Longitude":22.90553}},"Address":{"Label":"Hunedoara, România","Country":"ROU","County":"Hunedoara","City":"Hunedoara","District":"Hunedoara","AdditionalData":[{"value":"România","key":"CountryName"},{"value":"Hunedoara","key":"CountyName"}]},"MapReference":{"ReferenceId":"588411836","Spot":0.06,"SideOfStreet":"left","CountryId":"20656215","CountyId":"20660116","CityId":"20660190","DistrictId":"20660191"}}},{"Relevance":1.0,"Distance":26.7,"MatchLevel":"street","MatchQuality":{"Country":1.0,"County":1.0,"City":1.0,"District":1.0,"PostalCode":1.0},"Location":{"LocationId":"NT_MmSBrMGr46v4Zp7yPp2wrD_l_1182652493_L","LocationType":"point","DisplayPosition":{"Latitude":45.75053,"Longitude":22.90552},"MapView":{"TopLeft":{"Latitude":45.75053,"Longitude":22.90551},"BottomRight":{"Latitude":45.75021,"Longitude":22.90552}},"Address":{"Label":"331079 Hunedoara, România","Country":"ROU","County":"Hunedoara","City":"Hunedoara","District":"Hunedoara","PostalCode":"331079","AdditionalData":[{"value":"România","key":"CountryName"},{"value":"Hunedoara","key":"CountyName"}]},"MapReference":{"ReferenceId":"1182652493","Spot":1.0,"SideOfStreet":"left","CountryId":"20656215","CountyId":"20660116","CityId":"20660190","DistrictId":"20660191"}}},{"Relevance":1.0,"Distance":40.3,"MatchLevel":"houseNumber","MatchQuality":{"Country":1.0,"County":1.0,"City":1.0,"District":1.0,"Street":[1.0],"HouseNumber":1.0,"PostalCode":1.0},"MatchType":"interpolated","Location":{"LocationId":"NT_Vyr3FkmVzrlklyWyYWXhSC_l_1182741750_L_xYD","LocationType":"point","DisplayPosition":{"Latitude":45.7510557,"Longitude":22.9052442},"MapView":{"TopLeft":{"Latitude":45.7521799,"Longitude":22.9036331},"BottomRight":{"Latitude":45.7499316,"Longitude":22.9068552}},"Address":{"Label":"Strada Victoriei 16, 331059 Hunedoara, România","Country":"ROU","County":"Hunedoara","City":"Hunedoara","District":"Hunedoara","Street":"Strada Victoriei","HouseNumber":"16","PostalCode":"331059","AdditionalData":[{"value":"România","key":"CountryName"},{"value":"Hunedoara","key":"CountyName"}]},"MapReference":{"ReferenceId":"1182741750","Spot":0.53,"SideOfStreet":"left","CountryId":"20656215","CountyId":"20660116","CityId":"20660190","DistrictId":"20660191"}}},{"Relevance":1.0,"Distance":41.3,"MatchLevel":"street","MatchQuality":{"Country":1.0,"County":1.0,"City":1.0,"District":1.0},"Location":{"LocationId":"NT_D3TUkeixqBUS1VZqw1eS.D_l_588411784_L","LocationType":"point","DisplayPosition":{"Latitude":45.75084,"Longitude":22.90553},"MapView":{"TopLeft":{"Latitude":45.75084,"Longitude":22.90553},"BottomRight":{"Latitude":45.75078,"Longitude":22.9061}},"Address":{"Label":"Hunedoara, România","Country":"ROU","County":"Hunedoara","City":"Hunedoara","District":"Hunedoara","AdditionalData":[{"value":"România","key":"CountryName"},{"value":"Hunedoara","key":"CountyName"}]},"MapReference":{"ReferenceId":"588411784","Spot":1.0,"SideOfStreet":"left","CountryId":"20656215","CountyId":"20660116","CityId":"20660190","DistrictId":"20660191"}}},{"Relevance":1.0,"Distance":43.0,"MatchLevel":"street","MatchQuality":{"Country":1.0,"County":1.0,"City":1.0,"District":1.0,"PostalCode":1.0},"Location":{"LocationId":"NT_MmSBrMGr46v4Zp7yPp2wrD_l_1182747137_L","LocationType":"point","DisplayPosition":{"Latitude":45.75018,"Longitude":22.90527},"MapView":{"TopLeft":{"Latitude":45.75021,"Longitude":22.90527},"BottomRight":{"Latitude":45.75018,"Longitude":22.90551}},"Address":{"Label":"331079 Hunedoara, România","Country":"ROU","County":"Hunedoara","City":"Hunedoara","District":"Hunedoara","PostalCode":"331079","AdditionalData":[{"value":"România","key":"CountryName"},{"value":"Hunedoara","key":"CountyName"}]},"MapReference":{"ReferenceId":"1182747137","Spot":0.0,"SideOfStreet":"left","CountryId":"20656215","CountyId":"20660116","CityId":"20660190","DistrictId":"20660191"}}},{"Relevance":1.0,"Distance":43.0,"MatchLevel":"street","MatchQuality":{"Country":1.0,"County":1.0,"City":1.0,"District":1.0,"PostalCode":1.0},"Location":{"LocationId":"NT_MmSBrMGr46v4Zp7yPp2wrD_l_1182747135_L","LocationType":"point","DisplayPosition":{"Latitude":45.75018,"Longitude":22.90527},"MapView":{"TopLeft":{"Latitude":45.75018,"Longitude":22.90527},"BottomRight":{"Latitude":45.74991,"Longitude":22.90527}},"Address":{"Label":"331079 Hunedoara, România","Country":"ROU","County":"Hunedoara","City":"Hunedoara","District":"Hunedoara","PostalCode":"331079","AdditionalData":[{"value":"România","key":"CountryName"},{"value":"Hunedoara","key":"CountyName"}]},"MapReference":{"ReferenceId":"1182747135","Spot":1.0,"SideOfStreet":"left","CountryId":"20656215","CountyId":"20660116","CityId":"20660190","DistrictId":"20660191"}}},{"Relevance":1.0,"Distance":43.0,"MatchLevel":"street","MatchQuality":{"Country":1.0,"County":1.0,"City":1.0,"District":1.0,"PostalCode":1.0},"Location":{"LocationId":"NT_MmSBrMGr46v4Zp7yPp2wrD_l_1182747136_L","LocationType":"point","DisplayPosition":{"Latitude":45.7501751,"Longitude":22.9052111},"MapView":{"TopLeft":{"Latitude":45.75018,"Longitude":22.90515},"BottomRight":{"Latitude":45.75017,"Longitude":22.90527}},"Address":{"Label":"331079 Hunedoara, România","Country":"ROU","County":"Hunedoara","City":"Hunedoara","District":"Hunedoara","PostalCode":"331079","AdditionalData":[{"value":"România","key":"CountryName"},{"value":"Hunedoara","key":"CountyName"}]},"MapReference":{"ReferenceId":"1182747136","Spot":0.51,"SideOfStreet":"left","CountryId":"20656215","CountyId":"20660116","CityId":"20660190","DistrictId":"20660191"}}},{"Relevance":1.0,"Distance":43.5,"MatchLevel":"street","MatchQuality":{"Country":1.0,"County":1.0,"City":1.0,"District":1.0,"PostalCode":1.0},"Location":{"LocationId":"NT_MmSBrMGr46v4Zp7yPp2wrD_l_1254752856_L","LocationType":"point","DisplayPosition":{"Latitude":45.75017,"Longitude":22.90515},"MapView":{"TopLeft":{"Latitude":45.75017,"Longitude":22.90454},"BottomRight":{"Latitude":45.75001,"Longitude":22.90515}},"Address":{"Label":"331079 Hunedoara, România","Country":"ROU","County":"Hunedoara","City":"Hunedoara","District":"Hunedoara","PostalCode":"331079","AdditionalData":[{"value":"România","key":"CountryName"},{"value":"Hunedoara","key":"CountyName"}]},"MapReference":{"ReferenceId":"1254752856","Spot":1.0,"SideOfStreet":"left","CountryId":"20656215","CountyId":"20660116","CityId":"20660190","DistrictId":"20660191"}}}]}]}}