{"Response":{"MetaInfo":{"Timestamp":"2020-03-28T10:12:26.685+0000","NextPageInformation":"2"},"View":[{"_type":"SearchResultsViewType","ViewId":0,"Result":[{"Relevance":1.0,"Distance":0.0,"Direction":0.0,"MatchLevel":"city","MatchQuality":{"Country":1.0,"State":1.0,"County":1.0,"City":1.0,"PostalCode":1.0},"Location":{"LocationId":"NT_1.X98CuSbIpdyPLd-aby1A","LocationType":"point","DisplayPosition":{"Latitude":45.7128036,"Longitude":8.6433194},"MapView":{"TopLeft":{"Latitude":45.73096,"Longitude":8.57435},"BottomRight":{"Latitude":45.68472,"Longitude":8.65511}},"Address":{"Label":"Castelletto Sopra Ticino, Piemonte, Italia","Country":"ITA","State":"Piemonte","County":"NO","City":"Castelletto Sopra Ticino","PostalCode":"28053","AdditionalData":[{"value":"Italia","key":"CountryName"},{"value":"Piemonte","key":"StateName"},{"value":"Novara","key":"CountyName"}]},"MapReference":{"ReferenceId":"1041504496","SideOfStreet":"neither","CountryId":"20110484","StateId":"20110485","CountyId":"20111784","CityId":"20111862"}}},{"Relevance":1.0,"Distance":5.5,"MatchLevel":"street","MatchQuality":{"Country":1.0,"State":1.0,"County":1.0,"City":1.0,"PostalCode":1.0},"Location":{"LocationId":"NT_P8aGuCbUuHHy0hHamNxDYB_l_568490071_R","LocationType":"point","DisplayPosition":{"Latitude":45.7128527,"Longitude":8.6433184},"MapView":{"TopLeft":{"Latitude":45.71307,"Longitude":8.64319},"BottomRight":{"Latitude":45.71285,"Longitude":8.64367}},"Address":{"Label":"28053 Castelletto Sopra Ticino NO, Italia","Country":"ITA","State":"Piemonte","County":"NO","City":"Castelletto Sopra Ticino","PostalCode":"28053","AdditionalData":[{"value":"Italia","key":"CountryName"},{"value":"Piemonte","key":"StateName"},{"value":"Novara","key":"CountyName"}]},"MapReference":{"ReferenceId":"568490071","Spot":0.19,"SideOfStreet":"right","CountryId":"20110484","StateId":"20110485","CountyId":"20111784","CityId":"20111862"}}},{"Relevance":1.0,"Distance":6.3,"MatchLevel":"houseNumber","MatchQuality":{"Country":1.0,"State":1.0,"County":1.0,"City":1.0,"Street":[1.0],"HouseNumber":1.0,"PostalCode":1.0},"MatchType":"interpolated","Location":{"LocationId":"NT_9ToJpO-QqoTGUPBJUZ5P.C_xA","LocationType":"point","DisplayPosition":{"Latitude":45.71279,"Longitude":8.6432},"MapView":{"TopLeft":{"Latitude":45.7139142,"Longitude":8.6415901},"BottomRight":{"Latitude":45.7116658,"Longitude":8.6448099}},"Address":{"Label":"Via Garibaldini Barberis, 1, 28053 Castelletto Sopra Ticino NO, Italia","Country":"ITA","State":"Piemonte","County":"NO","City":"Castelletto Sopra Ticino","Street":"Via Garibaldini Barberis","HouseNumber":"1","PostalCode":"28053","AdditionalData":[{"value":"Italia","key":"CountryName"},{"value":"Piemonte","key":"StateName"},{"value":"Novara","key":"CountyName"}]},"MapReference":{"ReferenceId":"569149115","Spot":0.73,"SideOfStreet":"right","CountryId":"20110484","StateId":"20110485","CountyId":"20111784","CityId":"20111862","AddressId":"386777050","RoadLinkId":"55101304"}}},{"Relevance":1.0,"Distance":11.3,"MatchLevel":"street","MatchQuality":{"Country":1.0,"State":1.0,"County":1.0,"City":1.0,"Street":[1.0],"PostalCode":1.0},"Location":{"LocationId":"NT_9ToJpO-QqoTGUPBJUZ5P.C_l_569149116_R","LocationType":"point","DisplayPosition":{"Latitude":45.71285,"Longitude":8.64319},"MapView":{"TopLeft":{"Latitude":45.71305,"Longitude":8.64316},"BottomRight":{"Latitude":45.71285,"Longitude":8.64319}},"Address":{"Label":"Via Garibaldini Barberis, 28053 Castelletto Sopra Ticino NO, Italia","Country":"ITA","State":"Piemonte","County":"NO","City":"Castelletto Sopra Ticino","Street":"Via Garibaldini Barberis","PostalCode":"28053","AdditionalData":[{"value":"Italia","key":"CountryName"},{"value":"Piemonte","key":"StateName"},{"value":"Novara","key":"CountyName"}]},"MapReference":{"ReferenceId":"569149116","Spot":0.0,"SideOfStreet":"right","CountryId":"20110484","StateId":"20110485","CountyId":"20111784","CityId":"20111862"}}},{"Relevance":1.0,"Distance":13.2,"MatchLevel":"houseNumber","MatchQuality":{"Country":1.0,"State":1.0,"County":1.0,"City":1.0,"Street":[1.0],"HouseNumber":1.0,"PostalCode":1.0},"MatchType":"interpolated","Location":{"LocationId":"NT_S9qgHyFHRms3AXL19tjtCC_xMD","LocationType":"point","DisplayPosition":{"Latitude":45.71305,"Longitude":8.64321},"MapView":{"TopLeft":{"Latitude":45.7141742,"Longitude":8.6416},"BottomRight":{"Latitude":45.7119258,"Longitude":8.64482}},"Address":{"Label":"Via 25 Aprile, 13, 28053 Castelletto Sopra Ticino NO, Italia","Country":"ITA","State":"Piemonte","County":"NO","City":"Castelletto Sopra Ticino","Street":"Via 25 Aprile","HouseNumber":"13","PostalCode":"28053","AdditionalData":[{"value":"Italia","key":"CountryName"},{"value":"Piemonte","key":"StateName"},{"value":"Novara","key":"CountyName"}]},"MapReference":{"ReferenceId":"780444506","Spot":0.23,"SideOfStreet":"right","CountryId":"20110484","StateId":"20110485","CountyId":"20111784","CityId":"20111862","AddressId":"387044553","RoadLinkId":"173722341"}}},{"Relevance":1.0,"Distance":23.1,"MatchLevel":"houseNumber","MatchQuality":{"Country":1.0,"State":1.0,"County":1.0,"City":1.0,"Street":[1.0],"HouseNumber":1.0,"PostalCode":1.0},"MatchType":"interpolated","Location":{"LocationId":"NT_9ToJpO-QqoTGUPBJUZ5P.C_yA","LocationType":"point","DisplayPosition":{"Latitude":45.7126,"Longitude":8.64326},"MapView":{"TopLeft":{"Latitude":45.7137242,"Longitude":8.6416501},"BottomRight":{"Latitude":45.7114758,"Longitude":8.6448699}},"Address":{"Label":"Via Garibaldini Barberis, 2, 28053 Castelletto Sopra Ticino NO, Italia","Country":"ITA","State":"Piemonte","County":"NO","City":"Castelletto Sopra Ticino","Street":"Via Garibaldini Barberis","HouseNumber":"2","PostalCode":"28053","AdditionalData":[{"value":"Italia","key":"CountryName"},{"value":"Piemonte","key":"StateName"},{"value":"Novara","key":"CountyName"}]},"MapReference":{"ReferenceId":"568489979","Spot":0.79,"SideOfStreet":"left","CountryId":"20110484","StateId":"20110485","CountyId":"20111784","CityId":"20111862","AddressId":"386663444","RoadLinkId":"54971393"}}},{"Relevance":1.0,"Distance":24.7,"MatchLevel":"houseNumber","MatchQuality":{"Country":1.0,"State":1.0,"County":1.0,"City":1.0,"Street":[1.0],"HouseNumber":1.0,"PostalCode":1.0},"MatchType":"interpolated","Location":{"LocationId":"NT_jWBuJLvptvK9tvyC56aW2C_xA","LocationType":"point","DisplayPosition":{"Latitude":45.71261,"Longitude":8.64314},"MapView":{"TopLeft":{"Latitude":45.7137342,"Longitude":8.6415301},"BottomRight":{"Latitude":45.7114858,"Longitude":8.6447499}},"Address":{"Label":"Via Monte Rosa, 1, 28053 Castelletto Sopra Ticino NO, Italia","Country":"ITA","State":"Piemonte","County":"NO","City":"Castelletto Sopra Ticino","Street":"Via Monte Rosa","HouseNumber":"1","PostalCode":"28053","AdditionalData":[{"value":"Italia","key":"CountryName"},{"value":"Piemonte","key":"StateName"},{"value":"Novara","key":"CountyName"}]},"MapReference":{"ReferenceId":"568489937","Spot":0.94,"SideOfStreet":"left","CountryId":"20110484","StateId":"20110485","CountyId":"20111784","CityId":"20111862","AddressId":"387074803","RoadLinkId":"55854715"}}},{"Relevance":1.0,"Distance":26.8,"MatchLevel":"houseNumber","MatchQuality":{"Country":1.0,"State":1.0,"County":1.0,"City":1.0,"Street":[1.0],"HouseNumber":1.0,"PostalCode":1.0},"MatchType":"interpolated","Location":{"LocationId":"NT_S9qgHyFHRms3AXL19tjtCC_xUD","LocationType":"point","DisplayPosition":{"Latitude":45.71305,"Longitude":8.64307},"MapView":{"TopLeft":{"Latitude":45.7141742,"Longitude":8.64146},"BottomRight":{"Latitude":45.7119258,"Longitude":8.64468}},"Address":{"Label":"Via 25 Aprile, 15, 28053 Castelletto Sopra Ticino NO, Italia","Country":"ITA","State":"Piemonte","County":"NO","City":"Castelletto Sopra Ticino","Street":"Via 25 Aprile","HouseNumber":"15","PostalCode":"28053","AdditionalData":[{"value":"Italia","key":"CountryName"},{"value":"Piemonte","key":"StateName"},{"value":"Novara","key":"CountyName"}]},"MapReference":{"ReferenceId":"780444512","Spot":0.63,"SideOfStreet":"right","CountryId":"20110484","StateId":"20110485","CountyId":"20111784","CityId":"20111862","AddressId":"386476900","RoadLinkId":"173722350"}}},{"Relevance":1.0,"Distance":27.1,"MatchLevel":"houseNumber","MatchQuality":{"Country":1.0,"State":1.0,"County":1.0,"City":1.0,"Street":[1.0],"HouseNumber":1.0,"PostalCode":1.0},"MatchType":"interpolated","Location":{"LocationId":"NT_9ToJpO-QqoTGUPBJUZ5P.C_zA","LocationType":"point","DisplayPosition":{"Latitude":45.7125,"Longitude":8.64344},"MapView":{"TopLeft":{"Latitude":45.7136242,"Longitude":8.6418301},"BottomRight":{"Latitude":45.7113758,"Longitude":8.6450499}},"Address":{"Label":"Via Garibaldini Barberis, 3, 28053 Castelletto Sopra Ticino NO, Italia","Country":"ITA","State":"Piemonte","County":"NO","City":"Castelletto Sopra Ticino","Street":"Via Garibaldini Barberis","HouseNumber":"3","PostalCode":"28053","AdditionalData":[{"value":"Italia","key":"CountryName"},{"value":"Piemonte","key":"StateName"},{"value":"Novara","key":"CountyName"}]},"MapReference":{"ReferenceId":"568489964","Spot":0.17,"SideOfStreet":"left","CountryId":"20110484","StateId":"20110485","CountyId":"20111784","CityId":"20111862","AddressId":"386713860","RoadLinkId":"55140558"}}},{"Relevance":1.0,"Distance":28.9,"MatchLevel":"street","MatchQuality":{"Country":1.0,"State":1.0,"County":1.0,"City":1.0,"Street":[1.0],"PostalCode":1.0},"Location":{"LocationId":"NT_S9qgHyFHRms3AXL19tjtCC_l_780444507_R","LocationType":"point","DisplayPosition":{"Latitude":45.71306,"Longitude":8.64338},"MapView":{"TopLeft":{"Latitude":45.71307,"Longitude":8.64338},"BottomRight":{"Latitude":45.71306,"Longitude":8.64366}},"Address":{"Label":"Via 25 Aprile, 28053 Castelletto Sopra Ticino NO, Italia","Country":"ITA","State":"Piemonte","County":"NO","City":"Castelletto Sopra Ticino","Street":"Via 25 Aprile","PostalCode":"28053","AdditionalData":[{"value":"Italia","key":"CountryName"},{"value":"Piemonte","key":"StateName"},{"value":"Novara","key":"CountyName"}]},"MapReference":{"ReferenceId":"780444507","Spot":0.0,"SideOfStreet":"right","CountryId":"20110484","StateId":"20110485","CountyId":"20111784","CityId":"20111862"}}}]}]}}