{"Response":{"MetaInfo":{"Timestamp":"2020-03-28T10:00:12.210+0000","NextPageInformation":"2"},"View":[{"_type":"SearchResultsViewType","ViewId":0,"Result":[{"Relevance":1.0,"Distance":0.0,"Direction":0.0,"MatchLevel":"district","MatchQuality":{"Country":1.0,"County":1.0,"City":1.0,"District":1.0,"PostalCode":1.0},"Location":{"LocationId":"NT_B1oRBaPLLsNKk9Fz99ZcpD","LocationType":"point","DisplayPosition":{"Latitude":45.7342698,"Longitude":21.225712},"MapView":{"TopLeft":{"Latitude":45.78933,"Longitude":21.14756},"BottomRight":{"Latitude":45.71242,"Longitude":21.29336}},"Address":{"Label":"Timișoara, România","Country":"ROU","County":"Timiș","City":"Timișoara","District":"Timișoara","PostalCode":"300002","AdditionalData":[{"value":"România","key":"CountryName"},{"value":"Timiș","key":"CountyName"}]},"MapReference":{"ReferenceId":"588406210","SideOfStreet":"neither","CountryId":"20656215","CountyId":"20662987","CityId":"20663186","DistrictId":"20663187"}}},{"Relevance":1.0,"Distance":11.8,"MatchLevel":"houseNumber","MatchQuality":{"Country":1.0,"County":1.0,"City":1.0,"District":1.0,"Street":[1.0],"HouseNumber":1.0,"PostalCode":1.0},"MatchType":"interpolated","Location":{"LocationId":"NT_aGGNou055P46kq6s77oI8B_ykD","LocationType":"point","DisplayPosition":{"Latitude":45.73416,"Longitude":21.22554},"MapView":{"TopLeft":{"Latitude":45.7352842,"Longitude":21.2239294},"BottomRight":{"Latitude":45.7330358,"Longitude":21.2271506}},"Address":{"Label":"Strada Ulpia Traiana 29, 300211 Timișoara, România","Country":"ROU","County":"Timiș","City":"Timișoara","District":"Timișoara","Street":"Strada Ulpia Traiana","HouseNumber":"29","PostalCode":"300211","AdditionalData":[{"value":"România","key":"CountryName"},{"value":"Timiș","key":"CountyName"}]},"MapReference":{"ReferenceId":"920750885","Spot":0.59,"SideOfStreet":"right","CountryId":"20656215","CountyId":"20662987","CityId":"20663186","DistrictId":"20663187","AddressId":"687057922","RoadLinkId":"277693396"}}},{"Relevance":1.0,"Distance":28.9,"MatchLevel":"houseNumber","MatchQuality":{"Country":1.0,"County":1.0,"City":1.0,"District":1.0,"Street":[1.0],"HouseNumber":1.0,"PostalCode":1.0},"MatchType":"interpolated","Location":{"LocationId":"NT_nWch5w1GZ077.DnXDwX80D_0AD","LocationType":"point","DisplayPosition":{"Latitude":45.73459,"Longitude":21.22551},"MapView":{"TopLeft":{"Latitude":45.7357142,"Longitude":21.2238994},"BottomRight":{"Latitude":45.7334658,"Longitude":21.2271206}},"Address":{"Label":"Bulevardul Liviu Rebreanu 40, 300210 Timișoara, România","Country":"ROU","County":"Timiș","City":"Timișoara","District":"Timișoara","Street":"Bulevardul Liviu Rebreanu","HouseNumber":"40","PostalCode":"300210","AdditionalData":[{"value":"România","key":"CountryName"},{"value":"Timiș","key":"CountyName"}]},"MapReference":{"ReferenceId":"869092918","Spot":0.14,"SideOfStreet":"right","CountryId":"20656215","CountyId":"20662987","CityId":"20663186","DistrictId":"20663187","AddressId":"687053136","RoadLinkId":"241591251"}}},{"Relevance":1.0,"Distance":39.1,"MatchLevel":"street","MatchQuality":{"Country":1.0,"County":1.0,"City":1.0,"District":1.0,"Street":[1.0],"PostalCode":1.0},"Location":{"LocationId":"NT_cTe08N.gKPNfATO9jv5vRD_l_786870686_R","LocationType":"point","DisplayPosition":{"Latitude":45.73454,"Longitude":21.22539},"MapView":{"TopLeft":{"Latitude":45.73466,"Longitude":21.22536},"BottomRight":{"Latitude":45.73454,"Longitude":21.22539}},"Address":{"Label":"Strada Ulpia Traiana, 300002 Timișoara, România","Country":"ROU","County":"Timiș","City":"Timișoara","District":"Timișoara","Street":"Strada Ulpia Traiana","PostalCode":"300002","AdditionalData":[{"value":"România","key":"CountryName"},{"value":"Timiș","key":"CountyName"}]},"MapReference":{"ReferenceId":"786870686","Spot":0.0,"SideOfStreet":"right","CountryId":"20656215","CountyId":"20662987","CityId":"20663186","DistrictId":"20663187"}}},{"Relevance":1.0,"Distance":45.8,"MatchLevel":"houseNumber","MatchQuality":{"Country":1.0,"County":1.0,"City":1.0,"District":1.0,"Street":[1.0],"HouseNumber":1.0,"PostalCode":1.0},"MatchType":"interpolated","Location":{"LocationId":"NT_nWch5w1GZ077.DnXDwX80D_zgD","LocationType":"point","DisplayPosition":{"Latitude":45.73443,"Longitude":21.22509},"MapView":{"TopLeft":{"Latitude":45.7355542,"Longitude":21.2234794},"BottomRight":{"Latitude":45.7333058,"Longitude":21.2267006}},"Address":{"Label":"Bulevardul Liviu Rebreanu 38, 300210 Timișoara, România","Country":"ROU","County":"Timiș","City":"Timișoara","District":"Timișoara","Street":"Bulevardul Liviu Rebreanu","HouseNumber":"38","PostalCode":"300210","AdditionalData":[{"value":"România","key":"CountryName"},{"value":"Timiș","key":"CountyName"}]},"MapReference":{"ReferenceId":"869092923","Spot":0.3,"SideOfStreet":"right","CountryId":"20656215","CountyId":"20662987","CityId":"20663186","DistrictId":"20663187","AddressId":"687053082","RoadLinkId":"241591256"}}},{"Relevance":1.0,"Distance":52.2,"MatchLevel":"houseNumber","MatchQuality":{"Country":1.0,"County":1.0,"City":1.0,"District":1.0,"Street":[1.0],"HouseNumber":1.0,"PostalCode":1.0},"MatchType":"interpolated","Location":{"LocationId":"NT_aG6wtH3oo.nDVvFyNun51D_l_869092916_L_0kD","LocationType":"point","DisplayPosition":{"Latitude":45.73472,"Longitude":21.22552},"MapView":{"TopLeft":{"Latitude":45.7358442,"Longitude":21.2239094},"BottomRight":{"Latitude":45.7335959,"Longitude":21.2271306}},"Address":{"Label":"Bulevardul Liviu Rebreanu 49, 300002 Timișoara, România","Country":"ROU","County":"Timiș","City":"Timișoara","District":"Timișoara","Street":"Bulevardul Liviu Rebreanu","HouseNumber":"49","PostalCode":"300002","AdditionalData":[{"value":"România","key":"CountryName"},{"value":"Timiș","key":"CountyName"}]},"MapReference":{"ReferenceId":"869092916","Spot":0.43,"SideOfStreet":"left","CountryId":"20656215","CountyId":"20662987","CityId":"20663186","DistrictId":"20663187"}}},{"Relevance":1.0,"Distance":54.0,"MatchLevel":"houseNumber","MatchQuality":{"Country":1.0,"County":1.0,"City":1.0,"District":1.0,"Street":[1.0],"HouseNumber":1.0,"PostalCode":1.0},"MatchType":"interpolated","Location":{"LocationId":"NT_aG6wtH3oo.nDVvFyNun51D_l_989152185_L_0cD","LocationType":"point","DisplayPosition":{"Latitude":45.7345929,"Longitude":21.2251923},"MapView":{"TopLeft":{"Latitude":45.7357171,"Longitude":21.2235817},"BottomRight":{"Latitude":45.7334688,"Longitude":21.2268029}},"Address":{"Label":"Bulevardul Liviu Rebreanu 47, 300002 Timișoara, România","Country":"ROU","County":"Timiș","City":"Timișoara","District":"Timișoara","Street":"Bulevardul Liviu Rebreanu","HouseNumber":"47","PostalCode":"300002","AdditionalData":[{"value":"România","key":"CountryName"},{"value":"Timiș","key":"CountyName"}]},"MapReference":{"ReferenceId":"989152185","Spot":0.52,"SideOfStreet":"left","CountryId":"20656215","CountyId":"20662987","CityId":"20663186","DistrictId":"20663187"}}},{"Relevance":1.0,"Distance":65.3,"MatchLevel":"houseNumber","MatchQuality":{"Country":1.0,"County":1.0,"City":1.0,"District":1.0,"Street":[1.0],"HouseNumber":1.0,"PostalCode":1.0},"MatchType":"interpolated","Location":{"LocationId":"NT_cTe08N.gKPNfATO9jv5vRD_l_869092920_R_yUD","LocationType":"point","DisplayPosition":{"Latitude":45.7347744,"Longitude":21.225282},"MapView":{"TopLeft":{"Latitude":45.7358986,"Longitude":21.2236714},"BottomRight":{"Latitude":45.7336503,"Longitude":21.2268926}},"Address":{"Label":"Strada Ulpia Traiana 25, 300002 Timișoara, România","Country":"ROU","County":"Timiș","City":"Timișoara","District":"Timișoara","Street":"Strada Ulpia Traiana","HouseNumber":"25","PostalCode":"300002","AdditionalData":[{"value":"România","key":"CountryName"},{"value":"Timiș","key":"CountyName"}]},"MapReference":{"ReferenceId":"869092920","Spot":0.52,"SideOfStreet":"right","CountryId":"20656215","CountyId":"20662987","CityId":"20663186","DistrictId":"20663187"}}},{"Relevance":1.0,"Distance":68.2,"MatchLevel":"houseNumber","MatchQuality":{"Country":1.0,"County":1.0,"City":1.0,"District":1.0,"Street":[1.0],"HouseNumber":1.0,"PostalCode":1.0},"MatchType":"interpolated","Location":{"LocationId":"NT_aG6wtH3oo.nDVvFyNun51D_l_989152186_L_1MD","LocationType":"point","DisplayPosition":{"Latitude":45.73487,"Longitude":21.22589},"MapView":{"TopLeft":{"Latitude":45.7359942,"Longitude":21.2242794},"BottomRight":{"Latitude":45.7337459,"Longitude":21.2275006}},"Address":{"Label":"Bulevardul Liviu Rebreanu 53, 300002 Timișoara, România","Country":"ROU","County":"Timiș","City":"Timișoara","District":"Timișoara","Street":"Bulevardul Liviu Rebreanu","HouseNumber":"53","PostalCode":"300002","AdditionalData":[{"value":"România","key":"CountryName"},{"value":"Timiș","key":"CountyName"}]},"MapReference":{"ReferenceId":"989152186","Spot":0.22,"SideOfStreet":"left","CountryId":"20656215","CountyId":"20662987","CityId":"20663186","DistrictId":"20663187"}}},{"Relevance":1.0,"Distance":76.3,"MatchLevel":"houseNumber","MatchQuality":{"Country":1.0,"County":1.0,"City":1.0,"District":1.0,"Street":[1.0],"HouseNumber":1.0,"PostalCode":1.0},"MatchType":"interpolated","Location":{"LocationId":"NT_nWch5w1GZ077.DnXDwX80D_zYD","LocationType":"point","DisplayPosition":{"Latitude":45.73427,"Longitude":21.22469},"MapView":{"TopLeft":{"Latitude":45.7353942,"Longitude":21.2230794},"BottomRight":{"Latitude":45.7331458,"Longitude":21.2263006}},"Address":{"Label":"Bulevardul Liviu Rebreanu 36, 300210 Timișoara, România","Country":"ROU","County":"Timiș","City":"Timișoara","District":"Timișoara","Street":"Bulevardul Liviu Rebreanu","HouseNumber":"36","PostalCode":"300210","AdditionalData":[{"value":"România","key":"CountryName"},{"value":"Timiș","key":"CountyName"}]},"MapReference":{"ReferenceId":"869092922","Spot":0.71,"SideOfStreet":"right","CountryId":"20656215","CountyId":"20662987","CityId":"20663186","DistrictId":"20663187","AddressId":"687053081","RoadLinkId":"241591255"}}}]}]}}