{"Response":{"MetaInfo":{"Timestamp":"2020-03-28T11:26:43.120+0000","NextPageInformation":"2"},"View":[{"_type":"SearchResultsViewType","ViewId":0,"Result":[{"Relevance":1.0,"Distance":0.0,"Direction":0.0,"MatchLevel":"city","MatchQuality":{"Country":1.0,"State":1.0,"County":1.0,"City":1.0,"PostalCode":1.0},"Location":{"LocationId":"NT_XvAg4LPz3mOddAzxLojj7B","LocationType":"point","DisplayPosition":{"Latitude":45.7805574,"Longitude":12.4891082},"MapView":{"TopLeft":{"Latitude":45.81547,"Longitude":12.43412},"BottomRight":{"Latitude":45.74,"Longitude":12.5535}},"Address":{"Label":"Oderzo, Veneto, Italia","Country":"ITA","State":"Veneto","County":"TV","City":"Oderzo","PostalCode":"31046","AdditionalData":[{"value":"Italia","key":"CountryName"},{"value":"Veneto","key":"StateName"},{"value":"Treviso","key":"CountyName"}]},"MapReference":{"ReferenceId":"996686656","SideOfStreet":"neither","CountryId":"20110484","StateId":"20120537","CountyId":"20121652","CityId":"20121852"}}},{"Relevance":1.0,"Distance":8.9,"MatchLevel":"houseNumber","MatchQuality":{"Country":1.0,"State":1.0,"County":1.0,"City":1.0,"Street":[1.0],"HouseNumber":1.0,"PostalCode":1.0},"MatchType":"interpolated","Location":{"LocationId":"NT_SL2KPIC9Br8MuXywq6AWvA_zED","LocationType":"point","DisplayPosition":{"Latitude":45.78055,"Longitude":12.4892},"MapView":{"TopLeft":{"Latitude":45.7816742,"Longitude":12.4875881},"BottomRight":{"Latitude":45.7794258,"Longitude":12.4908119}},"Address":{"Label":"Via Luigi Luzzatti, 31, 31046 Oderzo TV, Italia","Country":"ITA","State":"Veneto","County":"TV","City":"Oderzo","Street":"Via Luigi Luzzatti","HouseNumber":"31","PostalCode":"31046","AdditionalData":[{"value":"Italia","key":"CountryName"},{"value":"Veneto","key":"StateName"},{"value":"Treviso","key":"CountyName"}]},"MapReference":{"ReferenceId":"565116593","Spot":1.0,"SideOfStreet":"left","CountryId":"20110484","StateId":"20120537","CountyId":"20121652","CityId":"20121852","AddressId":"373833689","RoadLinkId":"59127679"}}},{"Relevance":1.0,"Distance":21.8,"MatchLevel":"street","MatchQuality":{"Country":1.0,"State":1.0,"County":1.0,"City":1.0,"Street":[1.0],"PostalCode":1.0},"Location":{"LocationId":"NT_035yS6On4.c1YQj3DG1IxC_l_565116589_L","LocationType":"point","DisplayPosition":{"Latitude":45.7803763,"Longitude":12.4892152},"MapView":{"TopLeft":{"Latitude":45.78045,"Longitude":12.48841},"BottomRight":{"Latitude":45.77953,"Longitude":12.48934}},"Address":{"Label":"Calle Tenente Don S. Pasquali, 31046 Oderzo TV, Italia","Country":"ITA","State":"Veneto","County":"TV","City":"Oderzo","Street":"Calle Tenente Don S. Pasquali","PostalCode":"31046","AdditionalData":[{"value":"Italia","key":"CountryName"},{"value":"Veneto","key":"StateName"},{"value":"Treviso","key":"CountyName"}]},"MapReference":{"ReferenceId":"565116589","Spot":0.92,"SideOfStreet":"left","CountryId":"20110484","StateId":"20120537","CountyId":"20121652","CityId":"20121852"}}},{"Relevance":1.0,"Distance":35.9,"MatchLevel":"houseNumber","MatchQuality":{"Country":1.0,"State":1.0,"County":1.0,"City":1.0,"Street":[1.0],"HouseNumber":1.0,"PostalCode":1.0},"MatchType":"interpolated","Location":{"LocationId":"NT_SL2KPIC9Br8MuXywq6AWvA_yUD","LocationType":"point","DisplayPosition":{"Latitude":45.78036,"Longitude":12.48945},"MapView":{"TopLeft":{"Latitude":45.7814842,"Longitude":12.4878381},"BottomRight":{"Latitude":45.7792358,"Longitude":12.4910619}},"Address":{"Label":"Via Luigi Luzzatti, 25, 31046 Oderzo TV, Italia","Country":"ITA","State":"Veneto","County":"TV","City":"Oderzo","Street":"Via Luigi Luzzatti","HouseNumber":"25","PostalCode":"31046","AdditionalData":[{"value":"Italia","key":"CountryName"},{"value":"Veneto","key":"StateName"},{"value":"Treviso","key":"CountyName"}]},"MapReference":{"ReferenceId":"565116599","Spot":0.86,"SideOfStreet":"left","CountryId":"20110484","StateId":"20120537","CountyId":"20121652","CityId":"20121852","AddressId":"373536572","RoadLinkId":"59070020"}}},{"Relevance":1.0,"Distance":63.6,"MatchLevel":"houseNumber","MatchQuality":{"Country":1.0,"State":1.0,"County":1.0,"City":1.0,"Street":[1.0],"HouseNumber":1.0,"PostalCode":1.0},"MatchType":"interpolated","Location":{"LocationId":"NT_SL2KPIC9Br8MuXywq6AWvA_zAD","LocationType":"point","DisplayPosition":{"Latitude":45.781,"Longitude":12.48867},"MapView":{"TopLeft":{"Latitude":45.7821242,"Longitude":12.4870581},"BottomRight":{"Latitude":45.7798758,"Longitude":12.4902819}},"Address":{"Label":"Via Luigi Luzzatti, 30, 31046 Oderzo TV, Italia","Country":"ITA","State":"Veneto","County":"TV","City":"Oderzo","Street":"Via Luigi Luzzatti","HouseNumber":"30","PostalCode":"31046","AdditionalData":[{"value":"Italia","key":"CountryName"},{"value":"Veneto","key":"StateName"},{"value":"Treviso","key":"CountyName"}]},"MapReference":{"ReferenceId":"565116620","Spot":0.61,"SideOfStreet":"right","CountryId":"20110484","StateId":"20120537","CountyId":"20121652","CityId":"20121852","AddressId":"373545453","RoadLinkId":"58481769"}}},{"Relevance":1.0,"Distance":97.6,"MatchLevel":"houseNumber","MatchQuality":{"Country":1.0,"State":1.0,"County":1.0,"City":1.0,"Street":[1.0],"HouseNumber":1.0,"PostalCode":1.0},"MatchType":"interpolated","Location":{"LocationId":"NT_qfaVq-M2MuyLaIhPfFZAhD_4A","LocationType":"point","DisplayPosition":{"Latitude":45.77952,"Longitude":12.48899},"MapView":{"TopLeft":{"Latitude":45.7806442,"Longitude":12.4873781},"BottomRight":{"Latitude":45.7783958,"Longitude":12.4906019}},"Address":{"Label":"Via F. Pigozzi, 8, 31046 Oderzo TV, Italia","Country":"ITA","State":"Veneto","County":"TV","City":"Oderzo","Street":"Via F. Pigozzi","HouseNumber":"8","PostalCode":"31046","AdditionalData":[{"value":"Italia","key":"CountryName"},{"value":"Veneto","key":"StateName"},{"value":"Treviso","key":"CountyName"}]},"MapReference":{"ReferenceId":"1226123175","Spot":0.91,"SideOfStreet":"right","CountryId":"20110484","StateId":"20120537","CountyId":"20121652","CityId":"20121852","AddressId":"373779519","RoadLinkId":"544433285"}}},{"Relevance":1.0,"Distance":100.2,"MatchLevel":"houseNumber","MatchQuality":{"Country":1.0,"State":1.0,"County":1.0,"City":1.0,"Street":[1.0],"HouseNumber":1.0,"PostalCode":1.0},"MatchType":"interpolated","Location":{"LocationId":"NT_qfaVq-M2MuyLaIhPfFZAhD_l_1226123176_R_xID","LocationType":"point","DisplayPosition":{"Latitude":45.7795352,"Longitude":12.4888681},"MapView":{"TopLeft":{"Latitude":45.7806594,"Longitude":12.4872562},"BottomRight":{"Latitude":45.7784111,"Longitude":12.4904799}},"Address":{"Label":"Via F. Pigozzi, 12, 31046 Oderzo TV, Italia","Country":"ITA","State":"Veneto","County":"TV","City":"Oderzo","Street":"Via F. Pigozzi","HouseNumber":"12","PostalCode":"31046","AdditionalData":[{"value":"Italia","key":"CountryName"},{"value":"Veneto","key":"StateName"},{"value":"Treviso","key":"CountyName"}]},"MapReference":{"ReferenceId":"1226123176","Spot":0.52,"SideOfStreet":"right","CountryId":"20110484","StateId":"20120537","CountyId":"20121652","CityId":"20121852"}}},{"Relevance":1.0,"Distance":102.7,"MatchLevel":"street","MatchQuality":{"Country":1.0,"State":1.0,"County":1.0,"City":1.0,"Street":[1.0],"PostalCode":1.0},"Location":{"LocationId":"NT_SL2KPIC9Br8MuXywq6AWvA_l_591617147_R","LocationType":"point","DisplayPosition":{"Latitude":45.78131,"Longitude":12.48834},"MapView":{"TopLeft":{"Latitude":45.78131,"Longitude":12.48808},"BottomRight":{"Latitude":45.78124,"Longitude":12.48834}},"Address":{"Label":"Via Luigi Luzzatti, 31046 Oderzo TV, Italia","Country":"ITA","State":"Veneto","County":"TV","City":"Oderzo","Street":"Via Luigi Luzzatti","PostalCode":"31046","AdditionalData":[{"value":"Italia","key":"CountryName"},{"value":"Veneto","key":"StateName"},{"value":"Treviso","key":"CountyName"}]},"MapReference":{"ReferenceId":"591617147","Spot":1.0,"SideOfStreet":"right","CountryId":"20110484","StateId":"20120537","CountyId":"20121652","CityId":"20121852"}}},{"Relevance":1.0,"Distance":108.1,"MatchLevel":"street","MatchQuality":{"Country":1.0,"State":1.0,"County":1.0,"City":1.0,"Street":[1.0],"PostalCode":1.0},"Location":{"LocationId":"NT_SL2KPIC9Br8MuXywq6AWvA_l_565116587_R","LocationType":"point","DisplayPosition":{"Latitude":45.77992,"Longitude":12.49016},"MapView":{"TopLeft":{"Latitude":45.77992,"Longitude":12.49016},"BottomRight":{"Latitude":45.77984,"Longitude":12.49043}},"Address":{"Label":"Via Luigi Luzzatti, 31046 Oderzo TV, Italia","Country":"ITA","State":"Veneto","County":"TV","City":"Oderzo","Street":"Via Luigi Luzzatti","PostalCode":"31046","AdditionalData":[{"value":"Italia","key":"CountryName"},{"value":"Veneto","key":"StateName"},{"value":"Treviso","key":"CountyName"}]},"MapReference":{"ReferenceId":"565116587","Spot":1.0,"SideOfStreet":"right","CountryId":"20110484","StateId":"20120537","CountyId":"20121652","CityId":"20121852"}}},{"Relevance":1.0,"Distance":108.1,"MatchLevel":"street","MatchQuality":{"Country":1.0,"State":1.0,"County":1.0,"City":1.0,"Street":[1.0],"PostalCode":1.0},"Location":{"LocationId":"NT_LMLwnXkE84JpYd3b55TBqD_l_565116592_L","LocationType":"point","DisplayPosition":{"Latitude":45.77992,"Longitude":12.49016},"MapView":{"TopLeft":{"Latitude":45.77992,"Longitude":12.48975},"BottomRight":{"Latitude":45.77919,"Longitude":12.49016}},"Address":{"Label":"Calle Delle Scuole, 31046 Oderzo TV, Italia","Country":"ITA","State":"Veneto","County":"TV","City":"Oderzo","Street":"Calle Delle Scuole","PostalCode":"31046","AdditionalData":[{"value":"Italia","key":"CountryName"},{"value":"Veneto","key":"StateName"},{"value":"Treviso","key":"CountyName"}]},"MapReference":{"ReferenceId":"565116592","Spot":1.0,"SideOfStreet":"left","CountryId":"20110484","StateId":"20120537","CountyId":"20121652","CityId":"20121852"}}}]}]}}