{"Response":{"MetaInfo":{"Timestamp":"2020-03-28T10:00:08.901+0000","NextPageInformation":"2"},"View":[{"_type":"SearchResultsViewType","ViewId":0,"Result":[{"Relevance":1.0,"Distance":0.0,"Direction":0.0,"MatchLevel":"district","MatchQuality":{"Country":1.0,"County":1.0,"City":1.0,"District":1.0,"PostalCode":1.0},"Location":{"LocationId":"NT_B1oRBaPLLsNKk9Fz99ZcpD","LocationType":"point","DisplayPosition":{"Latitude":45.7486799,"Longitude":21.2464287},"MapView":{"TopLeft":{"Latitude":45.78933,"Longitude":21.14756},"BottomRight":{"Latitude":45.71242,"Longitude":21.29336}},"Address":{"Label":"Timișoara, România","Country":"ROU","County":"Timiș","City":"Timișoara","District":"Timișoara","PostalCode":"300002","AdditionalData":[{"value":"România","key":"CountryName"},{"value":"Timiș","key":"CountyName"}]},"MapReference":{"ReferenceId":"588406210","SideOfStreet":"neither","CountryId":"20656215","CountyId":"20662987","CityId":"20663186","DistrictId":"20663187"}}},{"Relevance":1.0,"Distance":23.1,"MatchLevel":"houseNumber","MatchQuality":{"Country":1.0,"County":1.0,"City":1.0,"District":1.0,"Street":[1.0],"HouseNumber":1.0,"PostalCode":1.0},"MatchType":"interpolated","Location":{"LocationId":"NT_rxT0H9WeOlabe0t-TlXxbD_zID","LocationType":"point","DisplayPosition":{"Latitude":45.74893,"Longitude":21.2465},"MapView":{"TopLeft":{"Latitude":45.7500542,"Longitude":21.244889},"BottomRight":{"Latitude":45.7478058,"Longitude":21.248111}},"Address":{"Label":"Bulevardul Eroilor de La Tisa 32, 300562 Timișoara, România","Country":"ROU","County":"Timiș","City":"Timișoara","District":"Timișoara","Street":"Bulevardul Eroilor de La Tisa","HouseNumber":"32","PostalCode":"300562","AdditionalData":[{"value":"România","key":"CountryName"},{"value":"Timiș","key":"CountyName"}]},"MapReference":{"ReferenceId":"1104735407","Spot":0.56,"SideOfStreet":"right","CountryId":"20656215","CountyId":"20662987","CityId":"20663186","DistrictId":"20663187","AddressId":"687060117","RoadLinkId":"416542348"}}},{"Relevance":1.0,"Distance":31.8,"MatchLevel":"houseNumber","MatchQuality":{"Country":1.0,"County":1.0,"City":1.0,"District":1.0,"Street":[1.0],"HouseNumber":1.0,"PostalCode":1.0},"MatchType":"interpolated","Location":{"LocationId":"NT_KRVxGCX2N8M0Q.viDYaHuB_yYD","LocationType":"point","DisplayPosition":{"Latitude":45.74875,"Longitude":21.24598},"MapView":{"TopLeft":{"Latitude":45.7498742,"Longitude":21.244369},"BottomRight":{"Latitude":45.7476258,"Longitude":21.247591}},"Address":{"Label":"Bulevardul Eroilor de La Tisa 26, 300553 Timișoara, România","Country":"ROU","County":"Timiș","City":"Timișoara","District":"Timișoara","Street":"Bulevardul Eroilor de La Tisa","HouseNumber":"26","PostalCode":"300553","AdditionalData":[{"value":"România","key":"CountryName"},{"value":"Timiș","key":"CountyName"}]},"MapReference":{"ReferenceId":"1104735406","Spot":0.51,"SideOfStreet":"right","CountryId":"20656215","CountyId":"20662987","CityId":"20663186","DistrictId":"20663187","AddressId":"687060115","RoadLinkId":"416542344"}}},{"Relevance":1.0,"Distance":47.8,"MatchLevel":"houseNumber","MatchQuality":{"Country":1.0,"County":1.0,"City":1.0,"District":1.0,"Street":[1.0],"HouseNumber":1.0,"PostalCode":1.0},"MatchType":"interpolated","Location":{"LocationId":"NT_5EzP5SqF-mc.txND5JbY0A_y0CN","LocationType":"point","DisplayPosition":{"Latitude":45.74845,"Longitude":21.24698},"MapView":{"TopLeft":{"Latitude":45.7495742,"Longitude":21.245369},"BottomRight":{"Latitude":45.7473258,"Longitude":21.248591}},"Address":{"Label":"Strada Satu Nou 2-4, 300554 Timișoara, România","Country":"ROU","County":"Timiș","City":"Timișoara","District":"Timișoara","Street":"Strada Satu Nou","HouseNumber":"2-4","PostalCode":"300554","AdditionalData":[{"value":"România","key":"CountryName"},{"value":"Timiș","key":"CountyName"}]},"MapReference":{"ReferenceId":"588406865","Spot":0.64,"SideOfStreet":"left","CountryId":"20656215","CountyId":"20662987","CityId":"20663186","DistrictId":"20663187","AddressId":"687026630","RoadLinkId":"77259596"}}},{"Relevance":1.0,"Distance":48.0,"MatchLevel":"houseNumber","MatchQuality":{"Country":1.0,"County":1.0,"City":1.0,"District":1.0,"Street":[1.0],"HouseNumber":1.0,"PostalCode":1.0},"MatchType":"interpolated","Location":{"LocationId":"NT_rxT0H9WeOlabe0t-TlXxbD_2ED","LocationType":"point","DisplayPosition":{"Latitude":45.74903,"Longitude":21.24679},"MapView":{"TopLeft":{"Latitude":45.7501542,"Longitude":21.245179},"BottomRight":{"Latitude":45.7479058,"Longitude":21.248401}},"Address":{"Label":"Bulevardul Eroilor de La Tisa 61, 300562 Timișoara, România","Country":"ROU","County":"Timiș","City":"Timișoara","District":"Timișoara","Street":"Bulevardul Eroilor de La Tisa","HouseNumber":"61","PostalCode":"300562","AdditionalData":[{"value":"România","key":"CountryName"},{"value":"Timiș","key":"CountyName"}]},"MapReference":{"ReferenceId":"1104735408","Spot":0.43,"SideOfStreet":"left","CountryId":"20656215","CountyId":"20662987","CityId":"20663186","DistrictId":"20663187","AddressId":"687060119","RoadLinkId":"416542349"}}},{"Relevance":1.0,"Distance":54.6,"MatchLevel":"houseNumber","MatchQuality":{"Country":1.0,"County":1.0,"City":1.0,"District":1.0,"Street":[1.0],"HouseNumber":1.0,"PostalCode":1.0},"MatchType":"interpolated","Location":{"LocationId":"NT_KRVxGCX2N8M0Q.viDYaHuB_yYTQ","LocationType":"point","DisplayPosition":{"Latitude":45.74864,"Longitude":21.24569},"MapView":{"TopLeft":{"Latitude":45.7497642,"Longitude":21.244079},"BottomRight":{"Latitude":45.7475158,"Longitude":21.247301}},"Address":{"Label":"Bulevardul Eroilor de La Tisa 26A, 300553 Timișoara, România","Country":"ROU","County":"Timiș","City":"Timișoara","District":"Timișoara","Street":"Bulevardul Eroilor de La Tisa","HouseNumber":"26A","PostalCode":"300553","AdditionalData":[{"value":"România","key":"CountryName"},{"value":"Timiș","key":"CountyName"}]},"MapReference":{"ReferenceId":"588406775","Spot":0.91,"SideOfStreet":"right","CountryId":"20656215","CountyId":"20662987","CityId":"20663186","DistrictId":"20663187","AddressId":"687026336","RoadLinkId":"77469029"}}},{"Relevance":1.0,"Distance":61.0,"MatchLevel":"houseNumber","MatchQuality":{"Country":1.0,"County":1.0,"City":1.0,"District":1.0,"Street":[1.0],"HouseNumber":1.0,"PostalCode":1.0},"MatchType":"interpolated","Location":{"LocationId":"NT_7LixnV27009uoMNf-F8oWA_l_588563349_R_yA","LocationType":"point","DisplayPosition":{"Latitude":45.74892,"Longitude":21.247135},"MapView":{"TopLeft":{"Latitude":45.7500442,"Longitude":21.245524},"BottomRight":{"Latitude":45.7477959,"Longitude":21.248746}},"Address":{"Label":"Strada Johannguttenberg 2, 300002 Timișoara, România","Country":"ROU","County":"Timiș","City":"Timișoara","District":"Timișoara","Street":"Strada Johannguttenberg","HouseNumber":"2","PostalCode":"300002","AdditionalData":[{"value":"România","key":"CountryName"},{"value":"Timiș","key":"CountyName"}]},"MapReference":{"ReferenceId":"588563349","Spot":0.5,"SideOfStreet":"right","CountryId":"20656215","CountyId":"20662987","CityId":"20663186","DistrictId":"20663187"}}},{"Relevance":1.0,"Distance":66.8,"MatchLevel":"houseNumber","MatchQuality":{"Country":1.0,"County":1.0,"City":1.0,"District":1.0,"Street":[1.0],"HouseNumber":1.0,"PostalCode":1.0},"MatchType":"interpolated","Location":{"LocationId":"NT_5c3AI9fi68.ENqT5u3PQDD_zA","LocationType":"point","DisplayPosition":{"Latitude":45.74823,"Longitude":21.2457},"MapView":{"TopLeft":{"Latitude":45.7493542,"Longitude":21.244089},"BottomRight":{"Latitude":45.7471058,"Longitude":21.247311}},"Address":{"Label":"Strada Deliblata 3, 300554 Timișoara, România","Country":"ROU","County":"Timiș","City":"Timișoara","District":"Timișoara","Street":"Strada Deliblata","HouseNumber":"3","PostalCode":"300554","AdditionalData":[{"value":"România","key":"CountryName"},{"value":"Timiș","key":"CountyName"}]},"MapReference":{"ReferenceId":"838731096","Spot":0.72,"SideOfStreet":"right","CountryId":"20656215","CountyId":"20662987","CityId":"20663186","DistrictId":"20663187","AddressId":"687054083","RoadLinkId":"221254380"}}},{"Relevance":1.0,"Distance":82.4,"MatchLevel":"houseNumber","MatchQuality":{"Country":1.0,"County":1.0,"City":1.0,"District":1.0,"Street":[1.0],"HouseNumber":1.0,"PostalCode":1.0},"MatchType":"interpolated","Location":{"LocationId":"NT_oOoZB5Ztx5hHh0QMSY2wFB_yA","LocationType":"point","DisplayPosition":{"Latitude":45.74873,"Longitude":21.24752},"MapView":{"TopLeft":{"Latitude":45.7498542,"Longitude":21.245909},"BottomRight":{"Latitude":45.7476058,"Longitude":21.249131}},"Address":{"Label":"Strada Johannguttenberg 2, 300554 Timișoara, România","Country":"ROU","County":"Timiș","City":"Timișoara","District":"Timișoara","Street":"Strada Johannguttenberg","HouseNumber":"2","PostalCode":"300554","AdditionalData":[{"value":"România","key":"CountryName"},{"value":"Timiș","key":"CountyName"}]},"MapReference":{"ReferenceId":"588563348","Spot":0.93,"SideOfStreet":"left","CountryId":"20656215","CountyId":"20662987","CityId":"20663186","DistrictId":"20663187","AddressId":"687035610","RoadLinkId":"77325571"}}},{"Relevance":1.0,"Distance":93.8,"MatchLevel":"houseNumber","MatchQuality":{"Country":1.0,"County":1.0,"City":1.0,"District":1.0,"Street":[1.0],"HouseNumber":1.0,"PostalCode":1.0},"MatchType":"interpolated","Location":{"LocationId":"NT_z5AATWVktA2Bwu-MDJi4PB_0EE","LocationType":"point","DisplayPosition":{"Latitude":45.74954,"Longitude":21.2466},"MapView":{"TopLeft":{"Latitude":45.7506642,"Longitude":21.244989},"BottomRight":{"Latitude":45.7484158,"Longitude":21.248211}},"Address":{"Label":"Strada Nicolint 4A, 300562 Timișoara, România","Country":"ROU","County":"Timiș","City":"Timișoara","District":"Timișoara","Street":"Strada Nicolint","HouseNumber":"4A","PostalCode":"300562","AdditionalData":[{"value":"România","key":"CountryName"},{"value":"Timiș","key":"CountyName"}]},"MapReference":{"ReferenceId":"588406713","Spot":0.92,"SideOfStreet":"left","CountryId":"20656215","CountyId":"20662987","CityId":"20663186","DistrictId":"20663187","AddressId":"687026151","RoadLinkId":"77452167"}}}]}]}}