{"Response":{"MetaInfo":{"Timestamp":"2020-03-28T11:08:41.750+0000","NextPageInformation":"2"},"View":[{"_type":"SearchResultsViewType","ViewId":0,"Result":[{"Relevance":1.0,"Distance":0.0,"Direction":0.0,"MatchLevel":"district","MatchQuality":{"Country":1.0,"State":1.0,"County":1.0,"City":1.0,"District":1.0,"PostalCode":1.0},"Location":{"LocationId":"NT_cWsvYG8mdYRL30BRFVbN5D","LocationType":"point","DisplayPosition":{"Latitude":45.760071,"Longitude":4.7980838},"MapView":{"TopLeft":{"Latitude":45.76746,"Longitude":4.77176},"BottomRight":{"Latitude":45.74441,"Longitude":4.83002}},"Address":{"Label":"5e Arrondissement, Lyon, Auvergne-Rhône-Alpes, France","Country":"FRA","State":"Auvergne-Rhône-Alpes","County":"Rhône","City":"Lyon","District":"5e Arrondissement","PostalCode":"69005","AdditionalData":[{"value":"France","key":"CountryName"},{"value":"Auvergne-Rhône-Alpes","key":"StateName"},{"value":"Rhône","key":"CountyName"}]},"MapReference":{"ReferenceId":"58234616","SideOfStreet":"neither","CountryId":"20000001","StateId":"20006029","CountyId":"20035500","CityId":"20053186","DistrictId":"20053192"}}},{"Relevance":1.0,"Distance":4.5,"MatchLevel":"street","MatchQuality":{"Country":1.0,"State":1.0,"County":1.0,"City":1.0,"District":1.0,"Street":[1.0],"PostalCode":1.0},"Location":{"LocationId":"NT_f2LyZISVgdwtXGT3CefpuB_l_956216553_L","LocationType":"point","DisplayPosition":{"Latitude":45.760031,"Longitude":4.7980938},"MapView":{"TopLeft":{"Latitude":45.76006,"Longitude":4.79797},"BottomRight":{"Latitude":45.76,"Longitude":4.79821}},"Address":{"Label":"Rue du Docteur Edmond Locard, 69005 Lyon, France","Country":"FRA","State":"Auvergne-Rhône-Alpes","County":"Rhône","City":"Lyon","District":"5e Arrondissement","Street":"Rue du Docteur Edmond Locard","PostalCode":"69005","AdditionalData":[{"value":"France","key":"CountryName"},{"value":"Auvergne-Rhône-Alpes","key":"StateName"},{"value":"Rhône","key":"CountyName"}]},"MapReference":{"ReferenceId":"956216553","Spot":0.52,"SideOfStreet":"left","CountryId":"20000001","StateId":"20006029","CountyId":"20035500","CityId":"20053186","DistrictId":"20053192"}}},{"Relevance":1.0,"Distance":9.9,"MatchLevel":"street","MatchQuality":{"Country":1.0,"State":1.0,"County":1.0,"City":1.0,"District":1.0,"Street":[1.0],"PostalCode":1.0},"Location":{"LocationId":"NT_yPv82yu8yHTY5PUkyEeLwC_l_58233892_L","LocationType":"point","DisplayPosition":{"Latitude":45.76006,"Longitude":4.79821},"MapView":{"TopLeft":{"Latitude":45.76006,"Longitude":4.79821},"BottomRight":{"Latitude":45.75933,"Longitude":4.79838}},"Address":{"Label":"Impasse du Point du Jour, 69005 Lyon, France","Country":"FRA","State":"Auvergne-Rhône-Alpes","County":"Rhône","City":"Lyon","District":"5e Arrondissement","Street":"Impasse du Point du Jour","PostalCode":"69005","AdditionalData":[{"value":"France","key":"CountryName"},{"value":"Auvergne-Rhône-Alpes","key":"StateName"},{"value":"Rhône","key":"CountyName"}]},"MapReference":{"ReferenceId":"58233892","Spot":1.0,"SideOfStreet":"left","CountryId":"20000001","StateId":"20006029","CountyId":"20035500","CityId":"20053186","DistrictId":"20053192"}}},{"Relevance":1.0,"Distance":11.2,"MatchLevel":"houseNumber","MatchQuality":{"Country":1.0,"State":1.0,"County":1.0,"City":1.0,"District":1.0,"Street":[1.0],"HouseNumber":1.0,"PostalCode":1.0},"MatchType":"interpolated","Location":{"LocationId":"NT_f2LyZISVgdwtXGT3CefpuB_l_984398849_L_5ID","LocationType":"point","DisplayPosition":{"Latitude":45.7600606,"Longitude":4.7979397},"MapView":{"TopLeft":{"Latitude":45.7611847,"Longitude":4.7963284},"BottomRight":{"Latitude":45.7589364,"Longitude":4.799551}},"Address":{"Label":"92 Rue du Docteur Edmond Locard, 69005 Lyon, France","Country":"FRA","State":"Auvergne-Rhône-Alpes","County":"Rhône","City":"Lyon","District":"5e Arrondissement","Street":"Rue du Docteur Edmond Locard","HouseNumber":"92","PostalCode":"69005","AdditionalData":[{"value":"France","key":"CountryName"},{"value":"Auvergne-Rhône-Alpes","key":"StateName"},{"value":"Rhône","key":"CountyName"}]},"MapReference":{"ReferenceId":"984398849","Spot":0.5,"SideOfStreet":"left","CountryId":"20000001","StateId":"20006029","CountyId":"20035500","CityId":"20053186","DistrictId":"20053192"}}},{"Relevance":1.0,"Distance":14.5,"MatchLevel":"street","MatchQuality":{"Country":1.0,"State":1.0,"County":1.0,"City":1.0,"District":1.0,"Street":[1.0],"PostalCode":1.0},"Location":{"LocationId":"NT_f2LyZISVgdwtXGT3CefpuB_l_984398850_R","LocationType":"point","DisplayPosition":{"Latitude":45.76012,"Longitude":4.79791},"MapView":{"TopLeft":{"Latitude":45.76024,"Longitude":4.79785},"BottomRight":{"Latitude":45.76012,"Longitude":4.79791}},"Address":{"Label":"Rue du Docteur Edmond Locard, 69005 Lyon, France","Country":"FRA","State":"Auvergne-Rhône-Alpes","County":"Rhône","City":"Lyon","District":"5e Arrondissement","Street":"Rue du Docteur Edmond Locard","PostalCode":"69005","AdditionalData":[{"value":"France","key":"CountryName"},{"value":"Auvergne-Rhône-Alpes","key":"StateName"},{"value":"Rhône","key":"CountyName"}]},"MapReference":{"ReferenceId":"984398850","Spot":0.0,"SideOfStreet":"right","CountryId":"20000001","StateId":"20006029","CountyId":"20035500","CityId":"20053186","DistrictId":"20053192"}}},{"Relevance":1.0,"Distance":25.0,"MatchLevel":"street","MatchQuality":{"Country":1.0,"State":1.0,"County":1.0,"City":1.0,"District":1.0,"PostalCode":1.0},"Location":{"LocationId":"NT_ay0Yzr8ZHDr1v2Z2.UuggA_l_984398823_R","LocationType":"point","DisplayPosition":{"Latitude":45.7602907,"Longitude":4.7980172},"MapView":{"TopLeft":{"Latitude":45.76039,"Longitude":4.79785},"BottomRight":{"Latitude":45.76024,"Longitude":4.79821}},"Address":{"Label":"69005 Lyon, France","Country":"FRA","State":"Auvergne-Rhône-Alpes","County":"Rhône","City":"Lyon","District":"5e Arrondissement","PostalCode":"69005","AdditionalData":[{"value":"France","key":"CountryName"},{"value":"Auvergne-Rhône-Alpes","key":"StateName"},{"value":"Rhône","key":"CountyName"}]},"MapReference":{"ReferenceId":"984398823","Spot":0.43,"SideOfStreet":"right","CountryId":"20000001","StateId":"20006029","CountyId":"20035500","CityId":"20053186","DistrictId":"20053192"}}},{"Relevance":1.0,"Distance":26.1,"MatchLevel":"street","MatchQuality":{"Country":1.0,"State":1.0,"County":1.0,"City":1.0,"District":1.0,"Street":[1.0],"PostalCode":1.0},"Location":{"LocationId":"NT_f2LyZISVgdwtXGT3CefpuB_l_984398821_R","LocationType":"point","DisplayPosition":{"Latitude":45.76024,"Longitude":4.79785},"MapView":{"TopLeft":{"Latitude":45.76036,"Longitude":4.79777},"BottomRight":{"Latitude":45.76024,"Longitude":4.79785}},"Address":{"Label":"Rue du Docteur Edmond Locard, 69005 Lyon, France","Country":"FRA","State":"Auvergne-Rhône-Alpes","County":"Rhône","City":"Lyon","District":"5e Arrondissement","Street":"Rue du Docteur Edmond Locard","PostalCode":"69005","AdditionalData":[{"value":"France","key":"CountryName"},{"value":"Auvergne-Rhône-Alpes","key":"StateName"},{"value":"Rhône","key":"CountyName"}]},"MapReference":{"ReferenceId":"984398821","Spot":0.0,"SideOfStreet":"right","CountryId":"20000001","StateId":"20006029","CountyId":"20035500","CityId":"20053186","DistrictId":"20053192"}}},{"Relevance":1.0,"Distance":26.1,"MatchLevel":"street","MatchQuality":{"Country":1.0,"State":1.0,"County":1.0,"City":1.0,"District":1.0,"PostalCode":1.0},"Location":{"LocationId":"NT_ay0Yzr8ZHDr1v2Z2.UuggA_l_984398828_R","LocationType":"point","DisplayPosition":{"Latitude":45.76024,"Longitude":4.79785},"MapView":{"TopLeft":{"Latitude":45.76024,"Longitude":4.79747},"BottomRight":{"Latitude":45.76023,"Longitude":4.79785}},"Address":{"Label":"69005 Lyon, France","Country":"FRA","State":"Auvergne-Rhône-Alpes","County":"Rhône","City":"Lyon","District":"5e Arrondissement","PostalCode":"69005","AdditionalData":[{"value":"France","key":"CountryName"},{"value":"Auvergne-Rhône-Alpes","key":"StateName"},{"value":"Rhône","key":"CountyName"}]},"MapReference":{"ReferenceId":"984398828","Spot":1.0,"SideOfStreet":"right","CountryId":"20000001","StateId":"20006029","CountyId":"20035500","CityId":"20053186","DistrictId":"20053192"}}},{"Relevance":1.0,"Distance":32.5,"MatchLevel":"houseNumber","MatchQuality":{"Country":1.0,"State":1.0,"County":1.0,"City":1.0,"District":1.0,"Street":[1.0],"HouseNumber":1.0,"PostalCode":1.0},"MatchType":"interpolated","Location":{"LocationId":"NT_f2LyZISVgdwtXGT3CefpuB_4ID","LocationType":"point","DisplayPosition":{"Latitude":45.75997,"Longitude":4.79769},"MapView":{"TopLeft":{"Latitude":45.7610942,"Longitude":4.7960787},"BottomRight":{"Latitude":45.7588458,"Longitude":4.7993013}},"Address":{"Label":"82 Rue du Docteur Edmond Locard, 69005 Lyon, France","Country":"FRA","State":"Auvergne-Rhône-Alpes","County":"Rhône","City":"Lyon","District":"5e Arrondissement","Street":"Rue du Docteur Edmond Locard","HouseNumber":"82","PostalCode":"69005","AdditionalData":[{"value":"France","key":"CountryName"},{"value":"Auvergne-Rhône-Alpes","key":"StateName"},{"value":"Rhône","key":"CountyName"}]},"MapReference":{"ReferenceId":"956216552","Spot":0.44,"SideOfStreet":"left","CountryId":"20000001","StateId":"20006029","CountyId":"20035500","CityId":"20053186","DistrictId":"20053192","AddressId":"787140836","RoadLinkId":"299168264"}}},{"Relevance":1.0,"Distance":34.8,"MatchLevel":"houseNumber","MatchQuality":{"Country":1.0,"State":1.0,"County":1.0,"City":1.0,"District":1.0,"Street":[1.0],"HouseNumber":1.0,"PostalCode":1.0},"MatchType":"interpolated","Location":{"LocationId":"NT_f2LyZISVgdwtXGT3CefpuB_3cD","LocationType":"point","DisplayPosition":{"Latitude":45.7598,"Longitude":4.79786},"MapView":{"TopLeft":{"Latitude":45.7609242,"Longitude":4.7962487},"BottomRight":{"Latitude":45.7586758,"Longitude":4.7994713}},"Address":{"Label":"77 Rue du Docteur Edmond Locard, 69005 Lyon, France","Country":"FRA","State":"Auvergne-Rhône-Alpes","County":"Rhône","City":"Lyon","District":"5e Arrondissement","Street":"Rue du Docteur Edmond Locard","HouseNumber":"77","PostalCode":"69005","AdditionalData":[{"value":"France","key":"CountryName"},{"value":"Auvergne-Rhône-Alpes","key":"StateName"},{"value":"Rhône","key":"CountyName"}]},"MapReference":{"ReferenceId":"956216551","Spot":0.74,"SideOfStreet":"left","CountryId":"20000001","StateId":"20006029","CountyId":"20035500","CityId":"20053186","DistrictId":"20053192","AddressId":"319486042","RoadLinkId":"299168263"}}}]}]}}