{"Response":{"MetaInfo":{"Timestamp":"2020-03-28T12:03:43.858+0000","NextPageInformation":"2"},"View":[{"_type":"SearchResultsViewType","ViewId":0,"Result":[{"Relevance":1.0,"Distance":0.0,"Direction":0.0,"MatchLevel":"city","MatchQuality":{"Country":1.0,"State":1.0,"County":1.0,"City":1.0,"PostalCode":1.0},"Location":{"LocationId":"NT_FwpUIT9BYb5wT673us3yOB","LocationType":"point","DisplayPosition":{"Latitude":45.7913012,"Longitude":8.4975308},"MapView":{"TopLeft":{"Latitude":45.80306,"Longitude":8.47812},"BottomRight":{"Latitude":45.77678,"Longitude":8.50425}},"Address":{"Label":"Colazza, Piemonte, Italia","Country":"ITA","State":"Piemonte","County":"NO","City":"Colazza","PostalCode":"28010","AdditionalData":[{"value":"Italia","key":"CountryName"},{"value":"Piemonte","key":"StateName"},{"value":"Novara","key":"CountyName"}]},"MapReference":{"ReferenceId":"569152885","SideOfStreet":"neither","CountryId":"20110484","StateId":"20110485","CountyId":"20111784","CityId":"20111878"}}},{"Relevance":1.0,"Distance":5.9,"MatchLevel":"houseNumber","MatchQuality":{"Country":1.0,"State":1.0,"County":1.0,"City":1.0,"Street":[1.0],"HouseNumber":1.0,"PostalCode":1.0},"MatchType":"interpolated","Location":{"LocationId":"NT_XAXP.RKhvV4rBc4XYztxmA_xAD","LocationType":"point","DisplayPosition":{"Latitude":45.79135,"Longitude":8.49756},"MapView":{"TopLeft":{"Latitude":45.7924742,"Longitude":8.4959478},"BottomRight":{"Latitude":45.7902258,"Longitude":8.4991722}},"Address":{"Label":"Via Risorgimento, 10, 28010 Colazza NO, Italia","Country":"ITA","State":"Piemonte","County":"NO","City":"Colazza","Street":"Via Risorgimento","HouseNumber":"10","PostalCode":"28010","AdditionalData":[{"value":"Italia","key":"CountryName"},{"value":"Piemonte","key":"StateName"},{"value":"Novara","key":"CountyName"}]},"MapReference":{"ReferenceId":"568460922","Spot":0.26,"SideOfStreet":"left","CountryId":"20110484","StateId":"20110485","CountyId":"20111784","CityId":"20111878","AddressId":"386824359","RoadLinkId":"55056369"}}},{"Relevance":1.0,"Distance":25.2,"MatchLevel":"houseNumber","MatchQuality":{"Country":1.0,"State":1.0,"County":1.0,"City":1.0,"Street":[1.0],"HouseNumber":1.0,"PostalCode":1.0},"MatchType":"interpolated","Location":{"LocationId":"NT_QMb3tAgsaR1TcBnWmACEnA_zA","LocationType":"point","DisplayPosition":{"Latitude":45.79108,"Longitude":8.4976},"MapView":{"TopLeft":{"Latitude":45.7922042,"Longitude":8.4959878},"BottomRight":{"Latitude":45.7899558,"Longitude":8.4992122}},"Address":{"Label":"Vicolo Chiuso Rossi, 3, 28010 Colazza NO, Italia","Country":"ITA","State":"Piemonte","County":"NO","City":"Colazza","Street":"Vicolo Chiuso Rossi","HouseNumber":"3","PostalCode":"28010","AdditionalData":[{"value":"Italia","key":"CountryName"},{"value":"Piemonte","key":"StateName"},{"value":"Novara","key":"CountyName"}]},"MapReference":{"ReferenceId":"568460979","Spot":0.27,"SideOfStreet":"right","CountryId":"20110484","StateId":"20110485","CountyId":"20111784","CityId":"20111878","AddressId":"387049538","RoadLinkId":"55168719"}}},{"Relevance":1.0,"Distance":28.8,"MatchLevel":"houseNumber","MatchQuality":{"Country":1.0,"State":1.0,"County":1.0,"City":1.0,"Street":[1.0],"HouseNumber":1.0,"PostalCode":1.0},"MatchType":"interpolated","Location":{"LocationId":"NT_XAXP.RKhvV4rBc4XYztxmA_xYD","LocationType":"point","DisplayPosition":{"Latitude":45.79111,"Longitude":8.49728},"MapView":{"TopLeft":{"Latitude":45.7922342,"Longitude":8.4956678},"BottomRight":{"Latitude":45.7899858,"Longitude":8.4988922}},"Address":{"Label":"Via Risorgimento, 16, 28010 Colazza NO, Italia","Country":"ITA","State":"Piemonte","County":"NO","City":"Colazza","Street":"Via Risorgimento","HouseNumber":"16","PostalCode":"28010","AdditionalData":[{"value":"Italia","key":"CountryName"},{"value":"Piemonte","key":"StateName"},{"value":"Novara","key":"CountyName"}]},"MapReference":{"ReferenceId":"568460992","Spot":0.58,"SideOfStreet":"left","CountryId":"20110484","StateId":"20110485","CountyId":"20111784","CityId":"20111878","AddressId":"386498447","RoadLinkId":"55140455"}}},{"Relevance":1.0,"Distance":43.5,"MatchLevel":"houseNumber","MatchQuality":{"Country":1.0,"State":1.0,"County":1.0,"City":1.0,"Street":[1.0],"HouseNumber":1.0,"PostalCode":1.0},"MatchType":"interpolated","Location":{"LocationId":"NT_XAXP.RKhvV4rBc4XYztxmA_xA","LocationType":"point","DisplayPosition":{"Latitude":45.791,"Longitude":8.49716},"MapView":{"TopLeft":{"Latitude":45.7921242,"Longitude":8.4955478},"BottomRight":{"Latitude":45.7898758,"Longitude":8.4987722}},"Address":{"Label":"Via Risorgimento, 1, 28010 Colazza NO, Italia","Country":"ITA","State":"Piemonte","County":"NO","City":"Colazza","Street":"Via Risorgimento","HouseNumber":"1","PostalCode":"28010","AdditionalData":[{"value":"Italia","key":"CountryName"},{"value":"Piemonte","key":"StateName"},{"value":"Novara","key":"CountyName"}]},"MapReference":{"ReferenceId":"569152948","Spot":0.87,"SideOfStreet":"right","CountryId":"20110484","StateId":"20110485","CountyId":"20111784","CityId":"20111878","AddressId":"387051986","RoadLinkId":"55322322"}}},{"Relevance":1.0,"Distance":46.0,"MatchLevel":"houseNumber","MatchQuality":{"Country":1.0,"State":1.0,"County":1.0,"City":1.0,"Street":[1.0],"HouseNumber":1.0,"PostalCode":1.0},"MatchType":"interpolated","Location":{"LocationId":"NT_LJBgmSSfK6FIN29YN9LOXB_yA","LocationType":"point","DisplayPosition":{"Latitude":45.79107,"Longitude":8.49696},"MapView":{"TopLeft":{"Latitude":45.7921942,"Longitude":8.4953478},"BottomRight":{"Latitude":45.7899458,"Longitude":8.4985722}},"Address":{"Label":"Via Panoramica, 2, 28010 Colazza NO, Italia","Country":"ITA","State":"Piemonte","County":"NO","City":"Colazza","Street":"Via Panoramica","HouseNumber":"2","PostalCode":"28010","AdditionalData":[{"value":"Italia","key":"CountryName"},{"value":"Piemonte","key":"StateName"},{"value":"Novara","key":"CountyName"}]},"MapReference":{"ReferenceId":"569152845","Spot":0.5,"SideOfStreet":"left","CountryId":"20110484","StateId":"20110485","CountyId":"20111784","CityId":"20111878","AddressId":"387020391","RoadLinkId":"55102946"}}},{"Relevance":1.0,"Distance":55.9,"MatchLevel":"houseNumber","MatchQuality":{"Country":1.0,"State":1.0,"County":1.0,"City":1.0,"Street":[1.0],"HouseNumber":1.0,"PostalCode":1.0},"MatchType":"interpolated","Location":{"LocationId":"NT_dm0j1IPrkCwm7qhBAXX7rC_yA","LocationType":"point","DisplayPosition":{"Latitude":45.79151,"Longitude":8.49836},"MapView":{"TopLeft":{"Latitude":45.7926342,"Longitude":8.4967478},"BottomRight":{"Latitude":45.7903858,"Longitude":8.4999722}},"Address":{"Label":"Via Maestra Zanetta, 2, 28010 Colazza NO, Italia","Country":"ITA","State":"Piemonte","County":"NO","City":"Colazza","Street":"Via Maestra Zanetta","HouseNumber":"2","PostalCode":"28010","AdditionalData":[{"value":"Italia","key":"CountryName"},{"value":"Piemonte","key":"StateName"},{"value":"Novara","key":"CountyName"}]},"MapReference":{"ReferenceId":"1155337493","Spot":0.46,"SideOfStreet":"left","CountryId":"20110484","StateId":"20110485","CountyId":"20111784","CityId":"20111878","AddressId":"386656208","RoadLinkId":"461532816"}}},{"Relevance":1.0,"Distance":58.1,"MatchLevel":"houseNumber","MatchQuality":{"Country":1.0,"State":1.0,"County":1.0,"City":1.0,"Street":[1.0],"HouseNumber":1.0,"PostalCode":1.0},"MatchType":"interpolated","Location":{"LocationId":"NT_Ml08i38skglxTq9fdPOGED_0A","LocationType":"point","DisplayPosition":{"Latitude":45.79082,"Longitude":8.49703},"MapView":{"TopLeft":{"Latitude":45.7919442,"Longitude":8.4954178},"BottomRight":{"Latitude":45.7896958,"Longitude":8.4986422}},"Address":{"Label":"Piazza Milano, 4, 28010 Colazza NO, Italia","Country":"ITA","State":"Piemonte","County":"NO","City":"Colazza","Street":"Piazza Milano","HouseNumber":"4","PostalCode":"28010","AdditionalData":[{"value":"Italia","key":"CountryName"},{"value":"Piemonte","key":"StateName"},{"value":"Novara","key":"CountyName"}]},"MapReference":{"ReferenceId":"569152947","Spot":0.64,"SideOfStreet":"right","CountryId":"20110484","StateId":"20110485","CountyId":"20111784","CityId":"20111878","AddressId":"386352889","RoadLinkId":"55949674"}}},{"Relevance":1.0,"Distance":72.6,"MatchLevel":"street","MatchQuality":{"Country":1.0,"State":1.0,"County":1.0,"City":1.0,"PostalCode":1.0},"Location":{"LocationId":"NT_xv.-yFnwxbqW85iWefue2A_l_1197632419_L","LocationType":"point","DisplayPosition":{"Latitude":45.79075,"Longitude":8.49703},"MapView":{"TopLeft":{"Latitude":45.79076,"Longitude":8.49689},"BottomRight":{"Latitude":45.79075,"Longitude":8.49703}},"Address":{"Label":"28010 Colazza NO, Italia","Country":"ITA","State":"Piemonte","County":"NO","City":"Colazza","PostalCode":"28010","AdditionalData":[{"value":"Italia","key":"CountryName"},{"value":"Piemonte","key":"StateName"},{"value":"Novara","key":"CountyName"}]},"MapReference":{"ReferenceId":"1197632419","Spot":1.0,"SideOfStreet":"left","CountryId":"20110484","StateId":"20110485","CountyId":"20111784","CityId":"20111878"}}},{"Relevance":1.0,"Distance":73.8,"MatchLevel":"street","MatchQuality":{"Country":1.0,"State":1.0,"County":1.0,"City":1.0,"PostalCode":1.0},"Location":{"LocationId":"NT_xv.-yFnwxbqW85iWefue2A_l_1197630144_R","LocationType":"point","DisplayPosition":{"Latitude":45.79072,"Longitude":8.49707},"MapView":{"TopLeft":{"Latitude":45.79075,"Longitude":8.49703},"BottomRight":{"Latitude":45.79068,"Longitude":8.49709}},"Address":{"Label":"28010 Colazza NO, Italia","Country":"ITA","State":"Piemonte","County":"NO","City":"Colazza","PostalCode":"28010","AdditionalData":[{"value":"Italia","key":"CountryName"},{"value":"Piemonte","key":"StateName"},{"value":"Novara","key":"CountyName"}]},"MapReference":{"ReferenceId":"1197630144","Spot":0.49,"SideOfStreet":"right","CountryId":"20110484","StateId":"20110485","CountyId":"20111784","CityId":"20111878"}}}]}]}}