{"Response":{"MetaInfo":{"Timestamp":"2020-03-28T09:49:33.630+0000","NextPageInformation":"2"},"View":[{"_type":"SearchResultsViewType","ViewId":0,"Result":[{"Relevance":1.0,"Distance":0.0,"Direction":0.0,"MatchLevel":"city","MatchQuality":{"Country":1.0,"State":1.0,"County":1.0,"City":1.0,"PostalCode":1.0},"Location":{"LocationId":"NT_d2pfqy.AIEVh9A22Ievh4A","LocationType":"point","DisplayPosition":{"Latitude":45.7730189,"Longitude":4.8608674},"MapView":{"TopLeft":{"Latitude":45.79649,"Longitude":4.85874},"BottomRight":{"Latitude":45.74844,"Longitude":4.92124}},"Address":{"Label":"Villeurbanne, Auvergne-Rhône-Alpes, France","Country":"FRA","State":"Auvergne-Rhône-Alpes","County":"Rhône","City":"Villeurbanne","PostalCode":"69100","AdditionalData":[{"value":"France","key":"CountryName"},{"value":"Auvergne-Rhône-Alpes","key":"StateName"},{"value":"Rhône","key":"CountyName"}]},"MapReference":{"ReferenceId":"1215507719","SideOfStreet":"neither","CountryId":"20000001","StateId":"20006029","CountyId":"20035500","CityId":"20053615"}}},{"Relevance":1.0,"Distance":16.9,"MatchLevel":"houseNumber","MatchQuality":{"Country":1.0,"State":1.0,"County":1.0,"City":1.0,"Street":[1.0],"HouseNumber":1.0,"PostalCode":1.0},"MatchType":"interpolated","Location":{"LocationId":"NT_HsGUv9dkkPUhUfw-E4WOQD_5A","LocationType":"point","DisplayPosition":{"Latitude":45.77281,"Longitude":4.86063},"MapView":{"TopLeft":{"Latitude":45.7739342,"Longitude":4.8590183},"BottomRight":{"Latitude":45.7716858,"Longitude":4.8622417}},"Address":{"Label":"9 Cours André Philip, 69100 Villeurbanne, France","Country":"FRA","State":"Auvergne-Rhône-Alpes","County":"Rhône","City":"Villeurbanne","Street":"Cours André Philip","HouseNumber":"9","PostalCode":"69100","AdditionalData":[{"value":"France","key":"CountryName"},{"value":"Auvergne-Rhône-Alpes","key":"StateName"},{"value":"Rhône","key":"CountyName"}]},"MapReference":{"ReferenceId":"1104388172","Spot":0.72,"SideOfStreet":"right","CountryId":"20000001","StateId":"20006029","CountyId":"20035500","CityId":"20053615","AddressId":"319553185","RoadLinkId":"416213092"}}},{"Relevance":1.0,"Distance":18.5,"MatchLevel":"houseNumber","MatchQuality":{"Country":1.0,"State":1.0,"County":1.0,"City":1.0,"Street":[1.0],"HouseNumber":1.0,"PostalCode":1.0},"MatchType":"interpolated","Location":{"LocationId":"NT_VKlzeiAwXgvF0g4xWdbVdD_yAD","LocationType":"point","DisplayPosition":{"Latitude":45.77314,"Longitude":4.86104},"MapView":{"TopLeft":{"Latitude":45.7742642,"Longitude":4.8594283},"BottomRight":{"Latitude":45.7720158,"Longitude":4.8626517}},"Address":{"Label":"20 Rue Général Dayan, 69100 Villeurbanne, France","Country":"FRA","State":"Auvergne-Rhône-Alpes","County":"Rhône","City":"Villeurbanne","Street":"Rue Général Dayan","HouseNumber":"20","PostalCode":"69100","AdditionalData":[{"value":"France","key":"CountryName"},{"value":"Auvergne-Rhône-Alpes","key":"StateName"},{"value":"Rhône","key":"CountyName"}]},"MapReference":{"ReferenceId":"58229578","Spot":0.67,"SideOfStreet":"left","CountryId":"20000001","StateId":"20006029","CountyId":"20035500","CityId":"20053615","AddressId":"573829500","RoadLinkId":"46236332"}}},{"Relevance":1.0,"Distance":26.1,"MatchLevel":"street","MatchQuality":{"Country":1.0,"State":1.0,"County":1.0,"City":1.0,"Street":[1.0],"PostalCode":1.0},"Location":{"LocationId":"NT_VKlzeiAwXgvF0g4xWdbVdD_l_1034627324_L","LocationType":"point","DisplayPosition":{"Latitude":45.7728,"Longitude":4.86099},"MapView":{"TopLeft":{"Latitude":45.7728,"Longitude":4.86099},"BottomRight":{"Latitude":45.77271,"Longitude":4.86099}},"Address":{"Label":"Rue Général Dayan, 69100 Villeurbanne, France","Country":"FRA","State":"Auvergne-Rhône-Alpes","County":"Rhône","City":"Villeurbanne","Street":"Rue Général Dayan","PostalCode":"69100","AdditionalData":[{"value":"France","key":"CountryName"},{"value":"Auvergne-Rhône-Alpes","key":"StateName"},{"value":"Rhône","key":"CountyName"}]},"MapReference":{"ReferenceId":"1034627324","Spot":1.0,"SideOfStreet":"left","CountryId":"20000001","StateId":"20006029","CountyId":"20035500","CityId":"20053615"}}},{"Relevance":1.0,"Distance":26.3,"MatchLevel":"houseNumber","MatchQuality":{"Country":1.0,"State":1.0,"County":1.0,"City":1.0,"Street":[1.0],"HouseNumber":1.0,"PostalCode":1.0},"MatchType":"interpolated","Location":{"LocationId":"NT_rAM-bA0WD7p8JiTBNLk7bC_xQD","LocationType":"point","DisplayPosition":{"Latitude":45.77334,"Longitude":4.86065},"MapView":{"TopLeft":{"Latitude":45.7744642,"Longitude":4.8590383},"BottomRight":{"Latitude":45.7722158,"Longitude":4.8622617}},"Address":{"Label":"14 Rue Louis Malle, 69100 Villeurbanne, France","Country":"FRA","State":"Auvergne-Rhône-Alpes","County":"Rhône","City":"Villeurbanne","Street":"Rue Louis Malle","HouseNumber":"14","PostalCode":"69100","AdditionalData":[{"value":"France","key":"CountryName"},{"value":"Auvergne-Rhône-Alpes","key":"StateName"},{"value":"Rhône","key":"CountyName"}]},"MapReference":{"ReferenceId":"58229362","Spot":0.32,"SideOfStreet":"left","CountryId":"20000001","StateId":"20006029","CountyId":"20035500","CityId":"20053615","AddressId":"591051980","RoadLinkId":"45348947"}}},{"Relevance":1.0,"Distance":35.1,"MatchLevel":"houseNumber","MatchQuality":{"Country":1.0,"State":1.0,"County":1.0,"City":1.0,"Street":[1.0],"HouseNumber":1.0,"PostalCode":1.0},"MatchType":"interpolated","Location":{"LocationId":"NT_HsGUv9dkkPUhUfw-E4WOQD_4A","LocationType":"point","DisplayPosition":{"Latitude":45.77272,"Longitude":4.86072},"MapView":{"TopLeft":{"Latitude":45.7738442,"Longitude":4.8591083},"BottomRight":{"Latitude":45.7715958,"Longitude":4.8623317}},"Address":{"Label":"8 Cours André Philip, 69100 Villeurbanne, France","Country":"FRA","State":"Auvergne-Rhône-Alpes","County":"Rhône","City":"Villeurbanne","Street":"Cours André Philip","HouseNumber":"8","PostalCode":"69100","AdditionalData":[{"value":"France","key":"CountryName"},{"value":"Auvergne-Rhône-Alpes","key":"StateName"},{"value":"Rhône","key":"CountyName"}]},"MapReference":{"ReferenceId":"1104388167","Spot":0.64,"SideOfStreet":"left","CountryId":"20000001","StateId":"20006029","CountyId":"20035500","CityId":"20053615","AddressId":"319553186","RoadLinkId":"416213087"}}},{"Relevance":1.0,"Distance":35.6,"MatchLevel":"street","MatchQuality":{"Country":1.0,"State":1.0,"County":1.0,"City":1.0,"Street":[1.0],"PostalCode":1.0},"Location":{"LocationId":"NT_VKlzeiAwXgvF0g4xWdbVdD_l_1034627323_L","LocationType":"point","DisplayPosition":{"Latitude":45.77271,"Longitude":4.86099},"MapView":{"TopLeft":{"Latitude":45.77271,"Longitude":4.86092},"BottomRight":{"Latitude":45.77203,"Longitude":4.86099}},"Address":{"Label":"Rue Général Dayan, 69100 Villeurbanne, France","Country":"FRA","State":"Auvergne-Rhône-Alpes","County":"Rhône","City":"Villeurbanne","Street":"Rue Général Dayan","PostalCode":"69100","AdditionalData":[{"value":"France","key":"CountryName"},{"value":"Auvergne-Rhône-Alpes","key":"StateName"},{"value":"Rhône","key":"CountyName"}]},"MapReference":{"ReferenceId":"1034627323","Spot":1.0,"SideOfStreet":"left","CountryId":"20000001","StateId":"20006029","CountyId":"20035500","CityId":"20053615"}}},{"Relevance":1.0,"Distance":36.7,"MatchLevel":"street","MatchQuality":{"Country":1.0,"State":1.0,"County":1.0,"City":1.0,"Street":[1.0],"PostalCode":1.0},"Location":{"LocationId":"NT_HsGUv9dkkPUhUfw-E4WOQD_l_1104388173_R","LocationType":"point","DisplayPosition":{"Latitude":45.77282,"Longitude":4.86049},"MapView":{"TopLeft":{"Latitude":45.77287,"Longitude":4.85973},"BottomRight":{"Latitude":45.77282,"Longitude":4.86049}},"Address":{"Label":"Cours André Philip, 69100 Villeurbanne, France","Country":"FRA","State":"Auvergne-Rhône-Alpes","County":"Rhône","City":"Villeurbanne","Street":"Cours André Philip","PostalCode":"69100","AdditionalData":[{"value":"France","key":"CountryName"},{"value":"Auvergne-Rhône-Alpes","key":"StateName"},{"value":"Rhône","key":"CountyName"}]},"MapReference":{"ReferenceId":"1104388173","Spot":0.0,"SideOfStreet":"right","CountryId":"20000001","StateId":"20006029","CountyId":"20035500","CityId":"20053615"}}},{"Relevance":1.0,"Distance":38.6,"MatchLevel":"street","MatchQuality":{"Country":1.0,"State":1.0,"County":1.0,"City":1.0,"PostalCode":1.0},"Location":{"LocationId":"NT_BkNSKTLk85qKIJzNEZ2X5A_l_1104388171_R","LocationType":"point","DisplayPosition":{"Latitude":45.77274,"Longitude":4.86057},"MapView":{"TopLeft":{"Latitude":45.77274,"Longitude":4.86042},"BottomRight":{"Latitude":45.77206,"Longitude":4.86057}},"Address":{"Label":"69100 Villeurbanne, France","Country":"FRA","State":"Auvergne-Rhône-Alpes","County":"Rhône","City":"Villeurbanne","PostalCode":"69100","AdditionalData":[{"value":"France","key":"CountryName"},{"value":"Auvergne-Rhône-Alpes","key":"StateName"},{"value":"Rhône","key":"CountyName"}]},"MapReference":{"ReferenceId":"1104388171","Spot":1.0,"SideOfStreet":"right","CountryId":"20000001","StateId":"20006029","CountyId":"20035500","CityId":"20053615"}}},{"Relevance":1.0,"Distance":49.5,"MatchLevel":"houseNumber","MatchQuality":{"Country":1.0,"State":1.0,"County":1.0,"City":1.0,"Street":[1.0],"HouseNumber":1.0,"PostalCode":1.0},"MatchType":"interpolated","Location":{"LocationId":"NT_HsGUv9dkkPUhUfw-E4WOQD_xUD","LocationType":"point","DisplayPosition":{"Latitude":45.77277,"Longitude":4.86148},"MapView":{"TopLeft":{"Latitude":45.7738942,"Longitude":4.8598683},"BottomRight":{"Latitude":45.7716458,"Longitude":4.8630917}},"Address":{"Label":"15 Cours André Philip, 69100 Villeurbanne, France","Country":"FRA","State":"Auvergne-Rhône-Alpes","County":"Rhône","City":"Villeurbanne","Street":"Cours André Philip","HouseNumber":"15","PostalCode":"69100","AdditionalData":[{"value":"France","key":"CountryName"},{"value":"Auvergne-Rhône-Alpes","key":"StateName"},{"value":"Rhône","key":"CountyName"}]},"MapReference":{"ReferenceId":"58248101","Spot":0.49,"SideOfStreet":"right","CountryId":"20000001","StateId":"20006029","CountyId":"20035500","CityId":"20053615","AddressId":"319811958","RoadLinkId":"45129257"}}}]}]}}