{"Response":{"MetaInfo":{"Timestamp":"2020-03-28T11:13:46.594+0000","NextPageInformation":"2"},"View":[{"_type":"SearchResultsViewType","ViewId":0,"Result":[{"Relevance":1.0,"Distance":-27.4,"MatchLevel":"landmark","MatchQuality":{"Country":1.0,"State":1.0,"County":1.0,"City":1.0,"District":1.0,"PostalCode":1.0,"Name":1.0},"Location":{"LocationId":"NT_UuPKiTCu-FDDU-ZBeTxy9C","LocationType":"hospital","Name":"Hôpital Gériatrique Pierre Garraud","DisplayPosition":{"Latitude":45.74872,"Longitude":4.78774},"MapView":{"TopLeft":{"Latitude":45.75061,"Longitude":4.78531},"BottomRight":{"Latitude":45.74683,"Longitude":4.79035}},"Address":{"Label":"69005 Lyon, France","Country":"FRA","State":"Auvergne-Rhône-Alpes","County":"Rhône","City":"Lyon","District":"5e Arrondissement","PostalCode":"69005","AdditionalData":[{"value":"France","key":"CountryName"},{"value":"Auvergne-Rhône-Alpes","key":"StateName"},{"value":"Rhône","key":"CountyName"}]},"MapReference":{"CountryId":"20000001","StateId":"20006029","CountyId":"20035500","CityId":"20053186","DistrictId":"20053192","PlaceId":"53431433"}}},{"Relevance":1.0,"Distance":0.0,"Direction":0.0,"MatchLevel":"district","MatchQuality":{"Country":1.0,"State":1.0,"County":1.0,"City":1.0,"District":1.0,"PostalCode":1.0},"Location":{"LocationId":"NT_cWsvYG8mdYRL30BRFVbN5D","LocationType":"point","DisplayPosition":{"Latitude":45.7477649,"Longitude":4.7895022},"MapView":{"TopLeft":{"Latitude":45.76746,"Longitude":4.77176},"BottomRight":{"Latitude":45.74441,"Longitude":4.83002}},"Address":{"Label":"5e Arrondissement, Lyon, Auvergne-Rhône-Alpes, France","Country":"FRA","State":"Auvergne-Rhône-Alpes","County":"Rhône","City":"Lyon","District":"5e Arrondissement","PostalCode":"69005","AdditionalData":[{"value":"France","key":"CountryName"},{"value":"Auvergne-Rhône-Alpes","key":"StateName"},{"value":"Rhône","key":"CountyName"}]},"MapReference":{"ReferenceId":"58234616","SideOfStreet":"neither","CountryId":"20000001","StateId":"20006029","CountyId":"20035500","CityId":"20053186","DistrictId":"20053192"}}},{"Relevance":1.0,"Distance":22.5,"MatchLevel":"street","MatchQuality":{"Country":1.0,"State":1.0,"County":1.0,"City":1.0,"District":1.0,"Street":[1.0],"PostalCode":1.0},"Location":{"LocationId":"NT_ZXN5wTPoBNtS3-Pr6s2IED_l_69196406_R","LocationType":"point","DisplayPosition":{"Latitude":45.747618,"Longitude":4.7893026},"MapView":{"TopLeft":{"Latitude":45.7486,"Longitude":4.78858},"BottomRight":{"Latitude":45.74701,"Longitude":4.78975}},"Address":{"Label":"Rue Commandant Charcot, 69005 Lyon, France","Country":"FRA","State":"Auvergne-Rhône-Alpes","County":"Rhône","City":"Lyon","District":"5e Arrondissement","Street":"Rue Commandant Charcot","PostalCode":"69005","AdditionalData":[{"value":"France","key":"CountryName"},{"value":"Auvergne-Rhône-Alpes","key":"StateName"},{"value":"Rhône","key":"CountyName"}]},"MapReference":{"ReferenceId":"69196406","Spot":0.38,"SideOfStreet":"right","CountryId":"20000001","StateId":"20006029","CountyId":"20035500","CityId":"20053186","DistrictId":"20053192"}}},{"Relevance":1.0,"Distance":61.9,"MatchLevel":"houseNumber","MatchQuality":{"Country":1.0,"State":1.0,"County":1.0,"City":1.0,"District":1.0,"Street":[1.0],"HouseNumber":1.0,"PostalCode":1.0},"MatchType":"interpolated","Location":{"LocationId":"NT_ZXN5wTPoBNtS3-Pr6s2IED_xMDN","LocationType":"point","DisplayPosition":{"Latitude":45.74713,"Longitude":4.79005},"MapView":{"TopLeft":{"Latitude":45.7482542,"Longitude":4.7884391},"BottomRight":{"Latitude":45.7460058,"Longitude":4.7916609}},"Address":{"Label":"134 Rue Commandant Charcot, 69005 Lyon, France","Country":"FRA","State":"Auvergne-Rhône-Alpes","County":"Rhône","City":"Lyon","District":"5e Arrondissement","Street":"Rue Commandant Charcot","HouseNumber":"134","PostalCode":"69005","AdditionalData":[{"value":"France","key":"CountryName"},{"value":"Auvergne-Rhône-Alpes","key":"StateName"},{"value":"Rhône","key":"CountyName"}]},"MapReference":{"ReferenceId":"1007555960","Spot":0.0,"SideOfStreet":"left","CountryId":"20000001","StateId":"20006029","CountyId":"20035500","CityId":"20053186","DistrictId":"20053192","AddressId":"319442143","RoadLinkId":"332301015"}}},{"Relevance":1.0,"Distance":67.4,"MatchLevel":"houseNumber","MatchQuality":{"Country":1.0,"State":1.0,"County":1.0,"City":1.0,"District":1.0,"Street":[1.0],"HouseNumber":1.0,"PostalCode":1.0},"MatchType":"interpolated","Location":{"LocationId":"NT_ZXN5wTPoBNtS3-Pr6s2IED_xMjN","LocationType":"point","DisplayPosition":{"Latitude":45.74695,"Longitude":4.7896},"MapView":{"TopLeft":{"Latitude":45.7480742,"Longitude":4.7879891},"BottomRight":{"Latitude":45.7458258,"Longitude":4.7912109}},"Address":{"Label":"136 Rue Commandant Charcot, 69005 Lyon, France","Country":"FRA","State":"Auvergne-Rhône-Alpes","County":"Rhône","City":"Lyon","District":"5e Arrondissement","Street":"Rue Commandant Charcot","HouseNumber":"136","PostalCode":"69005","AdditionalData":[{"value":"France","key":"CountryName"},{"value":"Auvergne-Rhône-Alpes","key":"StateName"},{"value":"Rhône","key":"CountyName"}]},"MapReference":{"ReferenceId":"69196407","Spot":0.68,"SideOfStreet":"left","CountryId":"20000001","StateId":"20006029","CountyId":"20035500","CityId":"20053186","DistrictId":"20053192","AddressId":"673580439","RoadLinkId":"45409205"}}},{"Relevance":1.0,"Distance":73.5,"MatchLevel":"houseNumber","MatchQuality":{"Country":1.0,"State":1.0,"County":1.0,"City":1.0,"District":1.0,"Street":[1.0],"HouseNumber":1.0,"PostalCode":1.0},"MatchType":"interpolated","Location":{"LocationId":"NT_ZXN5wTPoBNtS3-Pr6s2IED_xMDM","LocationType":"point","DisplayPosition":{"Latitude":45.74733,"Longitude":4.79052},"MapView":{"TopLeft":{"Latitude":45.7484542,"Longitude":4.7889091},"BottomRight":{"Latitude":45.7462058,"Longitude":4.7921309}},"Address":{"Label":"130 Rue Commandant Charcot, 69005 Lyon, France","Country":"FRA","State":"Auvergne-Rhône-Alpes","County":"Rhône","City":"Lyon","District":"5e Arrondissement","Street":"Rue Commandant Charcot","HouseNumber":"130","PostalCode":"69005","AdditionalData":[{"value":"France","key":"CountryName"},{"value":"Auvergne-Rhône-Alpes","key":"StateName"},{"value":"Rhône","key":"CountyName"}]},"MapReference":{"ReferenceId":"58254571","Spot":0.39,"SideOfStreet":"left","CountryId":"20000001","StateId":"20006029","CountyId":"20035500","CityId":"20053186","DistrictId":"20053192","AddressId":"319943412","RoadLinkId":"45505586"}}},{"Relevance":1.0,"Distance":82.8,"MatchLevel":"houseNumber","MatchQuality":{"Country":1.0,"State":1.0,"County":1.0,"City":1.0,"District":1.0,"Street":[1.0],"HouseNumber":1.0,"PostalCode":1.0},"MatchType":"interpolated","Location":{"LocationId":"NT_Bd6-Hr1JbWs3O0n6prnkuA_5ED","LocationType":"point","DisplayPosition":{"Latitude":45.74711,"Longitude":4.79001},"MapView":{"TopLeft":{"Latitude":45.7482342,"Longitude":4.7883991},"BottomRight":{"Latitude":45.7459858,"Longitude":4.7916209}},"Address":{"Label":"91 Rue Commandant Charcot, 69110 Sainte-Foy-lès-Lyon, France","Country":"FRA","State":"Auvergne-Rhône-Alpes","County":"Rhône","City":"Sainte-Foy-lès-Lyon","District":"Ménival","Street":"Rue Commandant Charcot","HouseNumber":"91","PostalCode":"69110","AdditionalData":[{"value":"France","key":"CountryName"},{"value":"Auvergne-Rhône-Alpes","key":"StateName"},{"value":"Rhône","key":"CountyName"}]},"MapReference":{"ReferenceId":"1007555959","Spot":0.86,"SideOfStreet":"right","CountryId":"20000001","StateId":"20006029","CountyId":"20035500","CityId":"20053431","AddressId":"379893985","RoadLinkId":"332301014"}}},{"Relevance":1.0,"Distance":91.7,"MatchLevel":"houseNumber","MatchQuality":{"Country":1.0,"State":1.0,"County":1.0,"City":1.0,"District":1.0,"Street":[1.0],"HouseNumber":1.0,"PostalCode":1.0},"MatchType":"interpolated","Location":{"LocationId":"NT_dGqKqqb.PggolohJSymfjA_xYD","LocationType":"point","DisplayPosition":{"Latitude":45.74847,"Longitude":4.79052},"MapView":{"TopLeft":{"Latitude":45.7495942,"Longitude":4.788909},"BottomRight":{"Latitude":45.7473458,"Longitude":4.792131}},"Address":{"Label":"16 Rue Jeunet, 69005 Lyon, France","Country":"FRA","State":"Auvergne-Rhône-Alpes","County":"Rhône","City":"Lyon","District":"5e Arrondissement","Street":"Rue Jeunet","HouseNumber":"16","PostalCode":"69005","AdditionalData":[{"value":"France","key":"CountryName"},{"value":"Auvergne-Rhône-Alpes","key":"StateName"},{"value":"Rhône","key":"CountyName"}]},"MapReference":{"ReferenceId":"1164800634","Spot":0.82,"SideOfStreet":"left","CountryId":"20000001","StateId":"20006029","CountyId":"20035500","CityId":"20053186","DistrictId":"20053192","AddressId":"319650856","RoadLinkId":"471148435"}}},{"Relevance":1.0,"Distance":96.7,"MatchLevel":"houseNumber","MatchQuality":{"Country":1.0,"State":1.0,"County":1.0,"City":1.0,"District":1.0,"Street":[1.0],"HouseNumber":1.0,"PostalCode":1.0},"MatchType":"interpolated","Location":{"LocationId":"NT_dGqKqqb.PggolohJSymfjA_yAD","LocationType":"point","DisplayPosition":{"Latitude":45.74802,"Longitude":4.7909},"MapView":{"TopLeft":{"Latitude":45.7491442,"Longitude":4.789289},"BottomRight":{"Latitude":45.7468958,"Longitude":4.792511}},"Address":{"Label":"20 Rue Jeunet, 69005 Lyon, France","Country":"FRA","State":"Auvergne-Rhône-Alpes","County":"Rhône","City":"Lyon","District":"5e Arrondissement","Street":"Rue Jeunet","HouseNumber":"20","PostalCode":"69005","AdditionalData":[{"value":"France","key":"CountryName"},{"value":"Auvergne-Rhône-Alpes","key":"StateName"},{"value":"Rhône","key":"CountyName"}]},"MapReference":{"ReferenceId":"763028244","Spot":0.97,"SideOfStreet":"left","CountryId":"20000001","StateId":"20006029","CountyId":"20035500","CityId":"20053186","DistrictId":"20053192","AddressId":"573666122","RoadLinkId":"157333147"}}},{"Relevance":1.0,"Distance":108.8,"MatchLevel":"street","MatchQuality":{"Country":1.0,"State":1.0,"County":1.0,"City":1.0,"Street":[1.0],"PostalCode":1.0},"Location":{"LocationId":"NT_TAmyr11kmbBpe59ckk9S8A_l_69196540_R","LocationType":"point","DisplayPosition":{"Latitude":45.74684,"Longitude":4.78996},"MapView":{"TopLeft":{"Latitude":45.74684,"Longitude":4.78996},"BottomRight":{"Latitude":45.74656,"Longitude":4.79027}},"Address":{"Label":"Rue Laurent Paul, 69110 Sainte-Foy-lès-Lyon, France","Country":"FRA","State":"Auvergne-Rhône-Alpes","County":"Rhône","City":"Sainte-Foy-lès-Lyon","Street":"Rue Laurent Paul","PostalCode":"69110","AdditionalData":[{"value":"France","key":"CountryName"},{"value":"Auvergne-Rhône-Alpes","key":"StateName"},{"value":"Rhône","key":"CountyName"}]},"MapReference":{"ReferenceId":"69196540","Spot":1.0,"SideOfStreet":"right","CountryId":"20000001","StateId":"20006029","CountyId":"20035500","CityId":"20053431"}}}]}]}}