{"Response":{"MetaInfo":{"Timestamp":"2020-03-28T12:02:03.630+0000","NextPageInformation":"2"},"View":[{"_type":"SearchResultsViewType","ViewId":0,"Result":[{"Relevance":1.0,"Distance":0.0,"Direction":0.0,"MatchLevel":"city","MatchQuality":{"Country":1.0,"County":1.0,"City":1.0,"PostalCode":1.0},"Location":{"LocationId":"NT_.RL6jjtU-mBqvb5C.wDQVB","LocationType":"point","DisplayPosition":{"Latitude":45.7232007,"Longitude":15.9066551},"MapView":{"TopLeft":{"Latitude":45.96907,"Longitude":15.77326},"BottomRight":{"Latitude":45.61397,"Longitude":16.23961}},"Address":{"Label":"Zagreb, Hrvatska","Country":"HRV","County":"Grad Zagreb","City":"Zagreb","PostalCode":"10000","AdditionalData":[{"value":"Hrvatska","key":"CountryName"},{"value":"Grad Zagreb","key":"CountyName"}]},"MapReference":{"ReferenceId":"772901738","SideOfStreet":"neither","CountryId":"20633739","CountyId":"20641560","CityId":"20641561"}}},{"Relevance":1.0,"Distance":9.5,"MatchLevel":"houseNumber","MatchQuality":{"Country":1.0,"County":1.0,"City":1.0,"District":1.0,"Street":[1.0],"HouseNumber":1.0,"PostalCode":1.0},"MatchType":"interpolated","Location":{"LocationId":"NT_KFMwrwMcmJ.w3R0fN6qpMB_xIzM","LocationType":"point","DisplayPosition":{"Latitude":45.72345,"Longitude":15.90642},"MapView":{"TopLeft":{"Latitude":45.7245742,"Longitude":15.9048097},"BottomRight":{"Latitude":45.7223258,"Longitude":15.9080303}},"Address":{"Label":"Brezovička cesta 123, HR-10257 Zagreb, Hrvatska","Country":"HRV","County":"Grad Zagreb","City":"Zagreb","District":"Brezovica","Street":"Brezovička cesta","HouseNumber":"123","PostalCode":"10257","AdditionalData":[{"value":"Hrvatska","key":"CountryName"},{"value":"Grad Zagreb","key":"CountyName"}]},"MapReference":{"ReferenceId":"957889081","Spot":0.03,"SideOfStreet":"right","CountryId":"20633739","CountyId":"20641560","CityId":"20641561","DistrictId":"20676218","AddressId":"623145403","RoadLinkId":"300861328"}}},{"Relevance":1.0,"Distance":32.8,"MatchLevel":"houseNumber","MatchQuality":{"Country":1.0,"County":1.0,"City":1.0,"District":1.0,"Street":[1.0],"HouseNumber":1.0,"PostalCode":1.0},"MatchType":"interpolated","Location":{"LocationId":"NT_KFMwrwMcmJ.w3R0fN6qpMB_xADN","LocationType":"point","DisplayPosition":{"Latitude":45.72343,"Longitude":15.90639},"MapView":{"TopLeft":{"Latitude":45.7245542,"Longitude":15.9047797},"BottomRight":{"Latitude":45.7223058,"Longitude":15.9080003}},"Address":{"Label":"Brezovička cesta 104, HR-10257 Zagreb, Hrvatska","Country":"HRV","County":"Grad Zagreb","City":"Zagreb","District":"Brezovica","Street":"Brezovička cesta","HouseNumber":"104","PostalCode":"10257","AdditionalData":[{"value":"Hrvatska","key":"CountryName"},{"value":"Grad Zagreb","key":"CountyName"}]},"MapReference":{"ReferenceId":"1070286142","Spot":0.87,"SideOfStreet":"left","CountryId":"20633739","CountyId":"20641560","CityId":"20641561","DistrictId":"20676218","AddressId":"623139311","RoadLinkId":"392438565"}}},{"Relevance":1.0,"Distance":36.5,"MatchLevel":"houseNumber","MatchQuality":{"Country":1.0,"County":1.0,"City":1.0,"District":1.0,"Street":[1.0],"HouseNumber":1.0,"PostalCode":1.0},"MatchType":"interpolated","Location":{"LocationId":"NT_KFMwrwMcmJ.w3R0fN6qpMB_xAjN","LocationType":"point","DisplayPosition":{"Latitude":45.72334,"Longitude":15.90623},"MapView":{"TopLeft":{"Latitude":45.7244642,"Longitude":15.9046198},"BottomRight":{"Latitude":45.7222158,"Longitude":15.9078402}},"Address":{"Label":"Brezovička cesta 106, HR-10257 Zagreb, Hrvatska","Country":"HRV","County":"Grad Zagreb","City":"Zagreb","District":"Brezovica","Street":"Brezovička cesta","HouseNumber":"106","PostalCode":"10257","AdditionalData":[{"value":"Hrvatska","key":"CountryName"},{"value":"Grad Zagreb","key":"CountyName"}]},"MapReference":{"ReferenceId":"1248255344","Spot":0.78,"SideOfStreet":"left","CountryId":"20633739","CountyId":"20641560","CityId":"20641561","DistrictId":"20676218","AddressId":"623136143","RoadLinkId":"570194560"}}},{"Relevance":1.0,"Distance":48.4,"MatchLevel":"street","MatchQuality":{"Country":1.0,"County":1.0,"City":1.0,"District":1.0,"Street":[1.0],"PostalCode":1.0},"Location":{"LocationId":"NT_KFMwrwMcmJ.w3R0fN6qpMB_l_957889082_R","LocationType":"point","DisplayPosition":{"Latitude":45.72363,"Longitude":15.90676},"MapView":{"TopLeft":{"Latitude":45.72376,"Longitude":15.90676},"BottomRight":{"Latitude":45.72363,"Longitude":15.90699}},"Address":{"Label":"Brezovička cesta, HR-10257 Zagreb, Hrvatska","Country":"HRV","County":"Grad Zagreb","City":"Zagreb","District":"Brezovica","Street":"Brezovička cesta","PostalCode":"10257","AdditionalData":[{"value":"Hrvatska","key":"CountryName"},{"value":"Grad Zagreb","key":"CountyName"}]},"MapReference":{"ReferenceId":"957889082","Spot":0.0,"SideOfStreet":"right","CountryId":"20633739","CountyId":"20641560","CityId":"20641561","DistrictId":"20676218"}}},{"Relevance":1.0,"Distance":50.7,"MatchLevel":"houseNumber","MatchQuality":{"Country":1.0,"County":1.0,"City":1.0,"District":1.0,"Street":[1.0],"HouseNumber":1.0,"PostalCode":1.0},"MatchType":"interpolated","Location":{"LocationId":"NT_KFMwrwMcmJ.w3R0fN6qpMB_xIzMCB","LocationType":"point","DisplayPosition":{"Latitude":45.72315,"Longitude":15.90587},"MapView":{"TopLeft":{"Latitude":45.7242742,"Longitude":15.9042598},"BottomRight":{"Latitude":45.7220258,"Longitude":15.9074802}},"Address":{"Label":"Brezovička cesta 123B, HR-10257 Zagreb, Hrvatska","Country":"HRV","County":"Grad Zagreb","City":"Zagreb","District":"Brezovica","Street":"Brezovička cesta","HouseNumber":"123B","PostalCode":"10257","AdditionalData":[{"value":"Hrvatska","key":"CountryName"},{"value":"Grad Zagreb","key":"CountyName"}]},"MapReference":{"ReferenceId":"1248255341","Spot":0.87,"SideOfStreet":"right","CountryId":"20633739","CountyId":"20641560","CityId":"20641561","DistrictId":"20676218","AddressId":"623136138","RoadLinkId":"570194557"}}},{"Relevance":1.0,"Distance":50.9,"MatchLevel":"houseNumber","MatchQuality":{"Country":1.0,"County":1.0,"City":1.0,"District":1.0,"Street":[1.0],"HouseNumber":1.0,"PostalCode":1.0},"MatchType":"interpolated","Location":{"LocationId":"NT_KFMwrwMcmJ.w3R0fN6qpMB_xADO","LocationType":"point","DisplayPosition":{"Latitude":45.72322,"Longitude":15.906},"MapView":{"TopLeft":{"Latitude":45.7243442,"Longitude":15.9043898},"BottomRight":{"Latitude":45.7220958,"Longitude":15.9076102}},"Address":{"Label":"Brezovička cesta 108, HR-10257 Zagreb, Hrvatska","Country":"HRV","County":"Grad Zagreb","City":"Zagreb","District":"Brezovica","Street":"Brezovička cesta","HouseNumber":"108","PostalCode":"10257","AdditionalData":[{"value":"Hrvatska","key":"CountryName"},{"value":"Grad Zagreb","key":"CountyName"}]},"MapReference":{"ReferenceId":"1248255343","Spot":0.0,"SideOfStreet":"left","CountryId":"20633739","CountyId":"20641560","CityId":"20641561","DistrictId":"20676218","AddressId":"623136142","RoadLinkId":"570194559"}}},{"Relevance":1.0,"Distance":55.5,"MatchLevel":"houseNumber","MatchQuality":{"Country":1.0,"County":1.0,"City":1.0,"District":1.0,"Street":[1.0],"HouseNumber":1.0,"PostalCode":1.0},"MatchType":"interpolated","Location":{"LocationId":"NT_KFMwrwMcmJ.w3R0fN6qpMB_xADOBB","LocationType":"point","DisplayPosition":{"Latitude":45.72319,"Longitude":15.90594},"MapView":{"TopLeft":{"Latitude":45.7243142,"Longitude":15.9043298},"BottomRight":{"Latitude":45.7220658,"Longitude":15.9075502}},"Address":{"Label":"Brezovička cesta 108A, HR-10257 Zagreb, Hrvatska","Country":"HRV","County":"Grad Zagreb","City":"Zagreb","District":"Brezovica","Street":"Brezovička cesta","HouseNumber":"108A","PostalCode":"10257","AdditionalData":[{"value":"Hrvatska","key":"CountryName"},{"value":"Grad Zagreb","key":"CountyName"}]},"MapReference":{"ReferenceId":"1248255342","Spot":0.5,"SideOfStreet":"left","CountryId":"20633739","CountyId":"20641560","CityId":"20641561","DistrictId":"20676218","AddressId":"623136139","RoadLinkId":"570194558"}}},{"Relevance":1.0,"Distance":67.4,"MatchLevel":"street","MatchQuality":{"Country":1.0,"County":1.0,"City":1.0,"District":1.0,"Street":[1.0],"PostalCode":1.0},"Location":{"LocationId":"NT_KFMwrwMcmJ.w3R0fN6qpMB_l_1070286137_R","LocationType":"point","DisplayPosition":{"Latitude":45.72376,"Longitude":15.90699},"MapView":{"TopLeft":{"Latitude":45.72381,"Longitude":15.90699},"BottomRight":{"Latitude":45.72376,"Longitude":15.90708}},"Address":{"Label":"Brezovička cesta, HR-10257 Zagreb, Hrvatska","Country":"HRV","County":"Grad Zagreb","City":"Zagreb","District":"Brezovica","Street":"Brezovička cesta","PostalCode":"10257","AdditionalData":[{"value":"Hrvatska","key":"CountryName"},{"value":"Grad Zagreb","key":"CountyName"}]},"MapReference":{"ReferenceId":"1070286137","Spot":0.0,"SideOfStreet":"right","CountryId":"20633739","CountyId":"20641560","CityId":"20641561","DistrictId":"20676218"}}},{"Relevance":1.0,"Distance":70.1,"MatchLevel":"houseNumber","MatchQuality":{"Country":1.0,"County":1.0,"City":1.0,"District":1.0,"Street":[1.0],"HouseNumber":1.0,"PostalCode":1.0},"MatchType":"interpolated","Location":{"LocationId":"NT_zpLpp5vNOB3gRk41rPxq0B_zEE","LocationType":"point","DisplayPosition":{"Latitude":45.72244,"Longitude":15.90658},"MapView":{"TopLeft":{"Latitude":45.7235642,"Longitude":15.9049698},"BottomRight":{"Latitude":45.7213158,"Longitude":15.9081902}},"Address":{"Label":"Kašinci 3A, HR-10257 Zagreb, Hrvatska","Country":"HRV","County":"Grad Zagreb","City":"Zagreb","District":"Zadvorsko","Street":"Kašinci","HouseNumber":"3A","PostalCode":"10257","AdditionalData":[{"value":"Hrvatska","key":"CountryName"},{"value":"Grad Zagreb","key":"CountyName"}]},"MapReference":{"ReferenceId":"1070294564","Spot":0.72,"SideOfStreet":"right","CountryId":"20633739","CountyId":"20641560","CityId":"20641561","DistrictId":"26981564","AddressId":"623138643","RoadLinkId":"392449593"}}}]}]}}