{"Response":{"MetaInfo":{"Timestamp":"2020-03-28T12:07:25.792+0000","NextPageInformation":"2"},"View":[{"_type":"SearchResultsViewType","ViewId":0,"Result":[{"Relevance":1.0,"Distance":0.0,"Direction":0.0,"MatchLevel":"district","MatchQuality":{"Country":1.0,"County":1.0,"City":1.0,"District":1.0,"PostalCode":1.0},"Location":{"LocationId":"NT_carQjdRR-u82J890cAc45A","LocationType":"point","DisplayPosition":{"Latitude":45.7045027,"Longitude":13.8554983},"MapView":{"TopLeft":{"Latitude":45.71125,"Longitude":13.84416},"BottomRight":{"Latitude":45.69804,"Longitude":13.88657}},"Address":{"Label":"Sežana, Slovenija","Country":"SVN","County":"Sežana","City":"Sežana","District":"Sežana","PostalCode":"6210","AdditionalData":[{"value":"Slovenija","key":"CountryName"},{"value":"Sežana","key":"CountyName"}]},"MapReference":{"ReferenceId":"981471408","SideOfStreet":"neither","CountryId":"20633685","CountyId":"20639701","CityId":"20639810","DistrictId":"22690256"}}},{"Relevance":1.0,"Distance":14.1,"MatchLevel":"street","MatchQuality":{"Country":1.0,"County":1.0,"City":1.0,"District":1.0,"Street":[1.0],"PostalCode":1.0},"Location":{"LocationId":"NT_doe2IkPFmm-YsTsAaLj8fB_l_716417253_R","LocationType":"point","DisplayPosition":{"Latitude":45.7046119,"Longitude":13.8554059},"MapView":{"TopLeft":{"Latitude":45.70652,"Longitude":13.85482},"BottomRight":{"Latitude":45.70448,"Longitude":13.85602}},"Address":{"Label":"Sežana-zahod, SI- 6210 Sežana, Slovenija","Country":"SVN","County":"Sežana","City":"Sežana","District":"Sežana","Street":"Sežana-zahod","PostalCode":"6210","AdditionalData":[{"value":"Slovenija","key":"CountryName"},{"value":"Sežana","key":"CountyName"}]},"MapReference":{"ReferenceId":"716417253","Spot":0.07,"SideOfStreet":"right","CountryId":"20633685","CountyId":"20639701","CityId":"20639810","DistrictId":"22690256"}}},{"Relevance":1.0,"Distance":17.7,"MatchLevel":"street","MatchQuality":{"Country":1.0,"County":1.0,"City":1.0,"District":1.0,"PostalCode":1.0},"Location":{"LocationId":"NT_O1ifIYE7kKFc.zn1qln8ZD_l_716417250_R","LocationType":"point","DisplayPosition":{"Latitude":45.7046062,"Longitude":13.8553257},"MapView":{"TopLeft":{"Latitude":45.70468,"Longitude":13.85525},"BottomRight":{"Latitude":45.70448,"Longitude":13.85537}},"Address":{"Label":"SI- 6210 Sežana, Slovenija","Country":"SVN","County":"Sežana","City":"Sežana","District":"Sežana","PostalCode":"6210","AdditionalData":[{"value":"Slovenija","key":"CountryName"},{"value":"Sežana","key":"CountyName"}]},"MapReference":{"ReferenceId":"716417250","Spot":0.63,"SideOfStreet":"right","CountryId":"20633685","CountyId":"20639701","CityId":"20639810","DistrictId":"22690256"}}},{"Relevance":1.0,"Distance":19.4,"MatchLevel":"street","MatchQuality":{"Country":1.0,"County":1.0,"City":1.0,"District":1.0,"Street":[1.0],"PostalCode":1.0},"Location":{"LocationId":"NT_doe2IkPFmm-YsTsAaLj8fB_l_716417249_R","LocationType":"point","DisplayPosition":{"Latitude":45.70448,"Longitude":13.85525},"MapView":{"TopLeft":{"Latitude":45.70448,"Longitude":13.85237},"BottomRight":{"Latitude":45.70395,"Longitude":13.85525}},"Address":{"Label":"Sežana-zahod, SI- 6210 Sežana, Slovenija","Country":"SVN","County":"Sežana","City":"Sežana","District":"Sežana","Street":"Sežana-zahod","PostalCode":"6210","AdditionalData":[{"value":"Slovenija","key":"CountryName"},{"value":"Sežana","key":"CountyName"}]},"MapReference":{"ReferenceId":"716417249","Spot":1.0,"SideOfStreet":"right","CountryId":"20633685","CountyId":"20639701","CityId":"20639810","DistrictId":"22690256"}}},{"Relevance":1.0,"Distance":21.4,"MatchLevel":"street","MatchQuality":{"Country":1.0,"County":1.0,"City":1.0,"District":1.0,"Street":[1.0],"PostalCode":1.0},"Location":{"LocationId":"NT_zFrxGJnZdpx.9t5H2DzUED_l_716530893_R","LocationType":"point","DisplayPosition":{"Latitude":45.7046944,"Longitude":13.8554709},"MapView":{"TopLeft":{"Latitude":45.70477,"Longitude":13.85537},"BottomRight":{"Latitude":45.70468,"Longitude":13.85595}},"Address":{"Label":"Partizanska cesta, SI- 6210 Sežana, Slovenija","Country":"SVN","County":"Sežana","City":"Sežana","District":"Sežana","Street":"Partizanska cesta","PostalCode":"6210","AdditionalData":[{"value":"Slovenija","key":"CountryName"},{"value":"Sežana","key":"CountyName"}]},"MapReference":{"ReferenceId":"716530893","Spot":0.17,"SideOfStreet":"right","CountryId":"20633685","CountyId":"20639701","CityId":"20639810","DistrictId":"22690256"}}},{"Relevance":1.0,"Distance":22.1,"MatchLevel":"street","MatchQuality":{"Country":1.0,"County":1.0,"City":1.0,"District":1.0,"Street":[1.0],"PostalCode":1.0},"Location":{"LocationId":"NT_DsqQy4ObBZiZfu3KDrocID_l_1116284795_R","LocationType":"point","DisplayPosition":{"Latitude":45.70468,"Longitude":13.85537},"MapView":{"TopLeft":{"Latitude":45.70468,"Longitude":13.85476},"BottomRight":{"Latitude":45.70459,"Longitude":13.85537}},"Address":{"Label":"Partizanska cesta, SI- 6210 Sežana, Slovenija","Country":"SVN","County":"Sežana","City":"Sežana","District":"Sežana","Street":"Partizanska cesta","PostalCode":"6210","AdditionalData":[{"value":"Slovenija","key":"CountryName"},{"value":"Sežana","key":"CountyName"}]},"MapReference":{"ReferenceId":"1116284795","Spot":1.0,"SideOfStreet":"right","CountryId":"20633685","CountyId":"20639701","CityId":"20639810","DistrictId":"22690256"}}},{"Relevance":1.0,"Distance":22.1,"MatchLevel":"street","MatchQuality":{"Country":1.0,"County":1.0,"City":1.0,"District":1.0,"Street":[1.0],"PostalCode":1.0},"Location":{"LocationId":"NT_doe2IkPFmm-YsTsAaLj8fB_l_716417248_R","LocationType":"point","DisplayPosition":{"Latitude":45.70468,"Longitude":13.85537},"MapView":{"TopLeft":{"Latitude":45.70652,"Longitude":13.85482},"BottomRight":{"Latitude":45.70468,"Longitude":13.85548}},"Address":{"Label":"Sežana-zahod, SI- 6210 Sežana, Slovenija","Country":"SVN","County":"Sežana","City":"Sežana","District":"Sežana","Street":"Sežana-zahod","PostalCode":"6210","AdditionalData":[{"value":"Slovenija","key":"CountryName"},{"value":"Sežana","key":"CountyName"}]},"MapReference":{"ReferenceId":"716417248","Spot":0.0,"SideOfStreet":"right","CountryId":"20633685","CountyId":"20639701","CityId":"20639810","DistrictId":"22690256"}}},{"Relevance":1.0,"Distance":42.9,"MatchLevel":"street","MatchQuality":{"Country":1.0,"County":1.0,"City":1.0,"District":1.0,"Street":[1.0],"PostalCode":1.0},"Location":{"LocationId":"NT_DsqQy4ObBZiZfu3KDrocID_l_981689391_L","LocationType":"point","DisplayPosition":{"Latitude":45.7046899,"Longitude":13.8559811},"MapView":{"TopLeft":{"Latitude":45.70477,"Longitude":13.85595},"BottomRight":{"Latitude":45.70428,"Longitude":13.85614}},"Address":{"Label":"Partizanska cesta, SI- 6210 Sežana, Slovenija","Country":"SVN","County":"Sežana","City":"Sežana","District":"Sežana","Street":"Partizanska cesta","PostalCode":"6210","AdditionalData":[{"value":"Slovenija","key":"CountryName"},{"value":"Sežana","key":"CountyName"}]},"MapReference":{"ReferenceId":"981689391","Spot":0.84,"SideOfStreet":"left","CountryId":"20633685","CountyId":"20639701","CityId":"20639810","DistrictId":"22690256"}}},{"Relevance":1.0,"Distance":46.0,"MatchLevel":"street","MatchQuality":{"Country":1.0,"County":1.0,"City":1.0,"District":1.0,"Street":[1.0],"PostalCode":1.0},"Location":{"LocationId":"NT_doe2IkPFmm-YsTsAaLj8fB_l_1116284792_L","LocationType":"point","DisplayPosition":{"Latitude":45.70477,"Longitude":13.85595},"MapView":{"TopLeft":{"Latitude":45.70583,"Longitude":13.85548},"BottomRight":{"Latitude":45.70477,"Longitude":13.85595}},"Address":{"Label":"Sežana-zahod, SI- 6210 Sežana, Slovenija","Country":"SVN","County":"Sežana","City":"Sežana","District":"Sežana","Street":"Sežana-zahod","PostalCode":"6210","AdditionalData":[{"value":"Slovenija","key":"CountryName"},{"value":"Sežana","key":"CountyName"}]},"MapReference":{"ReferenceId":"1116284792","Spot":0.0,"SideOfStreet":"left","CountryId":"20633685","CountyId":"20639701","CityId":"20639810","DistrictId":"22690256"}}},{"Relevance":1.0,"Distance":74.4,"MatchLevel":"houseNumber","MatchQuality":{"Country":1.0,"County":1.0,"City":1.0,"District":1.0,"Street":[1.0],"HouseNumber":1.0,"PostalCode":1.0},"MatchType":"interpolated","Location":{"LocationId":"NT_DsqQy4ObBZiZfu3KDrocID_3ETR","LocationType":"point","DisplayPosition":{"Latitude":45.70432,"Longitude":13.85642},"MapView":{"TopLeft":{"Latitude":45.7054442,"Longitude":13.8548103},"BottomRight":{"Latitude":45.7031958,"Longitude":13.8580297}},"Address":{"Label":"Partizanska cesta 71E, SI- 6210 Sežana, Slovenija","Country":"SVN","County":"Sežana","City":"Sežana","District":"Sežana","Street":"Partizanska cesta","HouseNumber":"71E","PostalCode":"6210","AdditionalData":[{"value":"Slovenija","key":"CountryName"},{"value":"Sežana","key":"CountyName"}]},"MapReference":{"ReferenceId":"1158629526","Spot":0.71,"SideOfStreet":"right","CountryId":"20633685","CountyId":"20639701","CityId":"20639810","DistrictId":"22690256","AddressId":"406541371","RoadLinkId":"465154112"}}}]}]}}