{"Response":{"MetaInfo":{"Timestamp":"2020-03-28T11:13:46.112+0000","NextPageInformation":"2"},"View":[{"_type":"SearchResultsViewType","ViewId":0,"Result":[{"Relevance":1.0,"Distance":0.0,"Direction":0.0,"MatchLevel":"city","MatchQuality":{"Country":1.0,"State":1.0,"County":1.0,"City":1.0,"PostalCode":1.0},"Location":{"LocationId":"NT_3bDlvjsi3lGTMnx0nPsKJA","LocationType":"point","DisplayPosition":{"Latitude":45.7503341,"Longitude":4.7539668},"MapView":{"TopLeft":{"Latitude":45.75186,"Longitude":4.72597},"BottomRight":{"Latitude":45.72559,"Longitude":4.78156}},"Address":{"Label":"Francheville, Auvergne-Rhône-Alpes, France","Country":"FRA","State":"Auvergne-Rhône-Alpes","County":"Rhône","City":"Francheville","PostalCode":"69340","AdditionalData":[{"value":"France","key":"CountryName"},{"value":"Auvergne-Rhône-Alpes","key":"StateName"},{"value":"Rhône","key":"CountyName"}]},"MapReference":{"ReferenceId":"58238501","SideOfStreet":"neither","CountryId":"20000001","StateId":"20006029","CountyId":"20035500","CityId":"20053084"}}},{"Relevance":1.0,"Distance":9.2,"MatchLevel":"houseNumber","MatchQuality":{"Country":1.0,"State":1.0,"County":1.0,"City":1.0,"Street":[1.0],"HouseNumber":1.0,"PostalCode":1.0},"MatchType":"interpolated","Location":{"LocationId":"NT_vC6XRhSpv9HWTOLfbg5IzD_xkDO","LocationType":"point","DisplayPosition":{"Latitude":45.75041,"Longitude":4.75392},"MapView":{"TopLeft":{"Latitude":45.7515342,"Longitude":4.752309},"BottomRight":{"Latitude":45.7492858,"Longitude":4.755531}},"Address":{"Label":"198 Voie Romaine, 69160 Tassin-la-Demi-Lune, France","Country":"FRA","State":"Auvergne-Rhône-Alpes","County":"Rhône","City":"Tassin-la-Demi-Lune","Street":"Voie Romaine","HouseNumber":"198","PostalCode":"69160","AdditionalData":[{"value":"France","key":"CountryName"},{"value":"Auvergne-Rhône-Alpes","key":"StateName"},{"value":"Rhône","key":"CountyName"}]},"MapReference":{"ReferenceId":"1249667612","Spot":0.63,"SideOfStreet":"left","CountryId":"20000001","StateId":"20006029","CountyId":"20035500","CityId":"20053552","AddressId":"345444386","RoadLinkId":"572404595"}}},{"Relevance":1.0,"Distance":41.5,"MatchLevel":"houseNumber","MatchQuality":{"Country":1.0,"State":1.0,"County":1.0,"City":1.0,"Street":[1.0],"HouseNumber":1.0,"PostalCode":1.0},"MatchType":"interpolated","Location":{"LocationId":"NT_L5drizghahZunLrB-rMLCB_xA","LocationType":"point","DisplayPosition":{"Latitude":45.75031,"Longitude":4.75455},"MapView":{"TopLeft":{"Latitude":45.7514342,"Longitude":4.752939},"BottomRight":{"Latitude":45.7491858,"Longitude":4.756161}},"Address":{"Label":"1 Allée de l'Expansion, 69340 Francheville, France","Country":"FRA","State":"Auvergne-Rhône-Alpes","County":"Rhône","City":"Francheville","Street":"Allée de l'Expansion","HouseNumber":"1","PostalCode":"69340","AdditionalData":[{"value":"France","key":"CountryName"},{"value":"Auvergne-Rhône-Alpes","key":"StateName"},{"value":"Rhône","key":"CountyName"}]},"MapReference":{"ReferenceId":"58236369","Spot":0.71,"SideOfStreet":"left","CountryId":"20000001","StateId":"20006029","CountyId":"20035500","CityId":"20053084","AddressId":"345464650","RoadLinkId":"45611620"}}},{"Relevance":1.0,"Distance":83.9,"MatchLevel":"street","MatchQuality":{"Country":1.0,"State":1.0,"County":1.0,"City":1.0,"PostalCode":1.0},"Location":{"LocationId":"NT_6aJYZO.eTMkre55pmZYXZC_l_1268348057_R","LocationType":"point","DisplayPosition":{"Latitude":45.75027,"Longitude":4.75289},"MapView":{"TopLeft":{"Latitude":45.75042,"Longitude":4.75285},"BottomRight":{"Latitude":45.75027,"Longitude":4.75289}},"Address":{"Label":"69160 Tassin-la-Demi-Lune, France","Country":"FRA","State":"Auvergne-Rhône-Alpes","County":"Rhône","City":"Tassin-la-Demi-Lune","PostalCode":"69160","AdditionalData":[{"value":"France","key":"CountryName"},{"value":"Auvergne-Rhône-Alpes","key":"StateName"},{"value":"Rhône","key":"CountyName"}]},"MapReference":{"ReferenceId":"1268348057","Spot":0.0,"SideOfStreet":"right","CountryId":"20000001","StateId":"20006029","CountyId":"20035500","CityId":"20053552"}}},{"Relevance":1.0,"Distance":87.2,"MatchLevel":"street","MatchQuality":{"Country":1.0,"State":1.0,"County":1.0,"City":1.0,"PostalCode":1.0},"Location":{"LocationId":"NT_6aJYZO.eTMkre55pmZYXZC_l_1268348058_R","LocationType":"point","DisplayPosition":{"Latitude":45.75042,"Longitude":4.75285},"MapView":{"TopLeft":{"Latitude":45.75235,"Longitude":4.75283},"BottomRight":{"Latitude":45.75042,"Longitude":4.75443}},"Address":{"Label":"69160 Tassin-la-Demi-Lune, France","Country":"FRA","State":"Auvergne-Rhône-Alpes","County":"Rhône","City":"Tassin-la-Demi-Lune","PostalCode":"69160","AdditionalData":[{"value":"France","key":"CountryName"},{"value":"Auvergne-Rhône-Alpes","key":"StateName"},{"value":"Rhône","key":"CountyName"}]},"MapReference":{"ReferenceId":"1268348058","Spot":0.0,"SideOfStreet":"right","CountryId":"20000001","StateId":"20006029","CountyId":"20035500","CityId":"20053552"}}},{"Relevance":1.0,"Distance":130.8,"MatchLevel":"houseNumber","MatchQuality":{"Country":1.0,"State":1.0,"County":1.0,"City":1.0,"Street":[1.0],"HouseNumber":1.0,"PostalCode":1.0},"MatchType":"interpolated","Location":{"LocationId":"NT_Wy0Ox4TNpXeyOha2FRqlEC_xIE","LocationType":"point","DisplayPosition":{"Latitude":45.74908,"Longitude":4.75398},"MapView":{"TopLeft":{"Latitude":45.7502042,"Longitude":4.752369},"BottomRight":{"Latitude":45.7479558,"Longitude":4.755591}},"Address":{"Label":"1B Chemin du Torey, 69340 Francheville, France","Country":"FRA","State":"Auvergne-Rhône-Alpes","County":"Rhône","City":"Francheville","Street":"Chemin du Torey","HouseNumber":"1B","PostalCode":"69340","AdditionalData":[{"value":"France","key":"CountryName"},{"value":"Auvergne-Rhône-Alpes","key":"StateName"},{"value":"Rhône","key":"CountyName"}]},"MapReference":{"ReferenceId":"1181546411","Spot":1.0,"SideOfStreet":"right","CountryId":"20000001","StateId":"20006029","CountyId":"20035500","CityId":"20053084","AddressId":"673579312","RoadLinkId":"489639155"}}},{"Relevance":1.0,"Distance":131.0,"MatchLevel":"houseNumber","MatchQuality":{"Country":1.0,"State":1.0,"County":1.0,"City":1.0,"Street":[1.0],"HouseNumber":1.0,"PostalCode":1.0},"MatchType":"interpolated","Location":{"LocationId":"NT_pSmfyqXFiiFAa1fZ9SL8GC_xATO","LocationType":"point","DisplayPosition":{"Latitude":45.75029,"Longitude":4.75228},"MapView":{"TopLeft":{"Latitude":45.7514142,"Longitude":4.750669},"BottomRight":{"Latitude":45.7491658,"Longitude":4.753891}},"Address":{"Label":"109 Voie Romaine, 69340 Francheville, France","Country":"FRA","State":"Auvergne-Rhône-Alpes","County":"Rhône","City":"Francheville","Street":"Voie Romaine","HouseNumber":"109","PostalCode":"69340","AdditionalData":[{"value":"France","key":"CountryName"},{"value":"Auvergne-Rhône-Alpes","key":"StateName"},{"value":"Rhône","key":"CountyName"}]},"MapReference":{"ReferenceId":"1249667611","Spot":0.95,"SideOfStreet":"left","CountryId":"20000001","StateId":"20006029","CountyId":"20035500","CityId":"20053084","AddressId":"787096265","RoadLinkId":"572404594"}}},{"Relevance":1.0,"Distance":133.3,"MatchLevel":"houseNumber","MatchQuality":{"Country":1.0,"State":1.0,"County":1.0,"City":1.0,"Street":[1.0],"HouseNumber":1.0,"PostalCode":1.0},"MatchType":"interpolated","Location":{"LocationId":"NT_vC6XRhSpv9HWTOLfbg5IzD_yADN","LocationType":"point","DisplayPosition":{"Latitude":45.75079,"Longitude":4.75553},"MapView":{"TopLeft":{"Latitude":45.7519142,"Longitude":4.753919},"BottomRight":{"Latitude":45.7496658,"Longitude":4.757141}},"Address":{"Label":"204 Voie Romaine, 69160 Tassin-la-Demi-Lune, France","Country":"FRA","State":"Auvergne-Rhône-Alpes","County":"Rhône","City":"Tassin-la-Demi-Lune","Street":"Voie Romaine","HouseNumber":"204","PostalCode":"69160","AdditionalData":[{"value":"France","key":"CountryName"},{"value":"Auvergne-Rhône-Alpes","key":"StateName"},{"value":"Rhône","key":"CountyName"}]},"MapReference":{"ReferenceId":"58236189","Spot":0.69,"SideOfStreet":"left","CountryId":"20000001","StateId":"20006029","CountyId":"20035500","CityId":"20053552","AddressId":"319614495","RoadLinkId":"45131697"}}},{"Relevance":1.0,"Distance":133.3,"MatchLevel":"street","MatchQuality":{"Country":1.0,"State":1.0,"County":1.0,"City":1.0,"Street":[1.0],"PostalCode":1.0},"Location":{"LocationId":"NT_WhRvJqlqSq623kN6EYNeXB_l_1268348048_R","LocationType":"point","DisplayPosition":{"Latitude":45.75029,"Longitude":4.75225},"MapView":{"TopLeft":{"Latitude":45.75031,"Longitude":4.75203},"BottomRight":{"Latitude":45.75029,"Longitude":4.75225}},"Address":{"Label":"Voie Romaine, 69160 Tassin-la-Demi-Lune, France","Country":"FRA","State":"Auvergne-Rhône-Alpes","County":"Rhône","City":"Tassin-la-Demi-Lune","Street":"Voie Romaine","PostalCode":"69160","AdditionalData":[{"value":"France","key":"CountryName"},{"value":"Auvergne-Rhône-Alpes","key":"StateName"},{"value":"Rhône","key":"CountyName"}]},"MapReference":{"ReferenceId":"1268348048","Spot":0.0,"SideOfStreet":"right","CountryId":"20000001","StateId":"20006029","CountyId":"20035500","CityId":"20053552"}}},{"Relevance":1.0,"Distance":135.0,"MatchLevel":"street","MatchQuality":{"Country":1.0,"State":1.0,"County":1.0,"City":1.0,"PostalCode":1.0},"Location":{"LocationId":"NT_fi5s0yPjyc9TVggVDjiDLC_l_962479577_R","LocationType":"point","DisplayPosition":{"Latitude":45.74963,"Longitude":4.75255},"MapView":{"TopLeft":{"Latitude":45.74973,"Longitude":4.75206},"BottomRight":{"Latitude":45.74933,"Longitude":4.75259}},"Address":{"Label":"69340 Francheville, France","Country":"FRA","State":"Auvergne-Rhône-Alpes","County":"Rhône","City":"Francheville","PostalCode":"69340","AdditionalData":[{"value":"France","key":"CountryName"},{"value":"Auvergne-Rhône-Alpes","key":"StateName"},{"value":"Rhône","key":"CountyName"}]},"MapReference":{"ReferenceId":"962479577","Spot":0.36,"SideOfStreet":"right","CountryId":"20000001","StateId":"20006029","CountyId":"20035500","CityId":"20053084"}}}]}]}}