{"Response":{"MetaInfo":{"Timestamp":"2020-03-28T11:35:35.519+0000","NextPageInformation":"2"},"View":[{"_type":"SearchResultsViewType","ViewId":0,"Result":[{"Relevance":1.0,"Distance":-2.8,"MatchLevel":"landmark","MatchQuality":{"Country":1.0,"County":1.0,"City":1.0,"District":1.0,"PostalCode":1.0,"Name":1.0},"Location":{"LocationId":"NT_R4soDT.0GaC00k1Qgn5CQB","LocationType":"hospital","Name":"Spitalul Militar Sibiu","DisplayPosition":{"Latitude":45.78489,"Longitude":24.13913},"MapView":{"TopLeft":{"Latitude":45.78555,"Longitude":24.13861},"BottomRight":{"Latitude":45.78423,"Longitude":24.13974}},"Address":{"Label":"550009 Sibiu, România","Country":"ROU","County":"Sibiu","City":"Sibiu","District":"Sibiu","PostalCode":"550009","AdditionalData":[{"value":"România","key":"CountryName"},{"value":"Sibiu","key":"CountyName"}]},"MapReference":{"CountryId":"20656215","CountyId":"20662327","CityId":"20662452","DistrictId":"20662453","PlaceId":"1410072662"}}},{"Relevance":1.0,"Distance":0.0,"Direction":0.0,"MatchLevel":"district","MatchQuality":{"Country":1.0,"County":1.0,"City":1.0,"District":1.0,"PostalCode":1.0},"Location":{"LocationId":"NT_mR3E1nkNnKbU.iO3s2d2gC","LocationType":"point","DisplayPosition":{"Latitude":45.7842809,"Longitude":24.1390507},"MapView":{"TopLeft":{"Latitude":45.82422,"Longitude":24.076},"BottomRight":{"Latitude":45.7571,"Longitude":24.2133}},"Address":{"Label":"Sibiu, România","Country":"ROU","County":"Sibiu","City":"Sibiu","District":"Sibiu","PostalCode":"550009","AdditionalData":[{"value":"România","key":"CountryName"},{"value":"Sibiu","key":"CountyName"}]},"MapReference":{"ReferenceId":"971312179","SideOfStreet":"neither","CountryId":"20656215","CountyId":"20662327","CityId":"20662452","DistrictId":"20662453"}}},{"Relevance":1.0,"Distance":7.8,"MatchLevel":"street","MatchQuality":{"Country":1.0,"County":1.0,"City":1.0,"District":1.0,"Street":[1.0],"PostalCode":1.0},"Location":{"LocationId":"NT_DI7pSGbsKoQv2nxbB6g4eB_l_1256793277_L","LocationType":"point","DisplayPosition":{"Latitude":45.78427,"Longitude":24.13915},"MapView":{"TopLeft":{"Latitude":45.78439,"Longitude":24.13915},"BottomRight":{"Latitude":45.78427,"Longitude":24.13922}},"Address":{"Label":"Bulevardul Victoriei, 550024 Sibiu, România","Country":"ROU","County":"Sibiu","City":"Sibiu","District":"Sibiu","Street":"Bulevardul Victoriei","PostalCode":"550024","AdditionalData":[{"value":"România","key":"CountryName"},{"value":"Sibiu","key":"CountyName"}]},"MapReference":{"ReferenceId":"1256793277","Spot":0.0,"SideOfStreet":"left","CountryId":"20656215","CountyId":"20662327","CityId":"20662452","DistrictId":"20662453"}}},{"Relevance":1.0,"Distance":8.0,"MatchLevel":"landmark","MatchQuality":{"Country":1.0,"County":1.0,"City":1.0,"District":1.0,"PostalCode":1.0,"Name":1.0},"Location":{"LocationId":"NT_VZgBVarQonUG2wBtbdhy4D","LocationType":"park","Name":"Parcul Sub Arini","DisplayPosition":{"Latitude":45.78068,"Longitude":24.13991},"MapView":{"TopLeft":{"Latitude":45.78637,"Longitude":24.13642},"BottomRight":{"Latitude":45.77499,"Longitude":24.14421}},"Address":{"Label":"550009 Sibiu, România","Country":"ROU","County":"Sibiu","City":"Sibiu","District":"Sibiu","PostalCode":"550009","AdditionalData":[{"value":"România","key":"CountryName"},{"value":"Sibiu","key":"CountyName"}]},"MapReference":{"CountryId":"20656215","CountyId":"20662327","CityId":"20662452","DistrictId":"20662453","PlaceId":"1409451956"}}},{"Relevance":1.0,"Distance":8.0,"MatchLevel":"street","MatchQuality":{"Country":1.0,"County":1.0,"City":1.0,"District":1.0,"Street":[1.0],"PostalCode":1.0},"Location":{"LocationId":"NT_DI7pSGbsKoQv2nxbB6g4eB_l_1256793276_L","LocationType":"point","DisplayPosition":{"Latitude":45.7842342,"Longitude":24.1391285},"MapView":{"TopLeft":{"Latitude":45.78427,"Longitude":24.13909},"BottomRight":{"Latitude":45.78417,"Longitude":24.13915}},"Address":{"Label":"Bulevardul Victoriei, 550024 Sibiu, România","Country":"ROU","County":"Sibiu","City":"Sibiu","District":"Sibiu","Street":"Bulevardul Victoriei","PostalCode":"550024","AdditionalData":[{"value":"România","key":"CountryName"},{"value":"Sibiu","key":"CountyName"}]},"MapReference":{"ReferenceId":"1256793276","Spot":0.64,"SideOfStreet":"left","CountryId":"20656215","CountyId":"20662327","CityId":"20662452","DistrictId":"20662453"}}},{"Relevance":1.0,"Distance":15.7,"MatchLevel":"houseNumber","MatchQuality":{"Country":1.0,"County":1.0,"City":1.0,"District":1.0,"Street":[1.0],"HouseNumber":1.0,"PostalCode":1.0},"MatchType":"interpolated","Location":{"LocationId":"NT_Ie-ANcz8TvIeFGOwysbchA_l_1195391710_R_0YD","LocationType":"point","DisplayPosition":{"Latitude":45.7842301,"Longitude":24.1388596},"MapView":{"TopLeft":{"Latitude":45.7853542,"Longitude":24.1372476},"BottomRight":{"Latitude":45.7831059,"Longitude":24.1404716}},"Address":{"Label":"Strada Victoriei 46, 550024 Sibiu, România","Country":"ROU","County":"Sibiu","City":"Sibiu","District":"Sibiu","Street":"Strada Victoriei","HouseNumber":"46","PostalCode":"550024","AdditionalData":[{"value":"România","key":"CountryName"},{"value":"Sibiu","key":"CountyName"}]},"MapReference":{"ReferenceId":"1195391710","Spot":0.51,"SideOfStreet":"right","CountryId":"20656215","CountyId":"20662327","CityId":"20662452","DistrictId":"20662453"}}},{"Relevance":1.0,"Distance":31.6,"MatchLevel":"houseNumber","MatchQuality":{"Country":1.0,"County":1.0,"City":1.0,"District":1.0,"Street":[1.0],"HouseNumber":1.0,"PostalCode":1.0},"MatchType":"interpolated","Location":{"LocationId":"NT_dXrx4lKIAod4zXkgzMlYBC_l_1256793275_L_0gD","LocationType":"point","DisplayPosition":{"Latitude":45.7839645,"Longitude":24.1389681},"MapView":{"TopLeft":{"Latitude":45.7850887,"Longitude":24.1373561},"BottomRight":{"Latitude":45.7828404,"Longitude":24.1405801}},"Address":{"Label":"Bulevardul Victoriei 48, 550024 Sibiu, România","Country":"ROU","County":"Sibiu","City":"Sibiu","District":"Sibiu","Street":"Bulevardul Victoriei","HouseNumber":"48","PostalCode":"550024","AdditionalData":[{"value":"România","key":"CountryName"},{"value":"Sibiu","key":"CountyName"}]},"MapReference":{"ReferenceId":"1256793275","Spot":0.49,"SideOfStreet":"left","CountryId":"20656215","CountyId":"20662327","CityId":"20662452","DistrictId":"20662453"}}},{"Relevance":1.0,"Distance":58.9,"MatchLevel":"street","MatchQuality":{"Country":1.0,"County":1.0,"City":1.0,"District":1.0,"Street":[1.0],"PostalCode":1.0},"Location":{"LocationId":"NT_dXrx4lKIAod4zXkgzMlYBC_l_980038688_L","LocationType":"point","DisplayPosition":{"Latitude":45.78377,"Longitude":24.13885},"MapView":{"TopLeft":{"Latitude":45.78377,"Longitude":24.13774},"BottomRight":{"Latitude":45.78195,"Longitude":24.13885}},"Address":{"Label":"Bulevardul Victoriei, 550024 Sibiu, România","Country":"ROU","County":"Sibiu","City":"Sibiu","District":"Sibiu","Street":"Bulevardul Victoriei","PostalCode":"550024","AdditionalData":[{"value":"România","key":"CountryName"},{"value":"Sibiu","key":"CountyName"}]},"MapReference":{"ReferenceId":"980038688","Spot":1.0,"SideOfStreet":"left","CountryId":"20656215","CountyId":"20662327","CityId":"20662452","DistrictId":"20662453"}}},{"Relevance":1.0,"Distance":86.5,"MatchLevel":"houseNumber","MatchQuality":{"Country":1.0,"County":1.0,"City":1.0,"District":1.0,"Street":[1.0],"HouseNumber":1.0,"PostalCode":1.0},"MatchType":"interpolated","Location":{"LocationId":"NT_DI7pSGbsKoQv2nxbB6g4eB_l_1256793278_L_0YD","LocationType":"point","DisplayPosition":{"Latitude":45.7849713,"Longitude":24.1395637},"MapView":{"TopLeft":{"Latitude":45.7860954,"Longitude":24.1379517},"BottomRight":{"Latitude":45.7838471,"Longitude":24.1411757}},"Address":{"Label":"Bulevardul Victoriei 46, 550024 Sibiu, România","Country":"ROU","County":"Sibiu","City":"Sibiu","District":"Sibiu","Street":"Bulevardul Victoriei","HouseNumber":"46","PostalCode":"550024","AdditionalData":[{"value":"România","key":"CountryName"},{"value":"Sibiu","key":"CountyName"}]},"MapReference":{"ReferenceId":"1256793278","Spot":0.5,"SideOfStreet":"left","CountryId":"20656215","CountyId":"20662327","CityId":"20662452","DistrictId":"20662453"}}},{"Relevance":1.0,"Distance":115.6,"MatchLevel":"houseNumber","MatchQuality":{"Country":1.0,"County":1.0,"City":1.0,"District":1.0,"Street":[1.0],"HouseNumber":1.0,"PostalCode":1.0},"MatchType":"interpolated","Location":{"LocationId":"NT_BfwGkeU8VLH..0J.lY6D3B_yITQ","LocationType":"point","DisplayPosition":{"Latitude":45.78472,"Longitude":24.1377},"MapView":{"TopLeft":{"Latitude":45.7858442,"Longitude":24.136088},"BottomRight":{"Latitude":45.7835958,"Longitude":24.139312}},"Address":{"Label":"Strada Munteniei 22A, 550058 Sibiu, România","Country":"ROU","County":"Sibiu","City":"Sibiu","District":"Sibiu","Street":"Strada Munteniei","HouseNumber":"22A","PostalCode":"550058","AdditionalData":[{"value":"România","key":"CountryName"},{"value":"Sibiu","key":"CountyName"}]},"MapReference":{"ReferenceId":"981431459","Spot":0.67,"SideOfStreet":"left","CountryId":"20656215","CountyId":"20662327","CityId":"20662452","DistrictId":"20662453","AddressId":"686980697","RoadLinkId":"313353998"}}}]}]}}