{"Response":{"MetaInfo":{"Timestamp":"2020-03-28T11:14:58.143+0000","NextPageInformation":"2"},"View":[{"_type":"SearchResultsViewType","ViewId":0,"Result":[{"Relevance":1.0,"Distance":0.0,"Direction":0.0,"MatchLevel":"city","MatchQuality":{"Country":1.0,"State":1.0,"County":1.0,"City":1.0,"PostalCode":1.0},"Location":{"LocationId":"NT_pN-F9PKoS2dOpCOGl-WL7B","LocationType":"point","DisplayPosition":{"Latitude":45.729615,"Longitude":3.2057703},"MapView":{"TopLeft":{"Latitude":45.76341,"Longitude":3.15008},"BottomRight":{"Latitude":45.72056,"Longitude":3.2265}},"Address":{"Label":"Cournon-d'Auvergne, Auvergne-Rhône-Alpes, France","Country":"FRA","State":"Auvergne-Rhône-Alpes","County":"Puy-de-Dôme","City":"Cournon-d'Auvergne","PostalCode":"63800","AdditionalData":[{"value":"France","key":"CountryName"},{"value":"Auvergne-Rhône-Alpes","key":"StateName"},{"value":"Puy-de-Dôme","key":"CountyName"}]},"MapReference":{"ReferenceId":"57941871","SideOfStreet":"neither","CountryId":"20000001","StateId":"20006029","CountyId":"20052821","CityId":"20103540"}}},{"Relevance":1.0,"Distance":30.7,"MatchLevel":"street","MatchQuality":{"Country":1.0,"State":1.0,"County":1.0,"City":1.0,"PostalCode":1.0},"Location":{"LocationId":"NT_cqQNQ4c2K3H.enS7-IOiKB_l_584895135_L","LocationType":"point","DisplayPosition":{"Latitude":45.7298891,"Longitude":3.2057246},"MapView":{"TopLeft":{"Latitude":45.72994,"Longitude":3.20547},"BottomRight":{"Latitude":45.72988,"Longitude":3.20573}},"Address":{"Label":"63800 Cournon-d'Auvergne, France","Country":"FRA","State":"Auvergne-Rhône-Alpes","County":"Puy-de-Dôme","City":"Cournon-d'Auvergne","PostalCode":"63800","AdditionalData":[{"value":"France","key":"CountryName"},{"value":"Auvergne-Rhône-Alpes","key":"StateName"},{"value":"Puy-de-Dôme","key":"CountyName"}]},"MapReference":{"ReferenceId":"584895135","Spot":0.02,"SideOfStreet":"left","CountryId":"20000001","StateId":"20006029","CountyId":"20052821","CityId":"20103540"}}},{"Relevance":1.0,"Distance":30.7,"MatchLevel":"street","MatchQuality":{"Country":1.0,"State":1.0,"County":1.0,"City":1.0,"PostalCode":1.0},"Location":{"LocationId":"NT_cqQNQ4c2K3H.enS7-IOiKB_l_584895136_R","LocationType":"point","DisplayPosition":{"Latitude":45.72989,"Longitude":3.20573},"MapView":{"TopLeft":{"Latitude":45.73012,"Longitude":3.20573},"BottomRight":{"Latitude":45.72989,"Longitude":3.20586}},"Address":{"Label":"63800 Cournon-d'Auvergne, France","Country":"FRA","State":"Auvergne-Rhône-Alpes","County":"Puy-de-Dôme","City":"Cournon-d'Auvergne","PostalCode":"63800","AdditionalData":[{"value":"France","key":"CountryName"},{"value":"Auvergne-Rhône-Alpes","key":"StateName"},{"value":"Puy-de-Dôme","key":"CountyName"}]},"MapReference":{"ReferenceId":"584895136","Spot":0.0,"SideOfStreet":"right","CountryId":"20000001","StateId":"20006029","CountyId":"20052821","CityId":"20103540"}}},{"Relevance":1.0,"Distance":43.0,"MatchLevel":"street","MatchQuality":{"Country":1.0,"State":1.0,"County":1.0,"City":1.0,"PostalCode":1.0},"Location":{"LocationId":"NT_cqQNQ4c2K3H.enS7-IOiKB_l_584895138_R","LocationType":"point","DisplayPosition":{"Latitude":45.72994,"Longitude":3.20547},"MapView":{"TopLeft":{"Latitude":45.73017,"Longitude":3.20544},"BottomRight":{"Latitude":45.72994,"Longitude":3.20563}},"Address":{"Label":"63800 Cournon-d'Auvergne, France","Country":"FRA","State":"Auvergne-Rhône-Alpes","County":"Puy-de-Dôme","City":"Cournon-d'Auvergne","PostalCode":"63800","AdditionalData":[{"value":"France","key":"CountryName"},{"value":"Auvergne-Rhône-Alpes","key":"StateName"},{"value":"Puy-de-Dôme","key":"CountyName"}]},"MapReference":{"ReferenceId":"584895138","Spot":0.0,"SideOfStreet":"right","CountryId":"20000001","StateId":"20006029","CountyId":"20052821","CityId":"20103540"}}},{"Relevance":1.0,"Distance":46.2,"MatchLevel":"houseNumber","MatchQuality":{"Country":1.0,"State":1.0,"County":1.0,"City":1.0,"Street":[1.0],"HouseNumber":1.0,"PostalCode":1.0},"MatchType":"interpolated","Location":{"LocationId":"NT_L2Rd1L-.ToE6ZtDfqGl4eC_1A","LocationType":"point","DisplayPosition":{"Latitude":45.7292,"Longitude":3.2057},"MapView":{"TopLeft":{"Latitude":45.7303242,"Longitude":3.2040896},"BottomRight":{"Latitude":45.7280758,"Longitude":3.2073104}},"Address":{"Label":"5 Rue du Moutier, 63800 Cournon-d'Auvergne, France","Country":"FRA","State":"Auvergne-Rhône-Alpes","County":"Puy-de-Dôme","City":"Cournon-d'Auvergne","Street":"Rue du Moutier","HouseNumber":"5","PostalCode":"63800","AdditionalData":[{"value":"France","key":"CountryName"},{"value":"Auvergne-Rhône-Alpes","key":"StateName"},{"value":"Puy-de-Dôme","key":"CountyName"}]},"MapReference":{"ReferenceId":"57942951","Spot":0.28,"SideOfStreet":"right","CountryId":"20000001","StateId":"20006029","CountyId":"20052821","CityId":"20103540","AddressId":"570045092","RoadLinkId":"53452050"}}},{"Relevance":1.0,"Distance":56.2,"MatchLevel":"street","MatchQuality":{"Country":1.0,"State":1.0,"County":1.0,"City":1.0,"Street":[1.0],"PostalCode":1.0},"Location":{"LocationId":"NT_mgf5-7yVNSStXjNABvoDMA_l_941856077_R","LocationType":"point","DisplayPosition":{"Latitude":45.73012,"Longitude":3.20581},"MapView":{"TopLeft":{"Latitude":45.7304,"Longitude":3.20581},"BottomRight":{"Latitude":45.73012,"Longitude":3.2062}},"Address":{"Label":"Boulevard Pasteur, 63800 Cournon-d'Auvergne, France","Country":"FRA","State":"Auvergne-Rhône-Alpes","County":"Puy-de-Dôme","City":"Cournon-d'Auvergne","Street":"Boulevard Pasteur","PostalCode":"63800","AdditionalData":[{"value":"France","key":"CountryName"},{"value":"Auvergne-Rhône-Alpes","key":"StateName"},{"value":"Puy-de-Dôme","key":"CountyName"}]},"MapReference":{"ReferenceId":"941856077","Spot":0.0,"SideOfStreet":"right","CountryId":"20000001","StateId":"20006029","CountyId":"20052821","CityId":"20103540"}}},{"Relevance":1.0,"Distance":56.2,"MatchLevel":"street","MatchQuality":{"Country":1.0,"State":1.0,"County":1.0,"City":1.0,"PostalCode":1.0},"Location":{"LocationId":"NT_cqQNQ4c2K3H.enS7-IOiKB_l_584895137_L","LocationType":"point","DisplayPosition":{"Latitude":45.73012,"Longitude":3.20581},"MapView":{"TopLeft":{"Latitude":45.73017,"Longitude":3.20563},"BottomRight":{"Latitude":45.73012,"Longitude":3.20581}},"Address":{"Label":"63800 Cournon-d'Auvergne, France","Country":"FRA","State":"Auvergne-Rhône-Alpes","County":"Puy-de-Dôme","City":"Cournon-d'Auvergne","PostalCode":"63800","AdditionalData":[{"value":"France","key":"CountryName"},{"value":"Auvergne-Rhône-Alpes","key":"StateName"},{"value":"Puy-de-Dôme","key":"CountyName"}]},"MapReference":{"ReferenceId":"584895137","Spot":0.0,"SideOfStreet":"left","CountryId":"20000001","StateId":"20006029","CountyId":"20052821","CityId":"20103540"}}},{"Relevance":1.0,"Distance":62.5,"MatchLevel":"houseNumber","MatchQuality":{"Country":1.0,"State":1.0,"County":1.0,"City":1.0,"Street":[1.0],"HouseNumber":1.0,"PostalCode":1.0},"MatchType":"interpolated","Location":{"LocationId":"NT_VzPOxoRu5lvwCwEDdaONSB_4A","LocationType":"point","DisplayPosition":{"Latitude":45.72893,"Longitude":3.20564},"MapView":{"TopLeft":{"Latitude":45.7300542,"Longitude":3.2040296},"BottomRight":{"Latitude":45.7278058,"Longitude":3.2072504}},"Address":{"Label":"8 Impasse du Moutier, 63800 Cournon-d'Auvergne, France","Country":"FRA","State":"Auvergne-Rhône-Alpes","County":"Puy-de-Dôme","City":"Cournon-d'Auvergne","Street":"Impasse du Moutier","HouseNumber":"8","PostalCode":"63800","AdditionalData":[{"value":"France","key":"CountryName"},{"value":"Auvergne-Rhône-Alpes","key":"StateName"},{"value":"Puy-de-Dôme","key":"CountyName"}]},"MapReference":{"ReferenceId":"57942952","Spot":0.07,"SideOfStreet":"right","CountryId":"20000001","StateId":"20006029","CountyId":"20052821","CityId":"20103540","AddressId":"398966976","RoadLinkId":"52798571"}}},{"Relevance":1.0,"Distance":75.7,"MatchLevel":"houseNumber","MatchQuality":{"Country":1.0,"State":1.0,"County":1.0,"City":1.0,"Street":[1.0],"HouseNumber":1.0,"PostalCode":1.0},"MatchType":"interpolated","Location":{"LocationId":"NT_6gpk8ouNYoCQ.R1Ev37opD_l_57948531_R_xUD","LocationType":"point","DisplayPosition":{"Latitude":45.7293438,"Longitude":3.2048757},"MapView":{"TopLeft":{"Latitude":45.730468,"Longitude":3.2032653},"BottomRight":{"Latitude":45.7282197,"Longitude":3.2064861}},"Address":{"Label":"15 Boulevard Pasteur, 63800 Cournon-d'Auvergne, France","Country":"FRA","State":"Auvergne-Rhône-Alpes","County":"Puy-de-Dôme","City":"Cournon-d'Auvergne","Street":"Boulevard Pasteur","HouseNumber":"15","PostalCode":"63800","AdditionalData":[{"value":"France","key":"CountryName"},{"value":"Auvergne-Rhône-Alpes","key":"StateName"},{"value":"Puy-de-Dôme","key":"CountyName"}]},"MapReference":{"ReferenceId":"57948531","Spot":0.53,"SideOfStreet":"right","CountryId":"20000001","StateId":"20006029","CountyId":"20052821","CityId":"20103540"}}},{"Relevance":1.0,"Distance":79.5,"MatchLevel":"houseNumber","MatchQuality":{"Country":1.0,"State":1.0,"County":1.0,"City":1.0,"Street":[1.0],"HouseNumber":1.0,"PostalCode":1.0},"MatchType":"interpolated","Location":{"LocationId":"NT_CLP6mssgMmBh8pxKXyg-eD_4cD","LocationType":"point","DisplayPosition":{"Latitude":45.73034,"Longitude":3.20561},"MapView":{"TopLeft":{"Latitude":45.7314642,"Longitude":3.2039996},"BottomRight":{"Latitude":45.7292158,"Longitude":3.2072204}},"Address":{"Label":"87 Rue du Foirail, 63800 Cournon-d'Auvergne, France","Country":"FRA","State":"Auvergne-Rhône-Alpes","County":"Puy-de-Dôme","City":"Cournon-d'Auvergne","Street":"Rue du Foirail","HouseNumber":"87","PostalCode":"63800","AdditionalData":[{"value":"France","key":"CountryName"},{"value":"Auvergne-Rhône-Alpes","key":"StateName"},{"value":"Puy-de-Dôme","key":"CountyName"}]},"MapReference":{"ReferenceId":"57942802","Spot":0.1,"SideOfStreet":"right","CountryId":"20000001","StateId":"20006029","CountyId":"20052821","CityId":"20103540","AddressId":"370741462","RoadLinkId":"53468355"}}}]}]}}