{"Response":{"MetaInfo":{"Timestamp":"2020-03-28T12:03:18.808+0000","NextPageInformation":"2"},"View":[{"_type":"SearchResultsViewType","ViewId":0,"Result":[{"Relevance":1.0,"Distance":0.0,"Direction":0.0,"MatchLevel":"city","MatchQuality":{"Country":1.0,"State":1.0,"County":1.0,"City":1.0,"PostalCode":1.0},"Location":{"LocationId":"NT_EY82w-6RFAVVNoY-bFB7sA","LocationType":"point","DisplayPosition":{"Latitude":45.7693559,"Longitude":9.0005725},"MapView":{"TopLeft":{"Latitude":45.78333,"Longitude":8.97008},"BottomRight":{"Latitude":45.74574,"Longitude":9.01161}},"Address":{"Label":"Lurate Caccivio, Lombardia, Italia","Country":"ITA","State":"Lombardia","County":"CO","City":"Lurate Caccivio","PostalCode":"22075","AdditionalData":[{"value":"Italia","key":"CountryName"},{"value":"Lombardia","key":"StateName"},{"value":"Como","key":"CountyName"}]},"MapReference":{"ReferenceId":"586379083","SideOfStreet":"neither","CountryId":"20110484","StateId":"20114907","CountyId":"20115370","CityId":"20115667"}}},{"Relevance":1.0,"Distance":7.2,"MatchLevel":"houseNumber","MatchQuality":{"Country":1.0,"State":1.0,"County":1.0,"City":1.0,"Street":[1.0],"HouseNumber":1.0,"PostalCode":1.0},"MatchType":"interpolated","Location":{"LocationId":"NT_baHK5sl1KgVNiaaqbsZsPD_xED","LocationType":"point","DisplayPosition":{"Latitude":45.76933,"Longitude":9.00068},"MapView":{"TopLeft":{"Latitude":45.7704542,"Longitude":8.9990684},"BottomRight":{"Latitude":45.7682058,"Longitude":9.0022916}},"Address":{"Label":"Via Alessandro Volta, 11, 22075 Lurate Caccivio CO, Italia","Country":"ITA","State":"Lombardia","County":"CO","City":"Lurate Caccivio","Street":"Via Alessandro Volta","HouseNumber":"11","PostalCode":"22075","AdditionalData":[{"value":"Italia","key":"CountryName"},{"value":"Lombardia","key":"StateName"},{"value":"Como","key":"CountyName"}]},"MapReference":{"ReferenceId":"586379999","Spot":0.16,"SideOfStreet":"left","CountryId":"20110484","StateId":"20114907","CountyId":"20115370","CityId":"20115667","AddressId":"385736425","RoadLinkId":"54878151"}}},{"Relevance":1.0,"Distance":57.3,"MatchLevel":"houseNumber","MatchQuality":{"Country":1.0,"State":1.0,"County":1.0,"City":1.0,"Street":[1.0],"HouseNumber":1.0,"PostalCode":1.0},"MatchType":"interpolated","Location":{"LocationId":"NT_mKRRVJcgTZcVpPDTyqHOnA_zA","LocationType":"point","DisplayPosition":{"Latitude":45.76916,"Longitude":8.99984},"MapView":{"TopLeft":{"Latitude":45.7702842,"Longitude":8.9982284},"BottomRight":{"Latitude":45.7680358,"Longitude":9.0014516}},"Address":{"Label":"Via Luigi Galvani, 3, 22075 Lurate Caccivio CO, Italia","Country":"ITA","State":"Lombardia","County":"CO","City":"Lurate Caccivio","Street":"Via Luigi Galvani","HouseNumber":"3","PostalCode":"22075","AdditionalData":[{"value":"Italia","key":"CountryName"},{"value":"Lombardia","key":"StateName"},{"value":"Como","key":"CountyName"}]},"MapReference":{"ReferenceId":"568520904","Spot":0.33,"SideOfStreet":"right","CountryId":"20110484","StateId":"20114907","CountyId":"20115370","CityId":"20115667","AddressId":"385878129","RoadLinkId":"55099406"}}},{"Relevance":1.0,"Distance":68.6,"MatchLevel":"houseNumber","MatchQuality":{"Country":1.0,"State":1.0,"County":1.0,"City":1.0,"Street":[1.0],"HouseNumber":1.0,"PostalCode":1.0},"MatchType":"interpolated","Location":{"LocationId":"NT_i0L2IQgkuY7OVj7oKheZKD_yQD","LocationType":"point","DisplayPosition":{"Latitude":45.76898,"Longitude":9.00149},"MapView":{"TopLeft":{"Latitude":45.7701042,"Longitude":8.9998784},"BottomRight":{"Latitude":45.7678558,"Longitude":9.0031016}},"Address":{"Label":"Via Casale, 24, 22075 Lurate Caccivio CO, Italia","Country":"ITA","State":"Lombardia","County":"CO","City":"Lurate Caccivio","Street":"Via Casale","HouseNumber":"24","PostalCode":"22075","AdditionalData":[{"value":"Italia","key":"CountryName"},{"value":"Lombardia","key":"StateName"},{"value":"Como","key":"CountyName"}]},"MapReference":{"ReferenceId":"1149426925","Spot":0.47,"SideOfStreet":"left","CountryId":"20110484","StateId":"20114907","CountyId":"20115370","CityId":"20115667","AddressId":"737926337","RoadLinkId":"454746648"}}},{"Relevance":1.0,"Distance":71.0,"MatchLevel":"street","MatchQuality":{"Country":1.0,"State":1.0,"County":1.0,"City":1.0,"Street":[1.0],"PostalCode":1.0},"Location":{"LocationId":"NT_mMCkzExy.ZIew26qSSJg8B_l_1149426926_L","LocationType":"point","DisplayPosition":{"Latitude":45.76885,"Longitude":9.00113},"MapView":{"TopLeft":{"Latitude":45.76885,"Longitude":9.00113},"BottomRight":{"Latitude":45.76856,"Longitude":9.00169}},"Address":{"Label":"Via Benedetto Croce, 22075 Lurate Caccivio CO, Italia","Country":"ITA","State":"Lombardia","County":"CO","City":"Lurate Caccivio","Street":"Via Benedetto Croce","PostalCode":"22075","AdditionalData":[{"value":"Italia","key":"CountryName"},{"value":"Lombardia","key":"StateName"},{"value":"Como","key":"CountyName"}]},"MapReference":{"ReferenceId":"1149426926","Spot":1.0,"SideOfStreet":"left","CountryId":"20110484","StateId":"20114907","CountyId":"20115370","CityId":"20115667"}}},{"Relevance":1.0,"Distance":71.8,"MatchLevel":"street","MatchQuality":{"Country":1.0,"State":1.0,"County":1.0,"City":1.0,"Street":[1.0],"PostalCode":1.0},"Location":{"LocationId":"NT_i0L2IQgkuY7OVj7oKheZKD_l_1149426924_L","LocationType":"point","DisplayPosition":{"Latitude":45.7687273,"Longitude":9.000782},"MapView":{"TopLeft":{"Latitude":45.76885,"Longitude":9.00049},"BottomRight":{"Latitude":45.7686,"Longitude":9.00113}},"Address":{"Label":"Via Casale, 22075 Lurate Caccivio CO, Italia","Country":"ITA","State":"Lombardia","County":"CO","City":"Lurate Caccivio","Street":"Via Casale","PostalCode":"22075","AdditionalData":[{"value":"Italia","key":"CountryName"},{"value":"Lombardia","key":"StateName"},{"value":"Como","key":"CountyName"}]},"MapReference":{"ReferenceId":"1149426924","Spot":0.46,"SideOfStreet":"left","CountryId":"20110484","StateId":"20114907","CountyId":"20115370","CityId":"20115667"}}},{"Relevance":1.0,"Distance":75.3,"MatchLevel":"houseNumber","MatchQuality":{"Country":1.0,"State":1.0,"County":1.0,"City":1.0,"Street":[1.0],"HouseNumber":1.0,"PostalCode":1.0},"MatchType":"interpolated","Location":{"LocationId":"NT_baHK5sl1KgVNiaaqbsZsPD_3A","LocationType":"point","DisplayPosition":{"Latitude":45.76868,"Longitude":9.00051},"MapView":{"TopLeft":{"Latitude":45.7698042,"Longitude":8.9988984},"BottomRight":{"Latitude":45.7675558,"Longitude":9.0021216}},"Address":{"Label":"Via Alessandro Volta, 7, 22075 Lurate Caccivio CO, Italia","Country":"ITA","State":"Lombardia","County":"CO","City":"Lurate Caccivio","Street":"Via Alessandro Volta","HouseNumber":"7","PostalCode":"22075","AdditionalData":[{"value":"Italia","key":"CountryName"},{"value":"Lombardia","key":"StateName"},{"value":"Como","key":"CountyName"}]},"MapReference":{"ReferenceId":"586379994","Spot":0.18,"SideOfStreet":"left","CountryId":"20110484","StateId":"20114907","CountyId":"20115370","CityId":"20115667","AddressId":"385736427","RoadLinkId":"54721499"}}},{"Relevance":1.0,"Distance":84.3,"MatchLevel":"street","MatchQuality":{"Country":1.0,"State":1.0,"County":1.0,"City":1.0,"Street":[1.0],"PostalCode":1.0},"Location":{"LocationId":"NT_baHK5sl1KgVNiaaqbsZsPD_l_568520912_L","LocationType":"point","DisplayPosition":{"Latitude":45.7686,"Longitude":9.00049},"MapView":{"TopLeft":{"Latitude":45.7686,"Longitude":9.00044},"BottomRight":{"Latitude":45.76832,"Longitude":9.00049}},"Address":{"Label":"Via Alessandro Volta, 22075 Lurate Caccivio CO, Italia","Country":"ITA","State":"Lombardia","County":"CO","City":"Lurate Caccivio","Street":"Via Alessandro Volta","PostalCode":"22075","AdditionalData":[{"value":"Italia","key":"CountryName"},{"value":"Lombardia","key":"StateName"},{"value":"Como","key":"CountyName"}]},"MapReference":{"ReferenceId":"568520912","Spot":1.0,"SideOfStreet":"left","CountryId":"20110484","StateId":"20114907","CountyId":"20115370","CityId":"20115667"}}},{"Relevance":1.0,"Distance":99.7,"MatchLevel":"houseNumber","MatchQuality":{"Country":1.0,"State":1.0,"County":1.0,"City":1.0,"Street":[1.0],"HouseNumber":1.0,"PostalCode":1.0},"MatchType":"interpolated","Location":{"LocationId":"NT_i0L2IQgkuY7OVj7oKheZKD_yID","LocationType":"point","DisplayPosition":{"Latitude":45.76913,"Longitude":9.00192},"MapView":{"TopLeft":{"Latitude":45.7702542,"Longitude":9.0003084},"BottomRight":{"Latitude":45.7680058,"Longitude":9.0035316}},"Address":{"Label":"Via Casale, 22, 22075 Lurate Caccivio CO, Italia","Country":"ITA","State":"Lombardia","County":"CO","City":"Lurate Caccivio","Street":"Via Casale","HouseNumber":"22","PostalCode":"22075","AdditionalData":[{"value":"Italia","key":"CountryName"},{"value":"Lombardia","key":"StateName"},{"value":"Como","key":"CountyName"}]},"MapReference":{"ReferenceId":"586380006","Spot":0.1,"SideOfStreet":"left","CountryId":"20110484","StateId":"20114907","CountyId":"20115370","CityId":"20115667","AddressId":"737923459","RoadLinkId":"55065799"}}},{"Relevance":1.0,"Distance":106.5,"MatchLevel":"houseNumber","MatchQuality":{"Country":1.0,"State":1.0,"County":1.0,"City":1.0,"Street":[1.0],"HouseNumber":1.0,"PostalCode":1.0},"MatchType":"interpolated","Location":{"LocationId":"NT_i0L2IQgkuY7OVj7oKheZKD_xID","LocationType":"point","DisplayPosition":{"Latitude":45.77017,"Longitude":9.00158},"MapView":{"TopLeft":{"Latitude":45.7712942,"Longitude":8.9999684},"BottomRight":{"Latitude":45.7690458,"Longitude":9.0031916}},"Address":{"Label":"Via Casale, 12, 22075 Lurate Caccivio CO, Italia","Country":"ITA","State":"Lombardia","County":"CO","City":"Lurate Caccivio","Street":"Via Casale","HouseNumber":"12","PostalCode":"22075","AdditionalData":[{"value":"Italia","key":"CountryName"},{"value":"Lombardia","key":"StateName"},{"value":"Como","key":"CountyName"}]},"MapReference":{"ReferenceId":"568520925","Spot":0.56,"SideOfStreet":"left","CountryId":"20110484","StateId":"20114907","CountyId":"20115370","CityId":"20115667","AddressId":"385684708","RoadLinkId":"55234059"}}}]}]}}