{"Response":{"MetaInfo":{"Timestamp":"2020-03-28T12:03:23.107+0000","NextPageInformation":"2"},"View":[{"_type":"SearchResultsViewType","ViewId":0,"Result":[{"Relevance":1.0,"Distance":-1053.6,"MatchLevel":"landmark","MatchQuality":{"Country":1.0,"State":1.0,"County":1.0,"City":1.0,"Street":[1.0],"PostalCode":1.0,"Name":1.0},"Location":{"LocationId":"NT_b27FTYlEgdHwsBN0jiiu3C_p_nBsqv89y65UnOqqYnC.roC","LocationType":"park","Name":"Parco Pineta di Appiano Gentile","DisplayPosition":{"Latitude":45.7764,"Longitude":8.91547},"MapView":{"TopLeft":{"Latitude":45.78353,"Longitude":8.88845},"BottomRight":{"Latitude":45.67553,"Longitude":8.98044}},"Address":{"Label":"Via Dante Alighieri, 22070 Binago CO, Italia","Country":"ITA","State":"Lombardia","County":"CO","City":"Binago","Street":"Via Dante Alighieri","PostalCode":"22070","AdditionalData":[{"value":"Italia","key":"CountryName"},{"value":"Lombardia","key":"StateName"},{"value":"Como","key":"CountyName"}]},"MapReference":{"CountryId":"20110484","StateId":"20114907","CountyId":"20115370","CityId":"20115413","PlaceId":"50932691"}}},{"Relevance":1.0,"Distance":0.0,"Direction":0.0,"MatchLevel":"city","MatchQuality":{"Country":1.0,"State":1.0,"County":1.0,"City":1.0,"PostalCode":1.0},"Location":{"LocationId":"NT_FTqEXTAXQOfXUlHmA58WyA","LocationType":"point","DisplayPosition":{"Latitude":45.7640538,"Longitude":8.9388359},"MapView":{"TopLeft":{"Latitude":45.77238,"Longitude":8.92864},"BottomRight":{"Latitude":45.74464,"Longitude":8.95492}},"Address":{"Label":"Castelnuovo Bozzente, Lombardia, Italia","Country":"ITA","State":"Lombardia","County":"CO","City":"Castelnuovo Bozzente","PostalCode":"22070","AdditionalData":[{"value":"Italia","key":"CountryName"},{"value":"Lombardia","key":"StateName"},{"value":"Como","key":"CountyName"}]},"MapReference":{"ReferenceId":"1202828271","SideOfStreet":"neither","CountryId":"20110484","StateId":"20114907","CountyId":"20115370","CityId":"20115499"}}},{"Relevance":1.0,"Distance":45.3,"MatchLevel":"street","MatchQuality":{"Country":1.0,"State":1.0,"County":1.0,"City":1.0,"Street":[1.0],"PostalCode":1.0},"Location":{"LocationId":"NT_C.t1jrgnF9hOI5JkxOaBID_l_568516452_L","LocationType":"point","DisplayPosition":{"Latitude":45.7636562,"Longitude":8.9389614},"MapView":{"TopLeft":{"Latitude":45.76376,"Longitude":8.93891},"BottomRight":{"Latitude":45.76364,"Longitude":8.93929}},"Address":{"Label":"Via Antonio Stoppani, 22070 Castelnuovo Bozzente CO, Italia","Country":"ITA","State":"Lombardia","County":"CO","City":"Castelnuovo Bozzente","Street":"Via Antonio Stoppani","PostalCode":"22070","AdditionalData":[{"value":"Italia","key":"CountryName"},{"value":"Lombardia","key":"StateName"},{"value":"Como","key":"CountyName"}]},"MapReference":{"ReferenceId":"568516452","Spot":0.14,"SideOfStreet":"left","CountryId":"20110484","StateId":"20114907","CountyId":"20115370","CityId":"20115499"}}},{"Relevance":1.0,"Distance":49.6,"MatchLevel":"houseNumber","MatchQuality":{"Country":1.0,"State":1.0,"County":1.0,"City":1.0,"Street":[1.0],"HouseNumber":1.0,"PostalCode":1.0},"MatchType":"interpolated","Location":{"LocationId":"NT_C.t1jrgnF9hOI5JkxOaBID_xA","LocationType":"point","DisplayPosition":{"Latitude":45.76377,"Longitude":8.93933},"MapView":{"TopLeft":{"Latitude":45.7648942,"Longitude":8.9377186},"BottomRight":{"Latitude":45.7626458,"Longitude":8.9409414}},"Address":{"Label":"Via Antonio Stoppani, 1, 22070 Castelnuovo Bozzente CO, Italia","Country":"ITA","State":"Lombardia","County":"CO","City":"Castelnuovo Bozzente","Street":"Via Antonio Stoppani","HouseNumber":"1","PostalCode":"22070","AdditionalData":[{"value":"Italia","key":"CountryName"},{"value":"Lombardia","key":"StateName"},{"value":"Como","key":"CountyName"}]},"MapReference":{"ReferenceId":"568516439","Spot":0.05,"SideOfStreet":"right","CountryId":"20110484","StateId":"20114907","CountyId":"20115370","CityId":"20115499","AddressId":"385645570","RoadLinkId":"55885019"}}},{"Relevance":1.0,"Distance":87.2,"MatchLevel":"houseNumber","MatchQuality":{"Country":1.0,"State":1.0,"County":1.0,"City":1.0,"Street":[1.0],"HouseNumber":1.0,"PostalCode":1.0},"MatchType":"interpolated","Location":{"LocationId":"NT_LxmfgJ86nQB6la1xf3VIBC_3A","LocationType":"point","DisplayPosition":{"Latitude":45.76421,"Longitude":8.94005},"MapView":{"TopLeft":{"Latitude":45.7653342,"Longitude":8.9384386},"BottomRight":{"Latitude":45.7630858,"Longitude":8.9416614}},"Address":{"Label":"Via L. Aliverti, 7, 22070 Castelnuovo Bozzente CO, Italia","Country":"ITA","State":"Lombardia","County":"CO","City":"Castelnuovo Bozzente","Street":"Via L. Aliverti","HouseNumber":"7","PostalCode":"22070","AdditionalData":[{"value":"Italia","key":"CountryName"},{"value":"Lombardia","key":"StateName"},{"value":"Como","key":"CountyName"}]},"MapReference":{"ReferenceId":"568516449","Spot":0.33,"SideOfStreet":"left","CountryId":"20110484","StateId":"20114907","CountyId":"20115370","CityId":"20115499","AddressId":"385936301","RoadLinkId":"54659818"}}},{"Relevance":1.0,"Distance":99.8,"MatchLevel":"houseNumber","MatchQuality":{"Country":1.0,"State":1.0,"County":1.0,"City":1.0,"Street":[1.0],"HouseNumber":1.0,"PostalCode":1.0},"MatchType":"interpolated","Location":{"LocationId":"NT_CRTNuUxEEUUfNP.ukmuWWB_xED","LocationType":"point","DisplayPosition":{"Latitude":45.76457,"Longitude":8.93995},"MapView":{"TopLeft":{"Latitude":45.7656942,"Longitude":8.9383386},"BottomRight":{"Latitude":45.7634458,"Longitude":8.9415614}},"Address":{"Label":"Via alla Chiesa, 11, 22070 Castelnuovo Bozzente CO, Italia","Country":"ITA","State":"Lombardia","County":"CO","City":"Castelnuovo Bozzente","Street":"Via alla Chiesa","HouseNumber":"11","PostalCode":"22070","AdditionalData":[{"value":"Italia","key":"CountryName"},{"value":"Lombardia","key":"StateName"},{"value":"Como","key":"CountyName"}]},"MapReference":{"ReferenceId":"586366037","Spot":1.0,"SideOfStreet":"left","CountryId":"20110484","StateId":"20114907","CountyId":"20115370","CityId":"20115499","AddressId":"385643313","RoadLinkId":"55810281"}}},{"Relevance":1.0,"Distance":129.3,"MatchLevel":"houseNumber","MatchQuality":{"Country":1.0,"State":1.0,"County":1.0,"City":1.0,"Street":[1.0],"HouseNumber":1.0,"PostalCode":1.0},"MatchType":"interpolated","Location":{"LocationId":"NT_LxmfgJ86nQB6la1xf3VIBC_2A","LocationType":"point","DisplayPosition":{"Latitude":45.76367,"Longitude":8.94041},"MapView":{"TopLeft":{"Latitude":45.7647942,"Longitude":8.9387986},"BottomRight":{"Latitude":45.7625458,"Longitude":8.9420214}},"Address":{"Label":"Via L. Aliverti, 6, 22070 Castelnuovo Bozzente CO, Italia","Country":"ITA","State":"Lombardia","County":"CO","City":"Castelnuovo Bozzente","Street":"Via L. Aliverti","HouseNumber":"6","PostalCode":"22070","AdditionalData":[{"value":"Italia","key":"CountryName"},{"value":"Lombardia","key":"StateName"},{"value":"Como","key":"CountyName"}]},"MapReference":{"ReferenceId":"586366044","Spot":0.09,"SideOfStreet":"right","CountryId":"20110484","StateId":"20114907","CountyId":"20115370","CityId":"20115499","AddressId":"386003925","RoadLinkId":"54902259"}}},{"Relevance":1.0,"Distance":140.5,"MatchLevel":"houseNumber","MatchQuality":{"Country":1.0,"State":1.0,"County":1.0,"City":1.0,"Street":[1.0],"HouseNumber":1.0,"PostalCode":1.0},"MatchType":"interpolated","Location":{"LocationId":"NT_LxmfgJ86nQB6la1xf3VIBC_0A","LocationType":"point","DisplayPosition":{"Latitude":45.76354,"Longitude":8.94049},"MapView":{"TopLeft":{"Latitude":45.7646642,"Longitude":8.9388786},"BottomRight":{"Latitude":45.7624158,"Longitude":8.9421014}},"Address":{"Label":"Via L. Aliverti, 4, 22070 Castelnuovo Bozzente CO, Italia","Country":"ITA","State":"Lombardia","County":"CO","City":"Castelnuovo Bozzente","Street":"Via L. Aliverti","HouseNumber":"4","PostalCode":"22070","AdditionalData":[{"value":"Italia","key":"CountryName"},{"value":"Lombardia","key":"StateName"},{"value":"Como","key":"CountyName"}]},"MapReference":{"ReferenceId":"586366041","Spot":0.85,"SideOfStreet":"right","CountryId":"20110484","StateId":"20114907","CountyId":"20115370","CityId":"20115499","AddressId":"385967294","RoadLinkId":"55153149"}}},{"Relevance":1.0,"Distance":147.4,"MatchLevel":"houseNumber","MatchQuality":{"Country":1.0,"State":1.0,"County":1.0,"City":1.0,"Street":[1.0],"HouseNumber":1.0,"PostalCode":1.0},"MatchType":"interpolated","Location":{"LocationId":"NT_PIaISYDcAif2KGkjgqXxLC_xYD","LocationType":"point","DisplayPosition":{"Latitude":45.76274,"Longitude":8.93858},"MapView":{"TopLeft":{"Latitude":45.7638642,"Longitude":8.9369686},"BottomRight":{"Latitude":45.7616158,"Longitude":8.9401914}},"Address":{"Label":"Via San Martino, 16, 22070 Castelnuovo Bozzente CO, Italia","Country":"ITA","State":"Lombardia","County":"CO","City":"Castelnuovo Bozzente","Street":"Via San Martino","HouseNumber":"16","PostalCode":"22070","AdditionalData":[{"value":"Italia","key":"CountryName"},{"value":"Lombardia","key":"StateName"},{"value":"Como","key":"CountyName"}]},"MapReference":{"ReferenceId":"568516447","Spot":0.81,"SideOfStreet":"left","CountryId":"20110484","StateId":"20114907","CountyId":"20115370","CityId":"20115499","AddressId":"385981650","RoadLinkId":"55019626"}}},{"Relevance":1.0,"Distance":154.4,"MatchLevel":"houseNumber","MatchQuality":{"Country":1.0,"State":1.0,"County":1.0,"City":1.0,"Street":[1.0],"HouseNumber":1.0,"PostalCode":1.0},"MatchType":"interpolated","Location":{"LocationId":"NT_1HakhHnc-yC8SXGjhBv57D_xAD","LocationType":"point","DisplayPosition":{"Latitude":45.7638,"Longitude":8.94082},"MapView":{"TopLeft":{"Latitude":45.7649242,"Longitude":8.9392086},"BottomRight":{"Latitude":45.7626758,"Longitude":8.9424314}},"Address":{"Label":"Via Alessandro Volta, 10, 22070 Castelnuovo Bozzente CO, Italia","Country":"ITA","State":"Lombardia","County":"CO","City":"Castelnuovo Bozzente","Street":"Via Alessandro Volta","HouseNumber":"10","PostalCode":"22070","AdditionalData":[{"value":"Italia","key":"CountryName"},{"value":"Lombardia","key":"StateName"},{"value":"Como","key":"CountyName"}]},"MapReference":{"ReferenceId":"586366042","Spot":0.45,"SideOfStreet":"left","CountryId":"20110484","StateId":"20114907","CountyId":"20115370","CityId":"20115499","AddressId":"385973508","RoadLinkId":"54701440"}}}]}]}}