{"Response":{"MetaInfo":{"Timestamp":"2020-03-28T12:07:11.367+0000","NextPageInformation":"2"},"View":[{"_type":"SearchResultsViewType","ViewId":0,"Result":[{"Relevance":1.0,"Distance":0.0,"Direction":0.0,"MatchLevel":"district","MatchQuality":{"Country":1.0,"County":1.0,"City":1.0,"District":1.0,"PostalCode":1.0},"Location":{"LocationId":"NT_wHRbmk.ouid.F0dcS.I1kA","LocationType":"point","DisplayPosition":{"Latitude":45.8021807,"Longitude":21.2497335},"MapView":{"TopLeft":{"Latitude":45.81819,"Longitude":21.20351},"BottomRight":{"Latitude":45.78088,"Longitude":21.26895}},"Address":{"Label":"Dumbrăvița, România","Country":"ROU","County":"Timiș","City":"Dumbrăvița","District":"Dumbrăvița","PostalCode":"307160","AdditionalData":[{"value":"România","key":"CountryName"},{"value":"Timiș","key":"CountyName"}]},"MapReference":{"ReferenceId":"1226918241","SideOfStreet":"neither","CountryId":"20656215","CountyId":"20662987","CityId":"23770502","DistrictId":"23771116"}}},{"Relevance":1.0,"Distance":12.3,"MatchLevel":"houseNumber","MatchQuality":{"Country":1.0,"County":1.0,"City":1.0,"District":1.0,"Street":[1.0],"HouseNumber":1.0,"PostalCode":1.0},"MatchType":"interpolated","Location":{"LocationId":"NT_osoBlpgdRM23fUIiUC0tED_ykD","LocationType":"point","DisplayPosition":{"Latitude":45.80225,"Longitude":21.24956},"MapView":{"TopLeft":{"Latitude":45.8033742,"Longitude":21.2479475},"BottomRight":{"Latitude":45.8011258,"Longitude":21.2511725}},"Address":{"Label":"Strada Petofi Sandor 29, 307160 Dumbrăvița, România","Country":"ROU","County":"Timiș","City":"Dumbrăvița","District":"Dumbrăvița","Street":"Strada Petofi Sandor","HouseNumber":"29","PostalCode":"307160","AdditionalData":[{"value":"România","key":"CountryName"},{"value":"Timiș","key":"CountyName"}]},"MapReference":{"ReferenceId":"1202737826","Spot":0.29,"SideOfStreet":"right","CountryId":"20656215","CountyId":"20662987","CityId":"23770502","DistrictId":"23771116","AddressId":"687056324","RoadLinkId":"515632073"}}},{"Relevance":1.0,"Distance":16.9,"MatchLevel":"houseNumber","MatchQuality":{"Country":1.0,"County":1.0,"City":1.0,"District":1.0,"Street":[1.0],"HouseNumber":1.0,"PostalCode":1.0},"MatchType":"interpolated","Location":{"LocationId":"NT_osoBlpgdRM23fUIiUC0tED_ycD","LocationType":"point","DisplayPosition":{"Latitude":45.80234,"Longitude":21.24966},"MapView":{"TopLeft":{"Latitude":45.8034642,"Longitude":21.2480475},"BottomRight":{"Latitude":45.8012158,"Longitude":21.2512725}},"Address":{"Label":"Strada Petofi Sandor 27, 307160 Dumbrăvița, România","Country":"ROU","County":"Timiș","City":"Dumbrăvița","District":"Dumbrăvița","Street":"Strada Petofi Sandor","HouseNumber":"27","PostalCode":"307160","AdditionalData":[{"value":"România","key":"CountryName"},{"value":"Timiș","key":"CountyName"}]},"MapReference":{"ReferenceId":"1202737833","Spot":0.08,"SideOfStreet":"right","CountryId":"20656215","CountyId":"20662987","CityId":"23770502","DistrictId":"23771116","AddressId":"687056329","RoadLinkId":"515632080"}}},{"Relevance":1.0,"Distance":19.5,"MatchLevel":"houseNumber","MatchQuality":{"Country":1.0,"County":1.0,"City":1.0,"District":1.0,"Street":[1.0],"HouseNumber":1.0,"PostalCode":1.0},"MatchType":"interpolated","Location":{"LocationId":"NT_N8NtzZvrD3fSlJ8VtwSKBA_l_1205318549_L_1AD","LocationType":"point","DisplayPosition":{"Latitude":45.8021951,"Longitude":21.2494827},"MapView":{"TopLeft":{"Latitude":45.8033193,"Longitude":21.2478702},"BottomRight":{"Latitude":45.801071,"Longitude":21.2510952}},"Address":{"Label":"Strada Petofi Sandor 50, 307160 Dumbrăvița, România","Country":"ROU","County":"Timiș","City":"Dumbrăvița","District":"Dumbrăvița","Street":"Strada Petofi Sandor","HouseNumber":"50","PostalCode":"307160","AdditionalData":[{"value":"România","key":"CountryName"},{"value":"Timiș","key":"CountyName"}]},"MapReference":{"ReferenceId":"1205318549","Spot":0.59,"SideOfStreet":"left","CountryId":"20656215","CountyId":"20662987","CityId":"23770502","DistrictId":"23771116"}}},{"Relevance":1.0,"Distance":30.5,"MatchLevel":"houseNumber","MatchQuality":{"Country":1.0,"County":1.0,"City":1.0,"District":1.0,"Street":[1.0],"HouseNumber":1.0,"PostalCode":1.0},"MatchType":"interpolated","Location":{"LocationId":"NT_osoBlpgdRM23fUIiUC0tED_yUD","LocationType":"point","DisplayPosition":{"Latitude":45.80245,"Longitude":21.24981},"MapView":{"TopLeft":{"Latitude":45.8035742,"Longitude":21.2481975},"BottomRight":{"Latitude":45.8013258,"Longitude":21.2514225}},"Address":{"Label":"Strada Petofi Sandor 25, 307160 Dumbrăvița, România","Country":"ROU","County":"Timiș","City":"Dumbrăvița","District":"Dumbrăvița","Street":"Strada Petofi Sandor","HouseNumber":"25","PostalCode":"307160","AdditionalData":[{"value":"România","key":"CountryName"},{"value":"Timiș","key":"CountyName"}]},"MapReference":{"ReferenceId":"1202737840","Spot":0.03,"SideOfStreet":"right","CountryId":"20656215","CountyId":"20662987","CityId":"23770502","DistrictId":"23771116","AddressId":"687056326","RoadLinkId":"515632094"}}},{"Relevance":1.0,"Distance":35.8,"MatchLevel":"houseNumber","MatchQuality":{"Country":1.0,"County":1.0,"City":1.0,"District":1.0,"Street":[1.0],"HouseNumber":1.0,"PostalCode":1.0},"MatchType":"interpolated","Location":{"LocationId":"NT_osoBlpgdRM23fUIiUC0tED_1AD","LocationType":"point","DisplayPosition":{"Latitude":45.80207,"Longitude":21.2493},"MapView":{"TopLeft":{"Latitude":45.8031942,"Longitude":21.2476875},"BottomRight":{"Latitude":45.8009458,"Longitude":21.2509125}},"Address":{"Label":"Strada Petofi Sandor 50, 307160 Dumbrăvița, România","Country":"ROU","County":"Timiș","City":"Dumbrăvița","District":"Dumbrăvița","Street":"Strada Petofi Sandor","HouseNumber":"50","PostalCode":"307160","AdditionalData":[{"value":"România","key":"CountryName"},{"value":"Timiș","key":"CountyName"}]},"MapReference":{"ReferenceId":"1205318548","Spot":0.08,"SideOfStreet":"left","CountryId":"20656215","CountyId":"20662987","CityId":"23770502","DistrictId":"23771116","AddressId":"687056413","RoadLinkId":"518915535"}}},{"Relevance":1.0,"Distance":36.9,"MatchLevel":"street","MatchQuality":{"Country":1.0,"County":1.0,"City":1.0,"District":1.0,"Street":[1.0],"PostalCode":1.0},"Location":{"LocationId":"NT_N8NtzZvrD3fSlJ8VtwSKBA_l_989156648_R","LocationType":"point","DisplayPosition":{"Latitude":45.80206,"Longitude":21.24929},"MapView":{"TopLeft":{"Latitude":45.80206,"Longitude":21.24911},"BottomRight":{"Latitude":45.80192,"Longitude":21.24929}},"Address":{"Label":"Strada Petofi Sandor, 307160 Dumbrăvița, România","Country":"ROU","County":"Timiș","City":"Dumbrăvița","District":"Dumbrăvița","Street":"Strada Petofi Sandor","PostalCode":"307160","AdditionalData":[{"value":"România","key":"CountryName"},{"value":"Timiș","key":"CountyName"}]},"MapReference":{"ReferenceId":"989156648","Spot":1.0,"SideOfStreet":"right","CountryId":"20656215","CountyId":"20662987","CityId":"23770502","DistrictId":"23771116"}}},{"Relevance":1.0,"Distance":56.4,"MatchLevel":"street","MatchQuality":{"Country":1.0,"County":1.0,"City":1.0,"District":1.0,"Street":[1.0],"PostalCode":1.0},"Location":{"LocationId":"NT_N8NtzZvrD3fSlJ8VtwSKBA_l_1202737415_R","LocationType":"point","DisplayPosition":{"Latitude":45.80192,"Longitude":21.24911},"MapView":{"TopLeft":{"Latitude":45.80192,"Longitude":21.24897},"BottomRight":{"Latitude":45.80181,"Longitude":21.24911}},"Address":{"Label":"Strada Petofi Sandor, 307160 Dumbrăvița, România","Country":"ROU","County":"Timiș","City":"Dumbrăvița","District":"Dumbrăvița","Street":"Strada Petofi Sandor","PostalCode":"307160","AdditionalData":[{"value":"România","key":"CountryName"},{"value":"Timiș","key":"CountyName"}]},"MapReference":{"ReferenceId":"1202737415","Spot":1.0,"SideOfStreet":"right","CountryId":"20656215","CountyId":"20662987","CityId":"23770502","DistrictId":"23771116"}}},{"Relevance":1.0,"Distance":63.4,"MatchLevel":"street","MatchQuality":{"Country":1.0,"County":1.0,"City":1.0,"District":1.0,"PostalCode":1.0},"Location":{"LocationId":"NT_YesLfM0eYIwNpbCvfRGHRA_l_836149016_R","LocationType":"point","DisplayPosition":{"Latitude":45.8026783,"Longitude":21.2493354},"MapView":{"TopLeft":{"Latitude":45.80277,"Longitude":21.24871},"BottomRight":{"Latitude":45.80235,"Longitude":21.24945}},"Address":{"Label":"307160 Dumbrăvița, România","Country":"ROU","County":"Timiș","City":"Dumbrăvița","District":"Dumbrăvița","PostalCode":"307160","AdditionalData":[{"value":"România","key":"CountryName"},{"value":"Timiș","key":"CountyName"}]},"MapReference":{"ReferenceId":"836149016","Spot":0.84,"SideOfStreet":"right","CountryId":"20656215","CountyId":"20662987","CityId":"23770502","DistrictId":"23771116"}}},{"Relevance":1.0,"Distance":67.2,"MatchLevel":"houseNumber","MatchQuality":{"Country":1.0,"County":1.0,"City":1.0,"District":1.0,"Street":[1.0],"HouseNumber":1.0,"PostalCode":1.0},"MatchType":"interpolated","Location":{"LocationId":"NT_FQsnezHx83PLbM7NUBhzOA_zkD","LocationType":"point","DisplayPosition":{"Latitude":45.80228,"Longitude":21.24884},"MapView":{"TopLeft":{"Latitude":45.8034042,"Longitude":21.2472275},"BottomRight":{"Latitude":45.8011558,"Longitude":21.2504525}},"Address":{"Label":"Strada Franyo Zoltan 39, 307160 Dumbrăvița, România","Country":"ROU","County":"Timiș","City":"Dumbrăvița","District":"Dumbrăvița","Street":"Strada Franyo Zoltan","HouseNumber":"39","PostalCode":"307160","AdditionalData":[{"value":"România","key":"CountryName"},{"value":"Timiș","key":"CountyName"}]},"MapReference":{"ReferenceId":"836148836","Spot":0.77,"SideOfStreet":"right","CountryId":"20656215","CountyId":"20662987","CityId":"23770502","DistrictId":"23771116","AddressId":"738381638","RoadLinkId":"219346425"}}}]}]}}