{"Response":{"MetaInfo":{"Timestamp":"2020-03-31T17:07:09.852+0000","NextPageInformation":"2"},"View":[{"_type":"SearchResultsViewType","ViewId":0,"Result":[{"Relevance":1.0,"Distance":0.0,"Direction":0.0,"MatchLevel":"city","MatchQuality":{"Country":1.0,"County":1.0,"City":1.0,"PostalCode":1.0},"Location":{"LocationId":"NT_rXDm49owkNxk0apueUjOQD","LocationType":"point","DisplayPosition":{"Latitude":45.8917,"Longitude":15.5397},"MapView":{"TopLeft":{"Latitude":46.05523,"Longitude":15.49075},"BottomRight":{"Latitude":45.82056,"Longitude":15.73249}},"Address":{"Label":"Brežice, Slovenija","Country":"SVN","County":"Brežice","City":"Brežice","PostalCode":"8250","AdditionalData":[{"value":"Slovenija","key":"CountryName"},{"value":"Brežice","key":"CountyName"}]},"MapReference":{"ReferenceId":"716254634","SideOfStreet":"neither","CountryId":"20633685","CountyId":"20634980","CityId":"20634981"}}},{"Relevance":1.0,"Distance":109.2,"MatchLevel":"street","MatchQuality":{"Country":1.0,"County":1.0,"City":1.0,"District":1.0,"PostalCode":1.0},"Location":{"LocationId":"NT_NovthOnAzLYN4syQNzwuLB_l_1082990922_R","LocationType":"point","DisplayPosition":{"Latitude":45.8926395,"Longitude":15.5392912},"MapView":{"TopLeft":{"Latitude":45.89652,"Longitude":15.53835},"BottomRight":{"Latitude":45.89223,"Longitude":15.54419}},"Address":{"Label":"SI- 8263 Brežice, Slovenija","Country":"SVN","County":"Brežice","City":"Brežice","District":"Črešnjice pri Cerkljah","PostalCode":"8263","AdditionalData":[{"value":"Slovenija","key":"CountryName"},{"value":"Brežice","key":"CountyName"}]},"MapReference":{"ReferenceId":"1082990922","Spot":0.11,"SideOfStreet":"right","CountryId":"20633685","CountyId":"20634980","CityId":"20634981","DistrictId":"22691222"}}},{"Relevance":1.0,"Distance":120.0,"MatchLevel":"street","MatchQuality":{"Country":1.0,"County":1.0,"City":1.0,"District":1.0,"PostalCode":1.0},"Location":{"LocationId":"NT_NovthOnAzLYN4syQNzwuLB_l_1082990921_R","LocationType":"point","DisplayPosition":{"Latitude":45.89223,"Longitude":15.53835},"MapView":{"TopLeft":{"Latitude":45.89223,"Longitude":15.53666},"BottomRight":{"Latitude":45.89129,"Longitude":15.53835}},"Address":{"Label":"SI- 8263 Brežice, Slovenija","Country":"SVN","County":"Brežice","City":"Brežice","District":"Črešnjice pri Cerkljah","PostalCode":"8263","AdditionalData":[{"value":"Slovenija","key":"CountryName"},{"value":"Brežice","key":"CountyName"}]},"MapReference":{"ReferenceId":"1082990921","Spot":1.0,"SideOfStreet":"right","CountryId":"20633685","CountyId":"20634980","CityId":"20634981","DistrictId":"22691222"}}},{"Relevance":1.0,"Distance":120.0,"MatchLevel":"street","MatchQuality":{"Country":1.0,"County":1.0,"City":1.0,"District":1.0,"PostalCode":1.0},"Location":{"LocationId":"NT_NovthOnAzLYN4syQNzwuLB_l_1082990923_R","LocationType":"point","DisplayPosition":{"Latitude":45.89223,"Longitude":15.53835},"MapView":{"TopLeft":{"Latitude":45.89462,"Longitude":15.53807},"BottomRight":{"Latitude":45.89223,"Longitude":15.53845}},"Address":{"Label":"SI- 8263 Brežice, Slovenija","Country":"SVN","County":"Brežice","City":"Brežice","District":"Črešnjice pri Cerkljah","PostalCode":"8263","AdditionalData":[{"value":"Slovenija","key":"CountryName"},{"value":"Brežice","key":"CountyName"}]},"MapReference":{"ReferenceId":"1082990923","Spot":0.0,"SideOfStreet":"right","CountryId":"20633685","CountyId":"20634980","CityId":"20634981","DistrictId":"22691222"}}},{"Relevance":1.0,"Distance":213.7,"MatchLevel":"street","MatchQuality":{"Country":1.0,"County":1.0,"City":1.0,"District":1.0,"PostalCode":1.0},"Location":{"LocationId":"NT_NovthOnAzLYN4syQNzwuLB_l_1176676531_R","LocationType":"point","DisplayPosition":{"Latitude":45.89334,"Longitude":15.53826},"MapView":{"TopLeft":{"Latitude":45.89372,"Longitude":15.53397},"BottomRight":{"Latitude":45.89328,"Longitude":15.53826}},"Address":{"Label":"SI- 8263 Brežice, Slovenija","Country":"SVN","County":"Brežice","City":"Brežice","District":"Črešnjice pri Cerkljah","PostalCode":"8263","AdditionalData":[{"value":"Slovenija","key":"CountryName"},{"value":"Brežice","key":"CountyName"}]},"MapReference":{"ReferenceId":"1176676531","Spot":0.92,"SideOfStreet":"right","CountryId":"20633685","CountyId":"20634980","CityId":"20634981","DistrictId":"22691222"}}},{"Relevance":1.0,"Distance":238.9,"MatchLevel":"street","MatchQuality":{"Country":1.0,"County":1.0,"City":1.0,"District":1.0,"PostalCode":1.0},"Location":{"LocationId":"NT_uz.pN2bT4u4uoOk4t9U3yB_l_710735538_R","LocationType":"point","DisplayPosition":{"Latitude":45.8899598,"Longitude":15.5378899},"MapView":{"TopLeft":{"Latitude":45.89126,"Longitude":15.53664},"BottomRight":{"Latitude":45.88893,"Longitude":15.53888}},"Address":{"Label":"SI- 8263 Brežice, Slovenija","Country":"SVN","County":"Brežice","City":"Brežice","District":"Račja vas","PostalCode":"8263","AdditionalData":[{"value":"Slovenija","key":"CountryName"},{"value":"Brežice","key":"CountyName"}]},"MapReference":{"ReferenceId":"710735538","Spot":0.44,"SideOfStreet":"right","CountryId":"20633685","CountyId":"20634980","CityId":"20634981","DistrictId":"22692167"}}},{"Relevance":1.0,"Distance":239.2,"MatchLevel":"street","MatchQuality":{"Country":1.0,"County":1.0,"City":1.0,"District":1.0,"PostalCode":1.0},"Location":{"LocationId":"NT_NovthOnAzLYN4syQNzwuLB_l_1082990906_R","LocationType":"point","DisplayPosition":{"Latitude":45.89384,"Longitude":15.53939},"MapView":{"TopLeft":{"Latitude":45.8941,"Longitude":15.53939},"BottomRight":{"Latitude":45.89384,"Longitude":15.53978}},"Address":{"Label":"SI- 8263 Brežice, Slovenija","Country":"SVN","County":"Brežice","City":"Brežice","District":"Črešnjice pri Cerkljah","PostalCode":"8263","AdditionalData":[{"value":"Slovenija","key":"CountryName"},{"value":"Brežice","key":"CountyName"}]},"MapReference":{"ReferenceId":"1082990906","Spot":0.0,"SideOfStreet":"right","CountryId":"20633685","CountyId":"20634980","CityId":"20634981","DistrictId":"22691222"}}},{"Relevance":1.0,"Distance":251.1,"MatchLevel":"street","MatchQuality":{"Country":1.0,"County":1.0,"City":1.0,"District":1.0,"PostalCode":1.0},"Location":{"LocationId":"NT_NovthOnAzLYN4syQNzwuLB_l_1082990897_R","LocationType":"point","DisplayPosition":{"Latitude":45.89372,"Longitude":15.53825},"MapView":{"TopLeft":{"Latitude":45.89372,"Longitude":15.53508},"BottomRight":{"Latitude":45.89369,"Longitude":15.53825}},"Address":{"Label":"SI- 8263 Brežice, Slovenija","Country":"SVN","County":"Brežice","City":"Brežice","District":"Črešnjice pri Cerkljah","PostalCode":"8263","AdditionalData":[{"value":"Slovenija","key":"CountryName"},{"value":"Brežice","key":"CountyName"}]},"MapReference":{"ReferenceId":"1082990897","Spot":1.0,"SideOfStreet":"right","CountryId":"20633685","CountyId":"20634980","CityId":"20634981","DistrictId":"22691222"}}},{"Relevance":1.0,"Distance":251.1,"MatchLevel":"street","MatchQuality":{"Country":1.0,"County":1.0,"City":1.0,"District":1.0,"PostalCode":1.0},"Location":{"LocationId":"NT_NovthOnAzLYN4syQNzwuLB_l_1176676532_R","LocationType":"point","DisplayPosition":{"Latitude":45.89372,"Longitude":15.53825},"MapView":{"TopLeft":{"Latitude":45.89375,"Longitude":15.53825},"BottomRight":{"Latitude":45.89372,"Longitude":15.53825}},"Address":{"Label":"SI- 8263 Brežice, Slovenija","Country":"SVN","County":"Brežice","City":"Brežice","District":"Črešnjice pri Cerkljah","PostalCode":"8263","AdditionalData":[{"value":"Slovenija","key":"CountryName"},{"value":"Brežice","key":"CountyName"}]},"MapReference":{"ReferenceId":"1176676532","Spot":0.0,"SideOfStreet":"right","CountryId":"20633685","CountyId":"20634980","CityId":"20634981","DistrictId":"22691222"}}},{"Relevance":1.0,"Distance":254.1,"MatchLevel":"street","MatchQuality":{"Country":1.0,"County":1.0,"City":1.0,"District":1.0,"PostalCode":1.0},"Location":{"LocationId":"NT_NovthOnAzLYN4syQNzwuLB_l_1176676533_R","LocationType":"point","DisplayPosition":{"Latitude":45.89375,"Longitude":15.53825},"MapView":{"TopLeft":{"Latitude":45.89462,"Longitude":15.53823},"BottomRight":{"Latitude":45.89375,"Longitude":15.53825}},"Address":{"Label":"SI- 8263 Brežice, Slovenija","Country":"SVN","County":"Brežice","City":"Brežice","District":"Črešnjice pri Cerkljah","PostalCode":"8263","AdditionalData":[{"value":"Slovenija","key":"CountryName"},{"value":"Brežice","key":"CountyName"}]},"MapReference":{"ReferenceId":"1176676533","Spot":0.0,"SideOfStreet":"right","CountryId":"20633685","CountyId":"20634980","CityId":"20634981","DistrictId":"22691222"}}}]}]}}