{"Response":{"MetaInfo":{"Timestamp":"2020-03-31T17:06:48.347+0000","NextPageInformation":"2"},"View":[{"_type":"SearchResultsViewType","ViewId":0,"Result":[{"Relevance":1.0,"Distance":0.0,"Direction":0.0,"MatchLevel":"district","MatchQuality":{"Country":1.0,"County":1.0,"City":1.0,"District":1.0,"PostalCode":1.0},"Location":{"LocationId":"NT_nNeH9hxlCyE4TIOUHmuiqB","LocationType":"point","DisplayPosition":{"Latitude":45.8467,"Longitude":13.9631},"MapView":{"TopLeft":{"Latitude":45.85155,"Longitude":13.95293},"BottomRight":{"Latitude":45.83563,"Longitude":13.96542}},"Address":{"Label":"Vipava, Slovenija","Country":"SVN","County":"Ajdovščina","City":"Vipava","District":"Vipava","PostalCode":"5271","AdditionalData":[{"value":"Slovenija","key":"CountryName"},{"value":"Ajdovščina","key":"CountyName"}]},"MapReference":{"ReferenceId":"1092270428","SideOfStreet":"neither","CountryId":"20633685","CountyId":"20634911","CityId":"22689896","DistrictId":"22690804"}}},{"Relevance":1.0,"Distance":8.6,"MatchLevel":"houseNumber","MatchQuality":{"Country":1.0,"County":1.0,"City":1.0,"District":1.0,"Street":[1.0],"HouseNumber":1.0,"PostalCode":1.0},"MatchType":"interpolated","Location":{"LocationId":"NT_ygvQBA-CPzax1RRAkNFO3C_3A","LocationType":"point","DisplayPosition":{"Latitude":45.84664,"Longitude":13.96303},"MapView":{"TopLeft":{"Latitude":45.8477642,"Longitude":13.9614162},"BottomRight":{"Latitude":45.8455158,"Longitude":13.9646438}},"Address":{"Label":"Ulica Ivana Ščeka 7, SI- 5271 Vipava, Slovenija","Country":"SVN","County":"Ajdovščina","City":"Vipava","District":"Vipava","Street":"Ulica Ivana Ščeka","HouseNumber":"7","PostalCode":"5271","AdditionalData":[{"value":"Slovenija","key":"CountryName"},{"value":"Ajdovščina","key":"CountyName"}]},"MapReference":{"ReferenceId":"1215706732","Spot":0.28,"SideOfStreet":"left","CountryId":"20633685","CountyId":"20634911","CityId":"22689896","DistrictId":"22690804","AddressId":"406911039","RoadLinkId":"531906246"}}},{"Relevance":1.0,"Distance":24.6,"MatchLevel":"street","MatchQuality":{"Country":1.0,"County":1.0,"City":1.0,"District":1.0,"Street":[1.0],"PostalCode":1.0},"Location":{"LocationId":"NT_ygvQBA-CPzax1RRAkNFO3C_l_1215706731_R","LocationType":"point","DisplayPosition":{"Latitude":45.84648,"Longitude":13.96307},"MapView":{"TopLeft":{"Latitude":45.84648,"Longitude":13.96307},"BottomRight":{"Latitude":45.84633,"Longitude":13.96313}},"Address":{"Label":"Ulica Ivana Ščeka, SI- 5271 Vipava, Slovenija","Country":"SVN","County":"Ajdovščina","City":"Vipava","District":"Vipava","Street":"Ulica Ivana Ščeka","PostalCode":"5271","AdditionalData":[{"value":"Slovenija","key":"CountryName"},{"value":"Ajdovščina","key":"CountyName"}]},"MapReference":{"ReferenceId":"1215706731","Spot":1.0,"SideOfStreet":"right","CountryId":"20633685","CountyId":"20634911","CityId":"22689896","DistrictId":"22690804"}}},{"Relevance":1.0,"Distance":24.7,"MatchLevel":"houseNumber","MatchQuality":{"Country":1.0,"County":1.0,"City":1.0,"District":1.0,"Street":[1.0],"HouseNumber":1.0,"PostalCode":1.0},"MatchType":"interpolated","Location":{"LocationId":"NT_HSXRoVxopgd2mNSvRw9HhA_xAD","LocationType":"point","DisplayPosition":{"Latitude":45.84701,"Longitude":13.96334},"MapView":{"TopLeft":{"Latitude":45.8481342,"Longitude":13.9617262},"BottomRight":{"Latitude":45.8458858,"Longitude":13.9649538}},"Address":{"Label":"Grabrijanova ulica 10, SI- 5271 Vipava, Slovenija","Country":"SVN","County":"Ajdovščina","City":"Vipava","District":"Vipava","Street":"Grabrijanova ulica","HouseNumber":"10","PostalCode":"5271","AdditionalData":[{"value":"Slovenija","key":"CountryName"},{"value":"Ajdovščina","key":"CountyName"}]},"MapReference":{"ReferenceId":"1215597655","Spot":0.26,"SideOfStreet":"left","CountryId":"20633685","CountyId":"20634911","CityId":"22689896","DistrictId":"22690804","AddressId":"742774847","RoadLinkId":"531774747"}}},{"Relevance":1.0,"Distance":30.5,"MatchLevel":"houseNumber","MatchQuality":{"Country":1.0,"County":1.0,"City":1.0,"District":1.0,"Street":[1.0],"HouseNumber":1.0,"PostalCode":1.0},"MatchType":"interpolated","Location":{"LocationId":"NT_BHLSTkRmyJ6T.skXWfbHmA_2A","LocationType":"point","DisplayPosition":{"Latitude":45.847,"Longitude":13.96264},"MapView":{"TopLeft":{"Latitude":45.8481242,"Longitude":13.9610262},"BottomRight":{"Latitude":45.8458758,"Longitude":13.9642538}},"Address":{"Label":"Kreljeva ulica 6, SI- 5271 Vipava, Slovenija","Country":"SVN","County":"Ajdovščina","City":"Vipava","District":"Vipava","Street":"Kreljeva ulica","HouseNumber":"6","PostalCode":"5271","AdditionalData":[{"value":"Slovenija","key":"CountryName"},{"value":"Ajdovščina","key":"CountyName"}]},"MapReference":{"ReferenceId":"1215476984","Spot":0.0,"SideOfStreet":"right","CountryId":"20633685","CountyId":"20634911","CityId":"22689896","DistrictId":"22690804","AddressId":"406973177","RoadLinkId":"531626549"}}},{"Relevance":1.0,"Distance":30.5,"MatchLevel":"houseNumber","MatchQuality":{"Country":1.0,"County":1.0,"City":1.0,"District":1.0,"Street":[1.0],"HouseNumber":1.0,"PostalCode":1.0},"MatchType":"interpolated","Location":{"LocationId":"NT_HSXRoVxopgd2mNSvRw9HhA_xkD","LocationType":"point","DisplayPosition":{"Latitude":45.84674,"Longitude":13.96349},"MapView":{"TopLeft":{"Latitude":45.8478642,"Longitude":13.9618762},"BottomRight":{"Latitude":45.8456158,"Longitude":13.9651038}},"Address":{"Label":"Grabrijanova ulica 19, SI- 5271 Vipava, Slovenija","Country":"SVN","County":"Ajdovščina","City":"Vipava","District":"Vipava","Street":"Grabrijanova ulica","HouseNumber":"19","PostalCode":"5271","AdditionalData":[{"value":"Slovenija","key":"CountryName"},{"value":"Ajdovščina","key":"CountyName"}]},"MapReference":{"ReferenceId":"1215597654","Spot":0.0,"SideOfStreet":"right","CountryId":"20633685","CountyId":"20634911","CityId":"22689896","DistrictId":"22690804","AddressId":"740671870","RoadLinkId":"531774746"}}},{"Relevance":1.0,"Distance":32.1,"MatchLevel":"houseNumber","MatchQuality":{"Country":1.0,"County":1.0,"City":1.0,"District":1.0,"Street":[1.0],"HouseNumber":1.0,"PostalCode":1.0},"MatchType":"interpolated","Location":{"LocationId":"NT_BHLSTkRmyJ6T.skXWfbHmA_4A","LocationType":"point","DisplayPosition":{"Latitude":45.847,"Longitude":13.96264},"MapView":{"TopLeft":{"Latitude":45.8481242,"Longitude":13.9610262},"BottomRight":{"Latitude":45.8458758,"Longitude":13.9642538}},"Address":{"Label":"Kreljeva ulica 8, SI- 5271 Vipava, Slovenija","Country":"SVN","County":"Ajdovščina","City":"Vipava","District":"Vipava","Street":"Kreljeva ulica","HouseNumber":"8","PostalCode":"5271","AdditionalData":[{"value":"Slovenija","key":"CountryName"},{"value":"Ajdovščina","key":"CountyName"}]},"MapReference":{"ReferenceId":"1215476983","Spot":1.0,"SideOfStreet":"right","CountryId":"20633685","CountyId":"20634911","CityId":"22689896","DistrictId":"22690804","AddressId":"406973179","RoadLinkId":"531626548"}}},{"Relevance":1.0,"Distance":34.2,"MatchLevel":"houseNumber","MatchQuality":{"Country":1.0,"County":1.0,"City":1.0,"District":1.0,"Street":[1.0],"HouseNumber":1.0,"PostalCode":1.0},"MatchType":"interpolated","Location":{"LocationId":"NT_ygvQBA-CPzax1RRAkNFO3C_2A","LocationType":"point","DisplayPosition":{"Latitude":45.84632,"Longitude":13.96316},"MapView":{"TopLeft":{"Latitude":45.8474442,"Longitude":13.9615462},"BottomRight":{"Latitude":45.8451958,"Longitude":13.9647738}},"Address":{"Label":"Ulica Ivana Ščeka 6, SI- 5271 Vipava, Slovenija","Country":"SVN","County":"Ajdovščina","City":"Vipava","District":"Vipava","Street":"Ulica Ivana Ščeka","HouseNumber":"6","PostalCode":"5271","AdditionalData":[{"value":"Slovenija","key":"CountryName"},{"value":"Ajdovščina","key":"CountyName"}]},"MapReference":{"ReferenceId":"710419333","Spot":0.96,"SideOfStreet":"right","CountryId":"20633685","CountyId":"20634911","CityId":"22689896","DistrictId":"22690804","AddressId":"740671863","RoadLinkId":"435530947"}}},{"Relevance":1.0,"Distance":39.3,"MatchLevel":"street","MatchQuality":{"Country":1.0,"County":1.0,"City":1.0,"District":1.0,"Street":[1.0],"PostalCode":1.0},"Location":{"LocationId":"NT_ygvQBA-CPzax1RRAkNFO3C_l_1215706730_L","LocationType":"point","DisplayPosition":{"Latitude":45.84703,"Longitude":13.96292},"MapView":{"TopLeft":{"Latitude":45.84713,"Longitude":13.96267},"BottomRight":{"Latitude":45.84703,"Longitude":13.96292}},"Address":{"Label":"Ulica Ivana Ščeka, SI- 5271 Vipava, Slovenija","Country":"SVN","County":"Ajdovščina","City":"Vipava","District":"Vipava","Street":"Ulica Ivana Ščeka","PostalCode":"5271","AdditionalData":[{"value":"Slovenija","key":"CountryName"},{"value":"Ajdovščina","key":"CountyName"}]},"MapReference":{"ReferenceId":"1215706730","Spot":0.0,"SideOfStreet":"left","CountryId":"20633685","CountyId":"20634911","CityId":"22689896","DistrictId":"22690804"}}},{"Relevance":1.0,"Distance":41.2,"MatchLevel":"street","MatchQuality":{"Country":1.0,"County":1.0,"City":1.0,"District":1.0,"Street":[1.0],"PostalCode":1.0},"Location":{"LocationId":"NT_NMUPKXN3Jigt2Ynh47BJFA_l_1215375948_L","LocationType":"point","DisplayPosition":{"Latitude":45.84633,"Longitude":13.96313},"MapView":{"TopLeft":{"Latitude":45.84633,"Longitude":13.96289},"BottomRight":{"Latitude":45.84622,"Longitude":13.96313}},"Address":{"Label":"Glavni trg, SI- 5271 Vipava, Slovenija","Country":"SVN","County":"Ajdovščina","City":"Vipava","District":"Vipava","Street":"Glavni trg","PostalCode":"5271","AdditionalData":[{"value":"Slovenija","key":"CountryName"},{"value":"Ajdovščina","key":"CountyName"}]},"MapReference":{"ReferenceId":"1215375948","Spot":1.0,"SideOfStreet":"left","CountryId":"20633685","CountyId":"20634911","CityId":"22689896","DistrictId":"22690804"}}}]}]}}