{"Response":{"MetaInfo":{"Timestamp":"2020-03-28T09:54:15.698+0000","NextPageInformation":"2"},"View":[{"_type":"SearchResultsViewType","ViewId":0,"Result":[{"Relevance":1.0,"Distance":0.0,"Direction":0.0,"MatchLevel":"district","MatchQuality":{"Country":1.0,"County":1.0,"City":1.0,"District":1.0,"PostalCode":1.0},"Location":{"LocationId":"NT_rUV9ui1DbK-1hEIVyJQ31D","LocationType":"point","DisplayPosition":{"Latitude":45.8307559,"Longitude":15.9999301},"MapView":{"TopLeft":{"Latitude":45.83713,"Longitude":15.99138},"BottomRight":{"Latitude":45.82328,"Longitude":16.01236}},"Address":{"Label":"Kozjak, Zagreb, Hrvatska","Country":"HRV","County":"Grad Zagreb","City":"Zagreb","District":"Kozjak","PostalCode":"10000","AdditionalData":[{"value":"Hrvatska","key":"CountryName"},{"value":"Grad Zagreb","key":"CountyName"}]},"MapReference":{"ReferenceId":"585712545","SideOfStreet":"neither","CountryId":"20633739","CountyId":"20641560","CityId":"20641561"}}},{"Relevance":1.0,"Distance":16.3,"MatchLevel":"houseNumber","MatchQuality":{"Country":1.0,"County":1.0,"City":1.0,"District":1.0,"Street":[1.0],"HouseNumber":1.0,"PostalCode":1.0},"MatchType":"interpolated","Location":{"LocationId":"NT_b-qAK02n-djoJ5b3BHvV0C_zMD","LocationType":"point","DisplayPosition":{"Latitude":45.83068,"Longitude":16.00011},"MapView":{"TopLeft":{"Latitude":45.8318042,"Longitude":15.9984966},"BottomRight":{"Latitude":45.8295558,"Longitude":16.0017234}},"Address":{"Label":"Rebar 33, HR-10000 Zagreb, Hrvatska","Country":"HRV","County":"Grad Zagreb","City":"Zagreb","District":"Kozjak","Street":"Rebar","HouseNumber":"33","PostalCode":"10000","AdditionalData":[{"value":"Hrvatska","key":"CountryName"},{"value":"Grad Zagreb","key":"CountyName"}]},"MapReference":{"ReferenceId":"585712314","Spot":1.0,"SideOfStreet":"left","CountryId":"20633739","CountyId":"20641560","CityId":"20641561","AddressId":"623034838","RoadLinkId":"271265647"}}},{"Relevance":1.0,"Distance":73.0,"MatchLevel":"houseNumber","MatchQuality":{"Country":1.0,"County":1.0,"City":1.0,"District":1.0,"Street":[1.0],"HouseNumber":1.0,"PostalCode":1.0},"MatchType":"interpolated","Location":{"LocationId":"NT_b-qAK02n-djoJ5b3BHvV0C_zED","LocationType":"point","DisplayPosition":{"Latitude":45.83084,"Longitude":15.99872},"MapView":{"TopLeft":{"Latitude":45.8319642,"Longitude":15.9971066},"BottomRight":{"Latitude":45.8297158,"Longitude":16.0003334}},"Address":{"Label":"Rebar 31, HR-10000 Zagreb, Hrvatska","Country":"HRV","County":"Grad Zagreb","City":"Zagreb","District":"Kozjak","Street":"Rebar","HouseNumber":"31","PostalCode":"10000","AdditionalData":[{"value":"Hrvatska","key":"CountryName"},{"value":"Grad Zagreb","key":"CountyName"}]},"MapReference":{"ReferenceId":"1247258866","Spot":0.59,"SideOfStreet":"right","CountryId":"20633739","CountyId":"20641560","CityId":"20641561","AddressId":"623063567","RoadLinkId":"569017316"}}},{"Relevance":1.0,"Distance":75.5,"MatchLevel":"houseNumber","MatchQuality":{"Country":1.0,"County":1.0,"City":1.0,"District":1.0,"Street":[1.0],"HouseNumber":1.0,"PostalCode":1.0},"MatchType":"interpolated","Location":{"LocationId":"NT_b-qAK02n-djoJ5b3BHvV0C_0YD","LocationType":"point","DisplayPosition":{"Latitude":45.8301,"Longitude":15.99968},"MapView":{"TopLeft":{"Latitude":45.8312242,"Longitude":15.9980667},"BottomRight":{"Latitude":45.8289758,"Longitude":16.0012933}},"Address":{"Label":"Rebar 46, HR-10000 Zagreb, Hrvatska","Country":"HRV","County":"Grad Zagreb","City":"Zagreb","District":"Kozjak","Street":"Rebar","HouseNumber":"46","PostalCode":"10000","AdditionalData":[{"value":"Hrvatska","key":"CountryName"},{"value":"Grad Zagreb","key":"CountyName"}]},"MapReference":{"ReferenceId":"585712343","Spot":0.45,"SideOfStreet":"left","CountryId":"20633739","CountyId":"20641560","CityId":"20641561","AddressId":"623057799","RoadLinkId":"53672552"}}},{"Relevance":1.0,"Distance":77.4,"MatchLevel":"street","MatchQuality":{"Country":1.0,"County":1.0,"City":1.0,"District":1.0,"Street":[1.0],"PostalCode":1.0},"Location":{"LocationId":"NT_b-qAK02n-djoJ5b3BHvV0C_l_1025206011_R","LocationType":"point","DisplayPosition":{"Latitude":45.83006,"Longitude":15.9999301},"MapView":{"TopLeft":{"Latitude":45.83007,"Longitude":15.99976},"BottomRight":{"Latitude":45.83006,"Longitude":16.00006}},"Address":{"Label":"Rebar, HR-10000 Zagreb, Hrvatska","Country":"HRV","County":"Grad Zagreb","City":"Zagreb","District":"Kozjak","Street":"Rebar","PostalCode":"10000","AdditionalData":[{"value":"Hrvatska","key":"CountryName"},{"value":"Grad Zagreb","key":"CountyName"}]},"MapReference":{"ReferenceId":"1025206011","Spot":0.43,"SideOfStreet":"right","CountryId":"20633739","CountyId":"20641560","CityId":"20641561"}}},{"Relevance":1.0,"Distance":88.7,"MatchLevel":"houseNumber","MatchQuality":{"Country":1.0,"County":1.0,"City":1.0,"District":1.0,"Street":[1.0],"HouseNumber":1.0,"PostalCode":1.0},"MatchType":"interpolated","Location":{"LocationId":"NT_JfKDvFz-zQYIeBnFlb2n9D_0AD","LocationType":"point","DisplayPosition":{"Latitude":45.82993,"Longitude":15.99997},"MapView":{"TopLeft":{"Latitude":45.8310542,"Longitude":15.9983567},"BottomRight":{"Latitude":45.8288058,"Longitude":16.0015833}},"Address":{"Label":"Rebrovac 40, HR-10000 Zagreb, Hrvatska","Country":"HRV","County":"Grad Zagreb","City":"Zagreb","District":"Kozjak","Street":"Rebrovac","HouseNumber":"40","PostalCode":"10000","AdditionalData":[{"value":"Hrvatska","key":"CountryName"},{"value":"Grad Zagreb","key":"CountyName"}]},"MapReference":{"ReferenceId":"585712503","Spot":0.81,"SideOfStreet":"right","CountryId":"20633739","CountyId":"20641560","CityId":"20641561","AddressId":"623108930","RoadLinkId":"53683156"}}},{"Relevance":1.0,"Distance":90.7,"MatchLevel":"houseNumber","MatchQuality":{"Country":1.0,"County":1.0,"City":1.0,"District":1.0,"Street":[1.0],"HouseNumber":1.0,"PostalCode":1.0},"MatchType":"interpolated","Location":{"LocationId":"NT_Rj-VW9JoeBQV8wrUuGcB0C_xA","LocationType":"point","DisplayPosition":{"Latitude":45.83158,"Longitude":16.00064},"MapView":{"TopLeft":{"Latitude":45.8327042,"Longitude":15.9990266},"BottomRight":{"Latitude":45.8304558,"Longitude":16.0022534}},"Address":{"Label":"Kozjak odvojak I 1, HR-10000 Zagreb, Hrvatska","Country":"HRV","County":"Grad Zagreb","City":"Zagreb","District":"Kozjak","Street":"Kozjak odvojak I","HouseNumber":"1","PostalCode":"10000","AdditionalData":[{"value":"Hrvatska","key":"CountryName"},{"value":"Grad Zagreb","key":"CountyName"}]},"MapReference":{"ReferenceId":"585734598","Spot":0.0,"SideOfStreet":"left","CountryId":"20633739","CountyId":"20641560","CityId":"20641561","AddressId":"704183612","RoadLinkId":"53676487"}}},{"Relevance":1.0,"Distance":118.2,"MatchLevel":"houseNumber","MatchQuality":{"Country":1.0,"County":1.0,"City":1.0,"District":1.0,"Street":[1.0],"HouseNumber":1.0,"PostalCode":1.0},"MatchType":"interpolated","Location":{"LocationId":"NT_b-qAK02n-djoJ5b3BHvV0C_3kD","LocationType":"point","DisplayPosition":{"Latitude":45.82983,"Longitude":16.0008},"MapView":{"TopLeft":{"Latitude":45.8309542,"Longitude":15.9991867},"BottomRight":{"Latitude":45.8287058,"Longitude":16.0024133}},"Address":{"Label":"Rebar 79, HR-10000 Zagreb, Hrvatska","Country":"HRV","County":"Grad Zagreb","City":"Zagreb","District":"Kozjak","Street":"Rebar","HouseNumber":"79","PostalCode":"10000","AdditionalData":[{"value":"Hrvatska","key":"CountryName"},{"value":"Grad Zagreb","key":"CountyName"}]},"MapReference":{"ReferenceId":"1025206010","Spot":0.44,"SideOfStreet":"right","CountryId":"20633739","CountyId":"20641560","CityId":"20641561","AddressId":"623114434","RoadLinkId":"348457448"}}},{"Relevance":1.0,"Distance":118.6,"MatchLevel":"houseNumber","MatchQuality":{"Country":1.0,"County":1.0,"City":1.0,"District":1.0,"Street":[1.0],"HouseNumber":1.0,"PostalCode":1.0},"MatchType":"interpolated","Location":{"LocationId":"NT_ts-AmIdyW.cctZSm1IsXLA_zUD","LocationType":"point","DisplayPosition":{"Latitude":45.82953,"Longitude":15.99957},"MapView":{"TopLeft":{"Latitude":45.8306542,"Longitude":15.9979567},"BottomRight":{"Latitude":45.8284058,"Longitude":16.0011833}},"Address":{"Label":"Dolčić 35, HR-10000 Zagreb, Hrvatska","Country":"HRV","County":"Grad Zagreb","City":"Zagreb","District":"Kozjak","Street":"Dolčić","HouseNumber":"35","PostalCode":"10000","AdditionalData":[{"value":"Hrvatska","key":"CountryName"},{"value":"Grad Zagreb","key":"CountyName"}]},"MapReference":{"ReferenceId":"585712490","Spot":0.16,"SideOfStreet":"right","CountryId":"20633739","CountyId":"20641560","CityId":"20641561","AddressId":"623092344","RoadLinkId":"53663707"}}},{"Relevance":1.0,"Distance":123.3,"MatchLevel":"houseNumber","MatchQuality":{"Country":1.0,"County":1.0,"City":1.0,"District":1.0,"Street":[1.0],"HouseNumber":1.0,"PostalCode":1.0},"MatchType":"interpolated","Location":{"LocationId":"NT_LNYa-7OUWgkr2N5EtyCm3B_yAD","LocationType":"point","DisplayPosition":{"Latitude":45.83199,"Longitude":15.99965},"MapView":{"TopLeft":{"Latitude":45.8331142,"Longitude":15.9980366},"BottomRight":{"Latitude":45.8308658,"Longitude":16.0012634}},"Address":{"Label":"Kozjak 20, HR-10000 Zagreb, Hrvatska","Country":"HRV","County":"Grad Zagreb","City":"Zagreb","District":"Kozjak","Street":"Kozjak","HouseNumber":"20","PostalCode":"10000","AdditionalData":[{"value":"Hrvatska","key":"CountryName"},{"value":"Grad Zagreb","key":"CountyName"}]},"MapReference":{"ReferenceId":"1247349964","Spot":0.46,"SideOfStreet":"right","CountryId":"20633739","CountyId":"20641560","CityId":"20641561","AddressId":"623084969","RoadLinkId":"569125876"}}}]}]}}