{"Response":{"MetaInfo":{"Timestamp":"2020-03-28T11:21:39.667+0000","NextPageInformation":"2"},"View":[{"_type":"SearchResultsViewType","ViewId":0,"Result":[{"Relevance":1.0,"Distance":-0.1,"MatchLevel":"landmark","MatchQuality":{"Country":1.0,"County":1.0,"City":1.0,"District":1.0,"Street":[1.0],"HouseNumber":1.0,"PostalCode":1.0,"Name":1.0},"Location":{"LocationId":"NT_20AqF1dTtceI2TckFDgSMD_p_FHKnLB8LJ3t4L5UspqRb4B","LocationType":"hospital","Name":"Klinička bolnica Sveti Duh","DisplayPosition":{"Latitude":45.81988,"Longitude":15.93875},"MapView":{"TopLeft":{"Latitude":45.8210042,"Longitude":15.937137},"BottomRight":{"Latitude":45.8187558,"Longitude":15.940363}},"Address":{"Label":"Sveti Duh 64, HR-10000 Zagreb, Hrvatska","Country":"HRV","County":"Grad Zagreb","City":"Zagreb","District":"Sveti Duh","Street":"Sveti Duh","HouseNumber":"64","PostalCode":"10000","AdditionalData":[{"value":"Hrvatska","key":"CountryName"},{"value":"Grad Zagreb","key":"CountyName"}]},"MapReference":{"CountryId":"20633739","CountyId":"20641560","CityId":"20641561","PlaceId":"555680748"}}},{"Relevance":1.0,"Distance":0.0,"Direction":0.0,"MatchLevel":"district","MatchQuality":{"Country":1.0,"County":1.0,"City":1.0,"District":1.0,"PostalCode":1.0},"Location":{"LocationId":"NT_vUMLaIKuevyyS2Jt9PGUYA","LocationType":"point","DisplayPosition":{"Latitude":45.8201508,"Longitude":15.938145},"MapView":{"TopLeft":{"Latitude":45.83979,"Longitude":15.92455},"BottomRight":{"Latitude":45.81555,"Longitude":15.94498}},"Address":{"Label":"Sveti Duh, Zagreb, Hrvatska","Country":"HRV","County":"Grad Zagreb","City":"Zagreb","District":"Sveti Duh","PostalCode":"10000","AdditionalData":[{"value":"Hrvatska","key":"CountryName"},{"value":"Grad Zagreb","key":"CountyName"}]},"MapReference":{"ReferenceId":"585731807","SideOfStreet":"neither","CountryId":"20633739","CountyId":"20641560","CityId":"20641561"}}},{"Relevance":1.0,"Distance":1.3,"MatchLevel":"houseNumber","MatchQuality":{"Country":1.0,"County":1.0,"City":1.0,"District":1.0,"Street":[1.0],"HouseNumber":1.0,"PostalCode":1.0},"MatchType":"interpolated","Location":{"LocationId":"NT_m-OGs3o8J1znJR8g1LnEtD_3MD","LocationType":"point","DisplayPosition":{"Latitude":45.82014,"Longitude":15.93815},"MapView":{"TopLeft":{"Latitude":45.8212642,"Longitude":15.936537},"BottomRight":{"Latitude":45.8190158,"Longitude":15.939763}},"Address":{"Label":"Sveti Duh 73, HR-10000 Zagreb, Hrvatska","Country":"HRV","County":"Grad Zagreb","City":"Zagreb","District":"Sveti Duh","Street":"Sveti Duh","HouseNumber":"73","PostalCode":"10000","AdditionalData":[{"value":"Hrvatska","key":"CountryName"},{"value":"Grad Zagreb","key":"CountyName"}]},"MapReference":{"ReferenceId":"913462872","Spot":0.0,"SideOfStreet":"left","CountryId":"20633739","CountyId":"20641560","CityId":"20641561","AddressId":"623054417","RoadLinkId":"271300235"}}},{"Relevance":1.0,"Distance":6.2,"MatchLevel":"houseNumber","MatchQuality":{"Country":1.0,"County":1.0,"City":1.0,"District":1.0,"Street":[1.0],"HouseNumber":1.0,"PostalCode":1.0},"MatchType":"interpolated","Location":{"LocationId":"NT_m-OGs3o8J1znJR8g1LnEtD_l_913462871_L_3MD","LocationType":"point","DisplayPosition":{"Latitude":45.8201031,"Longitude":15.9381869},"MapView":{"TopLeft":{"Latitude":45.8212273,"Longitude":15.9365738},"BottomRight":{"Latitude":45.818979,"Longitude":15.9397999}},"Address":{"Label":"Sveti Duh 73, HR-10000 Zagreb, Hrvatska","Country":"HRV","County":"Grad Zagreb","City":"Zagreb","District":"Sveti Duh","Street":"Sveti Duh","HouseNumber":"73","PostalCode":"10000","AdditionalData":[{"value":"Hrvatska","key":"CountryName"},{"value":"Grad Zagreb","key":"CountyName"}]},"MapReference":{"ReferenceId":"913462871","Spot":0.54,"SideOfStreet":"left","CountryId":"20633739","CountyId":"20641560","CityId":"20641561"}}},{"Relevance":1.0,"Distance":12.6,"MatchLevel":"street","MatchQuality":{"Country":1.0,"County":1.0,"City":1.0,"District":1.0,"Street":[1.0],"PostalCode":1.0},"Location":{"LocationId":"NT_.iujKaYm.Q1tucoKkNP1kD_l_1247849368_L","LocationType":"point","DisplayPosition":{"Latitude":45.8200461,"Longitude":15.9382061},"MapView":{"TopLeft":{"Latitude":45.82006,"Longitude":15.93811},"BottomRight":{"Latitude":45.81999,"Longitude":15.93823}},"Address":{"Label":"Krčelićeva ulica, HR-10000 Zagreb, Hrvatska","Country":"HRV","County":"Grad Zagreb","City":"Zagreb","District":"Sveti Duh","Street":"Krčelićeva ulica","PostalCode":"10000","AdditionalData":[{"value":"Hrvatska","key":"CountryName"},{"value":"Grad Zagreb","key":"CountyName"}]},"MapReference":{"ReferenceId":"1247849368","Spot":0.8,"SideOfStreet":"left","CountryId":"20633739","CountyId":"20641560","CityId":"20641561"}}},{"Relevance":1.0,"Distance":18.1,"MatchLevel":"street","MatchQuality":{"Country":1.0,"County":1.0,"City":1.0,"District":1.0,"Street":[1.0],"PostalCode":1.0},"Location":{"LocationId":"NT_.iujKaYm.Q1tucoKkNP1kD_l_1248232746_L","LocationType":"point","DisplayPosition":{"Latitude":45.81999,"Longitude":15.93811},"MapView":{"TopLeft":{"Latitude":45.81999,"Longitude":15.938},"BottomRight":{"Latitude":45.81993,"Longitude":15.93811}},"Address":{"Label":"Krčelićeva ulica, HR-10000 Zagreb, Hrvatska","Country":"HRV","County":"Grad Zagreb","City":"Zagreb","District":"Sveti Duh","Street":"Krčelićeva ulica","PostalCode":"10000","AdditionalData":[{"value":"Hrvatska","key":"CountryName"},{"value":"Grad Zagreb","key":"CountyName"}]},"MapReference":{"ReferenceId":"1248232746","Spot":1.0,"SideOfStreet":"left","CountryId":"20633739","CountyId":"20641560","CityId":"20641561"}}},{"Relevance":1.0,"Distance":19.2,"MatchLevel":"houseNumber","MatchQuality":{"Country":1.0,"County":1.0,"City":1.0,"District":1.0,"Street":[1.0],"HouseNumber":1.0,"PostalCode":1.0},"MatchType":"interpolated","Location":{"LocationId":"NT_m-OGs3o8J1znJR8g1LnEtD_3cD","LocationType":"point","DisplayPosition":{"Latitude":45.82031,"Longitude":15.93805},"MapView":{"TopLeft":{"Latitude":45.8214342,"Longitude":15.936437},"BottomRight":{"Latitude":45.8191858,"Longitude":15.939663}},"Address":{"Label":"Sveti Duh 77, HR-10000 Zagreb, Hrvatska","Country":"HRV","County":"Grad Zagreb","City":"Zagreb","District":"Sveti Duh","Street":"Sveti Duh","HouseNumber":"77","PostalCode":"10000","AdditionalData":[{"value":"Hrvatska","key":"CountryName"},{"value":"Grad Zagreb","key":"CountyName"}]},"MapReference":{"ReferenceId":"957778311","Spot":0.0,"SideOfStreet":"left","CountryId":"20633739","CountyId":"20641560","CityId":"20641561","AddressId":"714786251","RoadLinkId":"300746604"}}},{"Relevance":1.0,"Distance":19.6,"MatchLevel":"street","MatchQuality":{"Country":1.0,"County":1.0,"City":1.0,"District":1.0,"Street":[1.0],"PostalCode":1.0},"Location":{"LocationId":"NT_m-OGs3o8J1znJR8g1LnEtD_l_913462874_R","LocationType":"point","DisplayPosition":{"Latitude":45.8203229,"Longitude":15.938092},"MapView":{"TopLeft":{"Latitude":45.82047,"Longitude":15.93805},"BottomRight":{"Latitude":45.82031,"Longitude":15.93831}},"Address":{"Label":"Sveti Duh, HR-10000 Zagreb, Hrvatska","Country":"HRV","County":"Grad Zagreb","City":"Zagreb","District":"Sveti Duh","Street":"Sveti Duh","PostalCode":"10000","AdditionalData":[{"value":"Hrvatska","key":"CountryName"},{"value":"Grad Zagreb","key":"CountyName"}]},"MapReference":{"ReferenceId":"913462874","Spot":0.14,"SideOfStreet":"right","CountryId":"20633739","CountyId":"20641560","CityId":"20641561"}}},{"Relevance":1.0,"Distance":24.3,"MatchLevel":"houseNumber","MatchQuality":{"Country":1.0,"County":1.0,"City":1.0,"District":1.0,"Street":[1.0],"HouseNumber":1.0,"PostalCode":1.0},"MatchType":"interpolated","Location":{"LocationId":"NT_m-OGs3o8J1znJR8g1LnEtD_3ED","LocationType":"point","DisplayPosition":{"Latitude":45.81998,"Longitude":15.93834},"MapView":{"TopLeft":{"Latitude":45.8211042,"Longitude":15.936727},"BottomRight":{"Latitude":45.8188558,"Longitude":15.939953}},"Address":{"Label":"Sveti Duh 71, HR-10000 Zagreb, Hrvatska","Country":"HRV","County":"Grad Zagreb","City":"Zagreb","District":"Sveti Duh","Street":"Sveti Duh","HouseNumber":"71","PostalCode":"10000","AdditionalData":[{"value":"Hrvatska","key":"CountryName"},{"value":"Grad Zagreb","key":"CountyName"}]},"MapReference":{"ReferenceId":"957783980","Spot":0.17,"SideOfStreet":"left","CountryId":"20633739","CountyId":"20641560","CityId":"20641561","AddressId":"623138136","RoadLinkId":"300752670"}}},{"Relevance":1.0,"Distance":30.0,"MatchLevel":"houseNumber","MatchQuality":{"Country":1.0,"County":1.0,"City":1.0,"District":1.0,"Street":[1.0],"HouseNumber":1.0,"PostalCode":1.0},"MatchType":"interpolated","Location":{"LocationId":"NT_.iujKaYm.Q1tucoKkNP1kD_ykD","LocationType":"point","DisplayPosition":{"Latitude":45.81991,"Longitude":15.93797},"MapView":{"TopLeft":{"Latitude":45.8210342,"Longitude":15.936357},"BottomRight":{"Latitude":45.8187858,"Longitude":15.939583}},"Address":{"Label":"Krčelićeva ulica 29, HR-10000 Zagreb, Hrvatska","Country":"HRV","County":"Grad Zagreb","City":"Zagreb","District":"Sveti Duh","Street":"Krčelićeva ulica","HouseNumber":"29","PostalCode":"10000","AdditionalData":[{"value":"Hrvatska","key":"CountryName"},{"value":"Grad Zagreb","key":"CountyName"}]},"MapReference":{"ReferenceId":"1248232745","Spot":0.78,"SideOfStreet":"left","CountryId":"20633739","CountyId":"20641560","CityId":"20641561","AddressId":"623142273","RoadLinkId":"570167518"}}}]}]}}