{"Response":{"MetaInfo":{"Timestamp":"2020-03-28T10:42:17.803+0000","NextPageInformation":"2"},"View":[{"_type":"SearchResultsViewType","ViewId":0,"Result":[{"Relevance":1.0,"Distance":0.0,"Direction":0.0,"MatchLevel":"district","MatchQuality":{"Country":1.0,"County":1.0,"City":1.0,"District":1.0,"PostalCode":1.0},"Location":{"LocationId":"NT_BT6Y3AtPYUhHde2WLtuDmD","LocationType":"point","DisplayPosition":{"Latitude":45.8124389,"Longitude":16.0246564},"MapView":{"TopLeft":{"Latitude":45.81802,"Longitude":16.01361},"BottomRight":{"Latitude":45.79803,"Longitude":16.0485}},"Address":{"Label":"Borongaj-Lugovi, Zagreb, Hrvatska","Country":"HRV","County":"Grad Zagreb","City":"Zagreb","District":"Borongaj-Lugovi","PostalCode":"10135","AdditionalData":[{"value":"Hrvatska","key":"CountryName"},{"value":"Grad Zagreb","key":"CountyName"}]},"MapReference":{"ReferenceId":"845225690","SideOfStreet":"neither","CountryId":"20633739","CountyId":"20641560","CityId":"20641561"}}},{"Relevance":1.0,"Distance":14.9,"MatchLevel":"houseNumber","MatchQuality":{"Country":1.0,"County":1.0,"City":1.0,"District":1.0,"Street":[1.0],"HouseNumber":1.0,"PostalCode":1.0},"MatchType":"interpolated","Location":{"LocationId":"NT_avS798..L4yvaA7WreSIOB_zgTQ","LocationType":"point","DisplayPosition":{"Latitude":45.81256,"Longitude":16.02474},"MapView":{"TopLeft":{"Latitude":45.8136842,"Longitude":16.0231272},"BottomRight":{"Latitude":45.8114358,"Longitude":16.0263528}},"Address":{"Label":"Ulica književnika Vladimira Vidrića 38A, HR-10135 Zagreb, Hrvatska","Country":"HRV","County":"Grad Zagreb","City":"Zagreb","District":"Borongaj-Lugovi","Street":"Ulica književnika Vladimira Vidrića","HouseNumber":"38A","PostalCode":"10135","AdditionalData":[{"value":"Hrvatska","key":"CountryName"},{"value":"Grad Zagreb","key":"CountyName"}]},"MapReference":{"ReferenceId":"1023040715","Spot":0.51,"SideOfStreet":"right","CountryId":"20633739","CountyId":"20641560","CityId":"20641561","AddressId":"623137245","RoadLinkId":"347706796"}}},{"Relevance":1.0,"Distance":18.6,"MatchLevel":"street","MatchQuality":{"Country":1.0,"County":1.0,"City":1.0,"District":1.0,"PostalCode":1.0},"Location":{"LocationId":"NT_skffVp63kpoXrPdCEsv.9A_l_1038611378_L","LocationType":"point","DisplayPosition":{"Latitude":45.81228,"Longitude":16.02458},"MapView":{"TopLeft":{"Latitude":45.81228,"Longitude":16.02284},"BottomRight":{"Latitude":45.81196,"Longitude":16.02458}},"Address":{"Label":"HR-10135 Zagreb, Hrvatska","Country":"HRV","County":"Grad Zagreb","City":"Zagreb","District":"Borongaj-Lugovi","PostalCode":"10135","AdditionalData":[{"value":"Hrvatska","key":"CountryName"},{"value":"Grad Zagreb","key":"CountyName"}]},"MapReference":{"ReferenceId":"1038611378","Spot":1.0,"SideOfStreet":"left","CountryId":"20633739","CountyId":"20641560","CityId":"20641561"}}},{"Relevance":1.0,"Distance":20.0,"MatchLevel":"street","MatchQuality":{"Country":1.0,"County":1.0,"City":1.0,"District":1.0,"PostalCode":1.0},"Location":{"LocationId":"NT_skffVp63kpoXrPdCEsv.9A_l_1038607371_R","LocationType":"point","DisplayPosition":{"Latitude":45.81251,"Longitude":16.02442},"MapView":{"TopLeft":{"Latitude":45.8128,"Longitude":16.02432},"BottomRight":{"Latitude":45.81251,"Longitude":16.02442}},"Address":{"Label":"HR-10135 Zagreb, Hrvatska","Country":"HRV","County":"Grad Zagreb","City":"Zagreb","District":"Borongaj-Lugovi","PostalCode":"10135","AdditionalData":[{"value":"Hrvatska","key":"CountryName"},{"value":"Grad Zagreb","key":"CountyName"}]},"MapReference":{"ReferenceId":"1038607371","Spot":0.0,"SideOfStreet":"right","CountryId":"20633739","CountyId":"20641560","CityId":"20641561"}}},{"Relevance":1.0,"Distance":32.0,"MatchLevel":"houseNumber","MatchQuality":{"Country":1.0,"County":1.0,"City":1.0,"District":1.0,"Street":[1.0],"HouseNumber":1.0,"PostalCode":1.0},"MatchType":"interpolated","Location":{"LocationId":"NT_avS798..L4yvaA7WreSIOB_zgD","LocationType":"point","DisplayPosition":{"Latitude":45.81248,"Longitude":16.02423},"MapView":{"TopLeft":{"Latitude":45.8136042,"Longitude":16.0226172},"BottomRight":{"Latitude":45.8113558,"Longitude":16.0258428}},"Address":{"Label":"Ulica književnika Vladimira Vidrića 38, HR-10135 Zagreb, Hrvatska","Country":"HRV","County":"Grad Zagreb","City":"Zagreb","District":"Borongaj-Lugovi","Street":"Ulica književnika Vladimira Vidrića","HouseNumber":"38","PostalCode":"10135","AdditionalData":[{"value":"Hrvatska","key":"CountryName"},{"value":"Grad Zagreb","key":"CountyName"}]},"MapReference":{"ReferenceId":"1038607365","Spot":0.55,"SideOfStreet":"right","CountryId":"20633739","CountyId":"20641560","CityId":"20641561","AddressId":"623083914","RoadLinkId":"360418179"}}},{"Relevance":1.0,"Distance":32.5,"MatchLevel":"houseNumber","MatchQuality":{"Country":1.0,"County":1.0,"City":1.0,"District":1.0,"Street":[1.0],"HouseNumber":1.0,"PostalCode":1.0},"MatchType":"interpolated","Location":{"LocationId":"NT_2AkeJsjb-7fSNC4xEZuGdD_zkD","LocationType":"point","DisplayPosition":{"Latitude":45.81283,"Longitude":16.0245},"MapView":{"TopLeft":{"Latitude":45.8139542,"Longitude":16.0228872},"BottomRight":{"Latitude":45.8117058,"Longitude":16.0261128}},"Address":{"Label":"Ulica Ksavera Šandora Gjalskog 39, HR-10135 Zagreb, Hrvatska","Country":"HRV","County":"Grad Zagreb","City":"Zagreb","District":"Borongaj-Lugovi","Street":"Ulica Ksavera Šandora Gjalskog","HouseNumber":"39","PostalCode":"10135","AdditionalData":[{"value":"Hrvatska","key":"CountryName"},{"value":"Grad Zagreb","key":"CountyName"}]},"MapReference":{"ReferenceId":"1038607373","Spot":0.18,"SideOfStreet":"right","CountryId":"20633739","CountyId":"20641560","CityId":"20641561","AddressId":"623086901","RoadLinkId":"360418187"}}},{"Relevance":1.0,"Distance":35.2,"MatchLevel":"houseNumber","MatchQuality":{"Country":1.0,"County":1.0,"City":1.0,"District":1.0,"Street":[1.0],"HouseNumber":1.0,"PostalCode":1.0},"MatchType":"interpolated","Location":{"LocationId":"NT_2AkeJsjb-7fSNC4xEZuGdD_zED","LocationType":"point","DisplayPosition":{"Latitude":45.81236,"Longitude":16.02515},"MapView":{"TopLeft":{"Latitude":45.8134842,"Longitude":16.0235372},"BottomRight":{"Latitude":45.8112358,"Longitude":16.0267628}},"Address":{"Label":"Ulica Ksavera Šandora Gjalskog 31, HR-10135 Zagreb, Hrvatska","Country":"HRV","County":"Grad Zagreb","City":"Zagreb","District":"Borongaj-Lugovi","Street":"Ulica Ksavera Šandora Gjalskog","HouseNumber":"31","PostalCode":"10135","AdditionalData":[{"value":"Hrvatska","key":"CountryName"},{"value":"Grad Zagreb","key":"CountyName"}]},"MapReference":{"ReferenceId":"585716745","Spot":0.63,"SideOfStreet":"left","CountryId":"20633739","CountyId":"20641560","CityId":"20641561","AddressId":"623063352","RoadLinkId":"53650336"}}},{"Relevance":1.0,"Distance":36.0,"MatchLevel":"street","MatchQuality":{"Country":1.0,"County":1.0,"City":1.0,"District":1.0,"Street":[1.0],"PostalCode":1.0},"Location":{"LocationId":"NT_avS798..L4yvaA7WreSIOB_l_1023040716_R","LocationType":"point","DisplayPosition":{"Latitude":45.81261,"Longitude":16.02505},"MapView":{"TopLeft":{"Latitude":45.81267,"Longitude":16.02505},"BottomRight":{"Latitude":45.81261,"Longitude":16.02541}},"Address":{"Label":"Ulica književnika Vladimira Vidrića, HR-10135 Zagreb, Hrvatska","Country":"HRV","County":"Grad Zagreb","City":"Zagreb","District":"Borongaj-Lugovi","Street":"Ulica književnika Vladimira Vidrića","PostalCode":"10135","AdditionalData":[{"value":"Hrvatska","key":"CountryName"},{"value":"Grad Zagreb","key":"CountyName"}]},"MapReference":{"ReferenceId":"1023040716","Spot":0.0,"SideOfStreet":"right","CountryId":"20633739","CountyId":"20641560","CityId":"20641561"}}},{"Relevance":1.0,"Distance":47.9,"MatchLevel":"street","MatchQuality":{"Country":1.0,"County":1.0,"City":1.0,"District":1.0,"PostalCode":1.0},"Location":{"LocationId":"NT_skffVp63kpoXrPdCEsv.9A_l_1038607372_R","LocationType":"point","DisplayPosition":{"Latitude":45.8128,"Longitude":16.02432},"MapView":{"TopLeft":{"Latitude":45.81298,"Longitude":16.02425},"BottomRight":{"Latitude":45.8128,"Longitude":16.02432}},"Address":{"Label":"HR-10135 Zagreb, Hrvatska","Country":"HRV","County":"Grad Zagreb","City":"Zagreb","District":"Borongaj-Lugovi","PostalCode":"10135","AdditionalData":[{"value":"Hrvatska","key":"CountryName"},{"value":"Grad Zagreb","key":"CountyName"}]},"MapReference":{"ReferenceId":"1038607372","Spot":0.0,"SideOfStreet":"right","CountryId":"20633739","CountyId":"20641560","CityId":"20641561"}}},{"Relevance":1.0,"Distance":50.9,"MatchLevel":"street","MatchQuality":{"Country":1.0,"County":1.0,"City":1.0,"District":1.0,"PostalCode":1.0},"Location":{"LocationId":"NT_skffVp63kpoXrPdCEsv.9A_l_1038607366_R","LocationType":"point","DisplayPosition":{"Latitude":45.81244,"Longitude":16.024},"MapView":{"TopLeft":{"Latitude":45.81262,"Longitude":16.02385},"BottomRight":{"Latitude":45.81244,"Longitude":16.024}},"Address":{"Label":"HR-10135 Zagreb, Hrvatska","Country":"HRV","County":"Grad Zagreb","City":"Zagreb","District":"Borongaj-Lugovi","PostalCode":"10135","AdditionalData":[{"value":"Hrvatska","key":"CountryName"},{"value":"Grad Zagreb","key":"CountyName"}]},"MapReference":{"ReferenceId":"1038607366","Spot":0.0,"SideOfStreet":"right","CountryId":"20633739","CountyId":"20641560","CityId":"20641561"}}}]}]}}