{"Response":{"MetaInfo":{"Timestamp":"2020-03-31T17:05:08.373+0000","NextPageInformation":"2"},"View":[{"_type":"SearchResultsViewType","ViewId":0,"Result":[{"Relevance":1.0,"Distance":0.0,"Direction":0.0,"MatchLevel":"district","MatchQuality":{"Country":1.0,"County":1.0,"City":1.0,"District":1.0,"PostalCode":1.0},"Location":{"LocationId":"NT_mno8yA6lC3wlj3umC8ooJB","LocationType":"point","DisplayPosition":{"Latitude":45.8236,"Longitude":14.6531},"MapView":{"TopLeft":{"Latitude":45.82754,"Longitude":14.65075},"BottomRight":{"Latitude":45.81925,"Longitude":14.67028}},"Address":{"Label":"Gornje Retje, Velike Lašče, Slovenija","Country":"SVN","County":"Ljubljana","City":"Velike Lašče","District":"Gornje Retje","PostalCode":"1315","AdditionalData":[{"value":"Slovenija","key":"CountryName"},{"value":"Ljubljana","key":"CountyName"}]},"MapReference":{"ReferenceId":"710366001","SideOfStreet":"neither","CountryId":"20633685","CountyId":"20637391","CityId":"22689873","DistrictId":"22694844"}}},{"Relevance":1.0,"Distance":10.7,"MatchLevel":"street","MatchQuality":{"Country":1.0,"County":1.0,"City":1.0,"District":1.0,"Street":[1.0],"PostalCode":1.0},"Location":{"LocationId":"NT_pmnwo6g79WfEOIamDHdicA_l_1050280577_R","LocationType":"point","DisplayPosition":{"Latitude":45.823548,"Longitude":14.6529831},"MapView":{"TopLeft":{"Latitude":45.8236,"Longitude":14.65296},"BottomRight":{"Latitude":45.82082,"Longitude":14.65603}},"Address":{"Label":"106, SI- 1315 Velike Lašče, Slovenija","Country":"SVN","County":"Ljubljana","City":"Velike Lašče","District":"Gornje Retje","Street":"106","PostalCode":"1315","AdditionalData":[{"value":"Slovenija","key":"CountryName"},{"value":"Ljubljana","key":"CountyName"}]},"MapReference":{"ReferenceId":"1050280577","Spot":0.99,"SideOfStreet":"right","CountryId":"20633685","CountyId":"20637391","CityId":"22689873","DistrictId":"22694844"}}},{"Relevance":1.0,"Distance":10.8,"MatchLevel":"street","MatchQuality":{"Country":1.0,"County":1.0,"City":1.0,"District":1.0,"Street":[1.0],"PostalCode":1.0},"Location":{"LocationId":"NT_.8AFf0Xf82fE1dv9bOpq6A_l_906180313_R","LocationType":"point","DisplayPosition":{"Latitude":45.8236,"Longitude":14.65296},"MapView":{"TopLeft":{"Latitude":45.82388,"Longitude":14.65286},"BottomRight":{"Latitude":45.8236,"Longitude":14.65296}},"Address":{"Label":"106, SI- 1315 Velike Lašče, Slovenija","Country":"SVN","County":"Ljubljana","City":"Velike Lašče","District":"Dolnje Retje","Street":"106","PostalCode":"1315","AdditionalData":[{"value":"Slovenija","key":"CountryName"},{"value":"Ljubljana","key":"CountyName"}]},"MapReference":{"ReferenceId":"906180313","Spot":0.0,"SideOfStreet":"right","CountryId":"20633685","CountyId":"20637391","CityId":"22689873","DistrictId":"22694951"}}},{"Relevance":1.0,"Distance":36.3,"MatchLevel":"street","MatchQuality":{"Country":1.0,"County":1.0,"City":1.0,"District":1.0,"Street":[1.0],"PostalCode":1.0},"Location":{"LocationId":"NT_bh0jt2sE4bLMBKL5rSdlFA_l_906180314_R","LocationType":"point","DisplayPosition":{"Latitude":45.82388,"Longitude":14.65286},"MapView":{"TopLeft":{"Latitude":45.82413,"Longitude":14.6528},"BottomRight":{"Latitude":45.82388,"Longitude":14.65286}},"Address":{"Label":"106, SI- 1315 Velike Lašče, Slovenija","Country":"SVN","County":"Ljubljana","City":"Velike Lašče","District":"Dolnje Retje","Street":"106","PostalCode":"1315","AdditionalData":[{"value":"Slovenija","key":"CountryName"},{"value":"Ljubljana","key":"CountyName"}]},"MapReference":{"ReferenceId":"906180314","Spot":0.0,"SideOfStreet":"right","CountryId":"20633685","CountyId":"20637391","CityId":"22689873","DistrictId":"22694951"}}},{"Relevance":1.0,"Distance":63.4,"MatchLevel":"street","MatchQuality":{"Country":1.0,"County":1.0,"City":1.0,"District":1.0,"Street":[1.0],"PostalCode":1.0},"Location":{"LocationId":"NT_.8AFf0Xf82fE1dv9bOpq6A_l_1238457163_R","LocationType":"point","DisplayPosition":{"Latitude":45.82413,"Longitude":14.6528},"MapView":{"TopLeft":{"Latitude":45.82521,"Longitude":14.65276},"BottomRight":{"Latitude":45.82413,"Longitude":14.6528}},"Address":{"Label":"106, SI- 1315 Velike Lašče, Slovenija","Country":"SVN","County":"Ljubljana","City":"Velike Lašče","District":"Dolnje Retje","Street":"106","PostalCode":"1315","AdditionalData":[{"value":"Slovenija","key":"CountryName"},{"value":"Ljubljana","key":"CountyName"}]},"MapReference":{"ReferenceId":"1238457163","Spot":0.0,"SideOfStreet":"right","CountryId":"20633685","CountyId":"20637391","CityId":"22689873","DistrictId":"22694951"}}},{"Relevance":1.0,"Distance":109.4,"MatchLevel":"houseNumber","MatchQuality":{"Country":1.0,"County":1.0,"City":1.0,"District":1.0,"Street":[1.0],"HouseNumber":1.0,"PostalCode":1.0},"MatchType":"interpolated","Location":{"LocationId":"NT_0ahBKC635mA1DhE033pH2C_xgD","LocationType":"point","DisplayPosition":{"Latitude":45.82428,"Longitude":14.65172},"MapView":{"TopLeft":{"Latitude":45.8254042,"Longitude":14.6501068},"BottomRight":{"Latitude":45.8231558,"Longitude":14.6533332}},"Address":{"Label":"Dolnje Retje 18, SI- 1315 Velike Lašče, Slovenija","Country":"SVN","County":"Ljubljana","City":"Velike Lašče","District":"Dolnje Retje","Street":"Dolnje Retje","HouseNumber":"18","PostalCode":"1315","AdditionalData":[{"value":"Slovenija","key":"CountryName"},{"value":"Ljubljana","key":"CountyName"}]},"MapReference":{"ReferenceId":"710339572","Spot":0.15,"SideOfStreet":"right","CountryId":"20633685","CountyId":"20637391","CityId":"22689873","DistrictId":"22694951","AddressId":"406889764","RoadLinkId":"115576588"}}},{"Relevance":1.0,"Distance":122.9,"MatchLevel":"street","MatchQuality":{"Country":1.0,"County":1.0,"City":1.0,"District":1.0,"Street":[1.0],"PostalCode":1.0},"Location":{"LocationId":"NT_0ahBKC635mA1DhE033pH2C_l_710356367_R","LocationType":"point","DisplayPosition":{"Latitude":45.8238817,"Longitude":14.6515664},"MapView":{"TopLeft":{"Latitude":45.82418,"Longitude":14.6515},"BottomRight":{"Latitude":45.82352,"Longitude":14.65161}},"Address":{"Label":"Dolnje Retje, SI- 1315 Velike Lašče, Slovenija","Country":"SVN","County":"Ljubljana","City":"Velike Lašče","District":"Dolnje Retje","Street":"Dolnje Retje","PostalCode":"1315","AdditionalData":[{"value":"Slovenija","key":"CountryName"},{"value":"Ljubljana","key":"CountyName"}]},"MapReference":{"ReferenceId":"710356367","Spot":0.55,"SideOfStreet":"right","CountryId":"20633685","CountyId":"20637391","CityId":"22689873","DistrictId":"22694951"}}},{"Relevance":1.0,"Distance":124.3,"MatchLevel":"street","MatchQuality":{"Country":1.0,"County":1.0,"City":1.0,"District":1.0,"Street":[1.0],"PostalCode":1.0},"Location":{"LocationId":"NT_0ahBKC635mA1DhE033pH2C_l_710390573_R","LocationType":"point","DisplayPosition":{"Latitude":45.82352,"Longitude":14.6515},"MapView":{"TopLeft":{"Latitude":45.82352,"Longitude":14.65075},"BottomRight":{"Latitude":45.82134,"Longitude":14.6515}},"Address":{"Label":"Dolnje Retje, SI- 1315 Velike Lašče, Slovenija","Country":"SVN","County":"Ljubljana","City":"Velike Lašče","District":"Gornje Retje","Street":"Dolnje Retje","PostalCode":"1315","AdditionalData":[{"value":"Slovenija","key":"CountryName"},{"value":"Ljubljana","key":"CountyName"}]},"MapReference":{"ReferenceId":"710390573","Spot":1.0,"SideOfStreet":"right","CountryId":"20633685","CountyId":"20637391","CityId":"22689873","DistrictId":"22694844"}}},{"Relevance":1.0,"Distance":156.5,"MatchLevel":"houseNumber","MatchQuality":{"Country":1.0,"County":1.0,"City":1.0,"District":1.0,"Street":[1.0],"HouseNumber":1.0,"PostalCode":1.0},"MatchType":"interpolated","Location":{"LocationId":"NT_0ahBKC635mA1DhE033pH2C_5A","LocationType":"point","DisplayPosition":{"Latitude":45.8247,"Longitude":14.65436},"MapView":{"TopLeft":{"Latitude":45.8258242,"Longitude":14.6527468},"BottomRight":{"Latitude":45.8235758,"Longitude":14.6559732}},"Address":{"Label":"Dolnje Retje 9, SI- 1315 Velike Lašče, Slovenija","Country":"SVN","County":"Ljubljana","City":"Velike Lašče","District":"Dolnje Retje","Street":"Dolnje Retje","HouseNumber":"9","PostalCode":"1315","AdditionalData":[{"value":"Slovenija","key":"CountryName"},{"value":"Ljubljana","key":"CountyName"}]},"MapReference":{"ReferenceId":"710394652","Spot":0.21,"SideOfStreet":"right","CountryId":"20633685","CountyId":"20637391","CityId":"22689873","DistrictId":"22694951","AddressId":"406482078","RoadLinkId":"115517271"}}},{"Relevance":1.0,"Distance":161.9,"MatchLevel":"houseNumber","MatchQuality":{"Country":1.0,"County":1.0,"City":1.0,"District":1.0,"Street":[1.0],"HouseNumber":1.0,"PostalCode":1.0},"MatchType":"interpolated","Location":{"LocationId":"NT_XypPPkPt12VzErJ8t9mMJB_xA","LocationType":"point","DisplayPosition":{"Latitude":45.82271,"Longitude":14.65489},"MapView":{"TopLeft":{"Latitude":45.8238342,"Longitude":14.6532769},"BottomRight":{"Latitude":45.8215858,"Longitude":14.6565031}},"Address":{"Label":"Gornje Retje 1, SI- 1315 Velike Lašče, Slovenija","Country":"SVN","County":"Ljubljana","City":"Velike Lašče","District":"Gornje Retje","Street":"Gornje Retje","HouseNumber":"1","PostalCode":"1315","AdditionalData":[{"value":"Slovenija","key":"CountryName"},{"value":"Ljubljana","key":"CountyName"}]},"MapReference":{"ReferenceId":"710382221","Spot":0.19,"SideOfStreet":"left","CountryId":"20633685","CountyId":"20637391","CityId":"22689873","DistrictId":"22694844","AddressId":"406879990","RoadLinkId":"115529594"}}}]}]}}