{"Response":{"MetaInfo":{"Timestamp":"2020-03-28T10:12:28.156+0000","NextPageInformation":"2"},"View":[{"_type":"SearchResultsViewType","ViewId":0,"Result":[{"Relevance":1.0,"Distance":-40.9,"MatchLevel":"landmark","MatchQuality":{"Country":1.0,"State":1.0,"County":1.0,"City":1.0,"Street":[1.0],"PostalCode":1.0,"Name":1.0},"Location":{"LocationId":"NT_wQFpjcMT3XAC9f-yh3MOIC_p_pcKblFK5UCV2gAX5Mga5mB","LocationType":"shoppingCentre","Name":"Millennium Center","DisplayPosition":{"Latitude":45.87006,"Longitude":11.0165},"MapView":{"TopLeft":{"Latitude":45.87075,"Longitude":11.01258},"BottomRight":{"Latitude":45.86817,"Longitude":11.01669}},"Address":{"Label":"Strada Statale di Loppio e Val di Ledro, 38068 Rovereto TN, Italia","Country":"ITA","State":"Trentino-Alto Adige","County":"TN","City":"Rovereto","Street":"Strada Statale di Loppio e Val di Ledro","PostalCode":"38068","AdditionalData":[{"value":"Italia","key":"CountryName"},{"value":"Trentino-Alto Adige","key":"StateName"},{"value":"Trento","key":"CountyName"}]},"MapReference":{"CountryId":"20110484","StateId":"20119435","CountyId":"20119848","CityId":"20120316","PlaceId":"1017671099"}}},{"Relevance":1.0,"Distance":0.0,"Direction":0.0,"MatchLevel":"city","MatchQuality":{"Country":1.0,"State":1.0,"County":1.0,"City":1.0,"PostalCode":1.0},"Location":{"LocationId":"NT_2RxZXy-V0Bib7J1E7xYtKC","LocationType":"point","DisplayPosition":{"Latitude":45.8692195,"Longitude":11.0142722},"MapView":{"TopLeft":{"Latitude":45.91715,"Longitude":10.99654},"BottomRight":{"Latitude":45.79941,"Longitude":11.12407}},"Address":{"Label":"Rovereto, Trentino-Alto Adige, Italia","Country":"ITA","State":"Trentino-Alto Adige","County":"TN","City":"Rovereto","PostalCode":"38068","AdditionalData":[{"value":"Italia","key":"CountryName"},{"value":"Trentino-Alto Adige","key":"StateName"},{"value":"Trento","key":"CountyName"}]},"MapReference":{"ReferenceId":"577300198","SideOfStreet":"neither","CountryId":"20110484","StateId":"20119435","CountyId":"20119848","CityId":"20120316"}}},{"Relevance":1.0,"Distance":42.9,"MatchLevel":"houseNumber","MatchQuality":{"Country":1.0,"State":1.0,"County":1.0,"City":1.0,"Street":[1.0],"HouseNumber":1.0,"PostalCode":1.0},"MatchType":"interpolated","Location":{"LocationId":"NT_.LOEMLc5sqGhYsihBu.qaA_0ID","LocationType":"point","DisplayPosition":{"Latitude":45.86889,"Longitude":11.01456},"MapView":{"TopLeft":{"Latitude":45.8700142,"Longitude":11.0129455},"BottomRight":{"Latitude":45.8677658,"Longitude":11.0161745}},"Address":{"Label":"Via del Garda, 42, 38068 Rovereto TN, Italia","Country":"ITA","State":"Trentino-Alto Adige","County":"TN","City":"Rovereto","Street":"Via del Garda","HouseNumber":"42","PostalCode":"38068","AdditionalData":[{"value":"Italia","key":"CountryName"},{"value":"Trentino-Alto Adige","key":"StateName"},{"value":"Trento","key":"CountyName"}]},"MapReference":{"ReferenceId":"1176545662","Spot":0.39,"SideOfStreet":"right","CountryId":"20110484","StateId":"20119435","CountyId":"20119848","CityId":"20120316","AddressId":"583516972","RoadLinkId":"484208180"}}},{"Relevance":1.0,"Distance":44.0,"MatchLevel":"houseNumber","MatchQuality":{"Country":1.0,"State":1.0,"County":1.0,"City":1.0,"Street":[1.0],"HouseNumber":1.0,"PostalCode":1.0},"MatchType":"interpolated","Location":{"LocationId":"NT_.LOEMLc5sqGhYsihBu.qaA_5UzLxA","LocationType":"point","DisplayPosition":{"Latitude":45.86918,"Longitude":11.01488},"MapView":{"TopLeft":{"Latitude":45.8703042,"Longitude":11.0132655},"BottomRight":{"Latitude":45.8680558,"Longitude":11.0164945}},"Address":{"Label":"Via del Garda, 95/1, 38068 Rovereto TN, Italia","Country":"ITA","State":"Trentino-Alto Adige","County":"TN","City":"Rovereto","Street":"Via del Garda","HouseNumber":"95/1","PostalCode":"38068","AdditionalData":[{"value":"Italia","key":"CountryName"},{"value":"Trentino-Alto Adige","key":"StateName"},{"value":"Trento","key":"CountyName"}]},"MapReference":{"ReferenceId":"1035439595","Spot":0.33,"SideOfStreet":"left","CountryId":"20110484","StateId":"20119435","CountyId":"20119848","CityId":"20120316","AddressId":"583517460","RoadLinkId":"357344434"}}},{"Relevance":1.0,"Distance":44.5,"MatchLevel":"landmark","MatchQuality":{"Country":1.0,"State":1.0,"County":1.0,"City":1.0,"PostalCode":1.0,"Name":1.0},"Location":{"LocationId":"NT_Yc3i82cM.GeaS1evPa5daA","LocationType":"industrialComplex","Name":"Zona Industriale di Rovereto","DisplayPosition":{"Latitude":45.86246,"Longitude":11.02316},"MapView":{"TopLeft":{"Latitude":45.8736,"Longitude":11.00248},"BottomRight":{"Latitude":45.85132,"Longitude":11.02918}},"Address":{"Label":"38068 Rovereto TN, Italia","Country":"ITA","State":"Trentino-Alto Adige","County":"TN","City":"Rovereto","PostalCode":"38068","AdditionalData":[{"value":"Italia","key":"CountryName"},{"value":"Trentino-Alto Adige","key":"StateName"},{"value":"Trento","key":"CountyName"}]},"MapReference":{"CountryId":"20110484","StateId":"20119435","CountyId":"20119848","CityId":"20120316","PlaceId":"1414938486"}}},{"Relevance":1.0,"Distance":53.5,"MatchLevel":"street","MatchQuality":{"Country":1.0,"State":1.0,"County":1.0,"City":1.0,"Street":[1.0],"PostalCode":1.0},"Location":{"LocationId":"NT_Bkb1iR2pXLWHmxtdMAX4rD_l_845246024_L","LocationType":"point","DisplayPosition":{"Latitude":45.86874,"Longitude":11.01422},"MapView":{"TopLeft":{"Latitude":45.86874,"Longitude":11.01399},"BottomRight":{"Latitude":45.86864,"Longitude":11.01422}},"Address":{"Label":"Strada Statale di Loppio e Val di Ledro, 38068 Rovereto TN, Italia","Country":"ITA","State":"Trentino-Alto Adige","County":"TN","City":"Rovereto","Street":"Strada Statale di Loppio e Val di Ledro","PostalCode":"38068","AdditionalData":[{"value":"Italia","key":"CountryName"},{"value":"Trentino-Alto Adige","key":"StateName"},{"value":"Trento","key":"CountyName"}]},"MapReference":{"ReferenceId":"845246024","Spot":1.0,"SideOfStreet":"left","CountryId":"20110484","StateId":"20119435","CountyId":"20119848","CityId":"20120316"}}},{"Relevance":1.0,"Distance":56.8,"MatchLevel":"street","MatchQuality":{"Country":1.0,"State":1.0,"County":1.0,"City":1.0,"PostalCode":1.0},"Location":{"LocationId":"NT_Lx5zI3ezuQ1CpUKGcyCO3B_l_577112881_R","LocationType":"point","DisplayPosition":{"Latitude":45.8696831,"Longitude":11.0139656},"MapView":{"TopLeft":{"Latitude":45.87287,"Longitude":11.01365},"BottomRight":{"Latitude":45.86948,"Longitude":11.01885}},"Address":{"Label":"38068 Rovereto TN, Italia","Country":"ITA","State":"Trentino-Alto Adige","County":"TN","City":"Rovereto","PostalCode":"38068","AdditionalData":[{"value":"Italia","key":"CountryName"},{"value":"Trentino-Alto Adige","key":"StateName"},{"value":"Trento","key":"CountyName"}]},"MapReference":{"ReferenceId":"577112881","Spot":0.06,"SideOfStreet":"right","CountryId":"20110484","StateId":"20119435","CountyId":"20119848","CityId":"20120316"}}},{"Relevance":1.0,"Distance":65.0,"MatchLevel":"houseNumber","MatchQuality":{"Country":1.0,"State":1.0,"County":1.0,"City":1.0,"Street":[1.0],"HouseNumber":1.0,"PostalCode":1.0},"MatchType":"interpolated","Location":{"LocationId":"NT_.LOEMLc5sqGhYsihBu.qaA_0ATQ","LocationType":"point","DisplayPosition":{"Latitude":45.86918,"Longitude":11.01511},"MapView":{"TopLeft":{"Latitude":45.8703042,"Longitude":11.0134955},"BottomRight":{"Latitude":45.8680558,"Longitude":11.0167245}},"Address":{"Label":"Via del Garda, 40A, 38068 Rovereto TN, Italia","Country":"ITA","State":"Trentino-Alto Adige","County":"TN","City":"Rovereto","Street":"Via del Garda","HouseNumber":"40A","PostalCode":"38068","AdditionalData":[{"value":"Italia","key":"CountryName"},{"value":"Trentino-Alto Adige","key":"StateName"},{"value":"Trento","key":"CountyName"}]},"MapReference":{"ReferenceId":"1176545663","Spot":0.21,"SideOfStreet":"right","CountryId":"20110484","StateId":"20119435","CountyId":"20119848","CityId":"20120316","AddressId":"583516968","RoadLinkId":"484208181"}}},{"Relevance":1.0,"Distance":68.0,"MatchLevel":"street","MatchQuality":{"Country":1.0,"State":1.0,"County":1.0,"City":1.0,"Street":[1.0],"PostalCode":1.0},"Location":{"LocationId":"NT_Bkb1iR2pXLWHmxtdMAX4rD_l_1176545665_L","LocationType":"point","DisplayPosition":{"Latitude":45.86864,"Longitude":11.01399},"MapView":{"TopLeft":{"Latitude":45.86864,"Longitude":11.01334},"BottomRight":{"Latitude":45.86842,"Longitude":11.01399}},"Address":{"Label":"Strada Statale di Loppio e Val di Ledro, 38068 Rovereto TN, Italia","Country":"ITA","State":"Trentino-Alto Adige","County":"TN","City":"Rovereto","Street":"Strada Statale di Loppio e Val di Ledro","PostalCode":"38068","AdditionalData":[{"value":"Italia","key":"CountryName"},{"value":"Trentino-Alto Adige","key":"StateName"},{"value":"Trento","key":"CountyName"}]},"MapReference":{"ReferenceId":"1176545665","Spot":1.0,"SideOfStreet":"left","CountryId":"20110484","StateId":"20119435","CountyId":"20119848","CityId":"20120316"}}},{"Relevance":1.0,"Distance":71.1,"MatchLevel":"street","MatchQuality":{"Country":1.0,"State":1.0,"County":1.0,"City":1.0,"Street":[1.0],"PostalCode":1.0},"Location":{"LocationId":"NT_.LOEMLc5sqGhYsihBu.qaA_l_1035475960_L","LocationType":"point","DisplayPosition":{"Latitude":45.86858,"Longitude":11.01425},"MapView":{"TopLeft":{"Latitude":45.86858,"Longitude":11.01334},"BottomRight":{"Latitude":45.86838,"Longitude":11.01439}},"Address":{"Label":"Via del Garda, 38068 Rovereto TN, Italia","Country":"ITA","State":"Trentino-Alto Adige","County":"TN","City":"Rovereto","Street":"Via del Garda","PostalCode":"38068","AdditionalData":[{"value":"Italia","key":"CountryName"},{"value":"Trentino-Alto Adige","key":"StateName"},{"value":"Trento","key":"CountyName"}]},"MapReference":{"ReferenceId":"1035475960","Spot":0.87,"SideOfStreet":"left","CountryId":"20110484","StateId":"20119435","CountyId":"20119848","CityId":"20120316"}}}]}]}}