{"Response":{"MetaInfo":{"Timestamp":"2020-03-28T11:46:39.497+0000","NextPageInformation":"2"},"View":[{"_type":"SearchResultsViewType","ViewId":0,"Result":[{"Relevance":1.0,"Distance":0.0,"Direction":0.0,"MatchLevel":"city","MatchQuality":{"Country":1.0,"State":1.0,"County":1.0,"City":1.0,"PostalCode":1.0},"Location":{"LocationId":"NT_2RDviD.GngVfN4gh0aWljB","LocationType":"point","DisplayPosition":{"Latitude":45.8924068,"Longitude":3.1129195},"MapView":{"TopLeft":{"Latitude":45.92284,"Longitude":3.07062},"BottomRight":{"Latitude":45.86461,"Longitude":3.1839}},"Address":{"Label":"Riom, Auvergne-Rhône-Alpes, France","Country":"FRA","State":"Auvergne-Rhône-Alpes","County":"Puy-de-Dôme","City":"Riom","PostalCode":"63200","AdditionalData":[{"value":"France","key":"CountryName"},{"value":"Auvergne-Rhône-Alpes","key":"StateName"},{"value":"Puy-de-Dôme","key":"CountyName"}]},"MapReference":{"ReferenceId":"57944065","SideOfStreet":"neither","CountryId":"20000001","StateId":"20006029","CountyId":"20052821","CityId":"20104066"}}},{"Relevance":1.0,"Distance":21.1,"MatchLevel":"houseNumber","MatchQuality":{"Country":1.0,"State":1.0,"County":1.0,"City":1.0,"Street":[1.0],"HouseNumber":1.0,"PostalCode":1.0},"MatchType":"interpolated","Location":{"LocationId":"NT_sXhjT1YJ2wXJl5P-IWvhgB_xA","LocationType":"point","DisplayPosition":{"Latitude":45.89223,"Longitude":3.11278},"MapView":{"TopLeft":{"Latitude":45.8933542,"Longitude":3.1111649},"BottomRight":{"Latitude":45.8911058,"Longitude":3.1143951}},"Address":{"Label":"1 Rue de la Harpe, 63200 Riom, France","Country":"FRA","State":"Auvergne-Rhône-Alpes","County":"Puy-de-Dôme","City":"Riom","Street":"Rue de la Harpe","HouseNumber":"1","PostalCode":"63200","AdditionalData":[{"value":"France","key":"CountryName"},{"value":"Auvergne-Rhône-Alpes","key":"StateName"},{"value":"Puy-de-Dôme","key":"CountyName"}]},"MapReference":{"ReferenceId":"57946357","Spot":0.26,"SideOfStreet":"right","CountryId":"20000001","StateId":"20006029","CountyId":"20052821","CityId":"20104066","AddressId":"370784005","RoadLinkId":"53090089"}}},{"Relevance":1.0,"Distance":21.4,"MatchLevel":"street","MatchQuality":{"Country":1.0,"State":1.0,"County":1.0,"City":1.0,"Street":[1.0],"PostalCode":1.0},"Location":{"LocationId":"NT_WjUBy-oSHMwt7p.Mx7QN9C_l_57946356_R","LocationType":"point","DisplayPosition":{"Latitude":45.8922154,"Longitude":3.1128922},"MapView":{"TopLeft":{"Latitude":45.89222,"Longitude":3.11286},"BottomRight":{"Latitude":45.89217,"Longitude":3.11321}},"Address":{"Label":"Place du 8 Mai 1945, 63200 Riom, France","Country":"FRA","State":"Auvergne-Rhône-Alpes","County":"Puy-de-Dôme","City":"Riom","Street":"Place du 8 Mai 1945","PostalCode":"63200","AdditionalData":[{"value":"France","key":"CountryName"},{"value":"Auvergne-Rhône-Alpes","key":"StateName"},{"value":"Puy-de-Dôme","key":"CountyName"}]},"MapReference":{"ReferenceId":"57946356","Spot":0.91,"SideOfStreet":"right","CountryId":"20000001","StateId":"20006029","CountyId":"20052821","CityId":"20104066"}}},{"Relevance":1.0,"Distance":22.4,"MatchLevel":"houseNumber","MatchQuality":{"Country":1.0,"State":1.0,"County":1.0,"City":1.0,"Street":[1.0],"HouseNumber":1.0,"PostalCode":1.0},"MatchType":"interpolated","Location":{"LocationId":"NT_LDW58bIqbxF9ys12lrRsKA_zcD","LocationType":"point","DisplayPosition":{"Latitude":45.89231,"Longitude":3.11325},"MapView":{"TopLeft":{"Latitude":45.8934342,"Longitude":3.1116349},"BottomRight":{"Latitude":45.8911858,"Longitude":3.1148651}},"Address":{"Label":"37 Rue du Commerce, 63200 Riom, France","Country":"FRA","State":"Auvergne-Rhône-Alpes","County":"Puy-de-Dôme","City":"Riom","Street":"Rue du Commerce","HouseNumber":"37","PostalCode":"63200","AdditionalData":[{"value":"France","key":"CountryName"},{"value":"Auvergne-Rhône-Alpes","key":"StateName"},{"value":"Puy-de-Dôme","key":"CountyName"}]},"MapReference":{"ReferenceId":"57944142","Spot":0.2,"SideOfStreet":"left","CountryId":"20000001","StateId":"20006029","CountyId":"20052821","CityId":"20104066","AddressId":"370783699","RoadLinkId":"53594840"}}},{"Relevance":1.0,"Distance":26.5,"MatchLevel":"houseNumber","MatchQuality":{"Country":1.0,"State":1.0,"County":1.0,"City":1.0,"Street":[1.0],"HouseNumber":1.0,"PostalCode":1.0},"MatchType":"interpolated","Location":{"LocationId":"NT_qLSMH-bsIn9oLbm1NBlY2A_zA","LocationType":"point","DisplayPosition":{"Latitude":45.89225,"Longitude":3.11255},"MapView":{"TopLeft":{"Latitude":45.8933742,"Longitude":3.1109349},"BottomRight":{"Latitude":45.8911258,"Longitude":3.1141651}},"Address":{"Label":"3 Rue Grenier, 63200 Riom, France","Country":"FRA","State":"Auvergne-Rhône-Alpes","County":"Puy-de-Dôme","City":"Riom","Street":"Rue Grenier","HouseNumber":"3","PostalCode":"63200","AdditionalData":[{"value":"France","key":"CountryName"},{"value":"Auvergne-Rhône-Alpes","key":"StateName"},{"value":"Puy-de-Dôme","key":"CountyName"}]},"MapReference":{"ReferenceId":"57944192","Spot":1.0,"SideOfStreet":"right","CountryId":"20000001","StateId":"20006029","CountyId":"20052821","CityId":"20104066","AddressId":"344600231","RoadLinkId":"53145022"}}},{"Relevance":1.0,"Distance":27.1,"MatchLevel":"houseNumber","MatchQuality":{"Country":1.0,"State":1.0,"County":1.0,"City":1.0,"Street":[1.0],"HouseNumber":1.0,"PostalCode":1.0},"MatchType":"interpolated","Location":{"LocationId":"NT_qLSMH-bsIn9oLbm1NBlY2A_xYjQ","LocationType":"point","DisplayPosition":{"Latitude":45.8924,"Longitude":3.11256},"MapView":{"TopLeft":{"Latitude":45.8935242,"Longitude":3.1109449},"BottomRight":{"Latitude":45.8912758,"Longitude":3.1141751}},"Address":{"Label":"16B Rue Grenier, 63200 Riom, France","Country":"FRA","State":"Auvergne-Rhône-Alpes","County":"Puy-de-Dôme","City":"Riom","Street":"Rue Grenier","HouseNumber":"16B","PostalCode":"63200","AdditionalData":[{"value":"France","key":"CountryName"},{"value":"Auvergne-Rhône-Alpes","key":"StateName"},{"value":"Puy-de-Dôme","key":"CountyName"}]},"MapReference":{"ReferenceId":"57944133","Spot":0.21,"SideOfStreet":"right","CountryId":"20000001","StateId":"20006029","CountyId":"20052821","CityId":"20104066","AddressId":"398970086","RoadLinkId":"53604168"}}},{"Relevance":1.0,"Distance":40.3,"MatchLevel":"houseNumber","MatchQuality":{"Country":1.0,"State":1.0,"County":1.0,"City":1.0,"Street":[1.0],"HouseNumber":1.0,"PostalCode":1.0},"MatchType":"interpolated","Location":{"LocationId":"NT_LDW58bIqbxF9ys12lrRsKA_zcjQ","LocationType":"point","DisplayPosition":{"Latitude":45.89204,"Longitude":3.11311},"MapView":{"TopLeft":{"Latitude":45.8931642,"Longitude":3.1114949},"BottomRight":{"Latitude":45.8909158,"Longitude":3.1147251}},"Address":{"Label":"37B Rue du Commerce, 63200 Riom, France","Country":"FRA","State":"Auvergne-Rhône-Alpes","County":"Puy-de-Dôme","City":"Riom","Street":"Rue du Commerce","HouseNumber":"37B","PostalCode":"63200","AdditionalData":[{"value":"France","key":"CountryName"},{"value":"Auvergne-Rhône-Alpes","key":"StateName"},{"value":"Puy-de-Dôme","key":"CountyName"}]},"MapReference":{"ReferenceId":"57946528","Spot":0.65,"SideOfStreet":"left","CountryId":"20000001","StateId":"20006029","CountyId":"20052821","CityId":"20104066","AddressId":"570029963","RoadLinkId":"53131973"}}},{"Relevance":1.0,"Distance":41.9,"MatchLevel":"houseNumber","MatchQuality":{"Country":1.0,"State":1.0,"County":1.0,"City":1.0,"Street":[1.0],"HouseNumber":1.0,"PostalCode":1.0},"MatchType":"interpolated","Location":{"LocationId":"NT_XferWTrKVWTIhNPCMj3qPA_yA","LocationType":"point","DisplayPosition":{"Latitude":45.89215,"Longitude":3.11333},"MapView":{"TopLeft":{"Latitude":45.8932742,"Longitude":3.1117149},"BottomRight":{"Latitude":45.8910258,"Longitude":3.1149451}},"Address":{"Label":"2 Rue du Marthuret, 63200 Riom, France","Country":"FRA","State":"Auvergne-Rhône-Alpes","County":"Puy-de-Dôme","City":"Riom","Street":"Rue du Marthuret","HouseNumber":"2","PostalCode":"63200","AdditionalData":[{"value":"France","key":"CountryName"},{"value":"Auvergne-Rhône-Alpes","key":"StateName"},{"value":"Puy-de-Dôme","key":"CountyName"}]},"MapReference":{"ReferenceId":"57944151","Spot":0.84,"SideOfStreet":"right","CountryId":"20000001","StateId":"20006029","CountyId":"20052821","CityId":"20104066","AddressId":"370752138","RoadLinkId":"53176320"}}},{"Relevance":1.0,"Distance":49.4,"MatchLevel":"houseNumber","MatchQuality":{"Country":1.0,"State":1.0,"County":1.0,"City":1.0,"Street":[1.0],"HouseNumber":1.0,"PostalCode":1.0},"MatchType":"interpolated","Location":{"LocationId":"NT_sXhjT1YJ2wXJl5P-IWvhgB_1EE","LocationType":"point","DisplayPosition":{"Latitude":45.8923,"Longitude":3.11229},"MapView":{"TopLeft":{"Latitude":45.8934242,"Longitude":3.1106749},"BottomRight":{"Latitude":45.8911758,"Longitude":3.1139051}},"Address":{"Label":"5A Rue de la Harpe, 63200 Riom, France","Country":"FRA","State":"Auvergne-Rhône-Alpes","County":"Puy-de-Dôme","City":"Riom","Street":"Rue de la Harpe","HouseNumber":"5A","PostalCode":"63200","AdditionalData":[{"value":"France","key":"CountryName"},{"value":"Auvergne-Rhône-Alpes","key":"StateName"},{"value":"Puy-de-Dôme","key":"CountyName"}]},"MapReference":{"ReferenceId":"57944134","Spot":0.34,"SideOfStreet":"right","CountryId":"20000001","StateId":"20006029","CountyId":"20052821","CityId":"20104066","AddressId":"398975945","RoadLinkId":"53311104"}}},{"Relevance":1.0,"Distance":53.2,"MatchLevel":"houseNumber","MatchQuality":{"Country":1.0,"State":1.0,"County":1.0,"City":1.0,"Street":[1.0],"HouseNumber":1.0,"PostalCode":1.0},"MatchType":"interpolated","Location":{"LocationId":"NT_IlcVl259c8qs8wva9fK0QB_0A","LocationType":"point","DisplayPosition":{"Latitude":45.89291,"Longitude":3.11302},"MapView":{"TopLeft":{"Latitude":45.8940342,"Longitude":3.1114048},"BottomRight":{"Latitude":45.8917858,"Longitude":3.1146352}},"Address":{"Label":"4 Rue Hippolyte Gomot, 63200 Riom, France","Country":"FRA","State":"Auvergne-Rhône-Alpes","County":"Puy-de-Dôme","City":"Riom","Street":"Rue Hippolyte Gomot","HouseNumber":"4","PostalCode":"63200","AdditionalData":[{"value":"France","key":"CountryName"},{"value":"Auvergne-Rhône-Alpes","key":"StateName"},{"value":"Puy-de-Dôme","key":"CountyName"}]},"MapReference":{"ReferenceId":"57949274","Spot":0.47,"SideOfStreet":"left","CountryId":"20000001","StateId":"20006029","CountyId":"20052821","CityId":"20104066","AddressId":"321432508","RoadLinkId":"53422422"}}}]}]}}