{"Response":{"MetaInfo":{"Timestamp":"2020-03-31T17:06:49.075+0000","NextPageInformation":"2"},"View":[{"_type":"SearchResultsViewType","ViewId":0,"Result":[{"Relevance":1.0,"Distance":0.0,"Direction":0.0,"MatchLevel":"city","MatchQuality":{"Country":1.0,"County":1.0,"City":1.0,"PostalCode":1.0},"Location":{"LocationId":"NT_NTvds87qYb-RzWhea9nrjB","LocationType":"point","DisplayPosition":{"Latitude":45.8726,"Longitude":13.9885},"MapView":{"TopLeft":{"Latitude":45.88118,"Longitude":13.891},"BottomRight":{"Latitude":45.76123,"Longitude":14.07028}},"Address":{"Label":"Vipava, Slovenija","Country":"SVN","County":"Ajdovščina","City":"Vipava","PostalCode":"5271","AdditionalData":[{"value":"Slovenija","key":"CountryName"},{"value":"Ajdovščina","key":"CountyName"}]},"MapReference":{"ReferenceId":"1092270428","SideOfStreet":"neither","CountryId":"20633685","CountyId":"20634911","CityId":"22689896"}}},{"Relevance":1.0,"Distance":69.1,"MatchLevel":"street","MatchQuality":{"Country":1.0,"County":1.0,"City":1.0,"District":1.0,"Street":[1.0],"PostalCode":1.0},"Location":{"LocationId":"NT_b1LX.bQaq67STP0wSIeWIB_l_710459092_R","LocationType":"point","DisplayPosition":{"Latitude":45.87201,"Longitude":13.98822},"MapView":{"TopLeft":{"Latitude":45.87246,"Longitude":13.98692},"BottomRight":{"Latitude":45.8713,"Longitude":13.99254}},"Address":{"Label":"Sanabor, SI- 5271 Vipava, Slovenija","Country":"SVN","County":"Ajdovščina","City":"Vipava","District":"Sanabor","Street":"Sanabor","PostalCode":"5271","AdditionalData":[{"value":"Slovenija","key":"CountryName"},{"value":"Ajdovščina","key":"CountyName"}]},"MapReference":{"ReferenceId":"710459092","Spot":0.77,"SideOfStreet":"right","CountryId":"20633685","CountyId":"20634911","CityId":"22689896","DistrictId":"22693893"}}},{"Relevance":1.0,"Distance":69.9,"MatchLevel":"houseNumber","MatchQuality":{"Country":1.0,"County":1.0,"City":1.0,"District":1.0,"Street":[1.0],"HouseNumber":1.0,"PostalCode":1.0},"MatchType":"interpolated","Location":{"LocationId":"NT_b1LX.bQaq67STP0wSIeWIB_yMD","LocationType":"point","DisplayPosition":{"Latitude":45.87337,"Longitude":13.98768},"MapView":{"TopLeft":{"Latitude":45.8744942,"Longitude":13.9860654},"BottomRight":{"Latitude":45.8722458,"Longitude":13.9892946}},"Address":{"Label":"Sanabor 23, SI- 5271 Vipava, Slovenija","Country":"SVN","County":"Ajdovščina","City":"Vipava","District":"Sanabor","Street":"Sanabor","HouseNumber":"23","PostalCode":"5271","AdditionalData":[{"value":"Slovenija","key":"CountryName"},{"value":"Ajdovščina","key":"CountyName"}]},"MapReference":{"ReferenceId":"710448950","Spot":0.71,"SideOfStreet":"right","CountryId":"20633685","CountyId":"20634911","CityId":"22689896","DistrictId":"22693893","AddressId":"406741271","RoadLinkId":"115618988"}}},{"Relevance":1.0,"Distance":118.5,"MatchLevel":"houseNumber","MatchQuality":{"Country":1.0,"County":1.0,"City":1.0,"District":1.0,"Street":[1.0],"HouseNumber":1.0,"PostalCode":1.0},"MatchType":"interpolated","Location":{"LocationId":"NT_b1LX.bQaq67STP0wSIeWIB_xcD","LocationType":"point","DisplayPosition":{"Latitude":45.87373,"Longitude":13.98804},"MapView":{"TopLeft":{"Latitude":45.8748542,"Longitude":13.9864254},"BottomRight":{"Latitude":45.8726058,"Longitude":13.9896546}},"Address":{"Label":"Sanabor 17, SI- 5271 Vipava, Slovenija","Country":"SVN","County":"Ajdovščina","City":"Vipava","District":"Sanabor","Street":"Sanabor","HouseNumber":"17","PostalCode":"5271","AdditionalData":[{"value":"Slovenija","key":"CountryName"},{"value":"Ajdovščina","key":"CountyName"}]},"MapReference":{"ReferenceId":"710431400","Spot":0.03,"SideOfStreet":"right","CountryId":"20633685","CountyId":"20634911","CityId":"22689896","DistrictId":"22693893","AddressId":"406633631","RoadLinkId":"115655647"}}},{"Relevance":1.0,"Distance":123.3,"MatchLevel":"street","MatchQuality":{"Country":1.0,"County":1.0,"City":1.0,"District":1.0,"Street":[1.0],"PostalCode":1.0},"Location":{"LocationId":"NT_b1LX.bQaq67STP0wSIeWIB_l_710436238_R","LocationType":"point","DisplayPosition":{"Latitude":45.87246,"Longitude":13.98692},"MapView":{"TopLeft":{"Latitude":45.87246,"Longitude":13.98545},"BottomRight":{"Latitude":45.87112,"Longitude":13.98692}},"Address":{"Label":"Sanabor, SI- 5271 Vipava, Slovenija","Country":"SVN","County":"Ajdovščina","City":"Vipava","District":"Sanabor","Street":"Sanabor","PostalCode":"5271","AdditionalData":[{"value":"Slovenija","key":"CountryName"},{"value":"Ajdovščina","key":"CountyName"}]},"MapReference":{"ReferenceId":"710436238","Spot":1.0,"SideOfStreet":"right","CountryId":"20633685","CountyId":"20634911","CityId":"22689896","DistrictId":"22693893"}}},{"Relevance":1.0,"Distance":168.6,"MatchLevel":"houseNumber","MatchQuality":{"Country":1.0,"County":1.0,"City":1.0,"District":1.0,"Street":[1.0],"HouseNumber":1.0,"PostalCode":1.0},"MatchType":"interpolated","Location":{"LocationId":"NT_b1LX.bQaq67STP0wSIeWIB_xUD","LocationType":"point","DisplayPosition":{"Latitude":45.87399,"Longitude":13.98763},"MapView":{"TopLeft":{"Latitude":45.8751142,"Longitude":13.9860154},"BottomRight":{"Latitude":45.8728658,"Longitude":13.9892446}},"Address":{"Label":"Sanabor 15, SI- 5271 Vipava, Slovenija","Country":"SVN","County":"Ajdovščina","City":"Vipava","District":"Sanabor","Street":"Sanabor","HouseNumber":"15","PostalCode":"5271","AdditionalData":[{"value":"Slovenija","key":"CountryName"},{"value":"Ajdovščina","key":"CountyName"}]},"MapReference":{"ReferenceId":"710484779","Spot":0.45,"SideOfStreet":"right","CountryId":"20633685","CountyId":"20634911","CityId":"22689896","DistrictId":"22693893","AddressId":"406851193","RoadLinkId":"115674256"}}},{"Relevance":1.0,"Distance":218.9,"MatchLevel":"street","MatchQuality":{"Country":1.0,"County":1.0,"City":1.0,"District":1.0,"Street":[1.0],"PostalCode":1.0},"Location":{"LocationId":"NT_b1LX.bQaq67STP0wSIeWIB_l_710487310_L","LocationType":"point","DisplayPosition":{"Latitude":45.87433,"Longitude":13.98715},"MapView":{"TopLeft":{"Latitude":45.87459,"Longitude":13.9863},"BottomRight":{"Latitude":45.87433,"Longitude":13.98715}},"Address":{"Label":"Sanabor, SI- 5271 Vipava, Slovenija","Country":"SVN","County":"Ajdovščina","City":"Vipava","District":"Sanabor","Street":"Sanabor","PostalCode":"5271","AdditionalData":[{"value":"Slovenija","key":"CountryName"},{"value":"Ajdovščina","key":"CountyName"}]},"MapReference":{"ReferenceId":"710487310","Spot":0.0,"SideOfStreet":"left","CountryId":"20633685","CountyId":"20634911","CityId":"22689896","DistrictId":"22693893"}}},{"Relevance":1.0,"Distance":234.1,"MatchLevel":"street","MatchQuality":{"Country":1.0,"County":1.0,"City":1.0,"District":1.0,"Street":[1.0],"PostalCode":1.0},"Location":{"LocationId":"NT_b1LX.bQaq67STP0wSIeWIB_l_710471241_R","LocationType":"point","DisplayPosition":{"Latitude":45.8747,"Longitude":13.98871},"MapView":{"TopLeft":{"Latitude":45.87476,"Longitude":13.98871},"BottomRight":{"Latitude":45.8747,"Longitude":13.9888}},"Address":{"Label":"Sanabor, SI- 5271 Vipava, Slovenija","Country":"SVN","County":"Ajdovščina","City":"Vipava","District":"Sanabor","Street":"Sanabor","PostalCode":"5271","AdditionalData":[{"value":"Slovenija","key":"CountryName"},{"value":"Ajdovščina","key":"CountyName"}]},"MapReference":{"ReferenceId":"710471241","Spot":0.0,"SideOfStreet":"right","CountryId":"20633685","CountyId":"20634911","CityId":"22689896","DistrictId":"22693893"}}},{"Relevance":1.0,"Distance":241.3,"MatchLevel":"street","MatchQuality":{"Country":1.0,"County":1.0,"City":1.0,"District":1.0,"Street":[1.0],"PostalCode":1.0},"Location":{"LocationId":"NT_b1LX.bQaq67STP0wSIeWIB_l_710473623_R","LocationType":"point","DisplayPosition":{"Latitude":45.87476,"Longitude":13.9888},"MapView":{"TopLeft":{"Latitude":45.87482,"Longitude":13.9888},"BottomRight":{"Latitude":45.87476,"Longitude":13.98884}},"Address":{"Label":"Sanabor, SI- 5271 Vipava, Slovenija","Country":"SVN","County":"Ajdovščina","City":"Vipava","District":"Sanabor","Street":"Sanabor","PostalCode":"5271","AdditionalData":[{"value":"Slovenija","key":"CountryName"},{"value":"Ajdovščina","key":"CountyName"}]},"MapReference":{"ReferenceId":"710473623","Spot":0.0,"SideOfStreet":"right","CountryId":"20633685","CountyId":"20634911","CityId":"22689896","DistrictId":"22693893"}}},{"Relevance":1.0,"Distance":248.3,"MatchLevel":"street","MatchQuality":{"Country":1.0,"County":1.0,"City":1.0,"District":1.0,"Street":[1.0],"PostalCode":1.0},"Location":{"LocationId":"NT_b1LX.bQaq67STP0wSIeWIB_l_710428620_R","LocationType":"point","DisplayPosition":{"Latitude":45.87482,"Longitude":13.98884},"MapView":{"TopLeft":{"Latitude":45.87491,"Longitude":13.98884},"BottomRight":{"Latitude":45.8748,"Longitude":13.98952}},"Address":{"Label":"Sanabor, SI- 5271 Vipava, Slovenija","Country":"SVN","County":"Ajdovščina","City":"Vipava","District":"Sanabor","Street":"Sanabor","PostalCode":"5271","AdditionalData":[{"value":"Slovenija","key":"CountryName"},{"value":"Ajdovščina","key":"CountyName"}]},"MapReference":{"ReferenceId":"710428620","Spot":0.0,"SideOfStreet":"right","CountryId":"20633685","CountyId":"20634911","CityId":"22689896","DistrictId":"22693893"}}}]}]}}