{"Response":{"MetaInfo":{"Timestamp":"2020-03-28T11:50:08.354+0000","NextPageInformation":"2"},"View":[{"_type":"SearchResultsViewType","ViewId":0,"Result":[{"Relevance":1.0,"Distance":0.0,"Direction":0.0,"MatchLevel":"district","MatchQuality":{"Country":1.0,"State":1.0,"County":1.0,"City":1.0,"District":1.0,"PostalCode":1.0},"Location":{"LocationId":"NT_b2gi5mdNvIo-TilF-A-GeA","LocationType":"point","DisplayPosition":{"Latitude":45.8277771,"Longitude":1.2404267},"MapView":{"TopLeft":{"Latitude":45.84396,"Longitude":1.23806},"BottomRight":{"Latitude":45.82048,"Longitude":1.27105}},"Address":{"Label":"Centre-Hôtel de Ville Emailleurs, Limoges, Nouvelle-Aquitaine, France","Country":"FRA","State":"Nouvelle-Aquitaine","County":"Haute-Vienne","City":"Limoges","District":"Centre-Hôtel de Ville Emailleurs","PostalCode":"87000","AdditionalData":[{"value":"France","key":"CountryName"},{"value":"Nouvelle-Aquitaine","key":"StateName"},{"value":"Haute-Vienne","key":"CountyName"}]},"MapReference":{"ReferenceId":"1129235732","SideOfStreet":"neither","CountryId":"20000001","StateId":"20000383","CountyId":"20082675","CityId":"20110129"}}},{"Relevance":1.0,"Distance":7.3,"MatchLevel":"houseNumber","MatchQuality":{"Country":1.0,"State":1.0,"County":1.0,"City":1.0,"District":1.0,"Street":[1.0],"HouseNumber":1.0,"PostalCode":1.0},"MatchType":"interpolated","Location":{"LocationId":"NT_z0SpyK9FjERsmFppvXH5EC_xA","LocationType":"point","DisplayPosition":{"Latitude":45.82786,"Longitude":1.24046},"MapView":{"TopLeft":{"Latitude":45.8289842,"Longitude":1.2388467},"BottomRight":{"Latitude":45.8267358,"Longitude":1.2420733}},"Address":{"Label":"1 Rue des Horticulteurs, 87000 Limoges, France","Country":"FRA","State":"Nouvelle-Aquitaine","County":"Haute-Vienne","City":"Limoges","District":"Vanteaux-CHU-Mas Bouyol-Puy Rodas","Street":"Rue des Horticulteurs","HouseNumber":"1","PostalCode":"87000","AdditionalData":[{"value":"France","key":"CountryName"},{"value":"Nouvelle-Aquitaine","key":"StateName"},{"value":"Haute-Vienne","key":"CountyName"}]},"MapReference":{"ReferenceId":"58060493","Spot":0.12,"SideOfStreet":"left","CountryId":"20000001","StateId":"20000383","CountyId":"20082675","CityId":"20110129","AddressId":"571386931","RoadLinkId":"52934471"}}},{"Relevance":1.0,"Distance":9.1,"MatchLevel":"houseNumber","MatchQuality":{"Country":1.0,"State":1.0,"County":1.0,"City":1.0,"District":1.0,"Street":[1.0],"HouseNumber":1.0,"PostalCode":1.0},"MatchType":"interpolated","Location":{"LocationId":"NT_XaPYMdxge6TPwYrx5ez.AC_xIjN","LocationType":"point","DisplayPosition":{"Latitude":45.82768,"Longitude":1.24038},"MapView":{"TopLeft":{"Latitude":45.8288042,"Longitude":1.2387667},"BottomRight":{"Latitude":45.8265558,"Longitude":1.2419933}},"Address":{"Label":"126 Rue François Perrin, 87000 Limoges, France","Country":"FRA","State":"Nouvelle-Aquitaine","County":"Haute-Vienne","City":"Limoges","District":"Vanteaux-CHU-Mas Bouyol-Puy Rodas","Street":"Rue François Perrin","HouseNumber":"126","PostalCode":"87000","AdditionalData":[{"value":"France","key":"CountryName"},{"value":"Nouvelle-Aquitaine","key":"StateName"},{"value":"Haute-Vienne","key":"CountyName"}]},"MapReference":{"ReferenceId":"58060542","Spot":0.84,"SideOfStreet":"left","CountryId":"20000001","StateId":"20000383","CountyId":"20082675","CityId":"20110129","AddressId":"682256894","RoadLinkId":"52759427"}}},{"Relevance":1.0,"Distance":20.7,"MatchLevel":"houseNumber","MatchQuality":{"Country":1.0,"State":1.0,"County":1.0,"City":1.0,"District":1.0,"Street":[1.0],"HouseNumber":1.0,"PostalCode":1.0},"MatchType":"interpolated","Location":{"LocationId":"NT_Op.mUWUPAEqLG5NWjy8AaA_xIDN","LocationType":"point","DisplayPosition":{"Latitude":45.82783,"Longitude":1.2407},"MapView":{"TopLeft":{"Latitude":45.8289542,"Longitude":1.2390867},"BottomRight":{"Latitude":45.8267058,"Longitude":1.2423133}},"Address":{"Label":"124 Rue François Perrin, 87000 Limoges, France","Country":"FRA","State":"Nouvelle-Aquitaine","County":"Haute-Vienne","City":"Limoges","District":"Centre-Hôtel de Ville Emailleurs","Street":"Rue François Perrin","HouseNumber":"124","PostalCode":"87000","AdditionalData":[{"value":"France","key":"CountryName"},{"value":"Nouvelle-Aquitaine","key":"StateName"},{"value":"Haute-Vienne","key":"CountyName"}]},"MapReference":{"ReferenceId":"58060492","Spot":0.32,"SideOfStreet":"left","CountryId":"20000001","StateId":"20000383","CountyId":"20082675","CityId":"20110129","AddressId":"571410947","RoadLinkId":"53085244"}}},{"Relevance":1.0,"Distance":53.1,"MatchLevel":"street","MatchQuality":{"Country":1.0,"State":1.0,"County":1.0,"City":1.0,"District":1.0,"Street":[1.0],"PostalCode":1.0},"Location":{"LocationId":"NT_7hlvjYGgRpDK0CGH7iJidA_l_58060545_L","LocationType":"point","DisplayPosition":{"Latitude":45.82799,"Longitude":1.24104},"MapView":{"TopLeft":{"Latitude":45.82799,"Longitude":1.24104},"BottomRight":{"Latitude":45.82717,"Longitude":1.2431}},"Address":{"Label":"Résidence des 2 Tours, 87000 Limoges, France","Country":"FRA","State":"Nouvelle-Aquitaine","County":"Haute-Vienne","City":"Limoges","District":"Centre-Hôtel de Ville Emailleurs","Street":"Résidence des 2 Tours","PostalCode":"87000","AdditionalData":[{"value":"France","key":"CountryName"},{"value":"Nouvelle-Aquitaine","key":"StateName"},{"value":"Haute-Vienne","key":"CountyName"}]},"MapReference":{"ReferenceId":"58060545","Spot":1.0,"SideOfStreet":"left","CountryId":"20000001","StateId":"20000383","CountyId":"20082675","CityId":"20110129"}}},{"Relevance":1.0,"Distance":71.0,"MatchLevel":"houseNumber","MatchQuality":{"Country":1.0,"State":1.0,"County":1.0,"City":1.0,"District":1.0,"Street":[1.0],"HouseNumber":1.0,"PostalCode":1.0},"MatchType":"interpolated","Location":{"LocationId":"NT_Op.mUWUPAEqLG5NWjy8AaA_xEjN","LocationType":"point","DisplayPosition":{"Latitude":45.82808,"Longitude":1.24124},"MapView":{"TopLeft":{"Latitude":45.8292042,"Longitude":1.2396267},"BottomRight":{"Latitude":45.8269558,"Longitude":1.2428533}},"Address":{"Label":"116 Rue François Perrin, 87000 Limoges, France","Country":"FRA","State":"Nouvelle-Aquitaine","County":"Haute-Vienne","City":"Limoges","District":"Centre-Hôtel de Ville Emailleurs","Street":"Rue François Perrin","HouseNumber":"116","PostalCode":"87000","AdditionalData":[{"value":"France","key":"CountryName"},{"value":"Nouvelle-Aquitaine","key":"StateName"},{"value":"Haute-Vienne","key":"CountyName"}]},"MapReference":{"ReferenceId":"58060464","Spot":0.47,"SideOfStreet":"left","CountryId":"20000001","StateId":"20000383","CountyId":"20082675","CityId":"20110129","AddressId":"317500057","RoadLinkId":"53493164"}}},{"Relevance":1.0,"Distance":74.8,"MatchLevel":"houseNumber","MatchQuality":{"Country":1.0,"State":1.0,"County":1.0,"City":1.0,"District":1.0,"Street":[1.0],"HouseNumber":1.0,"PostalCode":1.0},"MatchType":"interpolated","Location":{"LocationId":"NT_BIxj4euOmROOgEAGAIO5UB_l_709490432_R_yA","LocationType":"point","DisplayPosition":{"Latitude":45.8274001,"Longitude":1.2394299},"MapView":{"TopLeft":{"Latitude":45.8285242,"Longitude":1.2378167},"BottomRight":{"Latitude":45.8262759,"Longitude":1.2410432}},"Address":{"Label":"2 Rue Jules Ferry, 87000 Limoges, France","Country":"FRA","State":"Nouvelle-Aquitaine","County":"Haute-Vienne","City":"Limoges","District":"Vanteaux-CHU-Mas Bouyol-Puy Rodas","Street":"Rue Jules Ferry","HouseNumber":"2","PostalCode":"87000","AdditionalData":[{"value":"France","key":"CountryName"},{"value":"Nouvelle-Aquitaine","key":"StateName"},{"value":"Haute-Vienne","key":"CountyName"}]},"MapReference":{"ReferenceId":"709490432","Spot":0.17,"SideOfStreet":"right","CountryId":"20000001","StateId":"20000383","CountyId":"20082675","CityId":"20110129"}}},{"Relevance":1.0,"Distance":79.8,"MatchLevel":"houseNumber","MatchQuality":{"Country":1.0,"State":1.0,"County":1.0,"City":1.0,"District":1.0,"Street":[1.0],"HouseNumber":1.0,"PostalCode":1.0},"MatchType":"interpolated","Location":{"LocationId":"NT_0QYymahuIVhCBwKCJBy9aB_xMjN","LocationType":"point","DisplayPosition":{"Latitude":45.82705,"Longitude":1.24014},"MapView":{"TopLeft":{"Latitude":45.8281742,"Longitude":1.2385268},"BottomRight":{"Latitude":45.8259258,"Longitude":1.2417532}},"Address":{"Label":"136 Rue Louis Casimir Ranson, 87000 Limoges, France","Country":"FRA","State":"Nouvelle-Aquitaine","County":"Haute-Vienne","City":"Limoges","District":"Centre-Hôtel de Ville Emailleurs","Street":"Rue Louis Casimir Ranson","HouseNumber":"136","PostalCode":"87000","AdditionalData":[{"value":"France","key":"CountryName"},{"value":"Nouvelle-Aquitaine","key":"StateName"},{"value":"Haute-Vienne","key":"CountyName"}]},"MapReference":{"ReferenceId":"58060574","Spot":0.07,"SideOfStreet":"right","CountryId":"20000001","StateId":"20000383","CountyId":"20082675","CityId":"20110129","AddressId":"317482791","RoadLinkId":"52705065"}}},{"Relevance":1.0,"Distance":81.5,"MatchLevel":"houseNumber","MatchQuality":{"Country":1.0,"State":1.0,"County":1.0,"City":1.0,"District":1.0,"Street":[1.0],"HouseNumber":1.0,"PostalCode":1.0},"MatchType":"interpolated","Location":{"LocationId":"NT_0QYymahuIVhCBwKCJBy9aB_xMDN","LocationType":"point","DisplayPosition":{"Latitude":45.82701,"Longitude":1.24027},"MapView":{"TopLeft":{"Latitude":45.8281342,"Longitude":1.2386568},"BottomRight":{"Latitude":45.8258858,"Longitude":1.2418832}},"Address":{"Label":"134 Rue Louis Casimir Ranson, 87000 Limoges, France","Country":"FRA","State":"Nouvelle-Aquitaine","County":"Haute-Vienne","City":"Limoges","District":"Centre-Hôtel de Ville Emailleurs","Street":"Rue Louis Casimir Ranson","HouseNumber":"134","PostalCode":"87000","AdditionalData":[{"value":"France","key":"CountryName"},{"value":"Nouvelle-Aquitaine","key":"StateName"},{"value":"Haute-Vienne","key":"CountyName"}]},"MapReference":{"ReferenceId":"58060619","Spot":0.97,"SideOfStreet":"right","CountryId":"20000001","StateId":"20000383","CountyId":"20082675","CityId":"20110129","AddressId":"317446976","RoadLinkId":"52723069"}}},{"Relevance":1.0,"Distance":102.7,"MatchLevel":"houseNumber","MatchQuality":{"Country":1.0,"State":1.0,"County":1.0,"City":1.0,"District":1.0,"Street":[1.0],"HouseNumber":1.0,"PostalCode":1.0},"MatchType":"interpolated","Location":{"LocationId":"NT_UALMuThOR12AFVUtHM7lwB_yA","LocationType":"point","DisplayPosition":{"Latitude":45.82688,"Longitude":1.24011},"MapView":{"TopLeft":{"Latitude":45.8280042,"Longitude":1.2384968},"BottomRight":{"Latitude":45.8257558,"Longitude":1.2417232}},"Address":{"Label":"2 Rue de Fontaubert, 87000 Limoges, France","Country":"FRA","State":"Nouvelle-Aquitaine","County":"Haute-Vienne","City":"Limoges","District":"Centre-Hôtel de Ville Emailleurs","Street":"Rue de Fontaubert","HouseNumber":"2","PostalCode":"87000","AdditionalData":[{"value":"France","key":"CountryName"},{"value":"Nouvelle-Aquitaine","key":"StateName"},{"value":"Haute-Vienne","key":"CountyName"}]},"MapReference":{"ReferenceId":"58060656","Spot":0.8,"SideOfStreet":"left","CountryId":"20000001","StateId":"20000383","CountyId":"20082675","CityId":"20110129","AddressId":"317520921","RoadLinkId":"53609920"}}}]}]}}