{"Response":{"MetaInfo":{"Timestamp":"2020-03-28T09:59:46.525+0000","NextPageInformation":"2"},"View":[{"_type":"SearchResultsViewType","ViewId":0,"Result":[{"Relevance":1.0,"Distance":0.0,"Direction":0.0,"MatchLevel":"district","MatchQuality":{"Country":1.0,"County":1.0,"City":1.0,"District":1.0,"PostalCode":1.0},"Location":{"LocationId":"NT_mR3E1nkNnKbU.iO3s2d2gC","LocationType":"point","DisplayPosition":{"Latitude":45.8004735,"Longitude":24.1318318},"MapView":{"TopLeft":{"Latitude":45.82422,"Longitude":24.076},"BottomRight":{"Latitude":45.7571,"Longitude":24.2133}},"Address":{"Label":"Sibiu, România","Country":"ROU","County":"Sibiu","City":"Sibiu","District":"Sibiu","PostalCode":"550009","AdditionalData":[{"value":"România","key":"CountryName"},{"value":"Sibiu","key":"CountyName"}]},"MapReference":{"ReferenceId":"971312179","SideOfStreet":"neither","CountryId":"20656215","CountyId":"20662327","CityId":"20662452","DistrictId":"20662453"}}},{"Relevance":1.0,"Distance":6.3,"MatchLevel":"houseNumber","MatchQuality":{"Country":1.0,"County":1.0,"City":1.0,"District":1.0,"Street":[1.0],"HouseNumber":1.0,"PostalCode":1.0},"MatchType":"interpolated","Location":{"LocationId":"NT_sZVeio15TJ8BpYFZ2A0L1B_0UD","LocationType":"point","DisplayPosition":{"Latitude":45.80051,"Longitude":24.13176},"MapView":{"TopLeft":{"Latitude":45.8016342,"Longitude":24.1301475},"BottomRight":{"Latitude":45.7993858,"Longitude":24.1333725}},"Address":{"Label":"Calea Turnișorului 45, 550136 Sibiu, România","Country":"ROU","County":"Sibiu","City":"Sibiu","District":"Sibiu","Street":"Calea Turnișorului","HouseNumber":"45","PostalCode":"550136","AdditionalData":[{"value":"România","key":"CountryName"},{"value":"Sibiu","key":"CountyName"}]},"MapReference":{"ReferenceId":"1258266279","Spot":0.46,"SideOfStreet":"right","CountryId":"20656215","CountyId":"20662327","CityId":"20662452","DistrictId":"20662453","AddressId":"686981477","RoadLinkId":"583112180"}}},{"Relevance":1.0,"Distance":26.7,"MatchLevel":"houseNumber","MatchQuality":{"Country":1.0,"County":1.0,"City":1.0,"District":1.0,"Street":[1.0],"HouseNumber":1.0,"PostalCode":1.0},"MatchType":"interpolated","Location":{"LocationId":"NT_sZVeio15TJ8BpYFZ2A0L1B_zcD","LocationType":"point","DisplayPosition":{"Latitude":45.80026,"Longitude":24.13199},"MapView":{"TopLeft":{"Latitude":45.8013842,"Longitude":24.1303775},"BottomRight":{"Latitude":45.7991358,"Longitude":24.1336025}},"Address":{"Label":"Calea Turnișorului 37, 550136 Sibiu, România","Country":"ROU","County":"Sibiu","City":"Sibiu","District":"Sibiu","Street":"Calea Turnișorului","HouseNumber":"37","PostalCode":"550136","AdditionalData":[{"value":"România","key":"CountryName"},{"value":"Sibiu","key":"CountyName"}]},"MapReference":{"ReferenceId":"1195065232","Spot":0.33,"SideOfStreet":"right","CountryId":"20656215","CountyId":"20662327","CityId":"20662452","DistrictId":"20662453","AddressId":"686969591","RoadLinkId":"505202658"}}},{"Relevance":1.0,"Distance":34.4,"MatchLevel":"street","MatchQuality":{"Country":1.0,"County":1.0,"City":1.0,"District":1.0,"Street":[1.0],"PostalCode":1.0},"Location":{"LocationId":"NT_sZVeio15TJ8BpYFZ2A0L1B_l_1195315036_R","LocationType":"point","DisplayPosition":{"Latitude":45.80072,"Longitude":24.1321},"MapView":{"TopLeft":{"Latitude":45.80081,"Longitude":24.1321},"BottomRight":{"Latitude":45.80072,"Longitude":24.13224}},"Address":{"Label":"Calea Turnișorului, 550136 Sibiu, România","Country":"ROU","County":"Sibiu","City":"Sibiu","District":"Sibiu","Street":"Calea Turnișorului","PostalCode":"550136","AdditionalData":[{"value":"România","key":"CountryName"},{"value":"Sibiu","key":"CountyName"}]},"MapReference":{"ReferenceId":"1195315036","Spot":0.0,"SideOfStreet":"right","CountryId":"20656215","CountyId":"20662327","CityId":"20662452","DistrictId":"20662453"}}},{"Relevance":1.0,"Distance":35.4,"MatchLevel":"houseNumber","MatchQuality":{"Country":1.0,"County":1.0,"City":1.0,"District":1.0,"Street":[1.0],"HouseNumber":1.0,"PostalCode":1.0},"MatchType":"interpolated","Location":{"LocationId":"NT_sZVeio15TJ8BpYFZ2A0L1B_1ED","LocationType":"point","DisplayPosition":{"Latitude":45.80031,"Longitude":24.13143},"MapView":{"TopLeft":{"Latitude":45.8014342,"Longitude":24.1298175},"BottomRight":{"Latitude":45.7991858,"Longitude":24.1330425}},"Address":{"Label":"Calea Turnișorului 51, 550136 Sibiu, România","Country":"ROU","County":"Sibiu","City":"Sibiu","District":"Sibiu","Street":"Calea Turnișorului","HouseNumber":"51","PostalCode":"550136","AdditionalData":[{"value":"România","key":"CountryName"},{"value":"Sibiu","key":"CountyName"}]},"MapReference":{"ReferenceId":"954507261","Spot":0.92,"SideOfStreet":"right","CountryId":"20656215","CountyId":"20662327","CityId":"20662452","DistrictId":"20662453","AddressId":"686981484","RoadLinkId":"297801569"}}},{"Relevance":1.0,"Distance":52.0,"MatchLevel":"houseNumber","MatchQuality":{"Country":1.0,"County":1.0,"City":1.0,"District":1.0,"Street":[1.0],"HouseNumber":1.0,"PostalCode":1.0},"MatchType":"interpolated","Location":{"LocationId":"NT_sZVeio15TJ8BpYFZ2A0L1B_zITQ","LocationType":"point","DisplayPosition":{"Latitude":45.80057,"Longitude":24.13113},"MapView":{"TopLeft":{"Latitude":45.8016942,"Longitude":24.1295175},"BottomRight":{"Latitude":45.7994458,"Longitude":24.1327425}},"Address":{"Label":"Calea Turnișorului 32A, 550136 Sibiu, România","Country":"ROU","County":"Sibiu","City":"Sibiu","District":"Sibiu","Street":"Calea Turnișorului","HouseNumber":"32A","PostalCode":"550136","AdditionalData":[{"value":"România","key":"CountryName"},{"value":"Sibiu","key":"CountyName"}]},"MapReference":{"ReferenceId":"954507262","Spot":0.62,"SideOfStreet":"right","CountryId":"20656215","CountyId":"20662327","CityId":"20662452","DistrictId":"20662453","AddressId":"686981464","RoadLinkId":"323778535"}}},{"Relevance":1.0,"Distance":59.3,"MatchLevel":"street","MatchQuality":{"Country":1.0,"County":1.0,"City":1.0,"District":1.0,"Street":[1.0],"PostalCode":1.0},"Location":{"LocationId":"NT_sZVeio15TJ8BpYFZ2A0L1B_l_1195065231_R","LocationType":"point","DisplayPosition":{"Latitude":45.79994,"Longitude":24.13184},"MapView":{"TopLeft":{"Latitude":45.79994,"Longitude":24.13184},"BottomRight":{"Latitude":45.79955,"Longitude":24.13259}},"Address":{"Label":"Calea Turnișorului, 550136 Sibiu, România","Country":"ROU","County":"Sibiu","City":"Sibiu","District":"Sibiu","Street":"Calea Turnișorului","PostalCode":"550136","AdditionalData":[{"value":"România","key":"CountryName"},{"value":"Sibiu","key":"CountyName"}]},"MapReference":{"ReferenceId":"1195065231","Spot":1.0,"SideOfStreet":"right","CountryId":"20656215","CountyId":"20662327","CityId":"20662452","DistrictId":"20662453"}}},{"Relevance":1.0,"Distance":59.3,"MatchLevel":"street","MatchQuality":{"Country":1.0,"County":1.0,"City":1.0,"District":1.0,"PostalCode":1.0},"Location":{"LocationId":"NT_JbdmoBedFRMT7irKdKGEzC_l_1195065235_L","LocationType":"point","DisplayPosition":{"Latitude":45.79994,"Longitude":24.13184},"MapView":{"TopLeft":{"Latitude":45.79994,"Longitude":24.13179},"BottomRight":{"Latitude":45.79942,"Longitude":24.13184}},"Address":{"Label":"550136 Sibiu, România","Country":"ROU","County":"Sibiu","City":"Sibiu","District":"Sibiu","PostalCode":"550136","AdditionalData":[{"value":"România","key":"CountryName"},{"value":"Sibiu","key":"CountyName"}]},"MapReference":{"ReferenceId":"1195065235","Spot":1.0,"SideOfStreet":"left","CountryId":"20656215","CountyId":"20662327","CityId":"20662452","DistrictId":"20662453"}}},{"Relevance":1.0,"Distance":64.2,"MatchLevel":"houseNumber","MatchQuality":{"Country":1.0,"County":1.0,"City":1.0,"District":1.0,"Street":[1.0],"HouseNumber":1.0,"PostalCode":1.0},"MatchType":"interpolated","Location":{"LocationId":"NT_sZVeio15TJ8BpYFZ2A0L1B_ykD","LocationType":"point","DisplayPosition":{"Latitude":45.8009,"Longitude":24.13239},"MapView":{"TopLeft":{"Latitude":45.8020242,"Longitude":24.1307775},"BottomRight":{"Latitude":45.7997758,"Longitude":24.1340025}},"Address":{"Label":"Calea Turnișorului 29, 550136 Sibiu, România","Country":"ROU","County":"Sibiu","City":"Sibiu","District":"Sibiu","Street":"Calea Turnișorului","HouseNumber":"29","PostalCode":"550136","AdditionalData":[{"value":"România","key":"CountryName"},{"value":"Sibiu","key":"CountyName"}]},"MapReference":{"ReferenceId":"1258278776","Spot":0.15,"SideOfStreet":"right","CountryId":"20656215","CountyId":"20662327","CityId":"20662452","DistrictId":"20662453","AddressId":"701576634","RoadLinkId":"583196718"}}},{"Relevance":1.0,"Distance":69.9,"MatchLevel":"houseNumber","MatchQuality":{"Country":1.0,"County":1.0,"City":1.0,"District":1.0,"Street":[1.0],"HouseNumber":1.0,"PostalCode":1.0},"MatchType":"interpolated","Location":{"LocationId":"NT_sZVeio15TJ8BpYFZ2A0L1B_l_954507263_R_zID","LocationType":"point","DisplayPosition":{"Latitude":45.8008729,"Longitude":24.1309105},"MapView":{"TopLeft":{"Latitude":45.8019971,"Longitude":24.129298},"BottomRight":{"Latitude":45.7997488,"Longitude":24.132523}},"Address":{"Label":"Calea Turnișorului 32, 550136 Sibiu, România","Country":"ROU","County":"Sibiu","City":"Sibiu","District":"Sibiu","Street":"Calea Turnișorului","HouseNumber":"32","PostalCode":"550136","AdditionalData":[{"value":"România","key":"CountryName"},{"value":"Sibiu","key":"CountyName"}]},"MapReference":{"ReferenceId":"954507263","Spot":0.49,"SideOfStreet":"right","CountryId":"20656215","CountyId":"20662327","CityId":"20662452","DistrictId":"20662453"}}}]}]}}