{"Response":{"MetaInfo":{"Timestamp":"2020-03-28T11:07:58.617+0000","NextPageInformation":"2"},"View":[{"_type":"SearchResultsViewType","ViewId":0,"Result":[{"Relevance":1.0,"Distance":0.0,"Direction":0.0,"MatchLevel":"city","MatchQuality":{"Country":1.0,"State":1.0,"County":1.0,"City":1.0,"PostalCode":1.0},"Location":{"LocationId":"NT_63dxdXMYfRWJZsN23UOjhA","LocationType":"point","DisplayPosition":{"Latitude":45.9404167,"Longitude":4.771465},"MapView":{"TopLeft":{"Latitude":45.95528,"Longitude":4.74454},"BottomRight":{"Latitude":45.92368,"Longitude":4.79732}},"Address":{"Label":"Trévoux, Auvergne-Rhône-Alpes, France","Country":"FRA","State":"Auvergne-Rhône-Alpes","County":"Ain","City":"Trévoux","PostalCode":"01600","AdditionalData":[{"value":"France","key":"CountryName"},{"value":"Auvergne-Rhône-Alpes","key":"StateName"},{"value":"Ain","key":"CountyName"}]},"MapReference":{"ReferenceId":"1146535427","SideOfStreet":"neither","CountryId":"20000001","StateId":"20006029","CountyId":"20006030","CityId":"20045711"}}},{"Relevance":1.0,"Distance":8.1,"MatchLevel":"street","MatchQuality":{"Country":1.0,"State":1.0,"County":1.0,"City":1.0,"Street":[1.0],"PostalCode":1.0},"Location":{"LocationId":"NT_7WPBQS3C6tFWYq0x-w011B_l_1076719373_R","LocationType":"point","DisplayPosition":{"Latitude":45.9403443,"Longitude":4.7714559},"MapView":{"TopLeft":{"Latitude":45.94035,"Longitude":4.77141},"BottomRight":{"Latitude":45.94023,"Longitude":4.77228}},"Address":{"Label":"Avenue du Docteur Bollet, 01600 Trévoux, France","Country":"FRA","State":"Auvergne-Rhône-Alpes","County":"Ain","City":"Trévoux","Street":"Avenue du Docteur Bollet","PostalCode":"01600","AdditionalData":[{"value":"France","key":"CountryName"},{"value":"Auvergne-Rhône-Alpes","key":"StateName"},{"value":"Ain","key":"CountyName"}]},"MapReference":{"ReferenceId":"1076719373","Spot":0.95,"SideOfStreet":"right","CountryId":"20000001","StateId":"20006029","CountyId":"20006030","CityId":"20045711"}}},{"Relevance":1.0,"Distance":8.5,"MatchLevel":"street","MatchQuality":{"Country":1.0,"State":1.0,"County":1.0,"City":1.0,"Street":[1.0],"PostalCode":1.0},"Location":{"LocationId":"NT_cYHXymiZWjkSoMTO7wLqtD_l_851665188_R","LocationType":"point","DisplayPosition":{"Latitude":45.94035,"Longitude":4.77141},"MapView":{"TopLeft":{"Latitude":45.94043,"Longitude":4.77068},"BottomRight":{"Latitude":45.94035,"Longitude":4.77141}},"Address":{"Label":"Avenue du Docteur Bollet, 01600 Trévoux, France","Country":"FRA","State":"Auvergne-Rhône-Alpes","County":"Ain","City":"Trévoux","Street":"Avenue du Docteur Bollet","PostalCode":"01600","AdditionalData":[{"value":"France","key":"CountryName"},{"value":"Auvergne-Rhône-Alpes","key":"StateName"},{"value":"Ain","key":"CountyName"}]},"MapReference":{"ReferenceId":"851665188","Spot":0.0,"SideOfStreet":"right","CountryId":"20000001","StateId":"20006029","CountyId":"20006030","CityId":"20045711"}}},{"Relevance":1.0,"Distance":50.3,"MatchLevel":"landmark","MatchQuality":{"Country":1.0,"State":1.0,"Name":1.0},"Location":{"LocationId":"NT_JtfnIgPQbPZmQwMpG3HTgA","LocationType":"river","Name":"La Saône","DisplayPosition":{"Latitude":45.91802,"Longitude":4.81041},"MapView":{"TopLeft":{"Latitude":45.93999,"Longitude":4.74442},"BottomRight":{"Latitude":45.89604,"Longitude":4.81205}},"Address":{"Label":"France","Country":"FRA","State":"Auvergne-Rhône-Alpes","AdditionalData":[{"value":"France","key":"CountryName"},{"value":"Auvergne-Rhône-Alpes","key":"StateName"}]},"MapReference":{"CountryId":"20000001","StateId":"20006029","PlaceId":"51480594"}}},{"Relevance":1.0,"Distance":52.0,"MatchLevel":"street","MatchQuality":{"Country":1.0,"State":1.0,"County":1.0,"City":1.0,"Street":[1.0],"PostalCode":1.0},"Location":{"LocationId":"NT_LeKz5ZR37bHEONb1mANd8D_l_71565791_L","LocationType":"point","DisplayPosition":{"Latitude":45.9407,"Longitude":4.772},"MapView":{"TopLeft":{"Latitude":45.9409,"Longitude":4.77197},"BottomRight":{"Latitude":45.9406,"Longitude":4.77266}},"Address":{"Label":"Ruelle du Cornet, 01600 Trévoux, France","Country":"FRA","State":"Auvergne-Rhône-Alpes","County":"Ain","City":"Trévoux","Street":"Ruelle du Cornet","PostalCode":"01600","AdditionalData":[{"value":"France","key":"CountryName"},{"value":"Auvergne-Rhône-Alpes","key":"StateName"},{"value":"Ain","key":"CountyName"}]},"MapReference":{"ReferenceId":"71565791","Spot":0.76,"SideOfStreet":"left","CountryId":"20000001","StateId":"20006029","CountyId":"20006030","CityId":"20045711"}}},{"Relevance":1.0,"Distance":66.9,"MatchLevel":"houseNumber","MatchQuality":{"Country":1.0,"State":1.0,"County":1.0,"City":1.0,"Street":[1.0],"HouseNumber":1.0,"PostalCode":1.0},"MatchType":"interpolated","Location":{"LocationId":"NT_qEG4zi0Mid.Uk2uExY.qTA_yA","LocationType":"point","DisplayPosition":{"Latitude":45.94033,"Longitude":4.77258},"MapView":{"TopLeft":{"Latitude":45.9414542,"Longitude":4.7709635},"BottomRight":{"Latitude":45.9392058,"Longitude":4.7741965}},"Address":{"Label":"2 Place du Pont, 01600 Trévoux, France","Country":"FRA","State":"Auvergne-Rhône-Alpes","County":"Ain","City":"Trévoux","Street":"Place du Pont","HouseNumber":"2","PostalCode":"01600","AdditionalData":[{"value":"France","key":"CountryName"},{"value":"Auvergne-Rhône-Alpes","key":"StateName"},{"value":"Ain","key":"CountyName"}]},"MapReference":{"ReferenceId":"71565824","Spot":0.32,"SideOfStreet":"left","CountryId":"20000001","StateId":"20006029","CountyId":"20006030","CityId":"20045711","AddressId":"319576968","RoadLinkId":"45634379"}}},{"Relevance":1.0,"Distance":72.0,"MatchLevel":"houseNumber","MatchQuality":{"Country":1.0,"State":1.0,"County":1.0,"City":1.0,"Street":[1.0],"HouseNumber":1.0,"PostalCode":1.0},"MatchType":"interpolated","Location":{"LocationId":"NT_14oEWPwlwjk-X1zPX8V1KA_l_546116965_L_xQD","LocationType":"point","DisplayPosition":{"Latitude":45.9409777,"Longitude":4.7719967},"MapView":{"TopLeft":{"Latitude":45.9421019,"Longitude":4.7703801},"BottomRight":{"Latitude":45.9398536,"Longitude":4.7736132}},"Address":{"Label":"14 Rue de l'Hôpital, 01600 Trévoux, France","Country":"FRA","State":"Auvergne-Rhône-Alpes","County":"Ain","City":"Trévoux","Street":"Rue de l'Hôpital","HouseNumber":"14","PostalCode":"01600","AdditionalData":[{"value":"France","key":"CountryName"},{"value":"Auvergne-Rhône-Alpes","key":"StateName"},{"value":"Ain","key":"CountyName"}]},"MapReference":{"ReferenceId":"546116965","Spot":0.56,"SideOfStreet":"left","CountryId":"20000001","StateId":"20006029","CountyId":"20006030","CityId":"20045711"}}},{"Relevance":1.0,"Distance":76.3,"MatchLevel":"houseNumber","MatchQuality":{"Country":1.0,"State":1.0,"County":1.0,"City":1.0,"Street":[1.0],"HouseNumber":1.0,"PostalCode":1.0},"MatchType":"interpolated","Location":{"LocationId":"NT_NS1NTvZEfTc0TYkTPTRTRD_xAD","LocationType":"point","DisplayPosition":{"Latitude":45.94091,"Longitude":4.77078},"MapView":{"TopLeft":{"Latitude":45.9420342,"Longitude":4.7691634},"BottomRight":{"Latitude":45.9397858,"Longitude":4.7723966}},"Address":{"Label":"10 Rue Neuve, 01600 Trévoux, France","Country":"FRA","State":"Auvergne-Rhône-Alpes","County":"Ain","City":"Trévoux","Street":"Rue Neuve","HouseNumber":"10","PostalCode":"01600","AdditionalData":[{"value":"France","key":"CountryName"},{"value":"Auvergne-Rhône-Alpes","key":"StateName"},{"value":"Ain","key":"CountyName"}]},"MapReference":{"ReferenceId":"71565814","Spot":0.69,"SideOfStreet":"left","CountryId":"20000001","StateId":"20006029","CountyId":"20006030","CityId":"20045711","AddressId":"379904574","RoadLinkId":"46086636"}}},{"Relevance":1.0,"Distance":80.4,"MatchLevel":"houseNumber","MatchQuality":{"Country":1.0,"State":1.0,"County":1.0,"City":1.0,"Street":[1.0],"HouseNumber":1.0,"PostalCode":1.0},"MatchType":"interpolated","Location":{"LocationId":"NT_7WPBQS3C6tFWYq0x-w011B_yA","LocationType":"point","DisplayPosition":{"Latitude":45.94021,"Longitude":4.77247},"MapView":{"TopLeft":{"Latitude":45.9413342,"Longitude":4.7708535},"BottomRight":{"Latitude":45.9390858,"Longitude":4.7740865}},"Address":{"Label":"2 Avenue du Docteur Bollet, 01600 Trévoux, France","Country":"FRA","State":"Auvergne-Rhône-Alpes","County":"Ain","City":"Trévoux","Street":"Avenue du Docteur Bollet","HouseNumber":"2","PostalCode":"01600","AdditionalData":[{"value":"France","key":"CountryName"},{"value":"Auvergne-Rhône-Alpes","key":"StateName"},{"value":"Ain","key":"CountyName"}]},"MapReference":{"ReferenceId":"1076719372","Spot":0.3,"SideOfStreet":"right","CountryId":"20000001","StateId":"20006029","CountyId":"20006030","CityId":"20045711","AddressId":"573900378","RoadLinkId":"396450353"}}},{"Relevance":1.0,"Distance":80.4,"MatchLevel":"houseNumber","MatchQuality":{"Country":1.0,"State":1.0,"County":1.0,"City":1.0,"Street":[1.0],"HouseNumber":1.0,"PostalCode":1.0},"MatchType":"interpolated","Location":{"LocationId":"NT_7WPBQS3C6tFWYq0x-w011B_xcDO","LocationType":"point","DisplayPosition":{"Latitude":45.94046,"Longitude":4.77042},"MapView":{"TopLeft":{"Latitude":45.9415842,"Longitude":4.7688035},"BottomRight":{"Latitude":45.9393358,"Longitude":4.7720365}},"Address":{"Label":"178 Avenue du Docteur Bollet, 01600 Trévoux, France","Country":"FRA","State":"Auvergne-Rhône-Alpes","County":"Ain","City":"Trévoux","Street":"Avenue du Docteur Bollet","HouseNumber":"178","PostalCode":"01600","AdditionalData":[{"value":"France","key":"CountryName"},{"value":"Auvergne-Rhône-Alpes","key":"StateName"},{"value":"Ain","key":"CountyName"}]},"MapReference":{"ReferenceId":"71569831","Spot":0.31,"SideOfStreet":"right","CountryId":"20000001","StateId":"20006029","CountyId":"20006030","CityId":"20045711","AddressId":"319709347","RoadLinkId":"45605257"}}}]}]}}