{"Response":{"MetaInfo":{"Timestamp":"2020-03-28T10:28:10.698+0000","NextPageInformation":"2"},"View":[{"_type":"SearchResultsViewType","ViewId":0,"Result":[{"Relevance":1.0,"Distance":0.0,"Direction":0.0,"MatchLevel":"city","MatchQuality":{"Country":1.0,"State":1.0,"County":1.0,"City":1.0,"PostalCode":1.0},"Location":{"LocationId":"NT_tc7kIpGX9EyhR58IUl.23C","LocationType":"point","DisplayPosition":{"Latitude":45.948179,"Longitude":-1.076322},"MapView":{"TopLeft":{"Latitude":45.96221,"Longitude":-1.12077},"BottomRight":{"Latitude":45.92571,"Longitude":-1.05333}},"Address":{"Label":"Port-des-Barques, Nouvelle-Aquitaine, France","Country":"FRA","State":"Nouvelle-Aquitaine","County":"Charente-Maritime","City":"Port-des-Barques","PostalCode":"17730","AdditionalData":[{"value":"France","key":"CountryName"},{"value":"Nouvelle-Aquitaine","key":"StateName"},{"value":"Charente-Maritime","key":"CountyName"}]},"MapReference":{"ReferenceId":"79389773","SideOfStreet":"neither","CountryId":"20000001","StateId":"20000383","CountyId":"20088858","CityId":"20090264"}}},{"Relevance":1.0,"Distance":10.4,"MatchLevel":"houseNumber","MatchQuality":{"Country":1.0,"State":1.0,"County":1.0,"City":1.0,"Street":[1.0],"HouseNumber":1.0,"PostalCode":1.0},"MatchType":"interpolated","Location":{"LocationId":"NT_Cr5g8fsFZjvMsCHC913QqD_1A","LocationType":"point","DisplayPosition":{"Latitude":45.94813,"Longitude":-1.07615},"MapView":{"TopLeft":{"Latitude":45.9492542,"Longitude":-1.0777668},"BottomRight":{"Latitude":45.9470058,"Longitude":-1.0745332}},"Address":{"Label":"5 Rue Pierre Loti, 17730 Port-des-Barques, France","Country":"FRA","State":"Nouvelle-Aquitaine","County":"Charente-Maritime","City":"Port-des-Barques","Street":"Rue Pierre Loti","HouseNumber":"5","PostalCode":"17730","AdditionalData":[{"value":"France","key":"CountryName"},{"value":"Nouvelle-Aquitaine","key":"StateName"},{"value":"Charente-Maritime","key":"CountyName"}]},"MapReference":{"ReferenceId":"79389826","Spot":0.66,"SideOfStreet":"left","CountryId":"20000001","StateId":"20000383","CountyId":"20088858","CityId":"20090264","AddressId":"381592649","RoadLinkId":"46946811"}}},{"Relevance":1.0,"Distance":19.4,"MatchLevel":"street","MatchQuality":{"Country":1.0,"State":1.0,"County":1.0,"City":1.0,"Street":[1.0],"PostalCode":1.0},"Location":{"LocationId":"NT_Cr5g8fsFZjvMsCHC913QqD_l_79389839_L","LocationType":"point","DisplayPosition":{"Latitude":45.94826,"Longitude":-1.0761},"MapView":{"TopLeft":{"Latitude":45.94835,"Longitude":-1.0761},"BottomRight":{"Latitude":45.94826,"Longitude":-1.07607}},"Address":{"Label":"Rue Pierre Loti, 17730 Port-des-Barques, France","Country":"FRA","State":"Nouvelle-Aquitaine","County":"Charente-Maritime","City":"Port-des-Barques","Street":"Rue Pierre Loti","PostalCode":"17730","AdditionalData":[{"value":"France","key":"CountryName"},{"value":"Nouvelle-Aquitaine","key":"StateName"},{"value":"Charente-Maritime","key":"CountyName"}]},"MapReference":{"ReferenceId":"79389839","Spot":0.0,"SideOfStreet":"left","CountryId":"20000001","StateId":"20000383","CountyId":"20088858","CityId":"20090264"}}},{"Relevance":1.0,"Distance":19.4,"MatchLevel":"houseNumber","MatchQuality":{"Country":1.0,"State":1.0,"County":1.0,"City":1.0,"Street":[1.0],"HouseNumber":1.0,"PostalCode":1.0},"MatchType":"interpolated","Location":{"LocationId":"NT_vIyXeQ-UPKBbaW3zIimHaD_1A","LocationType":"point","DisplayPosition":{"Latitude":45.94836,"Longitude":-1.07641},"MapView":{"TopLeft":{"Latitude":45.9494842,"Longitude":-1.0780268},"BottomRight":{"Latitude":45.9472358,"Longitude":-1.0747932}},"Address":{"Label":"5 Rue de la Mairie, 17730 Port-des-Barques, France","Country":"FRA","State":"Nouvelle-Aquitaine","County":"Charente-Maritime","City":"Port-des-Barques","Street":"Rue de la Mairie","HouseNumber":"5","PostalCode":"17730","AdditionalData":[{"value":"France","key":"CountryName"},{"value":"Nouvelle-Aquitaine","key":"StateName"},{"value":"Charente-Maritime","key":"CountyName"}]},"MapReference":{"ReferenceId":"79389830","Spot":0.82,"SideOfStreet":"left","CountryId":"20000001","StateId":"20000383","CountyId":"20088858","CityId":"20090264","AddressId":"318092787","RoadLinkId":"47559799"}}},{"Relevance":1.0,"Distance":23.0,"MatchLevel":"houseNumber","MatchQuality":{"Country":1.0,"State":1.0,"County":1.0,"City":1.0,"Street":[1.0],"HouseNumber":1.0,"PostalCode":1.0},"MatchType":"interpolated","Location":{"LocationId":"NT_vIyXeQ-UPKBbaW3zIimHaD_zA","LocationType":"point","DisplayPosition":{"Latitude":45.94837,"Longitude":-1.07649},"MapView":{"TopLeft":{"Latitude":45.9494942,"Longitude":-1.0781068},"BottomRight":{"Latitude":45.9472458,"Longitude":-1.0748732}},"Address":{"Label":"3 Rue de la Mairie, 17730 Port-des-Barques, France","Country":"FRA","State":"Nouvelle-Aquitaine","County":"Charente-Maritime","City":"Port-des-Barques","Street":"Rue de la Mairie","HouseNumber":"3","PostalCode":"17730","AdditionalData":[{"value":"France","key":"CountryName"},{"value":"Nouvelle-Aquitaine","key":"StateName"},{"value":"Charente-Maritime","key":"CountyName"}]},"MapReference":{"ReferenceId":"79389832","Spot":0.95,"SideOfStreet":"right","CountryId":"20000001","StateId":"20000383","CountyId":"20088858","CityId":"20090264","AddressId":"381518988","RoadLinkId":"46361966"}}},{"Relevance":1.0,"Distance":27.3,"MatchLevel":"houseNumber","MatchQuality":{"Country":1.0,"State":1.0,"County":1.0,"City":1.0,"Street":[1.0],"HouseNumber":1.0,"PostalCode":1.0},"MatchType":"interpolated","Location":{"LocationId":"NT_C0OwRC1zFckZ8brDTAlcOD_1A","LocationType":"point","DisplayPosition":{"Latitude":45.94793,"Longitude":-1.07641},"MapView":{"TopLeft":{"Latitude":45.9490542,"Longitude":-1.0780268},"BottomRight":{"Latitude":45.9468058,"Longitude":-1.0747932}},"Address":{"Label":"5 Rue Victor Hugo, 17730 Port-des-Barques, France","Country":"FRA","State":"Nouvelle-Aquitaine","County":"Charente-Maritime","City":"Port-des-Barques","Street":"Rue Victor Hugo","HouseNumber":"5","PostalCode":"17730","AdditionalData":[{"value":"France","key":"CountryName"},{"value":"Nouvelle-Aquitaine","key":"StateName"},{"value":"Charente-Maritime","key":"CountyName"}]},"MapReference":{"ReferenceId":"79389825","Spot":0.16,"SideOfStreet":"right","CountryId":"20000001","StateId":"20000383","CountyId":"20088858","CityId":"20090264","AddressId":"381600160","RoadLinkId":"46518587"}}},{"Relevance":1.0,"Distance":33.2,"MatchLevel":"houseNumber","MatchQuality":{"Country":1.0,"State":1.0,"County":1.0,"City":1.0,"Street":[1.0],"HouseNumber":1.0,"PostalCode":1.0},"MatchType":"interpolated","Location":{"LocationId":"NT_CNDSUtK69nSDRGEVQcEeaD_xMD","LocationType":"point","DisplayPosition":{"Latitude":45.94829,"Longitude":-1.07672},"MapView":{"TopLeft":{"Latitude":45.9494142,"Longitude":-1.0783368},"BottomRight":{"Latitude":45.9471658,"Longitude":-1.0751032}},"Address":{"Label":"13 Place Léonce Vieljeux, 17730 Port-des-Barques, France","Country":"FRA","State":"Nouvelle-Aquitaine","County":"Charente-Maritime","City":"Port-des-Barques","Street":"Place Léonce Vieljeux","HouseNumber":"13","PostalCode":"17730","AdditionalData":[{"value":"France","key":"CountryName"},{"value":"Nouvelle-Aquitaine","key":"StateName"},{"value":"Charente-Maritime","key":"CountyName"}]},"MapReference":{"ReferenceId":"79389831","Spot":0.04,"SideOfStreet":"right","CountryId":"20000001","StateId":"20000383","CountyId":"20088858","CityId":"20090264","AddressId":"318089778","RoadLinkId":"47770522"}}},{"Relevance":1.0,"Distance":34.2,"MatchLevel":"houseNumber","MatchQuality":{"Country":1.0,"State":1.0,"County":1.0,"City":1.0,"Street":[1.0],"HouseNumber":1.0,"PostalCode":1.0},"MatchType":"interpolated","Location":{"LocationId":"NT_Y97kGQkGIeHY1jzQZz11hD_xA","LocationType":"point","DisplayPosition":{"Latitude":45.94786,"Longitude":-1.07618},"MapView":{"TopLeft":{"Latitude":45.9489842,"Longitude":-1.0777968},"BottomRight":{"Latitude":45.9467358,"Longitude":-1.0745632}},"Address":{"Label":"1 Rue Lafayette, 17730 Port-des-Barques, France","Country":"FRA","State":"Nouvelle-Aquitaine","County":"Charente-Maritime","City":"Port-des-Barques","Street":"Rue Lafayette","HouseNumber":"1","PostalCode":"17730","AdditionalData":[{"value":"France","key":"CountryName"},{"value":"Nouvelle-Aquitaine","key":"StateName"},{"value":"Charente-Maritime","key":"CountyName"}]},"MapReference":{"ReferenceId":"79389834","Spot":0.94,"SideOfStreet":"right","CountryId":"20000001","StateId":"20000383","CountyId":"20088858","CityId":"20090264","AddressId":"381529378","RoadLinkId":"47769599"}}},{"Relevance":1.0,"Distance":36.0,"MatchLevel":"houseNumber","MatchQuality":{"Country":1.0,"State":1.0,"County":1.0,"City":1.0,"Street":[1.0],"HouseNumber":1.0,"PostalCode":1.0},"MatchType":"interpolated","Location":{"LocationId":"NT_Cr5g8fsFZjvMsCHC913QqD_3A","LocationType":"point","DisplayPosition":{"Latitude":45.94845,"Longitude":-1.07603},"MapView":{"TopLeft":{"Latitude":45.9495742,"Longitude":-1.0776468},"BottomRight":{"Latitude":45.9473258,"Longitude":-1.0744132}},"Address":{"Label":"7 Rue Pierre Loti, 17730 Port-des-Barques, France","Country":"FRA","State":"Nouvelle-Aquitaine","County":"Charente-Maritime","City":"Port-des-Barques","Street":"Rue Pierre Loti","HouseNumber":"7","PostalCode":"17730","AdditionalData":[{"value":"France","key":"CountryName"},{"value":"Nouvelle-Aquitaine","key":"StateName"},{"value":"Charente-Maritime","key":"CountyName"}]},"MapReference":{"ReferenceId":"79389840","Spot":0.42,"SideOfStreet":"left","CountryId":"20000001","StateId":"20000383","CountyId":"20088858","CityId":"20090264","AddressId":"381564717","RoadLinkId":"46338735"}}},{"Relevance":1.0,"Distance":38.9,"MatchLevel":"houseNumber","MatchQuality":{"Country":1.0,"State":1.0,"County":1.0,"City":1.0,"Street":[1.0],"HouseNumber":1.0,"PostalCode":1.0},"MatchType":"interpolated","Location":{"LocationId":"NT_LPmFf3hHeIuVZbyI4Dau-D_yA","LocationType":"point","DisplayPosition":{"Latitude":45.94831,"Longitude":-1.07583},"MapView":{"TopLeft":{"Latitude":45.9494342,"Longitude":-1.0774468},"BottomRight":{"Latitude":45.9471858,"Longitude":-1.0742132}},"Address":{"Label":"2 Rue George Sand, 17730 Port-des-Barques, France","Country":"FRA","State":"Nouvelle-Aquitaine","County":"Charente-Maritime","City":"Port-des-Barques","Street":"Rue George Sand","HouseNumber":"2","PostalCode":"17730","AdditionalData":[{"value":"France","key":"CountryName"},{"value":"Nouvelle-Aquitaine","key":"StateName"},{"value":"Charente-Maritime","key":"CountyName"}]},"MapReference":{"ReferenceId":"79389844","Spot":0.72,"SideOfStreet":"left","CountryId":"20000001","StateId":"20000383","CountyId":"20088858","CityId":"20090264","AddressId":"381607845","RoadLinkId":"46576664"}}}]}]}}