{"Response":{"MetaInfo":{"Timestamp":"2020-03-28T11:48:06.080+0000","NextPageInformation":"2"},"View":[{"_type":"SearchResultsViewType","ViewId":0,"Result":[{"Relevance":1.0,"Distance":0.0,"Direction":0.0,"MatchLevel":"city","MatchQuality":{"Country":1.0,"State":1.0,"County":1.0,"City":1.0,"PostalCode":1.0},"Location":{"LocationId":"NT_joxQRjpMIvt-w-9JGtFO6B","LocationType":"point","DisplayPosition":{"Latitude":45.953673,"Longitude":1.754785},"MapView":{"TopLeft":{"Latitude":45.97703,"Longitude":1.70719},"BottomRight":{"Latitude":45.91734,"Longitude":1.78589}},"Address":{"Label":"Bourganeuf, Nouvelle-Aquitaine, France","Country":"FRA","State":"Nouvelle-Aquitaine","County":"Creuse","City":"Bourganeuf","PostalCode":"23400","AdditionalData":[{"value":"France","key":"CountryName"},{"value":"Nouvelle-Aquitaine","key":"StateName"},{"value":"Creuse","key":"CountyName"}]},"MapReference":{"ReferenceId":"584850810","SideOfStreet":"neither","CountryId":"20000001","StateId":"20000383","CountyId":"20061327","CityId":"20091220"}}},{"Relevance":1.0,"Distance":5.0,"MatchLevel":"houseNumber","MatchQuality":{"Country":1.0,"State":1.0,"County":1.0,"City":1.0,"Street":[1.0],"HouseNumber":1.0,"PostalCode":1.0},"MatchType":"interpolated","Location":{"LocationId":"NT_HOPT5sdFwipkppJynKu0hC_xQD","LocationType":"point","DisplayPosition":{"Latitude":45.95363,"Longitude":1.75472},"MapView":{"TopLeft":{"Latitude":45.9547542,"Longitude":1.7531031},"BottomRight":{"Latitude":45.9525058,"Longitude":1.7563369}},"Address":{"Label":"14 Rue de Verdun, 23400 Bourganeuf, France","Country":"FRA","State":"Nouvelle-Aquitaine","County":"Creuse","City":"Bourganeuf","Street":"Rue de Verdun","HouseNumber":"14","PostalCode":"23400","AdditionalData":[{"value":"France","key":"CountryName"},{"value":"Nouvelle-Aquitaine","key":"StateName"},{"value":"Creuse","key":"CountyName"}]},"MapReference":{"ReferenceId":"584850806","Spot":0.92,"SideOfStreet":"left","CountryId":"20000001","StateId":"20000383","CountyId":"20061327","CityId":"20091220","AddressId":"317476262","RoadLinkId":"52876594"}}},{"Relevance":1.0,"Distance":13.6,"MatchLevel":"houseNumber","MatchQuality":{"Country":1.0,"State":1.0,"County":1.0,"City":1.0,"Street":[1.0],"HouseNumber":1.0,"PostalCode":1.0},"MatchType":"interpolated","Location":{"LocationId":"NT_HOPT5sdFwipkppJynKu0hC_xID","LocationType":"point","DisplayPosition":{"Latitude":45.95363,"Longitude":1.75495},"MapView":{"TopLeft":{"Latitude":45.9547542,"Longitude":1.7533331},"BottomRight":{"Latitude":45.9525058,"Longitude":1.7565669}},"Address":{"Label":"12 Rue de Verdun, 23400 Bourganeuf, France","Country":"FRA","State":"Nouvelle-Aquitaine","County":"Creuse","City":"Bourganeuf","Street":"Rue de Verdun","HouseNumber":"12","PostalCode":"23400","AdditionalData":[{"value":"France","key":"CountryName"},{"value":"Nouvelle-Aquitaine","key":"StateName"},{"value":"Creuse","key":"CountyName"}]},"MapReference":{"ReferenceId":"584850807","Spot":0.9,"SideOfStreet":"right","CountryId":"20000001","StateId":"20000383","CountyId":"20061327","CityId":"20091220","AddressId":"317527334","RoadLinkId":"53085514"}}},{"Relevance":1.0,"Distance":13.8,"MatchLevel":"houseNumber","MatchQuality":{"Country":1.0,"State":1.0,"County":1.0,"City":1.0,"Street":[1.0],"HouseNumber":1.0,"PostalCode":1.0},"MatchType":"interpolated","Location":{"LocationId":"NT_CkA1LOVa.MM1AZKYoGvhgA_yA","LocationType":"point","DisplayPosition":{"Latitude":45.95355,"Longitude":1.75487},"MapView":{"TopLeft":{"Latitude":45.9546742,"Longitude":1.7532531},"BottomRight":{"Latitude":45.9524258,"Longitude":1.7564869}},"Address":{"Label":"2 Rue Marcel Desprez, 23400 Bourganeuf, France","Country":"FRA","State":"Nouvelle-Aquitaine","County":"Creuse","City":"Bourganeuf","Street":"Rue Marcel Desprez","HouseNumber":"2","PostalCode":"23400","AdditionalData":[{"value":"France","key":"CountryName"},{"value":"Nouvelle-Aquitaine","key":"StateName"},{"value":"Creuse","key":"CountyName"}]},"MapReference":{"ReferenceId":"584850812","Spot":0.92,"SideOfStreet":"left","CountryId":"20000001","StateId":"20000383","CountyId":"20061327","CityId":"20091220","AddressId":"317470124","RoadLinkId":"53354950"}}},{"Relevance":1.0,"Distance":30.6,"MatchLevel":"houseNumber","MatchQuality":{"Country":1.0,"State":1.0,"County":1.0,"City":1.0,"Street":[1.0],"HouseNumber":1.0,"PostalCode":1.0},"MatchType":"interpolated","Location":{"LocationId":"NT_PhhLPHfX2uNFEsvhbf1MiC_xIE","LocationType":"point","DisplayPosition":{"Latitude":45.95393,"Longitude":1.75491},"MapView":{"TopLeft":{"Latitude":45.9550542,"Longitude":1.7532931},"BottomRight":{"Latitude":45.9528058,"Longitude":1.7565269}},"Address":{"Label":"1B Rue des Fossés du Billadour, 23400 Bourganeuf, France","Country":"FRA","State":"Nouvelle-Aquitaine","County":"Creuse","City":"Bourganeuf","Street":"Rue des Fossés du Billadour","HouseNumber":"1B","PostalCode":"23400","AdditionalData":[{"value":"France","key":"CountryName"},{"value":"Nouvelle-Aquitaine","key":"StateName"},{"value":"Creuse","key":"CountyName"}]},"MapReference":{"ReferenceId":"584850819","Spot":0.25,"SideOfStreet":"left","CountryId":"20000001","StateId":"20000383","CountyId":"20061327","CityId":"20091220","AddressId":"571386117","RoadLinkId":"53477694"}}},{"Relevance":1.0,"Distance":57.0,"MatchLevel":"houseNumber","MatchQuality":{"Country":1.0,"State":1.0,"County":1.0,"City":1.0,"Street":[1.0],"HouseNumber":1.0,"PostalCode":1.0},"MatchType":"interpolated","Location":{"LocationId":"NT_2wP-rHaA26lhT0JmbxGrhC_2A","LocationType":"point","DisplayPosition":{"Latitude":45.95414,"Longitude":1.75561},"MapView":{"TopLeft":{"Latitude":45.9552642,"Longitude":1.7539931},"BottomRight":{"Latitude":45.9530158,"Longitude":1.7572269}},"Address":{"Label":"6 Place de l'Hôtel de Ville, 23400 Bourganeuf, France","Country":"FRA","State":"Nouvelle-Aquitaine","County":"Creuse","City":"Bourganeuf","Street":"Place de l'Hôtel de Ville","HouseNumber":"6","PostalCode":"23400","AdditionalData":[{"value":"France","key":"CountryName"},{"value":"Nouvelle-Aquitaine","key":"StateName"},{"value":"Creuse","key":"CountyName"}]},"MapReference":{"ReferenceId":"1255903738","Spot":0.21,"SideOfStreet":"left","CountryId":"20000001","StateId":"20000383","CountyId":"20061327","CityId":"20091220","AddressId":"317493905","RoadLinkId":"579448862"}}},{"Relevance":1.0,"Distance":65.3,"MatchLevel":"houseNumber","MatchQuality":{"Country":1.0,"State":1.0,"County":1.0,"City":1.0,"Street":[1.0],"HouseNumber":1.0,"PostalCode":1.0},"MatchType":"interpolated","Location":{"LocationId":"NT_2wP-rHaA26lhT0JmbxGrhC_xAD","LocationType":"point","DisplayPosition":{"Latitude":45.95366,"Longitude":1.75578},"MapView":{"TopLeft":{"Latitude":45.9547842,"Longitude":1.7541631},"BottomRight":{"Latitude":45.9525358,"Longitude":1.7573969}},"Address":{"Label":"10 Place de l'Hôtel de Ville, 23400 Bourganeuf, France","Country":"FRA","State":"Nouvelle-Aquitaine","County":"Creuse","City":"Bourganeuf","Street":"Place de l'Hôtel de Ville","HouseNumber":"10","PostalCode":"23400","AdditionalData":[{"value":"France","key":"CountryName"},{"value":"Nouvelle-Aquitaine","key":"StateName"},{"value":"Creuse","key":"CountyName"}]},"MapReference":{"ReferenceId":"1255903737","Spot":0.1,"SideOfStreet":"left","CountryId":"20000001","StateId":"20000383","CountyId":"20061327","CityId":"20091220","AddressId":"317493907","RoadLinkId":"579448861"}}},{"Relevance":1.0,"Distance":69.8,"MatchLevel":"houseNumber","MatchQuality":{"Country":1.0,"State":1.0,"County":1.0,"City":1.0,"Street":[1.0],"HouseNumber":1.0,"PostalCode":1.0},"MatchType":"interpolated","Location":{"LocationId":"NT_pbxm0XJZg-zqG0mmpjWoXD_0A","LocationType":"point","DisplayPosition":{"Latitude":45.95327,"Longitude":1.75566},"MapView":{"TopLeft":{"Latitude":45.9543942,"Longitude":1.7540431},"BottomRight":{"Latitude":45.9521458,"Longitude":1.7572769}},"Address":{"Label":"4 Rue Lastic, 23400 Bourganeuf, France","Country":"FRA","State":"Nouvelle-Aquitaine","County":"Creuse","City":"Bourganeuf","Street":"Rue Lastic","HouseNumber":"4","PostalCode":"23400","AdditionalData":[{"value":"France","key":"CountryName"},{"value":"Nouvelle-Aquitaine","key":"StateName"},{"value":"Creuse","key":"CountyName"}]},"MapReference":{"ReferenceId":"584850809","Spot":0.37,"SideOfStreet":"left","CountryId":"20000001","StateId":"20000383","CountyId":"20061327","CityId":"20091220","AddressId":"317466698","RoadLinkId":"53548693"}}},{"Relevance":1.0,"Distance":78.2,"MatchLevel":"houseNumber","MatchQuality":{"Country":1.0,"State":1.0,"County":1.0,"City":1.0,"Street":[1.0],"HouseNumber":1.0,"PostalCode":1.0},"MatchType":"interpolated","Location":{"LocationId":"NT_N2ikS3y5R5W2L.fWZsXm8B_l_584851318_L_0A","LocationType":"point","DisplayPosition":{"Latitude":45.9528378,"Longitude":1.7548895},"MapView":{"TopLeft":{"Latitude":45.9539619,"Longitude":1.7532726},"BottomRight":{"Latitude":45.9517136,"Longitude":1.7565064}},"Address":{"Label":"4 Rue Gaston Chazette, 23400 Bourganeuf, France","Country":"FRA","State":"Nouvelle-Aquitaine","County":"Creuse","City":"Bourganeuf","Street":"Rue Gaston Chazette","HouseNumber":"4","PostalCode":"23400","AdditionalData":[{"value":"France","key":"CountryName"},{"value":"Nouvelle-Aquitaine","key":"StateName"},{"value":"Creuse","key":"CountyName"}]},"MapReference":{"ReferenceId":"584851318","Spot":0.5,"SideOfStreet":"left","CountryId":"20000001","StateId":"20000383","CountyId":"20061327","CityId":"20091220"}}},{"Relevance":1.0,"Distance":93.5,"MatchLevel":"houseNumber","MatchQuality":{"Country":1.0,"State":1.0,"County":1.0,"City":1.0,"Street":[1.0],"HouseNumber":1.0,"PostalCode":1.0},"MatchType":"interpolated","Location":{"LocationId":"NT_pg9pRJHt11wzTMWqI9PpCB_yA","LocationType":"point","DisplayPosition":{"Latitude":45.95297,"Longitude":1.75554},"MapView":{"TopLeft":{"Latitude":45.9540942,"Longitude":1.7539231},"BottomRight":{"Latitude":45.9518458,"Longitude":1.7571569}},"Address":{"Label":"2 Rue de l'Arrier, 23400 Bourganeuf, France","Country":"FRA","State":"Nouvelle-Aquitaine","County":"Creuse","City":"Bourganeuf","Street":"Rue de l'Arrier","HouseNumber":"2","PostalCode":"23400","AdditionalData":[{"value":"France","key":"CountryName"},{"value":"Nouvelle-Aquitaine","key":"StateName"},{"value":"Creuse","key":"CountyName"}]},"MapReference":{"ReferenceId":"584850808","Spot":0.52,"SideOfStreet":"left","CountryId":"20000001","StateId":"20000383","CountyId":"20061327","CityId":"20091220","AddressId":"345070536","RoadLinkId":"52925500"}}}]}]}}