{"Response":{"MetaInfo":{"Timestamp":"2020-03-28T11:23:46.588+0000","NextPageInformation":"2"},"View":[{"_type":"SearchResultsViewType","ViewId":0,"Result":[{"Relevance":1.0,"Distance":0.0,"Direction":0.0,"MatchLevel":"city","MatchQuality":{"Country":1.0,"State":1.0,"County":1.0,"City":1.0,"PostalCode":1.0},"Location":{"LocationId":"NT_wmweY1IwoLllsYHpfkpTbB","LocationType":"point","DisplayPosition":{"Latitude":45.9572943,"Longitude":12.4990354},"MapView":{"TopLeft":{"Latitude":45.97675,"Longitude":12.45591},"BottomRight":{"Latitude":45.90386,"Longitude":12.55335}},"Address":{"Label":"Sacile, Friuli-Venezia Giulia, Italia","Country":"ITA","State":"Friuli-Venezia Giulia","County":"PN","City":"Sacile","PostalCode":"33077","AdditionalData":[{"value":"Italia","key":"CountryName"},{"value":"Friuli-Venezia Giulia","key":"StateName"},{"value":"Pordenone","key":"CountyName"}]},"MapReference":{"ReferenceId":"801223008","SideOfStreet":"neither","CountryId":"20110484","StateId":"20122842","CountyId":"20123532","CityId":"20123677"}}},{"Relevance":1.0,"Distance":4.9,"MatchLevel":"street","MatchQuality":{"Country":1.0,"State":1.0,"County":1.0,"City":1.0,"Street":[1.0],"PostalCode":1.0},"Location":{"LocationId":"NT_U53OOPFR-SBfFxRkIsID0B_l_1186356000_R","LocationType":"point","DisplayPosition":{"Latitude":45.9573333,"Longitude":12.4990071},"MapView":{"TopLeft":{"Latitude":45.95764,"Longitude":12.49834},"BottomRight":{"Latitude":45.95674,"Longitude":12.49936}},"Address":{"Label":"Via Ettoreo, 33077 Sacile PN, Italia","Country":"ITA","State":"Friuli-Venezia Giulia","County":"PN","City":"Sacile","Street":"Via Ettoreo","PostalCode":"33077","AdditionalData":[{"value":"Italia","key":"CountryName"},{"value":"Friuli-Venezia Giulia","key":"StateName"},{"value":"Pordenone","key":"CountyName"}]},"MapReference":{"ReferenceId":"1186356000","Spot":0.66,"SideOfStreet":"right","CountryId":"20110484","StateId":"20122842","CountyId":"20123532","CityId":"20123677"}}},{"Relevance":1.0,"Distance":31.6,"MatchLevel":"landmark","MatchQuality":{"Country":1.0,"State":1.0,"County":1.0,"Name":1.0},"Location":{"LocationId":"NT_MN5lTVF3qfV699OQ59-4bC","LocationType":"river","Name":"Livenza","DisplayPosition":{"Latitude":45.965,"Longitude":12.49459},"MapView":{"TopLeft":{"Latitude":46.02501,"Longitude":12.47501},"BottomRight":{"Latitude":45.90532,"Longitude":12.51852}},"Address":{"Label":"PN, Italia","Country":"ITA","State":"Friuli-Venezia Giulia","County":"PN","AdditionalData":[{"value":"Italia","key":"CountryName"},{"value":"Friuli-Venezia Giulia","key":"StateName"},{"value":"Pordenone","key":"CountyName"}]},"MapReference":{"CountryId":"20110484","StateId":"20122842","CountyId":"20123532","PlaceId":"751007142"}}},{"Relevance":1.0,"Distance":43.1,"MatchLevel":"landmark","MatchQuality":{"Country":1.0,"State":1.0,"County":1.0,"City":1.0,"Street":[1.0],"PostalCode":1.0,"Name":1.0},"Location":{"LocationId":"NT_vOqEiVXfwy3x4XWLb9EupC_p_NyOzvf.MWRPe.geqizQxKB","LocationType":"hospital","Name":"Ospedale Civile di Sacile","DisplayPosition":{"Latitude":45.95594,"Longitude":12.50037},"MapView":{"TopLeft":{"Latitude":45.95714,"Longitude":12.49782},"BottomRight":{"Latitude":45.95483,"Longitude":12.50122}},"Address":{"Label":"Via Ettoreo, 33077 Sacile PN, Italia","Country":"ITA","State":"Friuli-Venezia Giulia","County":"PN","City":"Sacile","Street":"Via Ettoreo","PostalCode":"33077","AdditionalData":[{"value":"Italia","key":"CountryName"},{"value":"Friuli-Venezia Giulia","key":"StateName"},{"value":"Pordenone","key":"CountyName"}]},"MapReference":{"CountryId":"20110484","StateId":"20122842","CountyId":"20123532","CityId":"20123677","PlaceId":"552736400"}}},{"Relevance":1.0,"Distance":45.9,"MatchLevel":"street","MatchQuality":{"Country":1.0,"State":1.0,"County":1.0,"City":1.0,"Street":[1.0],"PostalCode":1.0},"Location":{"LocationId":"NT_U53OOPFR-SBfFxRkIsID0B_l_1186356001_R","LocationType":"point","DisplayPosition":{"Latitude":45.95764,"Longitude":12.49936},"MapView":{"TopLeft":{"Latitude":45.95832,"Longitude":12.49936},"BottomRight":{"Latitude":45.95764,"Longitude":12.50029}},"Address":{"Label":"Via Ettoreo, 33077 Sacile PN, Italia","Country":"ITA","State":"Friuli-Venezia Giulia","County":"PN","City":"Sacile","Street":"Via Ettoreo","PostalCode":"33077","AdditionalData":[{"value":"Italia","key":"CountryName"},{"value":"Friuli-Venezia Giulia","key":"StateName"},{"value":"Pordenone","key":"CountyName"}]},"MapReference":{"ReferenceId":"1186356001","Spot":0.0,"SideOfStreet":"right","CountryId":"20110484","StateId":"20122842","CountyId":"20123532","CityId":"20123677"}}},{"Relevance":1.0,"Distance":45.9,"MatchLevel":"street","MatchQuality":{"Country":1.0,"State":1.0,"County":1.0,"City":1.0,"PostalCode":1.0},"Location":{"LocationId":"NT_yEGH7YeBtQXTsOB9WDk63B_l_1186356003_L","LocationType":"point","DisplayPosition":{"Latitude":45.95764,"Longitude":12.49936},"MapView":{"TopLeft":{"Latitude":45.95825,"Longitude":12.49896},"BottomRight":{"Latitude":45.95764,"Longitude":12.49936}},"Address":{"Label":"33077 Sacile PN, Italia","Country":"ITA","State":"Friuli-Venezia Giulia","County":"PN","City":"Sacile","PostalCode":"33077","AdditionalData":[{"value":"Italia","key":"CountryName"},{"value":"Friuli-Venezia Giulia","key":"StateName"},{"value":"Pordenone","key":"CountyName"}]},"MapReference":{"ReferenceId":"1186356003","Spot":0.0,"SideOfStreet":"left","CountryId":"20110484","StateId":"20122842","CountyId":"20123532","CityId":"20123677"}}},{"Relevance":1.0,"Distance":65.8,"MatchLevel":"street","MatchQuality":{"Country":1.0,"State":1.0,"County":1.0,"City":1.0,"Street":[1.0],"PostalCode":1.0},"Location":{"LocationId":"NT_U53OOPFR-SBfFxRkIsID0B_l_1212406891_L","LocationType":"point","DisplayPosition":{"Latitude":45.9567152,"Longitude":12.4992084},"MapView":{"TopLeft":{"Latitude":45.95688,"Longitude":12.49862},"BottomRight":{"Latitude":45.95619,"Longitude":12.50019}},"Address":{"Label":"Via Ettoreo, 33077 Sacile PN, Italia","Country":"ITA","State":"Friuli-Venezia Giulia","County":"PN","City":"Sacile","Street":"Via Ettoreo","PostalCode":"33077","AdditionalData":[{"value":"Italia","key":"CountryName"},{"value":"Friuli-Venezia Giulia","key":"StateName"},{"value":"Pordenone","key":"CountyName"}]},"MapReference":{"ReferenceId":"1212406891","Spot":0.39,"SideOfStreet":"left","CountryId":"20110484","StateId":"20122842","CountyId":"20123532","CityId":"20123677"}}},{"Relevance":1.0,"Distance":81.8,"MatchLevel":"street","MatchQuality":{"Country":1.0,"State":1.0,"County":1.0,"City":1.0,"Street":[1.0],"PostalCode":1.0},"Location":{"LocationId":"NT_U53OOPFR-SBfFxRkIsID0B_l_1212406892_R","LocationType":"point","DisplayPosition":{"Latitude":45.95674,"Longitude":12.49834},"MapView":{"TopLeft":{"Latitude":45.95674,"Longitude":12.49826},"BottomRight":{"Latitude":45.95617,"Longitude":12.49862}},"Address":{"Label":"Via Ettoreo, 33077 Sacile PN, Italia","Country":"ITA","State":"Friuli-Venezia Giulia","County":"PN","City":"Sacile","Street":"Via Ettoreo","PostalCode":"33077","AdditionalData":[{"value":"Italia","key":"CountryName"},{"value":"Friuli-Venezia Giulia","key":"StateName"},{"value":"Pordenone","key":"CountyName"}]},"MapReference":{"ReferenceId":"1212406892","Spot":1.0,"SideOfStreet":"right","CountryId":"20110484","StateId":"20122842","CountyId":"20123532","CityId":"20123677"}}},{"Relevance":1.0,"Distance":106.4,"MatchLevel":"street","MatchQuality":{"Country":1.0,"State":1.0,"County":1.0,"City":1.0,"PostalCode":1.0},"Location":{"LocationId":"NT_yEGH7YeBtQXTsOB9WDk63B_l_1186356004_R","LocationType":"point","DisplayPosition":{"Latitude":45.95825,"Longitude":12.49896},"MapView":{"TopLeft":{"Latitude":45.95844,"Longitude":12.49896},"BottomRight":{"Latitude":45.95825,"Longitude":12.50024}},"Address":{"Label":"33077 Sacile PN, Italia","Country":"ITA","State":"Friuli-Venezia Giulia","County":"PN","City":"Sacile","PostalCode":"33077","AdditionalData":[{"value":"Italia","key":"CountryName"},{"value":"Friuli-Venezia Giulia","key":"StateName"},{"value":"Pordenone","key":"CountyName"}]},"MapReference":{"ReferenceId":"1186356004","Spot":0.0,"SideOfStreet":"right","CountryId":"20110484","StateId":"20122842","CountyId":"20123532","CityId":"20123677"}}},{"Relevance":1.0,"Distance":109.1,"MatchLevel":"houseNumber","MatchQuality":{"Country":1.0,"State":1.0,"County":1.0,"City":1.0,"Street":[1.0],"HouseNumber":1.0,"PostalCode":1.0},"MatchType":"interpolated","Location":{"LocationId":"NT_zWZV1fgrVE3r0U-sB38LDD_3AD","LocationType":"point","DisplayPosition":{"Latitude":45.95816,"Longitude":12.49837},"MapView":{"TopLeft":{"Latitude":45.9592842,"Longitude":12.4967529},"BottomRight":{"Latitude":45.9570358,"Longitude":12.4999871}},"Address":{"Label":"Viale della Repubblica, 70, 33077 Sacile PN, Italia","Country":"ITA","State":"Friuli-Venezia Giulia","County":"PN","City":"Sacile","Street":"Viale della Repubblica","HouseNumber":"70","PostalCode":"33077","AdditionalData":[{"value":"Italia","key":"CountryName"},{"value":"Friuli-Venezia Giulia","key":"StateName"},{"value":"Pordenone","key":"CountyName"}]},"MapReference":{"ReferenceId":"801222993","Spot":0.98,"SideOfStreet":"left","CountryId":"20110484","StateId":"20122842","CountyId":"20123532","CityId":"20123677","AddressId":"728514322","RoadLinkId":"191001790"}}}]}]}}