{"Response":{"MetaInfo":{"Timestamp":"2020-03-31T17:05:04.717+0000","NextPageInformation":"2"},"View":[{"_type":"SearchResultsViewType","ViewId":0,"Result":[{"Relevance":1.0,"Distance":0.0,"Direction":0.0,"MatchLevel":"district","MatchQuality":{"Country":1.0,"County":1.0,"City":1.0,"District":1.0,"PostalCode":1.0},"Location":{"LocationId":"NT_qL4tZd0aUG328nvxwZHnnA","LocationType":"point","DisplayPosition":{"Latitude":45.9603,"Longitude":14.5289},"MapView":{"TopLeft":{"Latitude":45.96524,"Longitude":14.51584},"BottomRight":{"Latitude":45.94878,"Longitude":14.53903}},"Address":{"Label":"Ig, Slovenija","Country":"SVN","County":"Ljubljana","City":"Ig","District":"Ig","PostalCode":"1292","AdditionalData":[{"value":"Slovenija","key":"CountryName"},{"value":"Ljubljana","key":"CountyName"}]},"MapReference":{"ReferenceId":"1256556461","SideOfStreet":"neither","CountryId":"20633685","CountyId":"20637391","CityId":"22689844","DistrictId":"22695770"}}},{"Relevance":1.0,"Distance":13.2,"MatchLevel":"houseNumber","MatchQuality":{"Country":1.0,"County":1.0,"City":1.0,"District":1.0,"Street":[1.0],"HouseNumber":1.0,"PostalCode":1.0},"MatchType":"interpolated","Location":{"LocationId":"NT_5O7Rl5qYi2Fu6kL7-hF5jC_zETQ","LocationType":"point","DisplayPosition":{"Latitude":45.95999,"Longitude":14.52926},"MapView":{"TopLeft":{"Latitude":45.9611142,"Longitude":14.5276429},"BottomRight":{"Latitude":45.9588658,"Longitude":14.5308771}},"Address":{"Label":"Hrenova ulica 31A, SI- 1292 Ig, Slovenija","Country":"SVN","County":"Ljubljana","City":"Ig","District":"Ig","Street":"Hrenova ulica","HouseNumber":"31A","PostalCode":"1292","AdditionalData":[{"value":"Slovenija","key":"CountryName"},{"value":"Ljubljana","key":"CountyName"}]},"MapReference":{"ReferenceId":"1256195963","Spot":0.48,"SideOfStreet":"left","CountryId":"20633685","CountyId":"20637391","CityId":"22689844","DistrictId":"22695770","AddressId":"776793609","RoadLinkId":"579804596"}}},{"Relevance":1.0,"Distance":15.7,"MatchLevel":"houseNumber","MatchQuality":{"Country":1.0,"County":1.0,"City":1.0,"District":1.0,"Street":[1.0],"HouseNumber":1.0,"PostalCode":1.0},"MatchType":"interpolated","Location":{"LocationId":"NT_5O7Rl5qYi2Fu6kL7-hF5jC_yMD","LocationType":"point","DisplayPosition":{"Latitude":45.96012,"Longitude":14.52873},"MapView":{"TopLeft":{"Latitude":45.9612442,"Longitude":14.5271129},"BottomRight":{"Latitude":45.9589958,"Longitude":14.5303471}},"Address":{"Label":"Hrenova ulica 23, SI- 1292 Ig, Slovenija","Country":"SVN","County":"Ljubljana","City":"Ig","District":"Ig","Street":"Hrenova ulica","HouseNumber":"23","PostalCode":"1292","AdditionalData":[{"value":"Slovenija","key":"CountryName"},{"value":"Ljubljana","key":"CountyName"}]},"MapReference":{"ReferenceId":"1256195964","Spot":0.87,"SideOfStreet":"right","CountryId":"20633685","CountyId":"20637391","CityId":"22689844","DistrictId":"22695770","AddressId":"406669456","RoadLinkId":"579804597"}}},{"Relevance":1.0,"Distance":39.6,"MatchLevel":"houseNumber","MatchQuality":{"Country":1.0,"County":1.0,"City":1.0,"District":1.0,"Street":[1.0],"HouseNumber":1.0,"PostalCode":1.0},"MatchType":"interpolated","Location":{"LocationId":"NT_vVP.OmlVMokPTMJjvjV.8D_xgD","LocationType":"point","DisplayPosition":{"Latitude":45.96018,"Longitude":14.52797},"MapView":{"TopLeft":{"Latitude":45.9613042,"Longitude":14.5263529},"BottomRight":{"Latitude":45.9590558,"Longitude":14.5295871}},"Address":{"Label":"Govekarjeva cesta 18, SI- 1292 Ig, Slovenija","Country":"SVN","County":"Ljubljana","City":"Ig","District":"Ig","Street":"Govekarjeva cesta","HouseNumber":"18","PostalCode":"1292","AdditionalData":[{"value":"Slovenija","key":"CountryName"},{"value":"Ljubljana","key":"CountyName"}]},"MapReference":{"ReferenceId":"1256552533","Spot":1.0,"SideOfStreet":"right","CountryId":"20633685","CountyId":"20637391","CityId":"22689844","DistrictId":"22695770","AddressId":"406550903","RoadLinkId":"580214856"}}},{"Relevance":1.0,"Distance":40.6,"MatchLevel":"houseNumber","MatchQuality":{"Country":1.0,"County":1.0,"City":1.0,"District":1.0,"Street":[1.0],"HouseNumber":1.0,"PostalCode":1.0},"MatchType":"interpolated","Location":{"LocationId":"NT_88k.K7vVudYmyy4lrEHeTC_1A","LocationType":"point","DisplayPosition":{"Latitude":45.96055,"Longitude":14.52953},"MapView":{"TopLeft":{"Latitude":45.9616742,"Longitude":14.5279129},"BottomRight":{"Latitude":45.9594258,"Longitude":14.5311471}},"Address":{"Label":"Pri Mostiščarjih 5, SI- 1292 Ig, Slovenija","Country":"SVN","County":"Ljubljana","City":"Ig","District":"Ig","Street":"Pri Mostiščarjih","HouseNumber":"5","PostalCode":"1292","AdditionalData":[{"value":"Slovenija","key":"CountryName"},{"value":"Ljubljana","key":"CountyName"}]},"MapReference":{"ReferenceId":"987538779","Spot":0.47,"SideOfStreet":"left","CountryId":"20633685","CountyId":"20637391","CityId":"22689844","DistrictId":"22695770","AddressId":"406604773","RoadLinkId":"317317356"}}},{"Relevance":1.0,"Distance":55.2,"MatchLevel":"houseNumber","MatchQuality":{"Country":1.0,"County":1.0,"City":1.0,"District":1.0,"Street":[1.0],"HouseNumber":1.0,"PostalCode":1.0},"MatchType":"interpolated","Location":{"LocationId":"NT_fUoTdT5xg-sn2kaGGSg6VA_yQD","LocationType":"point","DisplayPosition":{"Latitude":45.96092,"Longitude":14.52844},"MapView":{"TopLeft":{"Latitude":45.9620442,"Longitude":14.5268229},"BottomRight":{"Latitude":45.9597958,"Longitude":14.5300571}},"Address":{"Label":"Troštova ulica 24, SI- 1292 Ig, Slovenija","Country":"SVN","County":"Ljubljana","City":"Ig","District":"Ig","Street":"Troštova ulica","HouseNumber":"24","PostalCode":"1292","AdditionalData":[{"value":"Slovenija","key":"CountryName"},{"value":"Ljubljana","key":"CountyName"}]},"MapReference":{"ReferenceId":"1256023417","Spot":0.73,"SideOfStreet":"right","CountryId":"20633685","CountyId":"20637391","CityId":"22689844","DistrictId":"22695770","AddressId":"406888230","RoadLinkId":"579599938"}}},{"Relevance":1.0,"Distance":68.5,"MatchLevel":"houseNumber","MatchQuality":{"Country":1.0,"County":1.0,"City":1.0,"District":1.0,"Street":[1.0],"HouseNumber":1.0,"PostalCode":1.0},"MatchType":"interpolated","Location":{"LocationId":"NT_5O7Rl5qYi2Fu6kL7-hF5jC_zUD","LocationType":"point","DisplayPosition":{"Latitude":45.96011,"Longitude":14.5298},"MapView":{"TopLeft":{"Latitude":45.9612342,"Longitude":14.5281829},"BottomRight":{"Latitude":45.9589858,"Longitude":14.5314171}},"Address":{"Label":"Hrenova ulica 35, SI- 1292 Ig, Slovenija","Country":"SVN","County":"Ljubljana","City":"Ig","District":"Ig","Street":"Hrenova ulica","HouseNumber":"35","PostalCode":"1292","AdditionalData":[{"value":"Slovenija","key":"CountryName"},{"value":"Ljubljana","key":"CountyName"}]},"MapReference":{"ReferenceId":"710330100","Spot":0.14,"SideOfStreet":"left","CountryId":"20633685","CountyId":"20637391","CityId":"22689844","DistrictId":"22695770","AddressId":"406919006","RoadLinkId":"115544008"}}},{"Relevance":1.0,"Distance":75.2,"MatchLevel":"street","MatchQuality":{"Country":1.0,"County":1.0,"City":1.0,"District":1.0,"PostalCode":1.0},"Location":{"LocationId":"NT_fn6D-azUjoqEsQnzjUkgPD_l_1256552529_L","LocationType":"point","DisplayPosition":{"Latitude":45.95972,"Longitude":14.5284},"MapView":{"TopLeft":{"Latitude":45.95972,"Longitude":14.52808},"BottomRight":{"Latitude":45.95967,"Longitude":14.5284}},"Address":{"Label":"SI- 1292 Ig, Slovenija","Country":"SVN","County":"Ljubljana","City":"Ig","District":"Ig","PostalCode":"1292","AdditionalData":[{"value":"Slovenija","key":"CountryName"},{"value":"Ljubljana","key":"CountyName"}]},"MapReference":{"ReferenceId":"1256552529","Spot":1.0,"SideOfStreet":"left","CountryId":"20633685","CountyId":"20637391","CityId":"22689844","DistrictId":"22695770"}}},{"Relevance":1.0,"Distance":76.8,"MatchLevel":"houseNumber","MatchQuality":{"Country":1.0,"County":1.0,"City":1.0,"District":1.0,"Street":[1.0],"HouseNumber":1.0,"PostalCode":1.0},"MatchType":"interpolated","Location":{"LocationId":"NT_5O7Rl5qYi2Fu6kL7-hF5jC_xQD","LocationType":"point","DisplayPosition":{"Latitude":45.95959,"Longitude":14.52899},"MapView":{"TopLeft":{"Latitude":45.9607142,"Longitude":14.5273729},"BottomRight":{"Latitude":45.9584658,"Longitude":14.5306071}},"Address":{"Label":"Hrenova ulica 14, SI- 1292 Ig, Slovenija","Country":"SVN","County":"Ljubljana","City":"Ig","District":"Ig","Street":"Hrenova ulica","HouseNumber":"14","PostalCode":"1292","AdditionalData":[{"value":"Slovenija","key":"CountryName"},{"value":"Ljubljana","key":"CountyName"}]},"MapReference":{"ReferenceId":"1256195962","Spot":0.69,"SideOfStreet":"right","CountryId":"20633685","CountyId":"20637391","CityId":"22689844","DistrictId":"22695770","AddressId":"406669448","RoadLinkId":"579804595"}}},{"Relevance":1.0,"Distance":78.9,"MatchLevel":"houseNumber","MatchQuality":{"Country":1.0,"County":1.0,"City":1.0,"District":1.0,"Street":[1.0],"HouseNumber":1.0,"PostalCode":1.0},"MatchType":"interpolated","Location":{"LocationId":"NT_fUoTdT5xg-sn2kaGGSg6VA_yMD","LocationType":"point","DisplayPosition":{"Latitude":45.96074,"Longitude":14.5281},"MapView":{"TopLeft":{"Latitude":45.9618642,"Longitude":14.5264829},"BottomRight":{"Latitude":45.9596158,"Longitude":14.5297171}},"Address":{"Label":"Troštova ulica 23, SI- 1292 Ig, Slovenija","Country":"SVN","County":"Ljubljana","City":"Ig","District":"Ig","Street":"Troštova ulica","HouseNumber":"23","PostalCode":"1292","AdditionalData":[{"value":"Slovenija","key":"CountryName"},{"value":"Ljubljana","key":"CountyName"}]},"MapReference":{"ReferenceId":"1256023416","Spot":0.99,"SideOfStreet":"left","CountryId":"20633685","CountyId":"20637391","CityId":"22689844","DistrictId":"22695770","AddressId":"406888229","RoadLinkId":"579599937"}}}]}]}}