{"Response":{"MetaInfo":{"Timestamp":"2020-03-28T11:24:13.877+0000","NextPageInformation":"2"},"View":[{"_type":"SearchResultsViewType","ViewId":0,"Result":[{"Relevance":1.0,"Distance":0.0,"Direction":0.0,"MatchLevel":"city","MatchQuality":{"Country":1.0,"State":1.0,"County":1.0,"City":1.0,"PostalCode":1.0},"Location":{"LocationId":"NT_Vr-3h5d8SDO7YgOrwJq21B","LocationType":"point","DisplayPosition":{"Latitude":45.9633343,"Longitude":12.9963537},"MapView":{"TopLeft":{"Latitude":46.00987,"Longitude":12.90355},"BottomRight":{"Latitude":45.89968,"Longitude":13.0502}},"Address":{"Label":"Codroipo, Friuli-Venezia Giulia, Italia","Country":"ITA","State":"Friuli-Venezia Giulia","County":"UD","City":"Codroipo","PostalCode":"33033","AdditionalData":[{"value":"Italia","key":"CountryName"},{"value":"Friuli-Venezia Giulia","key":"StateName"},{"value":"Udine","key":"CountyName"}]},"MapReference":{"ReferenceId":"1141540410","SideOfStreet":"neither","CountryId":"20110484","StateId":"20122842","CountyId":"20122843","CityId":"20122944"}}},{"Relevance":1.0,"Distance":35.8,"MatchLevel":"street","MatchQuality":{"Country":1.0,"State":1.0,"County":1.0,"City":1.0,"PostalCode":1.0},"Location":{"LocationId":"NT_JOGttC5uFRRS6LVOC-7XgA_l_1142347886_R","LocationType":"point","DisplayPosition":{"Latitude":45.96308,"Longitude":12.99607},"MapView":{"TopLeft":{"Latitude":45.96324,"Longitude":12.99572},"BottomRight":{"Latitude":45.96262,"Longitude":12.99625}},"Address":{"Label":"33033 Codroipo UD, Italia","Country":"ITA","State":"Friuli-Venezia Giulia","County":"UD","City":"Codroipo","PostalCode":"33033","AdditionalData":[{"value":"Italia","key":"CountryName"},{"value":"Friuli-Venezia Giulia","key":"StateName"},{"value":"Udine","key":"CountyName"}]},"MapReference":{"ReferenceId":"1142347886","Spot":0.5,"SideOfStreet":"right","CountryId":"20110484","StateId":"20122842","CountyId":"20122843","CityId":"20122944"}}},{"Relevance":1.0,"Distance":50.1,"MatchLevel":"street","MatchQuality":{"Country":1.0,"State":1.0,"County":1.0,"City":1.0,"Street":[1.0],"PostalCode":1.0},"Location":{"LocationId":"NT_ExiGu8CVrKhDjhyXUWBH1D_l_1142347887_R","LocationType":"point","DisplayPosition":{"Latitude":45.96324,"Longitude":12.99572},"MapView":{"TopLeft":{"Latitude":45.96333,"Longitude":12.99568},"BottomRight":{"Latitude":45.96324,"Longitude":12.99572}},"Address":{"Label":"Via Capoluogo, 33033 Codroipo UD, Italia","Country":"ITA","State":"Friuli-Venezia Giulia","County":"UD","City":"Codroipo","Street":"Via Capoluogo","PostalCode":"33033","AdditionalData":[{"value":"Italia","key":"CountryName"},{"value":"Friuli-Venezia Giulia","key":"StateName"},{"value":"Udine","key":"CountyName"}]},"MapReference":{"ReferenceId":"1142347887","Spot":0.0,"SideOfStreet":"right","CountryId":"20110484","StateId":"20122842","CountyId":"20122843","CityId":"20122944"}}},{"Relevance":1.0,"Distance":50.1,"MatchLevel":"street","MatchQuality":{"Country":1.0,"State":1.0,"County":1.0,"City":1.0,"PostalCode":1.0},"Location":{"LocationId":"NT_JOGttC5uFRRS6LVOC-7XgA_l_1142348266_R","LocationType":"point","DisplayPosition":{"Latitude":45.96324,"Longitude":12.99572},"MapView":{"TopLeft":{"Latitude":45.96324,"Longitude":12.9953},"BottomRight":{"Latitude":45.96314,"Longitude":12.99572}},"Address":{"Label":"33033 Codroipo UD, Italia","Country":"ITA","State":"Friuli-Venezia Giulia","County":"UD","City":"Codroipo","PostalCode":"33033","AdditionalData":[{"value":"Italia","key":"CountryName"},{"value":"Friuli-Venezia Giulia","key":"StateName"},{"value":"Udine","key":"CountyName"}]},"MapReference":{"ReferenceId":"1142348266","Spot":1.0,"SideOfStreet":"right","CountryId":"20110484","StateId":"20122842","CountyId":"20122843","CityId":"20122944"}}},{"Relevance":1.0,"Distance":52.1,"MatchLevel":"street","MatchQuality":{"Country":1.0,"State":1.0,"County":1.0,"City":1.0,"Street":[1.0],"PostalCode":1.0},"Location":{"LocationId":"NT_J3u-l1kVOsyKkDutEjjz9A_l_1142347884_R","LocationType":"point","DisplayPosition":{"Latitude":45.96333,"Longitude":12.99568},"MapView":{"TopLeft":{"Latitude":45.96333,"Longitude":12.99527},"BottomRight":{"Latitude":45.96323,"Longitude":12.99568}},"Address":{"Label":"Via Francesco A. Duodo, 33033 Codroipo UD, Italia","Country":"ITA","State":"Friuli-Venezia Giulia","County":"UD","City":"Codroipo","Street":"Via Francesco A. Duodo","PostalCode":"33033","AdditionalData":[{"value":"Italia","key":"CountryName"},{"value":"Friuli-Venezia Giulia","key":"StateName"},{"value":"Udine","key":"CountyName"}]},"MapReference":{"ReferenceId":"1142347884","Spot":1.0,"SideOfStreet":"right","CountryId":"20110484","StateId":"20122842","CountyId":"20122843","CityId":"20122944"}}},{"Relevance":1.0,"Distance":53.2,"MatchLevel":"houseNumber","MatchQuality":{"Country":1.0,"State":1.0,"County":1.0,"City":1.0,"Street":[1.0],"HouseNumber":1.0,"PostalCode":1.0},"MatchType":"interpolated","Location":{"LocationId":"NT_J3u-l1kVOsyKkDutEjjz9A_4YD","LocationType":"point","DisplayPosition":{"Latitude":45.96363,"Longitude":12.99693},"MapView":{"TopLeft":{"Latitude":45.9647542,"Longitude":12.9953128},"BottomRight":{"Latitude":45.9625058,"Longitude":12.9985472}},"Address":{"Label":"Via Francesco A. Duodo, 86, 33033 Codroipo UD, Italia","Country":"ITA","State":"Friuli-Venezia Giulia","County":"UD","City":"Codroipo","Street":"Via Francesco A. Duodo","HouseNumber":"86","PostalCode":"33033","AdditionalData":[{"value":"Italia","key":"CountryName"},{"value":"Friuli-Venezia Giulia","key":"StateName"},{"value":"Udine","key":"CountyName"}]},"MapReference":{"ReferenceId":"1142347885","Spot":0.76,"SideOfStreet":"right","CountryId":"20110484","StateId":"20122842","CountyId":"20122843","CityId":"20122944","AddressId":"737839600","RoadLinkId":"447780528"}}},{"Relevance":1.0,"Distance":67.4,"MatchLevel":"street","MatchQuality":{"Country":1.0,"State":1.0,"County":1.0,"City":1.0,"Street":[1.0],"PostalCode":1.0},"Location":{"LocationId":"NT_JoiajiybEeoT9oA4py.LLC_l_1142350795_R","LocationType":"point","DisplayPosition":{"Latitude":45.9639321,"Longitude":12.9962118},"MapView":{"TopLeft":{"Latitude":45.96415,"Longitude":12.99536},"BottomRight":{"Latitude":45.96373,"Longitude":12.99713}},"Address":{"Label":"Via Alcide De Gasperi, 33033 Codroipo UD, Italia","Country":"ITA","State":"Friuli-Venezia Giulia","County":"UD","City":"Codroipo","Street":"Via Alcide De Gasperi","PostalCode":"33033","AdditionalData":[{"value":"Italia","key":"CountryName"},{"value":"Friuli-Venezia Giulia","key":"StateName"},{"value":"Udine","key":"CountyName"}]},"MapReference":{"ReferenceId":"1142350795","Spot":0.48,"SideOfStreet":"right","CountryId":"20110484","StateId":"20122842","CountyId":"20122843","CityId":"20122944"}}},{"Relevance":1.0,"Distance":84.3,"MatchLevel":"street","MatchQuality":{"Country":1.0,"State":1.0,"County":1.0,"City":1.0,"PostalCode":1.0},"Location":{"LocationId":"NT_JOGttC5uFRRS6LVOC-7XgA_l_1142348264_R","LocationType":"point","DisplayPosition":{"Latitude":45.96314,"Longitude":12.9953},"MapView":{"TopLeft":{"Latitude":45.96314,"Longitude":12.9953},"BottomRight":{"Latitude":45.96311,"Longitude":12.9953}},"Address":{"Label":"33033 Codroipo UD, Italia","Country":"ITA","State":"Friuli-Venezia Giulia","County":"UD","City":"Codroipo","PostalCode":"33033","AdditionalData":[{"value":"Italia","key":"CountryName"},{"value":"Friuli-Venezia Giulia","key":"StateName"},{"value":"Udine","key":"CountyName"}]},"MapReference":{"ReferenceId":"1142348264","Spot":1.0,"SideOfStreet":"right","CountryId":"20110484","StateId":"20122842","CountyId":"20122843","CityId":"20122944"}}},{"Relevance":1.0,"Distance":84.3,"MatchLevel":"street","MatchQuality":{"Country":1.0,"State":1.0,"County":1.0,"City":1.0,"PostalCode":1.0},"Location":{"LocationId":"NT_JOGttC5uFRRS6LVOC-7XgA_l_1142348269_R","LocationType":"point","DisplayPosition":{"Latitude":45.96314,"Longitude":12.9953},"MapView":{"TopLeft":{"Latitude":45.96314,"Longitude":12.99486},"BottomRight":{"Latitude":45.96303,"Longitude":12.9953}},"Address":{"Label":"33033 Codroipo UD, Italia","Country":"ITA","State":"Friuli-Venezia Giulia","County":"UD","City":"Codroipo","PostalCode":"33033","AdditionalData":[{"value":"Italia","key":"CountryName"},{"value":"Friuli-Venezia Giulia","key":"StateName"},{"value":"Udine","key":"CountyName"}]},"MapReference":{"ReferenceId":"1142348269","Spot":1.0,"SideOfStreet":"right","CountryId":"20110484","StateId":"20122842","CountyId":"20122843","CityId":"20122944"}}},{"Relevance":1.0,"Distance":86.8,"MatchLevel":"street","MatchQuality":{"Country":1.0,"State":1.0,"County":1.0,"City":1.0,"Street":[1.0],"PostalCode":1.0},"Location":{"LocationId":"NT_J3u-l1kVOsyKkDutEjjz9A_l_579267297_R","LocationType":"point","DisplayPosition":{"Latitude":45.96372,"Longitude":12.99733},"MapView":{"TopLeft":{"Latitude":45.96388,"Longitude":12.99733},"BottomRight":{"Latitude":45.96372,"Longitude":12.99801}},"Address":{"Label":"Via Francesco A. Duodo, 33033 Codroipo UD, Italia","Country":"ITA","State":"Friuli-Venezia Giulia","County":"UD","City":"Codroipo","Street":"Via Francesco A. Duodo","PostalCode":"33033","AdditionalData":[{"value":"Italia","key":"CountryName"},{"value":"Friuli-Venezia Giulia","key":"StateName"},{"value":"Udine","key":"CountyName"}]},"MapReference":{"ReferenceId":"579267297","Spot":0.0,"SideOfStreet":"right","CountryId":"20110484","StateId":"20122842","CountyId":"20122843","CityId":"20122944"}}}]}]}}