{"Response":{"MetaInfo":{"Timestamp":"2020-03-31T17:07:09.347+0000","NextPageInformation":"2"},"View":[{"_type":"SearchResultsViewType","ViewId":0,"Result":[{"Relevance":1.0,"Distance":0.0,"Direction":0.0,"MatchLevel":"city","MatchQuality":{"Country":1.0,"County":1.0,"City":1.0,"PostalCode":1.0},"Location":{"LocationId":"NT_rXDm49owkNxk0apueUjOQD","LocationType":"point","DisplayPosition":{"Latitude":45.9333,"Longitude":15.6833},"MapView":{"TopLeft":{"Latitude":46.05523,"Longitude":15.49075},"BottomRight":{"Latitude":45.82056,"Longitude":15.73249}},"Address":{"Label":"Brežice, Slovenija","Country":"SVN","County":"Brežice","City":"Brežice","PostalCode":"8250","AdditionalData":[{"value":"Slovenija","key":"CountryName"},{"value":"Brežice","key":"CountyName"}]},"MapReference":{"ReferenceId":"716254634","SideOfStreet":"neither","CountryId":"20633685","CountyId":"20634980","CityId":"20634981"}}},{"Relevance":1.0,"Distance":94.3,"MatchLevel":"houseNumber","MatchQuality":{"Country":1.0,"County":1.0,"City":1.0,"District":1.0,"Street":[1.0],"HouseNumber":1.0,"PostalCode":1.0},"MatchType":"interpolated","Location":{"LocationId":"NT_MTYQowVBVmq--7hd81LVoD_zQD","LocationType":"point","DisplayPosition":{"Latitude":45.93434,"Longitude":15.68295},"MapView":{"TopLeft":{"Latitude":45.9354642,"Longitude":15.6813336},"BottomRight":{"Latitude":45.9332158,"Longitude":15.6845664}},"Address":{"Label":"676 34, SI- 8258 Brežice, Slovenija","Country":"SVN","County":"Brežice","City":"Brežice","District":"Kapele","Street":"676","HouseNumber":"34","PostalCode":"8258","AdditionalData":[{"value":"Slovenija","key":"CountryName"},{"value":"Brežice","key":"CountyName"}]},"MapReference":{"ReferenceId":"710679275","Spot":0.54,"SideOfStreet":"right","CountryId":"20633685","CountyId":"20634980","CityId":"20634981","DistrictId":"22693081","AddressId":"406863780","RoadLinkId":"115901694"}}},{"Relevance":1.0,"Distance":101.0,"MatchLevel":"houseNumber","MatchQuality":{"Country":1.0,"County":1.0,"City":1.0,"District":1.0,"Street":[1.0],"HouseNumber":1.0,"PostalCode":1.0},"MatchType":"interpolated","Location":{"LocationId":"NT_MTYQowVBVmq--7hd81LVoD_zETQ","LocationType":"point","DisplayPosition":{"Latitude":45.93397,"Longitude":15.68203},"MapView":{"TopLeft":{"Latitude":45.9350942,"Longitude":15.6804136},"BottomRight":{"Latitude":45.9328458,"Longitude":15.6836464}},"Address":{"Label":"676 31A, SI- 8258 Brežice, Slovenija","Country":"SVN","County":"Brežice","City":"Brežice","District":"Kapele","Street":"676","HouseNumber":"31A","PostalCode":"8258","AdditionalData":[{"value":"Slovenija","key":"CountryName"},{"value":"Brežice","key":"CountyName"}]},"MapReference":{"ReferenceId":"920724645","Spot":0.99,"SideOfStreet":"right","CountryId":"20633685","CountyId":"20634980","CityId":"20634981","DistrictId":"22693081","AddressId":"406566678","RoadLinkId":"277666049"}}},{"Relevance":1.0,"Distance":121.1,"MatchLevel":"houseNumber","MatchQuality":{"Country":1.0,"County":1.0,"City":1.0,"District":1.0,"Street":[1.0],"HouseNumber":1.0,"PostalCode":1.0},"MatchType":"interpolated","Location":{"LocationId":"NT_MTYQowVBVmq--7hd81LVoD_zITQ","LocationType":"point","DisplayPosition":{"Latitude":45.934,"Longitude":15.6821},"MapView":{"TopLeft":{"Latitude":45.9351242,"Longitude":15.6804836},"BottomRight":{"Latitude":45.9328758,"Longitude":15.6837164}},"Address":{"Label":"676 32A, SI- 8258 Brežice, Slovenija","Country":"SVN","County":"Brežice","City":"Brežice","District":"Kapele","Street":"676","HouseNumber":"32A","PostalCode":"8258","AdditionalData":[{"value":"Slovenija","key":"CountryName"},{"value":"Brežice","key":"CountyName"}]},"MapReference":{"ReferenceId":"710685797","Spot":0.15,"SideOfStreet":"left","CountryId":"20633685","CountyId":"20634980","CityId":"20634981","DistrictId":"22693081","AddressId":"406566677","RoadLinkId":"115860609"}}},{"Relevance":1.0,"Distance":139.1,"MatchLevel":"street","MatchQuality":{"Country":1.0,"County":1.0,"City":1.0,"District":1.0,"Street":[1.0],"PostalCode":1.0},"Location":{"LocationId":"NT_WtNtbluUAtaE6JqVgiM6JB_l_1131248998_R","LocationType":"point","DisplayPosition":{"Latitude":45.93455,"Longitude":15.68337},"MapView":{"TopLeft":{"Latitude":45.93515,"Longitude":15.68337},"BottomRight":{"Latitude":45.93455,"Longitude":15.68406}},"Address":{"Label":"676, SI- 8258 Brežice, Slovenija","Country":"SVN","County":"Brežice","City":"Brežice","District":"Kapele","Street":"676","PostalCode":"8258","AdditionalData":[{"value":"Slovenija","key":"CountryName"},{"value":"Brežice","key":"CountyName"}]},"MapReference":{"ReferenceId":"1131248998","Spot":0.0,"SideOfStreet":"right","CountryId":"20633685","CountyId":"20634980","CityId":"20634981","DistrictId":"22693081"}}},{"Relevance":1.0,"Distance":146.1,"MatchLevel":"houseNumber","MatchQuality":{"Country":1.0,"County":1.0,"City":1.0,"District":1.0,"Street":[1.0],"HouseNumber":1.0,"PostalCode":1.0},"MatchType":"interpolated","Location":{"LocationId":"NT_MTYQowVBVmq--7hd81LVoD_zATQ","LocationType":"point","DisplayPosition":{"Latitude":45.93353,"Longitude":15.68126},"MapView":{"TopLeft":{"Latitude":45.9346542,"Longitude":15.6796437},"BottomRight":{"Latitude":45.9324058,"Longitude":15.6828763}},"Address":{"Label":"676 30A, SI- 8258 Brežice, Slovenija","Country":"SVN","County":"Brežice","City":"Brežice","District":"Kapele","Street":"676","HouseNumber":"30A","PostalCode":"8258","AdditionalData":[{"value":"Slovenija","key":"CountryName"},{"value":"Brežice","key":"CountyName"}]},"MapReference":{"ReferenceId":"920724644","Spot":0.42,"SideOfStreet":"right","CountryId":"20633685","CountyId":"20634980","CityId":"20634981","DistrictId":"22693081","AddressId":"406528590","RoadLinkId":"277666048"}}},{"Relevance":1.0,"Distance":147.4,"MatchLevel":"street","MatchQuality":{"Country":1.0,"County":1.0,"City":1.0,"District":1.0,"PostalCode":1.0},"Location":{"LocationId":"NT_8KAugNGgWpS362hlunDSXB_l_1131248997_R","LocationType":"point","DisplayPosition":{"Latitude":45.93367,"Longitude":15.68147},"MapView":{"TopLeft":{"Latitude":45.93381,"Longitude":15.68106},"BottomRight":{"Latitude":45.93367,"Longitude":15.68147}},"Address":{"Label":"SI- 8258 Brežice, Slovenija","Country":"SVN","County":"Brežice","City":"Brežice","District":"Kapele","PostalCode":"8258","AdditionalData":[{"value":"Slovenija","key":"CountryName"},{"value":"Brežice","key":"CountyName"}]},"MapReference":{"ReferenceId":"1131248997","Spot":0.0,"SideOfStreet":"right","CountryId":"20633685","CountyId":"20634980","CityId":"20634981","DistrictId":"22693081"}}},{"Relevance":1.0,"Distance":155.6,"MatchLevel":"houseNumber","MatchQuality":{"Country":1.0,"County":1.0,"City":1.0,"District":1.0,"Street":[1.0],"HouseNumber":1.0,"PostalCode":1.0},"MatchType":"interpolated","Location":{"LocationId":"NT_ne7UHGVj.z3msGuPq29doB_zcD","LocationType":"point","DisplayPosition":{"Latitude":45.93464,"Longitude":15.6843},"MapView":{"TopLeft":{"Latitude":45.9357642,"Longitude":15.6826836},"BottomRight":{"Latitude":45.9335158,"Longitude":15.6859164}},"Address":{"Label":"Kapele 37, SI- 8258 Brežice, Slovenija","Country":"SVN","County":"Brežice","City":"Brežice","District":"Kapele","Street":"Kapele","HouseNumber":"37","PostalCode":"8258","AdditionalData":[{"value":"Slovenija","key":"CountryName"},{"value":"Brežice","key":"CountyName"}]},"MapReference":{"ReferenceId":"923380313","Spot":0.68,"SideOfStreet":"right","CountryId":"20633685","CountyId":"20634980","CityId":"20634981","DistrictId":"22693081","AddressId":"406498373","RoadLinkId":"278921640"}}},{"Relevance":1.0,"Distance":176.4,"MatchLevel":"street","MatchQuality":{"Country":1.0,"County":1.0,"City":1.0,"District":1.0,"PostalCode":1.0},"Location":{"LocationId":"NT_eJMFyX2ZgUT4JE6qg5OjKC_l_1131254710_L","LocationType":"point","DisplayPosition":{"Latitude":45.93222,"Longitude":15.68497},"MapView":{"TopLeft":{"Latitude":45.93334,"Longitude":15.68068},"BottomRight":{"Latitude":45.92771,"Longitude":15.68807}},"Address":{"Label":"SI- 8258 Brežice, Slovenija","Country":"SVN","County":"Brežice","City":"Brežice","District":"Jereslavec","PostalCode":"8258","AdditionalData":[{"value":"Slovenija","key":"CountryName"},{"value":"Brežice","key":"CountyName"}]},"MapReference":{"ReferenceId":"1131254710","Spot":0.66,"SideOfStreet":"left","CountryId":"20633685","CountyId":"20634980","CityId":"20634981","DistrictId":"22691971"}}},{"Relevance":1.0,"Distance":186.5,"MatchLevel":"street","MatchQuality":{"Country":1.0,"County":1.0,"City":1.0,"District":1.0,"Street":[1.0],"PostalCode":1.0},"Location":{"LocationId":"NT_ne7UHGVj.z3msGuPq29doB_l_1131272274_L","LocationType":"point","DisplayPosition":{"Latitude":45.93464,"Longitude":15.68475},"MapView":{"TopLeft":{"Latitude":45.93464,"Longitude":15.68475},"BottomRight":{"Latitude":45.93438,"Longitude":15.68552}},"Address":{"Label":"Kapele, SI- 8258 Brežice, Slovenija","Country":"SVN","County":"Brežice","City":"Brežice","District":"Kapele","Street":"Kapele","PostalCode":"8258","AdditionalData":[{"value":"Slovenija","key":"CountryName"},{"value":"Brežice","key":"CountyName"}]},"MapReference":{"ReferenceId":"1131272274","Spot":1.0,"SideOfStreet":"left","CountryId":"20633685","CountyId":"20634980","CityId":"20634981","DistrictId":"22693081"}}}]}]}}