{"Response":{"MetaInfo":{"Timestamp":"2020-03-31T17:06:47.487+0000","NextPageInformation":"2"},"View":[{"_type":"SearchResultsViewType","ViewId":0,"Result":[{"Relevance":1.0,"Distance":0.0,"Direction":0.0,"MatchLevel":"city","MatchQuality":{"Country":1.0,"County":1.0,"City":1.0,"PostalCode":1.0},"Location":{"LocationId":"NT_1xFOsZbvrVCQp1dlD.juAC","LocationType":"point","DisplayPosition":{"Latitude":45.9106,"Longitude":13.7767},"MapView":{"TopLeft":{"Latitude":46.00059,"Longitude":13.73314},"BottomRight":{"Latitude":45.824,"Longitude":14.12957}},"Address":{"Label":"Ajdovščina, Slovenija","Country":"SVN","County":"Ajdovščina","City":"Ajdovščina","PostalCode":"5270","AdditionalData":[{"value":"Slovenija","key":"CountryName"},{"value":"Ajdovščina","key":"CountyName"}]},"MapReference":{"ReferenceId":"844764472","SideOfStreet":"neither","CountryId":"20633685","CountyId":"20634911","CityId":"20634912"}}},{"Relevance":1.0,"Distance":98.9,"MatchLevel":"houseNumber","MatchQuality":{"Country":1.0,"County":1.0,"City":1.0,"District":1.0,"Street":[1.0],"HouseNumber":1.0,"PostalCode":1.0},"MatchType":"interpolated","Location":{"LocationId":"NT_4Qdvc07P9x6Wn309JRztzD_4YD","LocationType":"point","DisplayPosition":{"Latitude":45.90972,"Longitude":13.77588},"MapView":{"TopLeft":{"Latitude":45.9108442,"Longitude":13.7742644},"BottomRight":{"Latitude":45.9085958,"Longitude":13.7774956}},"Address":{"Label":"Črniče 86, SI- 5262 Ajdovščina, Slovenija","Country":"SVN","County":"Ajdovščina","City":"Ajdovščina","District":"Črniče","Street":"Črniče","HouseNumber":"86","PostalCode":"5262","AdditionalData":[{"value":"Slovenija","key":"CountryName"},{"value":"Ajdovščina","key":"CountyName"}]},"MapReference":{"ReferenceId":"710418767","Spot":0.67,"SideOfStreet":"right","CountryId":"20633685","CountyId":"20634911","CityId":"20634912","DistrictId":"22690289","AddressId":"406646402","RoadLinkId":"115666379"}}},{"Relevance":1.0,"Distance":131.0,"MatchLevel":"houseNumber","MatchQuality":{"Country":1.0,"County":1.0,"City":1.0,"District":1.0,"Street":[1.0],"HouseNumber":1.0,"PostalCode":1.0},"MatchType":"interpolated","Location":{"LocationId":"NT_4Qdvc07P9x6Wn309JRztzD_l_1119180559_L_xcD","LocationType":"point","DisplayPosition":{"Latitude":45.9115728,"Longitude":13.7757445},"MapView":{"TopLeft":{"Latitude":45.912697,"Longitude":13.7741288},"BottomRight":{"Latitude":45.9104487,"Longitude":13.7773602}},"Address":{"Label":"Črniče 17, SI- 5262 Ajdovščina, Slovenija","Country":"SVN","County":"Ajdovščina","City":"Ajdovščina","District":"Črniče","Street":"Črniče","HouseNumber":"17","PostalCode":"5262","AdditionalData":[{"value":"Slovenija","key":"CountryName"},{"value":"Ajdovščina","key":"CountyName"}]},"MapReference":{"ReferenceId":"1119180559","Spot":0.49,"SideOfStreet":"left","CountryId":"20633685","CountyId":"20634911","CityId":"20634912","DistrictId":"22690289"}}},{"Relevance":1.0,"Distance":135.7,"MatchLevel":"houseNumber","MatchQuality":{"Country":1.0,"County":1.0,"City":1.0,"District":1.0,"Street":[1.0],"HouseNumber":1.0,"PostalCode":1.0},"MatchType":"interpolated","Location":{"LocationId":"NT_4Qdvc07P9x6Wn309JRztzD_4QTQ","LocationType":"point","DisplayPosition":{"Latitude":45.91105,"Longitude":13.77507},"MapView":{"TopLeft":{"Latitude":45.9121742,"Longitude":13.7734543},"BottomRight":{"Latitude":45.9099258,"Longitude":13.7766857}},"Address":{"Label":"Črniče 84A, SI- 5262 Ajdovščina, Slovenija","Country":"SVN","County":"Ajdovščina","City":"Ajdovščina","District":"Črniče","Street":"Črniče","HouseNumber":"84A","PostalCode":"5262","AdditionalData":[{"value":"Slovenija","key":"CountryName"},{"value":"Ajdovščina","key":"CountyName"}]},"MapReference":{"ReferenceId":"710431764","Spot":0.68,"SideOfStreet":"left","CountryId":"20633685","CountyId":"20634911","CityId":"20634912","DistrictId":"22690289","AddressId":"406540936","RoadLinkId":"115678667"}}},{"Relevance":1.0,"Distance":150.5,"MatchLevel":"houseNumber","MatchQuality":{"Country":1.0,"County":1.0,"City":1.0,"District":1.0,"Street":[1.0],"HouseNumber":1.0,"PostalCode":1.0},"MatchType":"interpolated","Location":{"LocationId":"NT_4Qdvc07P9x6Wn309JRztzD_3YD","LocationType":"point","DisplayPosition":{"Latitude":45.90944,"Longitude":13.77515},"MapView":{"TopLeft":{"Latitude":45.9105642,"Longitude":13.7735344},"BottomRight":{"Latitude":45.9083158,"Longitude":13.7767656}},"Address":{"Label":"Črniče 76, SI- 5262 Ajdovščina, Slovenija","Country":"SVN","County":"Ajdovščina","City":"Ajdovščina","District":"Črniče","Street":"Črniče","HouseNumber":"76","PostalCode":"5262","AdditionalData":[{"value":"Slovenija","key":"CountryName"},{"value":"Ajdovščina","key":"CountyName"}]},"MapReference":{"ReferenceId":"710491540","Spot":0.06,"SideOfStreet":"right","CountryId":"20633685","CountyId":"20634911","CityId":"20634912","DistrictId":"22690289","AddressId":"406572644","RoadLinkId":"115642958"}}},{"Relevance":1.0,"Distance":164.6,"MatchLevel":"houseNumber","MatchQuality":{"Country":1.0,"County":1.0,"City":1.0,"District":1.0,"Street":[1.0],"HouseNumber":1.0,"PostalCode":1.0},"MatchType":"interpolated","Location":{"LocationId":"NT_4Qdvc07P9x6Wn309JRztzD_0QTQ","LocationType":"point","DisplayPosition":{"Latitude":45.90908,"Longitude":13.77661},"MapView":{"TopLeft":{"Latitude":45.9102042,"Longitude":13.7749944},"BottomRight":{"Latitude":45.9079558,"Longitude":13.7782256}},"Address":{"Label":"Črniče 44A, SI- 5262 Ajdovščina, Slovenija","Country":"SVN","County":"Ajdovščina","City":"Ajdovščina","District":"Črniče","Street":"Črniče","HouseNumber":"44A","PostalCode":"5262","AdditionalData":[{"value":"Slovenija","key":"CountryName"},{"value":"Ajdovščina","key":"CountyName"}]},"MapReference":{"ReferenceId":"1089297589","Spot":0.15,"SideOfStreet":"right","CountryId":"20633685","CountyId":"20634911","CityId":"20634912","DistrictId":"22690289","AddressId":"406646395","RoadLinkId":"404300353"}}},{"Relevance":1.0,"Distance":167.2,"MatchLevel":"houseNumber","MatchQuality":{"Country":1.0,"County":1.0,"City":1.0,"District":1.0,"Street":[1.0],"HouseNumber":1.0,"PostalCode":1.0},"MatchType":"interpolated","Location":{"LocationId":"NT_4Qdvc07P9x6Wn309JRztzD_5AD","LocationType":"point","DisplayPosition":{"Latitude":45.90913,"Longitude":13.77757},"MapView":{"TopLeft":{"Latitude":45.9102542,"Longitude":13.7759544},"BottomRight":{"Latitude":45.9080058,"Longitude":13.7791856}},"Address":{"Label":"Črniče 90, SI- 5262 Ajdovščina, Slovenija","Country":"SVN","County":"Ajdovščina","City":"Ajdovščina","District":"Črniče","Street":"Črniče","HouseNumber":"90","PostalCode":"5262","AdditionalData":[{"value":"Slovenija","key":"CountryName"},{"value":"Ajdovščina","key":"CountyName"}]},"MapReference":{"ReferenceId":"710445689","Spot":0.1,"SideOfStreet":"left","CountryId":"20633685","CountyId":"20634911","CityId":"20634912","DistrictId":"22690289","AddressId":"406631371","RoadLinkId":"115660985"}}},{"Relevance":1.0,"Distance":182.6,"MatchLevel":"street","MatchQuality":{"Country":1.0,"County":1.0,"City":1.0,"District":1.0,"Street":[1.0],"PostalCode":1.0},"Location":{"LocationId":"NT_DWCrhVp1ropw8ADsVEMFUA_l_1089297590_R","LocationType":"point","DisplayPosition":{"Latitude":45.90896,"Longitude":13.77682},"MapView":{"TopLeft":{"Latitude":45.90896,"Longitude":13.77682},"BottomRight":{"Latitude":45.90849,"Longitude":13.77724}},"Address":{"Label":"Rnie, SI- 5262 Ajdovščina, Slovenija","Country":"SVN","County":"Ajdovščina","City":"Ajdovščina","District":"Črniče","Street":"Rnie","PostalCode":"5262","AdditionalData":[{"value":"Slovenija","key":"CountryName"},{"value":"Ajdovščina","key":"CountyName"}]},"MapReference":{"ReferenceId":"1089297590","Spot":1.0,"SideOfStreet":"right","CountryId":"20633685","CountyId":"20634911","CityId":"20634912","DistrictId":"22690289"}}},{"Relevance":1.0,"Distance":182.6,"MatchLevel":"street","MatchQuality":{"Country":1.0,"County":1.0,"City":1.0,"District":1.0,"Street":[1.0],"PostalCode":1.0},"Location":{"LocationId":"NT_4Qdvc07P9x6Wn309JRztzD_l_1089297588_L","LocationType":"point","DisplayPosition":{"Latitude":45.90896,"Longitude":13.77682},"MapView":{"TopLeft":{"Latitude":45.90896,"Longitude":13.77682},"BottomRight":{"Latitude":45.90896,"Longitude":13.77718}},"Address":{"Label":"Črniče, SI- 5262 Ajdovščina, Slovenija","Country":"SVN","County":"Ajdovščina","City":"Ajdovščina","District":"Črniče","Street":"Črniče","PostalCode":"5262","AdditionalData":[{"value":"Slovenija","key":"CountryName"},{"value":"Ajdovščina","key":"CountyName"}]},"MapReference":{"ReferenceId":"1089297588","Spot":0.0,"SideOfStreet":"left","CountryId":"20633685","CountyId":"20634911","CityId":"20634912","DistrictId":"22690289"}}},{"Relevance":1.0,"Distance":186.1,"MatchLevel":"street","MatchQuality":{"Country":1.0,"County":1.0,"City":1.0,"District":1.0,"Street":[1.0],"PostalCode":1.0},"Location":{"LocationId":"NT_4Qdvc07P9x6Wn309JRztzD_l_710480052_R","LocationType":"point","DisplayPosition":{"Latitude":45.90896,"Longitude":13.77718},"MapView":{"TopLeft":{"Latitude":45.90896,"Longitude":13.77718},"BottomRight":{"Latitude":45.90894,"Longitude":13.77727}},"Address":{"Label":"Črniče, SI- 5262 Ajdovščina, Slovenija","Country":"SVN","County":"Ajdovščina","City":"Ajdovščina","District":"Črniče","Street":"Črniče","PostalCode":"5262","AdditionalData":[{"value":"Slovenija","key":"CountryName"},{"value":"Ajdovščina","key":"CountyName"}]},"MapReference":{"ReferenceId":"710480052","Spot":1.0,"SideOfStreet":"right","CountryId":"20633685","CountyId":"20634911","CityId":"20634912","DistrictId":"22690289"}}}]}]}}