{"Response":{"MetaInfo":{"Timestamp":"2020-03-28T10:28:24.775+0000","NextPageInformation":"2"},"View":[{"_type":"SearchResultsViewType","ViewId":0,"Result":[{"Relevance":1.0,"Distance":0.0,"Direction":0.0,"MatchLevel":"city","MatchQuality":{"Country":1.0,"State":1.0,"County":1.0,"City":1.0,"PostalCode":1.0},"Location":{"LocationId":"NT_1fDjZzV9-mM-TkIPPqRGpB","LocationType":"point","DisplayPosition":{"Latitude":45.98458,"Longitude":3.086283},"MapView":{"TopLeft":{"Latitude":46.01115,"Longitude":3.04111},"BottomRight":{"Latitude":45.96505,"Longitude":3.1227}},"Address":{"Label":"Combronde, Auvergne-Rhône-Alpes, France","Country":"FRA","State":"Auvergne-Rhône-Alpes","County":"Puy-de-Dôme","City":"Combronde","PostalCode":"63460","AdditionalData":[{"value":"France","key":"CountryName"},{"value":"Auvergne-Rhône-Alpes","key":"StateName"},{"value":"Puy-de-Dôme","key":"CountyName"}]},"MapReference":{"ReferenceId":"583849959","SideOfStreet":"neither","CountryId":"20000001","StateId":"20006029","CountyId":"20052821","CityId":"20103516"}}},{"Relevance":1.0,"Distance":22.6,"MatchLevel":"street","MatchQuality":{"Country":1.0,"State":1.0,"County":1.0,"City":1.0,"Street":[1.0],"PostalCode":1.0},"Location":{"LocationId":"NT_LAyrGFX5aGPq9fIjh4CAtB_l_583849967_L","LocationType":"point","DisplayPosition":{"Latitude":45.984377,"Longitude":3.0863036},"MapView":{"TopLeft":{"Latitude":45.98445,"Longitude":3.08594},"BottomRight":{"Latitude":45.98434,"Longitude":3.08736}},"Address":{"Label":"Rue des Anciens Combattants d'A.F.N., 63460 Combronde, France","Country":"FRA","State":"Auvergne-Rhône-Alpes","County":"Puy-de-Dôme","City":"Combronde","Street":"Rue des Anciens Combattants d'A.F.N.","PostalCode":"63460","AdditionalData":[{"value":"France","key":"CountryName"},{"value":"Auvergne-Rhône-Alpes","key":"StateName"},{"value":"Puy-de-Dôme","key":"CountyName"}]},"MapReference":{"ReferenceId":"583849967","Spot":0.26,"SideOfStreet":"left","CountryId":"20000001","StateId":"20006029","CountyId":"20052821","CityId":"20103516"}}},{"Relevance":1.0,"Distance":32.3,"MatchLevel":"houseNumber","MatchQuality":{"Country":1.0,"State":1.0,"County":1.0,"City":1.0,"Street":[1.0],"HouseNumber":1.0,"PostalCode":1.0},"MatchType":"interpolated","Location":{"LocationId":"NT_2ccUU-SbnuSGtNBWKpMJkB_xID","LocationType":"point","DisplayPosition":{"Latitude":45.98484,"Longitude":3.08592},"MapView":{"TopLeft":{"Latitude":45.9859642,"Longitude":3.0843022},"BottomRight":{"Latitude":45.9837158,"Longitude":3.0875378}},"Address":{"Label":"12 Rue de Lachamp, 63460 Combronde, France","Country":"FRA","State":"Auvergne-Rhône-Alpes","County":"Puy-de-Dôme","City":"Combronde","Street":"Rue de Lachamp","HouseNumber":"12","PostalCode":"63460","AdditionalData":[{"value":"France","key":"CountryName"},{"value":"Auvergne-Rhône-Alpes","key":"StateName"},{"value":"Puy-de-Dôme","key":"CountyName"}]},"MapReference":{"ReferenceId":"984117914","Spot":0.39,"SideOfStreet":"right","CountryId":"20000001","StateId":"20006029","CountyId":"20052821","CityId":"20103516","AddressId":"321456917","RoadLinkId":"315335663"}}},{"Relevance":1.0,"Distance":37.6,"MatchLevel":"street","MatchQuality":{"Country":1.0,"State":1.0,"County":1.0,"City":1.0,"PostalCode":1.0},"Location":{"LocationId":"NT_CRF3QaqZKo8vTSZlBu8XYA_l_583854203_R","LocationType":"point","DisplayPosition":{"Latitude":45.98434,"Longitude":3.08594},"MapView":{"TopLeft":{"Latitude":45.9871,"Longitude":3.08126},"BottomRight":{"Latitude":45.98434,"Longitude":3.08594}},"Address":{"Label":"63460 Combronde, France","Country":"FRA","State":"Auvergne-Rhône-Alpes","County":"Puy-de-Dôme","City":"Combronde","PostalCode":"63460","AdditionalData":[{"value":"France","key":"CountryName"},{"value":"Auvergne-Rhône-Alpes","key":"StateName"},{"value":"Puy-de-Dôme","key":"CountyName"}]},"MapReference":{"ReferenceId":"583854203","Spot":0.0,"SideOfStreet":"right","CountryId":"20000001","StateId":"20006029","CountyId":"20052821","CityId":"20103516"}}},{"Relevance":1.0,"Distance":56.8,"MatchLevel":"houseNumber","MatchQuality":{"Country":1.0,"State":1.0,"County":1.0,"City":1.0,"Street":[1.0],"HouseNumber":1.0,"PostalCode":1.0},"MatchType":"interpolated","Location":{"LocationId":"NT_pJ0u4P3txGqbLDypZroDlA_l_547058251_L_xcD","LocationType":"point","DisplayPosition":{"Latitude":45.9841281,"Longitude":3.08594},"MapView":{"TopLeft":{"Latitude":45.9852522,"Longitude":3.0843222},"BottomRight":{"Latitude":45.9830039,"Longitude":3.0875578}},"Address":{"Label":"17 Rue de Laschamps, 63460 Combronde, France","Country":"FRA","State":"Auvergne-Rhône-Alpes","County":"Puy-de-Dôme","City":"Combronde","Street":"Rue de Laschamps","HouseNumber":"17","PostalCode":"63460","AdditionalData":[{"value":"France","key":"CountryName"},{"value":"Auvergne-Rhône-Alpes","key":"StateName"},{"value":"Puy-de-Dôme","key":"CountyName"}]},"MapReference":{"ReferenceId":"547058251","Spot":0.51,"SideOfStreet":"left","CountryId":"20000001","StateId":"20006029","CountyId":"20052821","CityId":"20103516"}}},{"Relevance":1.0,"Distance":74.1,"MatchLevel":"houseNumber","MatchQuality":{"Country":1.0,"State":1.0,"County":1.0,"City":1.0,"Street":[1.0],"HouseNumber":1.0,"PostalCode":1.0},"MatchType":"interpolated","Location":{"LocationId":"NT_B3HTBAWJkJqhIOt7Fy.MmC_xMTN","LocationType":"point","DisplayPosition":{"Latitude":45.98476,"Longitude":3.08726},"MapView":{"TopLeft":{"Latitude":45.9858842,"Longitude":3.0856422},"BottomRight":{"Latitude":45.9836358,"Longitude":3.0888778}},"Address":{"Label":"135 Avenue Étienne Clémentel, 63460 Combronde, France","Country":"FRA","State":"Auvergne-Rhône-Alpes","County":"Puy-de-Dôme","City":"Combronde","Street":"Avenue Étienne Clémentel","HouseNumber":"135","PostalCode":"63460","AdditionalData":[{"value":"France","key":"CountryName"},{"value":"Auvergne-Rhône-Alpes","key":"StateName"},{"value":"Puy-de-Dôme","key":"CountyName"}]},"MapReference":{"ReferenceId":"827081557","Spot":0.89,"SideOfStreet":"left","CountryId":"20000001","StateId":"20006029","CountyId":"20052821","CityId":"20103516","AddressId":"570084017","RoadLinkId":"212276872"}}},{"Relevance":1.0,"Distance":84.5,"MatchLevel":"street","MatchQuality":{"Country":1.0,"State":1.0,"County":1.0,"City":1.0,"Street":[1.0],"PostalCode":1.0},"Location":{"LocationId":"NT_A7dxyKLmaSp6LoRD5aRhOB_l_979287714_L","LocationType":"point","DisplayPosition":{"Latitude":45.98445,"Longitude":3.08736},"MapView":{"TopLeft":{"Latitude":45.98445,"Longitude":3.08736},"BottomRight":{"Latitude":45.98427,"Longitude":3.08742}},"Address":{"Label":"Avenue Étienne Clémentel, 63460 Combronde, France","Country":"FRA","State":"Auvergne-Rhône-Alpes","County":"Puy-de-Dôme","City":"Combronde","Street":"Avenue Étienne Clémentel","PostalCode":"63460","AdditionalData":[{"value":"France","key":"CountryName"},{"value":"Auvergne-Rhône-Alpes","key":"StateName"},{"value":"Puy-de-Dôme","key":"CountyName"}]},"MapReference":{"ReferenceId":"979287714","Spot":1.0,"SideOfStreet":"left","CountryId":"20000001","StateId":"20006029","CountyId":"20052821","CityId":"20103516"}}},{"Relevance":1.0,"Distance":86.0,"MatchLevel":"houseNumber","MatchQuality":{"Country":1.0,"State":1.0,"County":1.0,"City":1.0,"Street":[1.0],"HouseNumber":1.0,"PostalCode":1.0},"MatchType":"interpolated","Location":{"LocationId":"NT_B3HTBAWJkJqhIOt7Fy.MmC_xQTM","LocationType":"point","DisplayPosition":{"Latitude":45.98512,"Longitude":3.0872},"MapView":{"TopLeft":{"Latitude":45.9862442,"Longitude":3.0855822},"BottomRight":{"Latitude":45.9839958,"Longitude":3.0888178}},"Address":{"Label":"141 Avenue Étienne Clémentel, 63460 Combronde, France","Country":"FRA","State":"Auvergne-Rhône-Alpes","County":"Puy-de-Dôme","City":"Combronde","Street":"Avenue Étienne Clémentel","HouseNumber":"141","PostalCode":"63460","AdditionalData":[{"value":"France","key":"CountryName"},{"value":"Auvergne-Rhône-Alpes","key":"StateName"},{"value":"Puy-de-Dôme","key":"CountyName"}]},"MapReference":{"ReferenceId":"827081558","Spot":0.87,"SideOfStreet":"left","CountryId":"20000001","StateId":"20006029","CountyId":"20052821","CityId":"20103516","AddressId":"570093460","RoadLinkId":"212276873"}}},{"Relevance":1.0,"Distance":99.4,"MatchLevel":"street","MatchQuality":{"Country":1.0,"State":1.0,"County":1.0,"City":1.0,"Street":[1.0],"PostalCode":1.0},"Location":{"LocationId":"NT_y.iO4Gej4jpCd.zzhWBptB_l_57828866_L","LocationType":"point","DisplayPosition":{"Latitude":45.985346,"Longitude":3.0869469},"MapView":{"TopLeft":{"Latitude":45.98618,"Longitude":3.08578},"BottomRight":{"Latitude":45.98517,"Longitude":3.0872}},"Address":{"Label":"Route de Montcel, 63460 Combronde, France","Country":"FRA","State":"Auvergne-Rhône-Alpes","County":"Puy-de-Dôme","City":"Combronde","Street":"Route de Montcel","PostalCode":"63460","AdditionalData":[{"value":"France","key":"CountryName"},{"value":"Auvergne-Rhône-Alpes","key":"StateName"},{"value":"Puy-de-Dôme","key":"CountyName"}]},"MapReference":{"ReferenceId":"57828866","Spot":0.18,"SideOfStreet":"left","CountryId":"20000001","StateId":"20006029","CountyId":"20052821","CityId":"20103516"}}},{"Relevance":1.0,"Distance":104.8,"MatchLevel":"houseNumber","MatchQuality":{"Country":1.0,"State":1.0,"County":1.0,"City":1.0,"Street":[1.0],"HouseNumber":1.0,"PostalCode":1.0},"MatchType":"interpolated","Location":{"LocationId":"NT_B3HTBAWJkJqhIOt7Fy.MmC_xQzM","LocationType":"point","DisplayPosition":{"Latitude":45.98532,"Longitude":3.08719},"MapView":{"TopLeft":{"Latitude":45.9864442,"Longitude":3.0855721},"BottomRight":{"Latitude":45.9841958,"Longitude":3.0888079}},"Address":{"Label":"143 Avenue Étienne Clémentel, 63460 Combronde, France","Country":"FRA","State":"Auvergne-Rhône-Alpes","County":"Puy-de-Dôme","City":"Combronde","Street":"Avenue Étienne Clémentel","HouseNumber":"143","PostalCode":"63460","AdditionalData":[{"value":"France","key":"CountryName"},{"value":"Auvergne-Rhône-Alpes","key":"StateName"},{"value":"Puy-de-Dôme","key":"CountyName"}]},"MapReference":{"ReferenceId":"583854078","Spot":0.12,"SideOfStreet":"left","CountryId":"20000001","StateId":"20006029","CountyId":"20052821","CityId":"20103516","AddressId":"321402834","RoadLinkId":"53014458"}}}]}]}}