{"Response":{"MetaInfo":{"Timestamp":"2020-03-31T17:07:10.114+0000","NextPageInformation":"2"},"View":[{"_type":"SearchResultsViewType","ViewId":0,"Result":[{"Relevance":1.0,"Distance":0.0,"Direction":0.0,"MatchLevel":"city","MatchQuality":{"Country":1.0,"County":1.0,"City":1.0,"PostalCode":1.0},"Location":{"LocationId":"NT_rXDm49owkNxk0apueUjOQD","LocationType":"point","DisplayPosition":{"Latitude":45.9,"Longitude":15.5667},"MapView":{"TopLeft":{"Latitude":46.05523,"Longitude":15.49075},"BottomRight":{"Latitude":45.82056,"Longitude":15.73249}},"Address":{"Label":"Brežice, Slovenija","Country":"SVN","County":"Brežice","City":"Brežice","PostalCode":"8250","AdditionalData":[{"value":"Slovenija","key":"CountryName"},{"value":"Brežice","key":"CountyName"}]},"MapReference":{"ReferenceId":"716254634","SideOfStreet":"neither","CountryId":"20633685","CountyId":"20634980","CityId":"20634981"}}},{"Relevance":1.0,"Distance":109.3,"MatchLevel":"street","MatchQuality":{"Country":1.0,"County":1.0,"City":1.0,"District":1.0,"PostalCode":1.0},"Location":{"LocationId":"NT_s1vQh2YTmuZ413X9.H1qUA_l_1176675724_L","LocationType":"point","DisplayPosition":{"Latitude":45.8993693,"Longitude":15.5677827},"MapView":{"TopLeft":{"Latitude":45.90151,"Longitude":15.56664},"BottomRight":{"Latitude":45.8967,"Longitude":15.56916}},"Address":{"Label":"SI- 8262 Brežice, Slovenija","Country":"SVN","County":"Brežice","City":"Brežice","District":"Dolenje Skopice","PostalCode":"8262","AdditionalData":[{"value":"Slovenija","key":"CountryName"},{"value":"Brežice","key":"CountyName"}]},"MapReference":{"ReferenceId":"1176675724","Spot":0.54,"SideOfStreet":"left","CountryId":"20633685","CountyId":"20634980","CityId":"20634981","DistrictId":"22690682"}}},{"Relevance":1.0,"Distance":246.8,"MatchLevel":"street","MatchQuality":{"Country":1.0,"County":1.0,"City":1.0,"District":1.0,"PostalCode":1.0},"Location":{"LocationId":"NT_nS4U2hkbVtvWxW1bAAZqeD_l_1176675722_L","LocationType":"point","DisplayPosition":{"Latitude":45.9013283,"Longitude":15.5692545},"MapView":{"TopLeft":{"Latitude":45.90151,"Longitude":15.56916},"BottomRight":{"Latitude":45.90066,"Longitude":15.56978}},"Address":{"Label":"SI- 8262 Brežice, Slovenija","Country":"SVN","County":"Brežice","City":"Brežice","District":"Krška vas","PostalCode":"8262","AdditionalData":[{"value":"Slovenija","key":"CountryName"},{"value":"Brežice","key":"CountyName"}]},"MapReference":{"ReferenceId":"1176675722","Spot":0.81,"SideOfStreet":"left","CountryId":"20633685","CountyId":"20634980","CityId":"20634981","DistrictId":"22693600"}}},{"Relevance":1.0,"Distance":249.4,"MatchLevel":"street","MatchQuality":{"Country":1.0,"County":1.0,"City":1.0,"District":1.0,"PostalCode":1.0},"Location":{"LocationId":"NT_nS4U2hkbVtvWxW1bAAZqeD_l_710697547_L","LocationType":"point","DisplayPosition":{"Latitude":45.90066,"Longitude":15.56978},"MapView":{"TopLeft":{"Latitude":45.90066,"Longitude":15.56978},"BottomRight":{"Latitude":45.89937,"Longitude":15.57082}},"Address":{"Label":"SI- 8262 Brežice, Slovenija","Country":"SVN","County":"Brežice","City":"Brežice","District":"Krška vas","PostalCode":"8262","AdditionalData":[{"value":"Slovenija","key":"CountryName"},{"value":"Brežice","key":"CountyName"}]},"MapReference":{"ReferenceId":"710697547","Spot":1.0,"SideOfStreet":"left","CountryId":"20633685","CountyId":"20634980","CityId":"20634981","DistrictId":"22693600"}}},{"Relevance":1.0,"Distance":253.8,"MatchLevel":"street","MatchQuality":{"Country":1.0,"County":1.0,"City":1.0,"District":1.0,"PostalCode":1.0},"Location":{"LocationId":"NT_nS4U2hkbVtvWxW1bAAZqeD_l_1176675723_L","LocationType":"point","DisplayPosition":{"Latitude":45.90151,"Longitude":15.56916},"MapView":{"TopLeft":{"Latitude":45.90268,"Longitude":15.56874},"BottomRight":{"Latitude":45.90151,"Longitude":15.56916}},"Address":{"Label":"SI- 8262 Brežice, Slovenija","Country":"SVN","County":"Brežice","City":"Brežice","District":"Krška vas","PostalCode":"8262","AdditionalData":[{"value":"Slovenija","key":"CountryName"},{"value":"Brežice","key":"CountyName"}]},"MapReference":{"ReferenceId":"1176675723","Spot":0.0,"SideOfStreet":"left","CountryId":"20633685","CountyId":"20634980","CityId":"20634981","DistrictId":"22693600"}}},{"Relevance":1.0,"Distance":269.4,"MatchLevel":"street","MatchQuality":{"Country":1.0,"County":1.0,"City":1.0,"District":1.0,"Street":[1.0],"PostalCode":1.0},"Location":{"LocationId":"NT_tcvaY0SB1eBhX.3UI9akeC_l_1176621035_R","LocationType":"point","DisplayPosition":{"Latitude":45.8980291,"Longitude":15.5646744},"MapView":{"TopLeft":{"Latitude":45.90156,"Longitude":15.55743},"BottomRight":{"Latitude":45.8967,"Longitude":15.56664}},"Address":{"Label":"Dolenje Skopice, SI- 8262 Brežice, Slovenija","Country":"SVN","County":"Brežice","City":"Brežice","District":"Dolenje Skopice","Street":"Dolenje Skopice","PostalCode":"8262","AdditionalData":[{"value":"Slovenija","key":"CountryName"},{"value":"Brežice","key":"CountyName"}]},"MapReference":{"ReferenceId":"1176621035","Spot":0.23,"SideOfStreet":"right","CountryId":"20633685","CountyId":"20634980","CityId":"20634981","DistrictId":"22690682"}}},{"Relevance":1.0,"Distance":342.2,"MatchLevel":"street","MatchQuality":{"Country":1.0,"County":1.0,"City":1.0,"District":1.0,"Street":[1.0],"PostalCode":1.0},"Location":{"LocationId":"NT_.fxsejjyKkBtfgjQzgk6QA_l_1234762291_L","LocationType":"point","DisplayPosition":{"Latitude":45.90272,"Longitude":15.56877},"MapView":{"TopLeft":{"Latitude":45.90272,"Longitude":15.56877},"BottomRight":{"Latitude":45.90268,"Longitude":15.56888}},"Address":{"Label":"A2, SI- 8262 Brežice, Slovenija","Country":"SVN","County":"Brežice","City":"Brežice","District":"Dolenje Skopice","Street":"A2","PostalCode":"8262","AdditionalData":[{"value":"Slovenija","key":"CountryName"},{"value":"Brežice","key":"CountyName"}]},"MapReference":{"ReferenceId":"1234762291","Spot":1.0,"SideOfStreet":"left","CountryId":"20633685","CountyId":"20634980","CityId":"20634981","DistrictId":"22690682"}}},{"Relevance":1.0,"Distance":342.4,"MatchLevel":"street","MatchQuality":{"Country":1.0,"County":1.0,"City":1.0,"District":1.0,"Street":[1.0],"PostalCode":1.0},"Location":{"LocationId":"NT_.fxsejjyKkBtfgjQzgk6QA_l_1234762294_L","LocationType":"point","DisplayPosition":{"Latitude":45.90268,"Longitude":15.56888},"MapView":{"TopLeft":{"Latitude":45.90268,"Longitude":15.56888},"BottomRight":{"Latitude":45.90266,"Longitude":15.56894}},"Address":{"Label":"A2, SI- 8262 Brežice, Slovenija","Country":"SVN","County":"Brežice","City":"Brežice","District":"Dolenje Skopice","Street":"A2","PostalCode":"8262","AdditionalData":[{"value":"Slovenija","key":"CountryName"},{"value":"Brežice","key":"CountyName"}]},"MapReference":{"ReferenceId":"1234762294","Spot":1.0,"SideOfStreet":"left","CountryId":"20633685","CountyId":"20634980","CityId":"20634981","DistrictId":"22690682"}}},{"Relevance":1.0,"Distance":342.4,"MatchLevel":"street","MatchQuality":{"Country":1.0,"County":1.0,"City":1.0,"District":1.0,"PostalCode":1.0},"Location":{"LocationId":"NT_nS4U2hkbVtvWxW1bAAZqeD_l_815328436_L","LocationType":"point","DisplayPosition":{"Latitude":45.90268,"Longitude":15.56888},"MapView":{"TopLeft":{"Latitude":45.90277,"Longitude":15.56888},"BottomRight":{"Latitude":45.90268,"Longitude":15.56895}},"Address":{"Label":"SI- 8262 Brežice, Slovenija","Country":"SVN","County":"Brežice","City":"Brežice","District":"Krška vas","PostalCode":"8262","AdditionalData":[{"value":"Slovenija","key":"CountryName"},{"value":"Brežice","key":"CountyName"}]},"MapReference":{"ReferenceId":"815328436","Spot":0.0,"SideOfStreet":"left","CountryId":"20633685","CountyId":"20634980","CityId":"20634981","DistrictId":"22693600"}}},{"Relevance":1.0,"Distance":342.8,"MatchLevel":"street","MatchQuality":{"Country":1.0,"County":1.0,"City":1.0,"District":1.0,"Street":[1.0],"PostalCode":1.0},"Location":{"LocationId":"NT_.fxsejjyKkBtfgjQzgk6QA_l_1234762293_L","LocationType":"point","DisplayPosition":{"Latitude":45.90266,"Longitude":15.56894},"MapView":{"TopLeft":{"Latitude":45.90266,"Longitude":15.56894},"BottomRight":{"Latitude":45.89824,"Longitude":15.57781}},"Address":{"Label":"A2, SI- 8262 Brežice, Slovenija","Country":"SVN","County":"Brežice","City":"Brežice","District":"Dolenje Skopice","Street":"A2","PostalCode":"8262","AdditionalData":[{"value":"Slovenija","key":"CountryName"},{"value":"Brežice","key":"CountyName"}]},"MapReference":{"ReferenceId":"1234762293","Spot":1.0,"SideOfStreet":"left","CountryId":"20633685","CountyId":"20634980","CityId":"20634981","DistrictId":"22690682"}}}]}]}}