{"Response":{"MetaInfo":{"Timestamp":"2020-03-31T17:05:03.100+0000","NextPageInformation":"2"},"View":[{"_type":"SearchResultsViewType","ViewId":0,"Result":[{"Relevance":1.0,"Distance":0.0,"Direction":0.0,"MatchLevel":"district","MatchQuality":{"Country":1.0,"County":1.0,"City":1.0,"District":1.0,"PostalCode":1.0},"Location":{"LocationId":"NT_bKOU1rniMyg75dtge6ZhgB","LocationType":"point","DisplayPosition":{"Latitude":45.9717,"Longitude":14.9104},"MapView":{"TopLeft":{"Latitude":45.98209,"Longitude":14.89377},"BottomRight":{"Latitude":45.96317,"Longitude":14.92521}},"Address":{"Label":"Primskovo, Šmartno pri Litiji, Slovenija","Country":"SVN","County":"Litija","City":"Šmartno pri Litiji","District":"Primskovo","PostalCode":"1276","AdditionalData":[{"value":"Slovenija","key":"CountryName"},{"value":"Litija","key":"CountyName"}]},"MapReference":{"ReferenceId":"710522991","SideOfStreet":"neither","CountryId":"20633685","CountyId":"20637220","CityId":"23475553","DistrictId":"22693749"}}},{"Relevance":1.0,"Distance":11.0,"MatchLevel":"houseNumber","MatchQuality":{"Country":1.0,"County":1.0,"City":1.0,"District":1.0,"Street":[1.0],"HouseNumber":1.0,"PostalCode":1.0},"MatchType":"interpolated","Location":{"LocationId":"NT_Pt6pRUzMKMpiK9cr2Su1.D_2A","LocationType":"point","DisplayPosition":{"Latitude":45.97172,"Longitude":14.91054},"MapView":{"TopLeft":{"Latitude":45.9728442,"Longitude":14.9089225},"BottomRight":{"Latitude":45.9705958,"Longitude":14.9121575}},"Address":{"Label":"Primskovo 6, SI- 1276 Šmartno pri Litiji, Slovenija","Country":"SVN","County":"Litija","City":"Šmartno pri Litiji","District":"Primskovo","Street":"Primskovo","HouseNumber":"6","PostalCode":"1276","AdditionalData":[{"value":"Slovenija","key":"CountryName"},{"value":"Litija","key":"CountyName"}]},"MapReference":{"ReferenceId":"710522991","Spot":0.97,"SideOfStreet":"right","CountryId":"20633685","CountyId":"20637220","CityId":"23475553","DistrictId":"22693749","AddressId":"406709937","RoadLinkId":"115781530"}}},{"Relevance":1.0,"Distance":105.0,"MatchLevel":"houseNumber","MatchQuality":{"Country":1.0,"County":1.0,"City":1.0,"District":1.0,"Street":[1.0],"HouseNumber":1.0,"PostalCode":1.0},"MatchType":"interpolated","Location":{"LocationId":"NT_Pt6pRUzMKMpiK9cr2Su1.D_3A","LocationType":"point","DisplayPosition":{"Latitude":45.97237,"Longitude":14.91116},"MapView":{"TopLeft":{"Latitude":45.9734942,"Longitude":14.9095425},"BottomRight":{"Latitude":45.9712458,"Longitude":14.9127775}},"Address":{"Label":"Primskovo 7, SI- 1276 Šmartno pri Litiji, Slovenija","Country":"SVN","County":"Litija","City":"Šmartno pri Litiji","District":"Primskovo","Street":"Primskovo","HouseNumber":"7","PostalCode":"1276","AdditionalData":[{"value":"Slovenija","key":"CountryName"},{"value":"Litija","key":"CountyName"}]},"MapReference":{"ReferenceId":"710583364","Spot":1.0,"SideOfStreet":"left","CountryId":"20633685","CountyId":"20637220","CityId":"23475553","DistrictId":"22693749","AddressId":"406703772","RoadLinkId":"115739237"}}},{"Relevance":1.0,"Distance":152.4,"MatchLevel":"houseNumber","MatchQuality":{"Country":1.0,"County":1.0,"City":1.0,"District":1.0,"Street":[1.0],"HouseNumber":1.0,"PostalCode":1.0},"MatchType":"interpolated","Location":{"LocationId":"NT_Pt6pRUzMKMpiK9cr2Su1.D_4A","LocationType":"point","DisplayPosition":{"Latitude":45.97286,"Longitude":14.90935},"MapView":{"TopLeft":{"Latitude":45.9739842,"Longitude":14.9077325},"BottomRight":{"Latitude":45.9717358,"Longitude":14.9109675}},"Address":{"Label":"Primskovo 8, SI- 1276 Šmartno pri Litiji, Slovenija","Country":"SVN","County":"Litija","City":"Šmartno pri Litiji","District":"Primskovo","Street":"Primskovo","HouseNumber":"8","PostalCode":"1276","AdditionalData":[{"value":"Slovenija","key":"CountryName"},{"value":"Litija","key":"CountyName"}]},"MapReference":{"ReferenceId":"710593951","Spot":0.9,"SideOfStreet":"left","CountryId":"20633685","CountyId":"20637220","CityId":"23475553","DistrictId":"22693749","AddressId":"406664346","RoadLinkId":"115753268"}}},{"Relevance":1.0,"Distance":166.7,"MatchLevel":"street","MatchQuality":{"Country":1.0,"County":1.0,"City":1.0,"District":1.0,"Street":[1.0],"PostalCode":1.0},"Location":{"LocationId":"NT_Pt6pRUzMKMpiK9cr2Su1.D_l_710558752_L","LocationType":"point","DisplayPosition":{"Latitude":45.97295,"Longitude":14.90921},"MapView":{"TopLeft":{"Latitude":45.97303,"Longitude":14.9091},"BottomRight":{"Latitude":45.97295,"Longitude":14.90921}},"Address":{"Label":"Primskovo, SI- 1276 Šmartno pri Litiji, Slovenija","Country":"SVN","County":"Litija","City":"Šmartno pri Litiji","District":"Primskovo","Street":"Primskovo","PostalCode":"1276","AdditionalData":[{"value":"Slovenija","key":"CountryName"},{"value":"Litija","key":"CountyName"}]},"MapReference":{"ReferenceId":"710558752","Spot":0.0,"SideOfStreet":"left","CountryId":"20633685","CountyId":"20637220","CityId":"23475553","DistrictId":"22693749"}}},{"Relevance":1.0,"Distance":178.8,"MatchLevel":"street","MatchQuality":{"Country":1.0,"County":1.0,"City":1.0,"District":1.0,"Street":[1.0],"PostalCode":1.0},"Location":{"LocationId":"NT_Pt6pRUzMKMpiK9cr2Su1.D_l_710600537_R","LocationType":"point","DisplayPosition":{"Latitude":45.97303,"Longitude":14.9091},"MapView":{"TopLeft":{"Latitude":45.97303,"Longitude":14.90854},"BottomRight":{"Latitude":45.97273,"Longitude":14.9091}},"Address":{"Label":"Primskovo, SI- 1276 Šmartno pri Litiji, Slovenija","Country":"SVN","County":"Litija","City":"Šmartno pri Litiji","District":"Primskovo","Street":"Primskovo","PostalCode":"1276","AdditionalData":[{"value":"Slovenija","key":"CountryName"},{"value":"Litija","key":"CountyName"}]},"MapReference":{"ReferenceId":"710600537","Spot":1.0,"SideOfStreet":"right","CountryId":"20633685","CountyId":"20637220","CityId":"23475553","DistrictId":"22693749"}}},{"Relevance":1.0,"Distance":178.8,"MatchLevel":"street","MatchQuality":{"Country":1.0,"County":1.0,"City":1.0,"District":1.0,"PostalCode":1.0},"Location":{"LocationId":"NT_ddNeuMNhTM2VekUVpayMhA_l_1104831603_L","LocationType":"point","DisplayPosition":{"Latitude":45.97303,"Longitude":14.9091},"MapView":{"TopLeft":{"Latitude":45.97378,"Longitude":14.90778},"BottomRight":{"Latitude":45.97303,"Longitude":14.9091}},"Address":{"Label":"SI- 1276 Šmartno pri Litiji, Slovenija","Country":"SVN","County":"Litija","City":"Šmartno pri Litiji","District":"Primskovo","PostalCode":"1276","AdditionalData":[{"value":"Slovenija","key":"CountryName"},{"value":"Litija","key":"CountyName"}]},"MapReference":{"ReferenceId":"1104831603","Spot":0.0,"SideOfStreet":"left","CountryId":"20633685","CountyId":"20637220","CityId":"23475553","DistrictId":"22693749"}}},{"Relevance":1.0,"Distance":307.4,"MatchLevel":"street","MatchQuality":{"Country":1.0,"County":1.0,"City":1.0,"District":1.0,"PostalCode":1.0},"Location":{"LocationId":"NT_ddNeuMNhTM2VekUVpayMhA_l_1104831604_L","LocationType":"point","DisplayPosition":{"Latitude":45.97378,"Longitude":14.90778},"MapView":{"TopLeft":{"Latitude":45.97636,"Longitude":14.9048},"BottomRight":{"Latitude":45.97378,"Longitude":14.90778}},"Address":{"Label":"SI- 1276 Šmartno pri Litiji, Slovenija","Country":"SVN","County":"Litija","City":"Šmartno pri Litiji","District":"Primskovo","PostalCode":"1276","AdditionalData":[{"value":"Slovenija","key":"CountryName"},{"value":"Litija","key":"CountyName"}]},"MapReference":{"ReferenceId":"1104831604","Spot":0.0,"SideOfStreet":"left","CountryId":"20633685","CountyId":"20637220","CityId":"23475553","DistrictId":"22693749"}}},{"Relevance":1.0,"Distance":308.8,"MatchLevel":"houseNumber","MatchQuality":{"Country":1.0,"County":1.0,"City":1.0,"District":1.0,"Street":[1.0],"HouseNumber":1.0,"PostalCode":1.0},"MatchType":"interpolated","Location":{"LocationId":"NT_Pt6pRUzMKMpiK9cr2Su1.D_5A","LocationType":"point","DisplayPosition":{"Latitude":45.9722,"Longitude":14.90647},"MapView":{"TopLeft":{"Latitude":45.9733242,"Longitude":14.9048525},"BottomRight":{"Latitude":45.9710758,"Longitude":14.9080875}},"Address":{"Label":"Primskovo 9, SI- 1276 Šmartno pri Litiji, Slovenija","Country":"SVN","County":"Litija","City":"Šmartno pri Litiji","District":"Primskovo","Street":"Primskovo","HouseNumber":"9","PostalCode":"1276","AdditionalData":[{"value":"Slovenija","key":"CountryName"},{"value":"Litija","key":"CountyName"}]},"MapReference":{"ReferenceId":"710517872","Spot":0.0,"SideOfStreet":"left","CountryId":"20633685","CountyId":"20637220","CityId":"23475553","DistrictId":"22693749","AddressId":"406687383","RoadLinkId":"115764523"}}},{"Relevance":1.0,"Distance":349.3,"MatchLevel":"houseNumber","MatchQuality":{"Country":1.0,"County":1.0,"City":1.0,"District":1.0,"Street":[1.0],"HouseNumber":1.0,"PostalCode":1.0},"MatchType":"interpolated","Location":{"LocationId":"NT_Pt6pRUzMKMpiK9cr2Su1.D_xID","LocationType":"point","DisplayPosition":{"Latitude":45.9744,"Longitude":14.90809},"MapView":{"TopLeft":{"Latitude":45.9755242,"Longitude":14.9064725},"BottomRight":{"Latitude":45.9732758,"Longitude":14.9097075}},"Address":{"Label":"Primskovo 12, SI- 1276 Šmartno pri Litiji, Slovenija","Country":"SVN","County":"Litija","City":"Šmartno pri Litiji","District":"Primskovo","Street":"Primskovo","HouseNumber":"12","PostalCode":"1276","AdditionalData":[{"value":"Slovenija","key":"CountryName"},{"value":"Litija","key":"CountyName"}]},"MapReference":{"ReferenceId":"710604296","Spot":0.18,"SideOfStreet":"left","CountryId":"20633685","CountyId":"20637220","CityId":"23475553","DistrictId":"22693749","AddressId":"406646569","RoadLinkId":"115782853"}}}]}]}}