{"Response":{"MetaInfo":{"Timestamp":"2020-03-31T17:07:06.450+0000","NextPageInformation":"2"},"View":[{"_type":"SearchResultsViewType","ViewId":0,"Result":[{"Relevance":1.0,"Distance":0.0,"Direction":0.0,"MatchLevel":"city","MatchQuality":{"Country":1.0,"County":1.0,"City":1.0,"PostalCode":1.0},"Location":{"LocationId":"NT_UKHzSnHf-0yxBu9HKPX24B","LocationType":"point","DisplayPosition":{"Latitude":45.9342,"Longitude":15.1408},"MapView":{"TopLeft":{"Latitude":45.97966,"Longitude":15.09549},"BottomRight":{"Latitude":45.86733,"Longitude":15.22962}},"Address":{"Label":"Mokronog-Trebelno, Slovenija","Country":"SVN","County":"Trebnje","City":"Mokronog-Trebelno","PostalCode":"8230","AdditionalData":[{"value":"Slovenija","key":"CountryName"},{"value":"Trebnje","key":"CountyName"}]},"MapReference":{"ReferenceId":"710529791","SideOfStreet":"neither","CountryId":"20633685","CountyId":"20640673","CityId":"23475537"}}},{"Relevance":1.0,"Distance":67.5,"MatchLevel":"street","MatchQuality":{"Country":1.0,"County":1.0,"City":1.0,"District":1.0,"Street":[1.0],"PostalCode":1.0},"Location":{"LocationId":"NT_YNH4nbILE61ys4NQni429A_l_1103835924_L","LocationType":"point","DisplayPosition":{"Latitude":45.93474,"Longitude":15.1412},"MapView":{"TopLeft":{"Latitude":45.93474,"Longitude":15.1412},"BottomRight":{"Latitude":45.93259,"Longitude":15.1424}},"Address":{"Label":"Gubčeva cesta, SI- 8230 Mokronog-Trebelno, Slovenija","Country":"SVN","County":"Trebnje","City":"Mokronog-Trebelno","District":"Mokronog","Street":"Gubčeva cesta","PostalCode":"8230","AdditionalData":[{"value":"Slovenija","key":"CountryName"},{"value":"Trebnje","key":"CountyName"}]},"MapReference":{"ReferenceId":"1103835924","Spot":1.0,"SideOfStreet":"left","CountryId":"20633685","CountyId":"20640673","CityId":"23475537","DistrictId":"22694210"}}},{"Relevance":1.0,"Distance":69.5,"MatchLevel":"street","MatchQuality":{"Country":1.0,"County":1.0,"City":1.0,"District":1.0,"Street":[1.0],"PostalCode":1.0},"Location":{"LocationId":"NT_YNH4nbILE61ys4NQni429A_l_1103835925_L","LocationType":"point","DisplayPosition":{"Latitude":45.9347856,"Longitude":15.1411153},"MapView":{"TopLeft":{"Latitude":45.93567,"Longitude":15.14033},"BottomRight":{"Latitude":45.93474,"Longitude":15.1412}},"Address":{"Label":"Gubčeva cesta, SI- 8230 Mokronog-Trebelno, Slovenija","Country":"SVN","County":"Trebnje","City":"Mokronog-Trebelno","District":"Mokronog","Street":"Gubčeva cesta","PostalCode":"8230","AdditionalData":[{"value":"Slovenija","key":"CountryName"},{"value":"Trebnje","key":"CountyName"}]},"MapReference":{"ReferenceId":"1103835925","Spot":0.07,"SideOfStreet":"left","CountryId":"20633685","CountyId":"20640673","CityId":"23475537","DistrictId":"22694210"}}},{"Relevance":1.0,"Distance":115.9,"MatchLevel":"street","MatchQuality":{"Country":1.0,"County":1.0,"City":1.0,"District":1.0,"PostalCode":1.0},"Location":{"LocationId":"NT_b8IiXkY5VYOOffkwW.kZYA_l_837992208_R","LocationType":"point","DisplayPosition":{"Latitude":45.93449,"Longitude":15.13936},"MapView":{"TopLeft":{"Latitude":45.93483,"Longitude":15.13831},"BottomRight":{"Latitude":45.93148,"Longitude":15.13939}},"Address":{"Label":"SI- 8230 Mokronog-Trebelno, Slovenija","Country":"SVN","County":"Trebnje","City":"Mokronog-Trebelno","District":"Mokronog","PostalCode":"8230","AdditionalData":[{"value":"Slovenija","key":"CountryName"},{"value":"Trebnje","key":"CountyName"}]},"MapReference":{"ReferenceId":"837992208","Spot":0.91,"SideOfStreet":"right","CountryId":"20633685","CountyId":"20640673","CityId":"23475537","DistrictId":"22694210"}}},{"Relevance":1.0,"Distance":129.6,"MatchLevel":"street","MatchQuality":{"Country":1.0,"County":1.0,"City":1.0,"District":1.0,"PostalCode":1.0},"Location":{"LocationId":"NT_b8IiXkY5VYOOffkwW.kZYA_l_710560827_R","LocationType":"point","DisplayPosition":{"Latitude":45.93483,"Longitude":15.13939},"MapView":{"TopLeft":{"Latitude":45.93811,"Longitude":15.13939},"BottomRight":{"Latitude":45.93483,"Longitude":15.13989}},"Address":{"Label":"SI- 8230 Mokronog-Trebelno, Slovenija","Country":"SVN","County":"Trebnje","City":"Mokronog-Trebelno","District":"Mokronog","PostalCode":"8230","AdditionalData":[{"value":"Slovenija","key":"CountryName"},{"value":"Trebnje","key":"CountyName"}]},"MapReference":{"ReferenceId":"710560827","Spot":0.0,"SideOfStreet":"right","CountryId":"20633685","CountyId":"20640673","CityId":"23475537","DistrictId":"22694210"}}},{"Relevance":1.0,"Distance":206.0,"MatchLevel":"houseNumber","MatchQuality":{"Country":1.0,"County":1.0,"City":1.0,"District":1.0,"Street":[1.0],"HouseNumber":1.0,"PostalCode":1.0},"MatchType":"interpolated","Location":{"LocationId":"NT_YNH4nbILE61ys4NQni429A_yUD","LocationType":"point","DisplayPosition":{"Latitude":45.93619,"Longitude":15.14041},"MapView":{"TopLeft":{"Latitude":45.9373142,"Longitude":15.1387936},"BottomRight":{"Latitude":45.9350658,"Longitude":15.1420264}},"Address":{"Label":"Gubčeva cesta 25, SI- 8230 Mokronog-Trebelno, Slovenija","Country":"SVN","County":"Trebnje","City":"Mokronog-Trebelno","District":"Mokronog","Street":"Gubčeva cesta","HouseNumber":"25","PostalCode":"8230","AdditionalData":[{"value":"Slovenija","key":"CountryName"},{"value":"Trebnje","key":"CountyName"}]},"MapReference":{"ReferenceId":"1104038658","Spot":0.62,"SideOfStreet":"right","CountryId":"20633685","CountyId":"20640673","CityId":"23475537","DistrictId":"22694210","AddressId":"406882737","RoadLinkId":"415947522"}}},{"Relevance":1.0,"Distance":217.6,"MatchLevel":"street","MatchQuality":{"Country":1.0,"County":1.0,"City":1.0,"District":1.0,"Street":[1.0],"PostalCode":1.0},"Location":{"LocationId":"NT_uw9aGEziZFItO7OdlTEs5A_l_710586054_R","LocationType":"point","DisplayPosition":{"Latitude":45.93259,"Longitude":15.1424},"MapView":{"TopLeft":{"Latitude":45.93259,"Longitude":15.1424},"BottomRight":{"Latitude":45.93248,"Longitude":15.14264}},"Address":{"Label":"Gubčeva cesta, SI- 8231 Mokronog-Trebelno, Slovenija","Country":"SVN","County":"Trebnje","City":"Mokronog-Trebelno","District":"Mokronog","Street":"Gubčeva cesta","PostalCode":"8231","AdditionalData":[{"value":"Slovenija","key":"CountryName"},{"value":"Trebnje","key":"CountyName"}]},"MapReference":{"ReferenceId":"710586054","Spot":1.0,"SideOfStreet":"right","CountryId":"20633685","CountyId":"20640673","CityId":"23475537","DistrictId":"22694210"}}},{"Relevance":1.0,"Distance":238.4,"MatchLevel":"street","MatchQuality":{"Country":1.0,"County":1.0,"City":1.0,"District":1.0,"Street":[1.0],"PostalCode":1.0},"Location":{"LocationId":"NT_7nE.vnPzFjIlSCaGrHkjEA_l_837767572_R","LocationType":"point","DisplayPosition":{"Latitude":45.93248,"Longitude":15.14264},"MapView":{"TopLeft":{"Latitude":45.93248,"Longitude":15.14264},"BottomRight":{"Latitude":45.93188,"Longitude":15.14475}},"Address":{"Label":"Gorenji Mokronog, SI- 8231 Mokronog-Trebelno, Slovenija","Country":"SVN","County":"Trebnje","City":"Mokronog-Trebelno","District":"Mokronog","Street":"Gorenji Mokronog","PostalCode":"8231","AdditionalData":[{"value":"Slovenija","key":"CountryName"},{"value":"Trebnje","key":"CountyName"}]},"MapReference":{"ReferenceId":"837767572","Spot":1.0,"SideOfStreet":"right","CountryId":"20633685","CountyId":"20640673","CityId":"23475537","DistrictId":"22694210"}}},{"Relevance":1.0,"Distance":238.4,"MatchLevel":"street","MatchQuality":{"Country":1.0,"County":1.0,"City":1.0,"District":1.0,"PostalCode":1.0},"Location":{"LocationId":"NT_b8IiXkY5VYOOffkwW.kZYA_l_710494139_L","LocationType":"point","DisplayPosition":{"Latitude":45.93248,"Longitude":15.14264},"MapView":{"TopLeft":{"Latitude":45.93304,"Longitude":15.14264},"BottomRight":{"Latitude":45.93248,"Longitude":15.1445}},"Address":{"Label":"SI- 8230 Mokronog-Trebelno, Slovenija","Country":"SVN","County":"Trebnje","City":"Mokronog-Trebelno","District":"Mokronog","PostalCode":"8230","AdditionalData":[{"value":"Slovenija","key":"CountryName"},{"value":"Trebnje","key":"CountyName"}]},"MapReference":{"ReferenceId":"710494139","Spot":0.0,"SideOfStreet":"left","CountryId":"20633685","CountyId":"20640673","CityId":"23475537","DistrictId":"22694210"}}},{"Relevance":1.0,"Distance":257.0,"MatchLevel":"street","MatchQuality":{"Country":1.0,"County":1.0,"City":1.0,"District":1.0,"Street":[1.0],"PostalCode":1.0},"Location":{"LocationId":"NT_lSwIdvp2C28buQywAyJeNC_l_837992211_R","LocationType":"point","DisplayPosition":{"Latitude":45.93441,"Longitude":15.13749},"MapView":{"TopLeft":{"Latitude":45.93441,"Longitude":15.13641},"BottomRight":{"Latitude":45.93299,"Longitude":15.13749}},"Address":{"Label":"Pugled pri Mokronogu, SI- 8230 Mokronog-Trebelno, Slovenija","Country":"SVN","County":"Trebnje","City":"Mokronog-Trebelno","District":"Mokronog","Street":"Pugled pri Mokronogu","PostalCode":"8230","AdditionalData":[{"value":"Slovenija","key":"CountryName"},{"value":"Trebnje","key":"CountyName"}]},"MapReference":{"ReferenceId":"837992211","Spot":1.0,"SideOfStreet":"right","CountryId":"20633685","CountyId":"20640673","CityId":"23475537","DistrictId":"22694210"}}}]}]}}