{"Response":{"MetaInfo":{"Timestamp":"2020-03-28T11:27:16.352+0000","NextPageInformation":"2"},"View":[{"_type":"SearchResultsViewType","ViewId":0,"Result":[{"Relevance":1.0,"Distance":0.0,"Direction":0.0,"MatchLevel":"city","MatchQuality":{"Country":1.0,"State":1.0,"County":1.0,"City":1.0,"PostalCode":1.0},"Location":{"LocationId":"NT_bu9sgDe8p7rFzInO.kqxXD","LocationType":"point","DisplayPosition":{"Latitude":45.93608,"Longitude":13.6048536},"MapView":{"TopLeft":{"Latitude":45.98964,"Longitude":13.54809},"BottomRight":{"Latitude":45.9061,"Longitude":13.64271}},"Address":{"Label":"Gorizia, Friuli-Venezia Giulia, Italia","Country":"ITA","State":"Friuli-Venezia Giulia","County":"GO","City":"Gorizia","PostalCode":"34170","AdditionalData":[{"value":"Italia","key":"CountryName"},{"value":"Friuli-Venezia Giulia","key":"StateName"},{"value":"Gorizia","key":"CountyName"}]},"MapReference":{"ReferenceId":"544212059","SideOfStreet":"neither","CountryId":"20110484","StateId":"20122842","CountyId":"20123396","CityId":"20123421"}}},{"Relevance":1.0,"Distance":26.6,"MatchLevel":"street","MatchQuality":{"Country":1.0,"State":1.0,"County":1.0,"City":1.0,"PostalCode":1.0},"Location":{"LocationId":"NT_lY6f7UTNt63qtXyd5LJU.C_l_1214131530_L","LocationType":"point","DisplayPosition":{"Latitude":45.93587,"Longitude":13.60469},"MapView":{"TopLeft":{"Latitude":45.9359,"Longitude":13.60438},"BottomRight":{"Latitude":45.93577,"Longitude":13.60469}},"Address":{"Label":"34170 Gorizia GO, Italia","Country":"ITA","State":"Friuli-Venezia Giulia","County":"GO","City":"Gorizia","PostalCode":"34170","AdditionalData":[{"value":"Italia","key":"CountryName"},{"value":"Friuli-Venezia Giulia","key":"StateName"},{"value":"Gorizia","key":"CountyName"}]},"MapReference":{"ReferenceId":"1214131530","Spot":1.0,"SideOfStreet":"left","CountryId":"20110484","StateId":"20122842","CountyId":"20123396","CityId":"20123421"}}},{"Relevance":1.0,"Distance":30.8,"MatchLevel":"street","MatchQuality":{"Country":1.0,"State":1.0,"County":1.0,"City":1.0,"PostalCode":1.0},"Location":{"LocationId":"NT_lY6f7UTNt63qtXyd5LJU.C_l_1214131233_R","LocationType":"point","DisplayPosition":{"Latitude":45.9363439,"Longitude":13.6047318},"MapView":{"TopLeft":{"Latitude":45.93639,"Longitude":13.60382},"BottomRight":{"Latitude":45.936,"Longitude":13.60498}},"Address":{"Label":"34170 Gorizia GO, Italia","Country":"ITA","State":"Friuli-Venezia Giulia","County":"GO","City":"Gorizia","PostalCode":"34170","AdditionalData":[{"value":"Italia","key":"CountryName"},{"value":"Friuli-Venezia Giulia","key":"StateName"},{"value":"Gorizia","key":"CountyName"}]},"MapReference":{"ReferenceId":"1214131233","Spot":0.81,"SideOfStreet":"right","CountryId":"20110484","StateId":"20122842","CountyId":"20123396","CityId":"20123421"}}},{"Relevance":1.0,"Distance":43.0,"MatchLevel":"street","MatchQuality":{"Country":1.0,"State":1.0,"County":1.0,"City":1.0,"PostalCode":1.0},"Location":{"LocationId":"NT_lY6f7UTNt63qtXyd5LJU.C_l_1212410888_R","LocationType":"point","DisplayPosition":{"Latitude":45.93646,"Longitude":13.60475},"MapView":{"TopLeft":{"Latitude":45.93663,"Longitude":13.60475},"BottomRight":{"Latitude":45.93646,"Longitude":13.60489}},"Address":{"Label":"34170 Gorizia GO, Italia","Country":"ITA","State":"Friuli-Venezia Giulia","County":"GO","City":"Gorizia","PostalCode":"34170","AdditionalData":[{"value":"Italia","key":"CountryName"},{"value":"Friuli-Venezia Giulia","key":"StateName"},{"value":"Gorizia","key":"CountyName"}]},"MapReference":{"ReferenceId":"1212410888","Spot":0.0,"SideOfStreet":"right","CountryId":"20110484","StateId":"20122842","CountyId":"20123396","CityId":"20123421"}}},{"Relevance":1.0,"Distance":43.0,"MatchLevel":"street","MatchQuality":{"Country":1.0,"State":1.0,"County":1.0,"City":1.0,"PostalCode":1.0},"Location":{"LocationId":"NT_lY6f7UTNt63qtXyd5LJU.C_l_1215045882_L","LocationType":"point","DisplayPosition":{"Latitude":45.93646,"Longitude":13.60475},"MapView":{"TopLeft":{"Latitude":45.93655,"Longitude":13.60454},"BottomRight":{"Latitude":45.93646,"Longitude":13.60475}},"Address":{"Label":"34170 Gorizia GO, Italia","Country":"ITA","State":"Friuli-Venezia Giulia","County":"GO","City":"Gorizia","PostalCode":"34170","AdditionalData":[{"value":"Italia","key":"CountryName"},{"value":"Friuli-Venezia Giulia","key":"StateName"},{"value":"Gorizia","key":"CountyName"}]},"MapReference":{"ReferenceId":"1215045882","Spot":0.0,"SideOfStreet":"left","CountryId":"20110484","StateId":"20122842","CountyId":"20123396","CityId":"20123421"}}},{"Relevance":1.0,"Distance":50.3,"MatchLevel":"street","MatchQuality":{"Country":1.0,"State":1.0,"County":1.0,"City":1.0,"PostalCode":1.0},"Location":{"LocationId":"NT_lY6f7UTNt63qtXyd5LJU.C_l_1214131540_L","LocationType":"point","DisplayPosition":{"Latitude":45.93577,"Longitude":13.60438},"MapView":{"TopLeft":{"Latitude":45.93588,"Longitude":13.60382},"BottomRight":{"Latitude":45.93553,"Longitude":13.60438}},"Address":{"Label":"34170 Gorizia GO, Italia","Country":"ITA","State":"Friuli-Venezia Giulia","County":"GO","City":"Gorizia","PostalCode":"34170","AdditionalData":[{"value":"Italia","key":"CountryName"},{"value":"Friuli-Venezia Giulia","key":"StateName"},{"value":"Gorizia","key":"CountyName"}]},"MapReference":{"ReferenceId":"1214131540","Spot":1.0,"SideOfStreet":"left","CountryId":"20110484","StateId":"20122842","CountyId":"20123396","CityId":"20123421"}}},{"Relevance":1.0,"Distance":50.3,"MatchLevel":"street","MatchQuality":{"Country":1.0,"State":1.0,"County":1.0,"City":1.0,"PostalCode":1.0},"Location":{"LocationId":"NT_lY6f7UTNt63qtXyd5LJU.C_l_1214131537_R","LocationType":"point","DisplayPosition":{"Latitude":45.93577,"Longitude":13.60438},"MapView":{"TopLeft":{"Latitude":45.93577,"Longitude":13.60409},"BottomRight":{"Latitude":45.93541,"Longitude":13.60438}},"Address":{"Label":"34170 Gorizia GO, Italia","Country":"ITA","State":"Friuli-Venezia Giulia","County":"GO","City":"Gorizia","PostalCode":"34170","AdditionalData":[{"value":"Italia","key":"CountryName"},{"value":"Friuli-Venezia Giulia","key":"StateName"},{"value":"Gorizia","key":"CountyName"}]},"MapReference":{"ReferenceId":"1214131537","Spot":1.0,"SideOfStreet":"right","CountryId":"20110484","StateId":"20122842","CountyId":"20123396","CityId":"20123421"}}},{"Relevance":1.0,"Distance":57.6,"MatchLevel":"street","MatchQuality":{"Country":1.0,"State":1.0,"County":1.0,"City":1.0,"PostalCode":1.0},"Location":{"LocationId":"NT_lY6f7UTNt63qtXyd5LJU.C_l_1215045883_L","LocationType":"point","DisplayPosition":{"Latitude":45.93655,"Longitude":13.60454},"MapView":{"TopLeft":{"Latitude":45.93662,"Longitude":13.60436},"BottomRight":{"Latitude":45.93655,"Longitude":13.60454}},"Address":{"Label":"34170 Gorizia GO, Italia","Country":"ITA","State":"Friuli-Venezia Giulia","County":"GO","City":"Gorizia","PostalCode":"34170","AdditionalData":[{"value":"Italia","key":"CountryName"},{"value":"Friuli-Venezia Giulia","key":"StateName"},{"value":"Gorizia","key":"CountyName"}]},"MapReference":{"ReferenceId":"1215045883","Spot":0.0,"SideOfStreet":"left","CountryId":"20110484","StateId":"20122842","CountyId":"20123396","CityId":"20123421"}}},{"Relevance":1.0,"Distance":58.2,"MatchLevel":"houseNumber","MatchQuality":{"Country":1.0,"State":1.0,"County":1.0,"City":1.0,"Street":[1.0],"HouseNumber":1.0,"PostalCode":1.0},"MatchType":"interpolated","Location":{"LocationId":"NT_dkefBXi9P4EV1pNsWNmLWB_yAD","LocationType":"point","DisplayPosition":{"Latitude":45.93659,"Longitude":13.60502},"MapView":{"TopLeft":{"Latitude":45.9377142,"Longitude":13.6034036},"BottomRight":{"Latitude":45.9354658,"Longitude":13.6066364}},"Address":{"Label":"Via Alto Adige, 20, 34170 Gorizia GO, Italia","Country":"ITA","State":"Friuli-Venezia Giulia","County":"GO","City":"Gorizia","Street":"Via Alto Adige","HouseNumber":"20","PostalCode":"34170","AdditionalData":[{"value":"Italia","key":"CountryName"},{"value":"Friuli-Venezia Giulia","key":"StateName"},{"value":"Gorizia","key":"CountyName"}]},"MapReference":{"ReferenceId":"544211722","Spot":0.78,"SideOfStreet":"right","CountryId":"20110484","StateId":"20122842","CountyId":"20123396","CityId":"20123421","AddressId":"696793120","RoadLinkId":"58425964"}}},{"Relevance":1.0,"Distance":61.2,"MatchLevel":"street","MatchQuality":{"Country":1.0,"State":1.0,"County":1.0,"City":1.0,"Street":[1.0],"PostalCode":1.0},"Location":{"LocationId":"NT_dkefBXi9P4EV1pNsWNmLWB_l_544211721_L","LocationType":"point","DisplayPosition":{"Latitude":45.93663,"Longitude":13.60489},"MapView":{"TopLeft":{"Latitude":45.93682,"Longitude":13.60437},"BottomRight":{"Latitude":45.93663,"Longitude":13.60489}},"Address":{"Label":"Via Alto Adige, 34170 Gorizia GO, Italia","Country":"ITA","State":"Friuli-Venezia Giulia","County":"GO","City":"Gorizia","Street":"Via Alto Adige","PostalCode":"34170","AdditionalData":[{"value":"Italia","key":"CountryName"},{"value":"Friuli-Venezia Giulia","key":"StateName"},{"value":"Gorizia","key":"CountyName"}]},"MapReference":{"ReferenceId":"544211721","Spot":0.0,"SideOfStreet":"left","CountryId":"20110484","StateId":"20122842","CountyId":"20123396","CityId":"20123421"}}}]}]}}