{"Response":{"MetaInfo":{"Timestamp":"2020-03-31T17:06:50.651+0000","NextPageInformation":"2"},"View":[{"_type":"SearchResultsViewType","ViewId":0,"Result":[{"Relevance":1.0,"Distance":0.0,"Direction":0.0,"MatchLevel":"district","MatchQuality":{"Country":1.0,"County":1.0,"City":1.0,"District":1.0,"PostalCode":1.0},"Location":{"LocationId":"NT_LMnH4WqylGljoJ8wi1n8uC","LocationType":"point","DisplayPosition":{"Latitude":45.9275,"Longitude":13.6411},"MapView":{"TopLeft":{"Latitude":45.93931,"Longitude":13.62907},"BottomRight":{"Latitude":45.92035,"Longitude":13.65361}},"Address":{"Label":"Šempeter pri Gorici, Šempeter-Vrtojba, Slovenija","Country":"SVN","County":"Nova Gorica","City":"Šempeter-Vrtojba","District":"Šempeter pri Gorici","PostalCode":"5290","AdditionalData":[{"value":"Slovenija","key":"CountryName"},{"value":"Nova Gorica","key":"CountyName"}]},"MapReference":{"ReferenceId":"1037978007","SideOfStreet":"neither","CountryId":"20633685","CountyId":"20638164","CityId":"22689884","DistrictId":"22693707"}}},{"Relevance":1.0,"Distance":8.3,"MatchLevel":"houseNumber","MatchQuality":{"Country":1.0,"County":1.0,"City":1.0,"District":1.0,"Street":[1.0],"HouseNumber":1.0,"PostalCode":1.0},"MatchType":"interpolated","Location":{"LocationId":"NT_5YR9SK4ReXGuh5-c2c8NMD_zUTQ","LocationType":"point","DisplayPosition":{"Latitude":45.92736,"Longitude":13.64059},"MapView":{"TopLeft":{"Latitude":45.9284842,"Longitude":13.6389738},"BottomRight":{"Latitude":45.9262358,"Longitude":13.6422062}},"Address":{"Label":"Vrtojbenska cesta 35A, SI- 5290 Šempeter-Vrtojba, Slovenija","Country":"SVN","County":"Nova Gorica","City":"Šempeter-Vrtojba","District":"Šempeter pri Gorici","Street":"Vrtojbenska cesta","HouseNumber":"35A","PostalCode":"5290","AdditionalData":[{"value":"Slovenija","key":"CountryName"},{"value":"Nova Gorica","key":"CountyName"}]},"MapReference":{"ReferenceId":"716474035","Spot":0.82,"SideOfStreet":"right","CountryId":"20633685","CountyId":"20638164","CityId":"22689884","DistrictId":"22693707","AddressId":"406775764","RoadLinkId":"121421201"}}},{"Relevance":1.0,"Distance":41.9,"MatchLevel":"houseNumber","MatchQuality":{"Country":1.0,"County":1.0,"City":1.0,"District":1.0,"Street":[1.0],"HouseNumber":1.0,"PostalCode":1.0},"MatchType":"interpolated","Location":{"LocationId":"NT_5YR9SK4ReXGuh5-c2c8NMD_ycD","LocationType":"point","DisplayPosition":{"Latitude":45.92768,"Longitude":13.64048},"MapView":{"TopLeft":{"Latitude":45.9288042,"Longitude":13.6388638},"BottomRight":{"Latitude":45.9265558,"Longitude":13.6420962}},"Address":{"Label":"Vrtojbenska cesta 27, SI- 5290 Šempeter-Vrtojba, Slovenija","Country":"SVN","County":"Nova Gorica","City":"Šempeter-Vrtojba","District":"Šempeter pri Gorici","Street":"Vrtojbenska cesta","HouseNumber":"27","PostalCode":"5290","AdditionalData":[{"value":"Slovenija","key":"CountryName"},{"value":"Nova Gorica","key":"CountyName"}]},"MapReference":{"ReferenceId":"979730877","Spot":0.07,"SideOfStreet":"right","CountryId":"20633685","CountyId":"20638164","CityId":"22689884","DistrictId":"22693707","AddressId":"406964650","RoadLinkId":"312686364"}}},{"Relevance":1.0,"Distance":49.6,"MatchLevel":"houseNumber","MatchQuality":{"Country":1.0,"County":1.0,"City":1.0,"District":1.0,"Street":[1.0],"HouseNumber":1.0,"PostalCode":1.0},"MatchType":"interpolated","Location":{"LocationId":"NT_z3FNQxzDOLWuvwKaEFhWXC_yA","LocationType":"point","DisplayPosition":{"Latitude":45.92747,"Longitude":13.64195},"MapView":{"TopLeft":{"Latitude":45.9285942,"Longitude":13.6403338},"BottomRight":{"Latitude":45.9263458,"Longitude":13.6435662}},"Address":{"Label":"Feiglova ulica 2, SI- 5290 Šempeter-Vrtojba, Slovenija","Country":"SVN","County":"Nova Gorica","City":"Šempeter-Vrtojba","District":"Šempeter pri Gorici","Street":"Feiglova ulica","HouseNumber":"2","PostalCode":"5290","AdditionalData":[{"value":"Slovenija","key":"CountryName"},{"value":"Nova Gorica","key":"CountyName"}]},"MapReference":{"ReferenceId":"710444228","Spot":0.48,"SideOfStreet":"left","CountryId":"20633685","CountyId":"20638164","CityId":"22689884","DistrictId":"22693707","AddressId":"673697162","RoadLinkId":"115677616"}}},{"Relevance":1.0,"Distance":55.9,"MatchLevel":"houseNumber","MatchQuality":{"Country":1.0,"County":1.0,"City":1.0,"District":1.0,"Street":[1.0],"HouseNumber":1.0,"PostalCode":1.0},"MatchType":"interpolated","Location":{"LocationId":"NT_5YR9SK4ReXGuh5-c2c8NMD_yED","LocationType":"point","DisplayPosition":{"Latitude":45.92815,"Longitude":13.64128},"MapView":{"TopLeft":{"Latitude":45.9292742,"Longitude":13.6396638},"BottomRight":{"Latitude":45.9270258,"Longitude":13.6428962}},"Address":{"Label":"Vrtojbenska cesta 21, SI- 5290 Šempeter-Vrtojba, Slovenija","Country":"SVN","County":"Nova Gorica","City":"Šempeter-Vrtojba","District":"Šempeter pri Gorici","Street":"Vrtojbenska cesta","HouseNumber":"21","PostalCode":"5290","AdditionalData":[{"value":"Slovenija","key":"CountryName"},{"value":"Nova Gorica","key":"CountyName"}]},"MapReference":{"ReferenceId":"710431771","Spot":0.12,"SideOfStreet":"left","CountryId":"20633685","CountyId":"20638164","CityId":"22689884","DistrictId":"22693707","AddressId":"406566699","RoadLinkId":"115627254"}}},{"Relevance":1.0,"Distance":87.1,"MatchLevel":"houseNumber","MatchQuality":{"Country":1.0,"County":1.0,"City":1.0,"District":1.0,"Street":[1.0],"HouseNumber":1.0,"PostalCode":1.0},"MatchType":"interpolated","Location":{"LocationId":"NT_z3FNQxzDOLWuvwKaEFhWXC_xAD","LocationType":"point","DisplayPosition":{"Latitude":45.92667,"Longitude":13.64178},"MapView":{"TopLeft":{"Latitude":45.9277942,"Longitude":13.6401639},"BottomRight":{"Latitude":45.9255458,"Longitude":13.6433961}},"Address":{"Label":"Feiglova ulica 10, SI- 5290 Šempeter-Vrtojba, Slovenija","Country":"SVN","County":"Nova Gorica","City":"Šempeter-Vrtojba","District":"Šempeter pri Gorici","Street":"Feiglova ulica","HouseNumber":"10","PostalCode":"5290","AdditionalData":[{"value":"Slovenija","key":"CountryName"},{"value":"Nova Gorica","key":"CountyName"}]},"MapReference":{"ReferenceId":"710426334","Spot":0.34,"SideOfStreet":"left","CountryId":"20633685","CountyId":"20638164","CityId":"22689884","DistrictId":"22693707","AddressId":"675978694","RoadLinkId":"115626744"}}},{"Relevance":1.0,"Distance":92.4,"MatchLevel":"houseNumber","MatchQuality":{"Country":1.0,"County":1.0,"City":1.0,"District":1.0,"Street":[1.0],"HouseNumber":1.0,"PostalCode":1.0},"MatchType":"interpolated","Location":{"LocationId":"NT_oDSH93-026uPITHtZksfgB_xgD","LocationType":"point","DisplayPosition":{"Latitude":45.92788,"Longitude":13.64233},"MapView":{"TopLeft":{"Latitude":45.9290042,"Longitude":13.6407138},"BottomRight":{"Latitude":45.9267558,"Longitude":13.6439462}},"Address":{"Label":"Cesta Goriške fronte 18, SI- 5290 Šempeter-Vrtojba, Slovenija","Country":"SVN","County":"Nova Gorica","City":"Šempeter-Vrtojba","District":"Šempeter pri Gorici","Street":"Cesta Goriške fronte","HouseNumber":"18","PostalCode":"5290","AdditionalData":[{"value":"Slovenija","key":"CountryName"},{"value":"Nova Gorica","key":"CountyName"}]},"MapReference":{"ReferenceId":"710467859","Spot":0.62,"SideOfStreet":"left","CountryId":"20633685","CountyId":"20638164","CityId":"22689884","DistrictId":"22693707","AddressId":"406572801","RoadLinkId":"115687480"}}},{"Relevance":1.0,"Distance":95.9,"MatchLevel":"houseNumber","MatchQuality":{"Country":1.0,"County":1.0,"City":1.0,"District":1.0,"Street":[1.0],"HouseNumber":1.0,"PostalCode":1.0},"MatchType":"interpolated","Location":{"LocationId":"NT_oDSH93-026uPITHtZksfgB_yID","LocationType":"point","DisplayPosition":{"Latitude":45.92754,"Longitude":13.64249},"MapView":{"TopLeft":{"Latitude":45.9286642,"Longitude":13.6408738},"BottomRight":{"Latitude":45.9264158,"Longitude":13.6441062}},"Address":{"Label":"Cesta Goriške fronte 22, SI- 5290 Šempeter-Vrtojba, Slovenija","Country":"SVN","County":"Nova Gorica","City":"Šempeter-Vrtojba","District":"Šempeter pri Gorici","Street":"Cesta Goriške fronte","HouseNumber":"22","PostalCode":"5290","AdditionalData":[{"value":"Slovenija","key":"CountryName"},{"value":"Nova Gorica","key":"CountyName"}]},"MapReference":{"ReferenceId":"710430571","Spot":0.97,"SideOfStreet":"left","CountryId":"20633685","CountyId":"20638164","CityId":"22689884","DistrictId":"22693707","AddressId":"406869182","RoadLinkId":"115620386"}}},{"Relevance":1.0,"Distance":104.8,"MatchLevel":"houseNumber","MatchQuality":{"Country":1.0,"County":1.0,"City":1.0,"District":1.0,"Street":[1.0],"HouseNumber":1.0,"PostalCode":1.0},"MatchType":"interpolated","Location":{"LocationId":"NT_oDSH93-026uPITHtZksfgB_xQD","LocationType":"point","DisplayPosition":{"Latitude":45.92829,"Longitude":13.6421},"MapView":{"TopLeft":{"Latitude":45.9294142,"Longitude":13.6404838},"BottomRight":{"Latitude":45.9271658,"Longitude":13.6437162}},"Address":{"Label":"Cesta Goriške fronte 14, SI- 5290 Šempeter-Vrtojba, Slovenija","Country":"SVN","County":"Nova Gorica","City":"Šempeter-Vrtojba","District":"Šempeter pri Gorici","Street":"Cesta Goriške fronte","HouseNumber":"14","PostalCode":"5290","AdditionalData":[{"value":"Slovenija","key":"CountryName"},{"value":"Nova Gorica","key":"CountyName"}]},"MapReference":{"ReferenceId":"710446698","Spot":0.43,"SideOfStreet":"left","CountryId":"20633685","CountyId":"20638164","CityId":"22689884","DistrictId":"22693707","AddressId":"406627685","RoadLinkId":"115631597"}}},{"Relevance":1.0,"Distance":105.0,"MatchLevel":"houseNumber","MatchQuality":{"Country":1.0,"County":1.0,"City":1.0,"District":1.0,"Street":[1.0],"HouseNumber":1.0,"PostalCode":1.0},"MatchType":"interpolated","Location":{"LocationId":"NT_5YR9SK4ReXGuh5-c2c8NMD_xkzQ","LocationType":"point","DisplayPosition":{"Latitude":45.92848,"Longitude":13.64045},"MapView":{"TopLeft":{"Latitude":45.9296042,"Longitude":13.6388338},"BottomRight":{"Latitude":45.9273558,"Longitude":13.6420662}},"Address":{"Label":"Vrtojbenska cesta 19C, SI- 5290 Šempeter-Vrtojba, Slovenija","Country":"SVN","County":"Nova Gorica","City":"Šempeter-Vrtojba","District":"Šempeter pri Gorici","Street":"Vrtojbenska cesta","HouseNumber":"19C","PostalCode":"5290","AdditionalData":[{"value":"Slovenija","key":"CountryName"},{"value":"Nova Gorica","key":"CountyName"}]},"MapReference":{"ReferenceId":"981455632","Spot":0.19,"SideOfStreet":"right","CountryId":"20633685","CountyId":"20638164","CityId":"22689884","DistrictId":"22693707","AddressId":"406627433","RoadLinkId":"313373785"}}}]}]}}