{"Response":{"MetaInfo":{"Timestamp":"2020-03-28T10:50:19.364+0000","NextPageInformation":"2"},"View":[{"_type":"SearchResultsViewType","ViewId":0,"Result":[{"Relevance":1.0,"Distance":0.0,"Direction":0.0,"MatchLevel":"district","MatchQuality":{"Country":1.0,"County":1.0,"City":1.0,"District":1.0,"PostalCode":1.0},"Location":{"LocationId":"NT_1f2kaBqRS.VXBHRBNz2-7C","LocationType":"point","DisplayPosition":{"Latitude":45.9323116,"Longitude":24.0742223},"MapView":{"TopLeft":{"Latitude":45.93264,"Longitude":24.06735},"BottomRight":{"Latitude":45.92222,"Longitude":24.07556}},"Address":{"Label":"Mândra, Loamneș, România","Country":"ROU","County":"Sibiu","City":"Loamneș","District":"Mândra","PostalCode":"557124","AdditionalData":[{"value":"România","key":"CountryName"},{"value":"Sibiu","key":"CountyName"}]},"MapReference":{"ReferenceId":"837309313","SideOfStreet":"neither","CountryId":"20656215","CountyId":"20662327","CityId":"23765763","DistrictId":"23769198"}}},{"Relevance":1.0,"Distance":38.0,"MatchLevel":"street","MatchQuality":{"Country":1.0,"County":1.0,"City":1.0,"Street":[1.0],"PostalCode":1.0},"Location":{"LocationId":"NT_cyzDiM4BH5G6bsqzPp6k.C_l_837350005_L","LocationType":"point","DisplayPosition":{"Latitude":45.93207,"Longitude":24.07457},"MapView":{"TopLeft":{"Latitude":45.93224,"Longitude":24.07457},"BottomRight":{"Latitude":45.93207,"Longitude":24.07489}},"Address":{"Label":"DJ107B, 557120 Loamneș, România","Country":"ROU","County":"Sibiu","City":"Loamneș","Street":"DJ107B","PostalCode":"557120","AdditionalData":[{"value":"România","key":"CountryName"},{"value":"Sibiu","key":"CountyName"}]},"MapReference":{"ReferenceId":"837350005","Spot":0.0,"SideOfStreet":"left","CountryId":"20656215","CountyId":"20662327","CityId":"23765763"}}},{"Relevance":1.0,"Distance":39.1,"MatchLevel":"street","MatchQuality":{"Country":1.0,"County":1.0,"City":1.0,"District":1.0,"Street":[1.0],"PostalCode":1.0},"Location":{"LocationId":"NT_BPcSKew2G4-gYccvxXNxmD_l_837415856_L","LocationType":"point","DisplayPosition":{"Latitude":45.9319792,"Longitude":24.0743885},"MapView":{"TopLeft":{"Latitude":45.93207,"Longitude":24.07407},"BottomRight":{"Latitude":45.93182,"Longitude":24.07457}},"Address":{"Label":"DJ107B, 557124 Loamneș, România","Country":"ROU","County":"Sibiu","City":"Loamneș","District":"Mândra","Street":"DJ107B","PostalCode":"557124","AdditionalData":[{"value":"România","key":"CountryName"},{"value":"Sibiu","key":"CountyName"}]},"MapReference":{"ReferenceId":"837415856","Spot":0.64,"SideOfStreet":"left","CountryId":"20656215","CountyId":"20662327","CityId":"23765763","DistrictId":"23769198"}}},{"Relevance":1.0,"Distance":52.2,"MatchLevel":"street","MatchQuality":{"Country":1.0,"County":1.0,"City":1.0,"District":1.0,"Street":[1.0],"PostalCode":1.0},"Location":{"LocationId":"NT_bMU.tuW60wO6j9L2RDI9oA_l_837350006_L","LocationType":"point","DisplayPosition":{"Latitude":45.93224,"Longitude":24.07489},"MapView":{"TopLeft":{"Latitude":45.93231,"Longitude":24.07489},"BottomRight":{"Latitude":45.93224,"Longitude":24.07505}},"Address":{"Label":"DJ107B, 557120 Loamneș, România","Country":"ROU","County":"Sibiu","City":"Loamneș","District":"Loamneș","Street":"DJ107B","PostalCode":"557120","AdditionalData":[{"value":"România","key":"CountryName"},{"value":"Sibiu","key":"CountyName"}]},"MapReference":{"ReferenceId":"837350006","Spot":0.0,"SideOfStreet":"left","CountryId":"20656215","CountyId":"20662327","CityId":"23765763","DistrictId":"23769206"}}},{"Relevance":1.0,"Distance":55.4,"MatchLevel":"street","MatchQuality":{"Country":1.0,"County":1.0,"City":1.0,"Street":[1.0],"PostalCode":1.0},"Location":{"LocationId":"NT_16K6-T91DHwh.bfBjjRaeA_l_837309318_L","LocationType":"point","DisplayPosition":{"Latitude":45.93196,"Longitude":24.07473},"MapView":{"TopLeft":{"Latitude":45.9322,"Longitude":24.07473},"BottomRight":{"Latitude":45.93196,"Longitude":24.07495}},"Address":{"Label":"DJ106B, 557120 Loamneș, România","Country":"ROU","County":"Sibiu","City":"Loamneș","Street":"DJ106B","PostalCode":"557120","AdditionalData":[{"value":"România","key":"CountryName"},{"value":"Sibiu","key":"CountyName"}]},"MapReference":{"ReferenceId":"837309318","Spot":0.0,"SideOfStreet":"left","CountryId":"20656215","CountyId":"20662327","CityId":"23765763"}}},{"Relevance":1.0,"Distance":55.9,"MatchLevel":"street","MatchQuality":{"Country":1.0,"County":1.0,"City":1.0,"District":1.0,"Street":[1.0],"PostalCode":1.0},"Location":{"LocationId":"NT_BPcSKew2G4-gYccvxXNxmD_l_837415855_L","LocationType":"point","DisplayPosition":{"Latitude":45.93182,"Longitude":24.07407},"MapView":{"TopLeft":{"Latitude":45.93182,"Longitude":24.07386},"BottomRight":{"Latitude":45.93178,"Longitude":24.07407}},"Address":{"Label":"DJ107B, 557124 Loamneș, România","Country":"ROU","County":"Sibiu","City":"Loamneș","District":"Mândra","Street":"DJ107B","PostalCode":"557124","AdditionalData":[{"value":"România","key":"CountryName"},{"value":"Sibiu","key":"CountyName"}]},"MapReference":{"ReferenceId":"837415855","Spot":1.0,"SideOfStreet":"left","CountryId":"20656215","CountyId":"20662327","CityId":"23765763","DistrictId":"23769198"}}},{"Relevance":1.0,"Distance":56.0,"MatchLevel":"street","MatchQuality":{"Country":1.0,"County":1.0,"City":1.0,"District":1.0,"PostalCode":1.0},"Location":{"LocationId":"NT_Fz-ABUjW8xwBUhHpMBIarD_l_837415857_R","LocationType":"point","DisplayPosition":{"Latitude":45.9318187,"Longitude":24.0740744},"MapView":{"TopLeft":{"Latitude":45.93182,"Longitude":24.07407},"BottomRight":{"Latitude":45.93155,"Longitude":24.07437}},"Address":{"Label":"557124 Loamneș, România","Country":"ROU","County":"Sibiu","City":"Loamneș","District":"Mândra","PostalCode":"557124","AdditionalData":[{"value":"România","key":"CountryName"},{"value":"Sibiu","key":"CountyName"}]},"MapReference":{"ReferenceId":"837415857","Spot":0.99,"SideOfStreet":"right","CountryId":"20656215","CountyId":"20662327","CityId":"23765763","DistrictId":"23769198"}}},{"Relevance":1.0,"Distance":57.4,"MatchLevel":"street","MatchQuality":{"Country":1.0,"County":1.0,"City":1.0,"District":1.0,"Street":[1.0],"PostalCode":1.0},"Location":{"LocationId":"NT_gGATfQDncuRKiDfwwciKND_l_837309317_L","LocationType":"point","DisplayPosition":{"Latitude":45.9319068,"Longitude":24.0746833},"MapView":{"TopLeft":{"Latitude":45.93196,"Longitude":24.07437},"BottomRight":{"Latitude":45.93155,"Longitude":24.07473}},"Address":{"Label":"DJ106B, 557124 Loamneș, România","Country":"ROU","County":"Sibiu","City":"Loamneș","District":"Mândra","Street":"DJ106B","PostalCode":"557124","AdditionalData":[{"value":"România","key":"CountryName"},{"value":"Sibiu","key":"CountyName"}]},"MapReference":{"ReferenceId":"837309317","Spot":0.87,"SideOfStreet":"left","CountryId":"20656215","CountyId":"20662327","CityId":"23765763","DistrictId":"23769198"}}},{"Relevance":1.0,"Distance":57.6,"MatchLevel":"street","MatchQuality":{"Country":1.0,"County":1.0,"City":1.0,"District":1.0,"Street":[1.0],"PostalCode":1.0},"Location":{"LocationId":"NT_1GNa9uXeMMRKihc6A9eFeA_l_837350002_L","LocationType":"point","DisplayPosition":{"Latitude":45.9322,"Longitude":24.07495},"MapView":{"TopLeft":{"Latitude":45.93231,"Longitude":24.07495},"BottomRight":{"Latitude":45.9322,"Longitude":24.07505}},"Address":{"Label":"DJ106B, 557120 Loamneș, România","Country":"ROU","County":"Sibiu","City":"Loamneș","District":"Loamneș","Street":"DJ106B","PostalCode":"557120","AdditionalData":[{"value":"România","key":"CountryName"},{"value":"Sibiu","key":"CountyName"}]},"MapReference":{"ReferenceId":"837350002","Spot":0.0,"SideOfStreet":"left","CountryId":"20656215","CountyId":"20662327","CityId":"23765763","DistrictId":"23769206"}}},{"Relevance":1.0,"Distance":64.0,"MatchLevel":"street","MatchQuality":{"Country":1.0,"County":1.0,"City":1.0,"District":1.0,"Street":[1.0],"PostalCode":1.0},"Location":{"LocationId":"NT_1GNa9uXeMMRKihc6A9eFeA_l_962058260_L","LocationType":"point","DisplayPosition":{"Latitude":45.93231,"Longitude":24.07505},"MapView":{"TopLeft":{"Latitude":45.93242,"Longitude":24.07505},"BottomRight":{"Latitude":45.93231,"Longitude":24.07516}},"Address":{"Label":"DJ106B, 557120 Loamneș, România","Country":"ROU","County":"Sibiu","City":"Loamneș","District":"Loamneș","Street":"DJ106B","PostalCode":"557120","AdditionalData":[{"value":"România","key":"CountryName"},{"value":"Sibiu","key":"CountyName"}]},"MapReference":{"ReferenceId":"962058260","Spot":0.0,"SideOfStreet":"left","CountryId":"20656215","CountyId":"20662327","CityId":"23765763","DistrictId":"23769206"}}}]}]}}