{"Response":{"MetaInfo":{"Timestamp":"2020-03-31T17:07:08.815+0000","NextPageInformation":"2"},"View":[{"_type":"SearchResultsViewType","ViewId":0,"Result":[{"Relevance":1.0,"Distance":0.0,"Direction":0.0,"MatchLevel":"city","MatchQuality":{"Country":1.0,"County":1.0,"City":1.0,"PostalCode":1.0},"Location":{"LocationId":"NT_rXDm49owkNxk0apueUjOQD","LocationType":"point","DisplayPosition":{"Latitude":45.9833,"Longitude":15.6},"MapView":{"TopLeft":{"Latitude":46.05523,"Longitude":15.49075},"BottomRight":{"Latitude":45.82056,"Longitude":15.73249}},"Address":{"Label":"Brežice, Slovenija","Country":"SVN","County":"Brežice","City":"Brežice","PostalCode":"8250","AdditionalData":[{"value":"Slovenija","key":"CountryName"},{"value":"Brežice","key":"CountyName"}]},"MapReference":{"ReferenceId":"716254634","SideOfStreet":"neither","CountryId":"20633685","CountyId":"20634980","CityId":"20634981"}}},{"Relevance":1.0,"Distance":49.1,"MatchLevel":"street","MatchQuality":{"Country":1.0,"County":1.0,"City":1.0,"District":1.0,"Street":[1.0],"PostalCode":1.0},"Location":{"LocationId":"NT_LHj0zT25YvsI5aM.Q7FGhA_l_710649014_L","LocationType":"point","DisplayPosition":{"Latitude":45.98336,"Longitude":15.60063},"MapView":{"TopLeft":{"Latitude":45.98393,"Longitude":15.60063},"BottomRight":{"Latitude":45.98307,"Longitude":15.60082}},"Address":{"Label":"Sromlje, SI- 8256 Brežice, Slovenija","Country":"SVN","County":"Brežice","City":"Brežice","District":"Sromlje","Street":"Sromlje","PostalCode":"8256","AdditionalData":[{"value":"Slovenija","key":"CountryName"},{"value":"Brežice","key":"CountyName"}]},"MapReference":{"ReferenceId":"710649014","Spot":0.33,"SideOfStreet":"left","CountryId":"20633685","CountyId":"20634980","CityId":"20634981","DistrictId":"22691018"}}},{"Relevance":1.0,"Distance":59.1,"MatchLevel":"street","MatchQuality":{"Country":1.0,"County":1.0,"City":1.0,"District":1.0,"Street":[1.0],"PostalCode":1.0},"Location":{"LocationId":"NT_ajPSaOm9il1EpzIckslVEA_l_710680401_L","LocationType":"point","DisplayPosition":{"Latitude":45.98307,"Longitude":15.60069},"MapView":{"TopLeft":{"Latitude":45.98307,"Longitude":15.60069},"BottomRight":{"Latitude":45.98294,"Longitude":15.60079}},"Address":{"Label":"Curnovec, SI- 8253 Brežice, Slovenija","Country":"SVN","County":"Brežice","City":"Brežice","District":"Sromlje","Street":"Curnovec","PostalCode":"8253","AdditionalData":[{"value":"Slovenija","key":"CountryName"},{"value":"Brežice","key":"CountyName"}]},"MapReference":{"ReferenceId":"710680401","Spot":1.0,"SideOfStreet":"left","CountryId":"20633685","CountyId":"20634980","CityId":"20634981","DistrictId":"22691018"}}},{"Relevance":1.0,"Distance":117.6,"MatchLevel":"houseNumber","MatchQuality":{"Country":1.0,"County":1.0,"City":1.0,"District":1.0,"Street":[1.0],"HouseNumber":1.0,"PostalCode":1.0},"MatchType":"interpolated","Location":{"LocationId":"NT_kSNxbXVAtkMFernB42aRzD_yMD","LocationType":"point","DisplayPosition":{"Latitude":45.98242,"Longitude":15.60106},"MapView":{"TopLeft":{"Latitude":45.9835442,"Longitude":15.5994422},"BottomRight":{"Latitude":45.9812958,"Longitude":15.6026778}},"Address":{"Label":"Curnovec 23, SI- 8253 Brežice, Slovenija","Country":"SVN","County":"Brežice","City":"Brežice","District":"Curnovec","Street":"Curnovec","HouseNumber":"23","PostalCode":"8253","AdditionalData":[{"value":"Slovenija","key":"CountryName"},{"value":"Brežice","key":"CountyName"}]},"MapReference":{"ReferenceId":"710626162","Spot":0.81,"SideOfStreet":"left","CountryId":"20633685","CountyId":"20634980","CityId":"20634981","DistrictId":"22692983","AddressId":"406843794","RoadLinkId":"115830607"}}},{"Relevance":1.0,"Distance":139.5,"MatchLevel":"houseNumber","MatchQuality":{"Country":1.0,"County":1.0,"City":1.0,"District":1.0,"Street":[1.0],"HouseNumber":1.0,"PostalCode":1.0},"MatchType":"interpolated","Location":{"LocationId":"NT_kSNxbXVAtkMFernB42aRzD_yID","LocationType":"point","DisplayPosition":{"Latitude":45.98409,"Longitude":15.60136},"MapView":{"TopLeft":{"Latitude":45.9852142,"Longitude":15.5997422},"BottomRight":{"Latitude":45.9829658,"Longitude":15.6029778}},"Address":{"Label":"Curnovec 22, SI- 8253 Brežice, Slovenija","Country":"SVN","County":"Brežice","City":"Brežice","District":"Curnovec","Street":"Curnovec","HouseNumber":"22","PostalCode":"8253","AdditionalData":[{"value":"Slovenija","key":"CountryName"},{"value":"Brežice","key":"CountyName"}]},"MapReference":{"ReferenceId":"1131733357","Spot":0.4,"SideOfStreet":"left","CountryId":"20633685","CountyId":"20634980","CityId":"20634981","DistrictId":"22692983","AddressId":"406585289","RoadLinkId":"441522711"}}},{"Relevance":1.0,"Distance":179.8,"MatchLevel":"houseNumber","MatchQuality":{"Country":1.0,"County":1.0,"City":1.0,"District":1.0,"Street":[1.0],"HouseNumber":1.0,"PostalCode":1.0},"MatchType":"interpolated","Location":{"LocationId":"NT_7ih0zWMY4lHO2zq1n4UDOC_yMTQ","LocationType":"point","DisplayPosition":{"Latitude":45.98176,"Longitude":15.59929},"MapView":{"TopLeft":{"Latitude":45.9828842,"Longitude":15.5976723},"BottomRight":{"Latitude":45.9806358,"Longitude":15.6009077}},"Address":{"Label":"Curnovec 23A, SI- 8256 Brežice, Slovenija","Country":"SVN","County":"Brežice","City":"Brežice","District":"Curnovec","Street":"Curnovec","HouseNumber":"23A","PostalCode":"8256","AdditionalData":[{"value":"Slovenija","key":"CountryName"},{"value":"Brežice","key":"CountyName"}]},"MapReference":{"ReferenceId":"710664709","Spot":0.61,"SideOfStreet":"right","CountryId":"20633685","CountyId":"20634980","CityId":"20634981","DistrictId":"22692983","AddressId":"406772930","RoadLinkId":"115920489"}}},{"Relevance":1.0,"Distance":344.7,"MatchLevel":"houseNumber","MatchQuality":{"Country":1.0,"County":1.0,"City":1.0,"District":1.0,"Street":[1.0],"HouseNumber":1.0,"PostalCode":1.0},"MatchType":"interpolated","Location":{"LocationId":"NT_LHj0zT25YvsI5aM.Q7FGhA_ygD","LocationType":"point","DisplayPosition":{"Latitude":45.98633,"Longitude":15.60094},"MapView":{"TopLeft":{"Latitude":45.9874542,"Longitude":15.5993221},"BottomRight":{"Latitude":45.9852058,"Longitude":15.6025579}},"Address":{"Label":"Sromlje 28, SI- 8256 Brežice, Slovenija","Country":"SVN","County":"Brežice","City":"Brežice","District":"Sromlje","Street":"Sromlje","HouseNumber":"28","PostalCode":"8256","AdditionalData":[{"value":"Slovenija","key":"CountryName"},{"value":"Brežice","key":"CountyName"}]},"MapReference":{"ReferenceId":"1131733356","Spot":0.82,"SideOfStreet":"left","CountryId":"20633685","CountyId":"20634980","CityId":"20634981","DistrictId":"22691018","AddressId":"406988467","RoadLinkId":"441522710"}}},{"Relevance":1.0,"Distance":387.9,"MatchLevel":"street","MatchQuality":{"Country":1.0,"County":1.0,"City":1.0,"District":1.0,"Street":[1.0],"PostalCode":1.0},"Location":{"LocationId":"NT_kSNxbXVAtkMFernB42aRzD_l_710681257_L","LocationType":"point","DisplayPosition":{"Latitude":45.98001,"Longitude":15.60167},"MapView":{"TopLeft":{"Latitude":45.98001,"Longitude":15.60167},"BottomRight":{"Latitude":45.97913,"Longitude":15.60175}},"Address":{"Label":"Curnovec, SI- 8253 Brežice, Slovenija","Country":"SVN","County":"Brežice","City":"Brežice","District":"Curnovec","Street":"Curnovec","PostalCode":"8253","AdditionalData":[{"value":"Slovenija","key":"CountryName"},{"value":"Brežice","key":"CountyName"}]},"MapReference":{"ReferenceId":"710681257","Spot":1.0,"SideOfStreet":"left","CountryId":"20633685","CountyId":"20634980","CityId":"20634981","DistrictId":"22692983"}}},{"Relevance":1.0,"Distance":395.1,"MatchLevel":"houseNumber","MatchQuality":{"Country":1.0,"County":1.0,"City":1.0,"District":1.0,"Street":[1.0],"HouseNumber":1.0,"PostalCode":1.0},"MatchType":"interpolated","Location":{"LocationId":"NT_kSNxbXVAtkMFernB42aRzD_yUjQ","LocationType":"point","DisplayPosition":{"Latitude":45.98001,"Longitude":15.60193},"MapView":{"TopLeft":{"Latitude":45.9811342,"Longitude":15.6003123},"BottomRight":{"Latitude":45.9788858,"Longitude":15.6035477}},"Address":{"Label":"Curnovec 25B, SI- 8253 Brežice, Slovenija","Country":"SVN","County":"Brežice","City":"Brežice","District":"Curnovec","Street":"Curnovec","HouseNumber":"25B","PostalCode":"8253","AdditionalData":[{"value":"Slovenija","key":"CountryName"},{"value":"Brežice","key":"CountyName"}]},"MapReference":{"ReferenceId":"920784967","Spot":0.8,"SideOfStreet":"left","CountryId":"20633685","CountyId":"20634980","CityId":"20634981","DistrictId":"22692983","AddressId":"406678924","RoadLinkId":"277729507"}}},{"Relevance":1.0,"Distance":397.4,"MatchLevel":"street","MatchQuality":{"Country":1.0,"County":1.0,"City":1.0,"District":1.0,"Street":[1.0],"PostalCode":1.0},"Location":{"LocationId":"NT_LHj0zT25YvsI5aM.Q7FGhA_l_1081490074_L","LocationType":"point","DisplayPosition":{"Latitude":45.98681,"Longitude":15.60097},"MapView":{"TopLeft":{"Latitude":45.98817,"Longitude":15.59612},"BottomRight":{"Latitude":45.9868,"Longitude":15.60118}},"Address":{"Label":"Sromlje, SI- 8256 Brežice, Slovenija","Country":"SVN","County":"Brežice","City":"Brežice","District":"Sromlje","Street":"Sromlje","PostalCode":"8256","AdditionalData":[{"value":"Slovenija","key":"CountryName"},{"value":"Brežice","key":"CountyName"}]},"MapReference":{"ReferenceId":"1081490074","Spot":0.04,"SideOfStreet":"left","CountryId":"20633685","CountyId":"20634980","CityId":"20634981","DistrictId":"22691018"}}}]}]}}