{"Response":{"MetaInfo":{"Timestamp":"2020-03-28T11:47:57.403+0000","NextPageInformation":"2"},"View":[{"_type":"SearchResultsViewType","ViewId":0,"Result":[{"Relevance":1.0,"Distance":0.0,"Direction":0.0,"MatchLevel":"district","MatchQuality":{"Country":1.0,"State":1.0,"County":1.0,"City":1.0,"District":1.0,"PostalCode":1.0},"Location":{"LocationId":"NT_VfTdo1xsqqK0Cl99mrxiXB","LocationType":"point","DisplayPosition":{"Latitude":46.0282689,"Longitude":1.7138751},"MapView":{"TopLeft":{"Latitude":46.03493,"Longitude":1.70323},"BottomRight":{"Latitude":46.02329,"Longitude":1.71814}},"Address":{"Label":"Saint-Dizier-Leyrenne, Saint-Dizier-Masbaraud, Nouvelle-Aquitaine, France","Country":"FRA","State":"Nouvelle-Aquitaine","County":"Creuse","City":"Saint-Dizier-Masbaraud","District":"Saint-Dizier-Leyrenne","PostalCode":"23400","AdditionalData":[{"value":"France","key":"CountryName"},{"value":"Nouvelle-Aquitaine","key":"StateName"},{"value":"Creuse","key":"CountyName"}]},"MapReference":{"ReferenceId":"584211228","SideOfStreet":"neither","CountryId":"20000001","StateId":"20000383","CountyId":"20061327","CityId":"20091682","DistrictId":"20091684"}}},{"Relevance":1.0,"Distance":17.6,"MatchLevel":"houseNumber","MatchQuality":{"Country":1.0,"State":1.0,"County":1.0,"City":1.0,"District":1.0,"Street":[1.0],"HouseNumber":1.0,"PostalCode":1.0},"MatchType":"interpolated","Location":{"LocationId":"NT_YNDcubAgREZHWE8cwkYpGA_l_799755949_R_zA","LocationType":"point","DisplayPosition":{"Latitude":46.0282956,"Longitude":1.7135547},"MapView":{"TopLeft":{"Latitude":46.0294197,"Longitude":1.7119356},"BottomRight":{"Latitude":46.0271714,"Longitude":1.7151738}},"Address":{"Label":"3 Rue du Chêne, 23400 Saint-Dizier-Masbaraud, France","Country":"FRA","State":"Nouvelle-Aquitaine","County":"Creuse","City":"Saint-Dizier-Masbaraud","District":"Saint-Dizier-Leyrenne","Street":"Rue du Chêne","HouseNumber":"3","PostalCode":"23400","AdditionalData":[{"value":"France","key":"CountryName"},{"value":"Nouvelle-Aquitaine","key":"StateName"},{"value":"Creuse","key":"CountyName"}]},"MapReference":{"ReferenceId":"799755949","Spot":0.5,"SideOfStreet":"right","CountryId":"20000001","StateId":"20000383","CountyId":"20061327","CityId":"20091682","DistrictId":"20091684"}}},{"Relevance":1.0,"Distance":21.4,"MatchLevel":"houseNumber","MatchQuality":{"Country":1.0,"State":1.0,"County":1.0,"City":1.0,"District":1.0,"Street":[1.0],"HouseNumber":1.0,"PostalCode":1.0},"MatchType":"interpolated","Location":{"LocationId":"NT_YNDcubAgREZHWE8cwkYpGA_1A","LocationType":"point","DisplayPosition":{"Latitude":46.02811,"Longitude":1.71366},"MapView":{"TopLeft":{"Latitude":46.0292342,"Longitude":1.7120409},"BottomRight":{"Latitude":46.0269858,"Longitude":1.7152791}},"Address":{"Label":"5 Rue du Chêne, 23400 Saint-Dizier-Masbaraud, France","Country":"FRA","State":"Nouvelle-Aquitaine","County":"Creuse","City":"Saint-Dizier-Masbaraud","District":"Saint-Dizier-Leyrenne","Street":"Rue du Chêne","HouseNumber":"5","PostalCode":"23400","AdditionalData":[{"value":"France","key":"CountryName"},{"value":"Nouvelle-Aquitaine","key":"StateName"},{"value":"Creuse","key":"CountyName"}]},"MapReference":{"ReferenceId":"584211229","Spot":0.84,"SideOfStreet":"right","CountryId":"20000001","StateId":"20000383","CountyId":"20061327","CityId":"20091682","DistrictId":"20091684","AddressId":"317440042","RoadLinkId":"53171977"}}},{"Relevance":1.0,"Distance":32.1,"MatchLevel":"houseNumber","MatchQuality":{"Country":1.0,"State":1.0,"County":1.0,"City":1.0,"District":1.0,"Street":[1.0],"HouseNumber":1.0,"PostalCode":1.0},"MatchType":"interpolated","Location":{"LocationId":"NT_oG3UwZyOFsHY-6EQeWTAgD_0A","LocationType":"point","DisplayPosition":{"Latitude":46.0286,"Longitude":1.71377},"MapView":{"TopLeft":{"Latitude":46.0297242,"Longitude":1.7121509},"BottomRight":{"Latitude":46.0274758,"Longitude":1.7153891}},"Address":{"Label":"4 Rue du Jardin, 23400 Saint-Dizier-Masbaraud, France","Country":"FRA","State":"Nouvelle-Aquitaine","County":"Creuse","City":"Saint-Dizier-Masbaraud","District":"Saint-Dizier-Leyrenne","Street":"Rue du Jardin","HouseNumber":"4","PostalCode":"23400","AdditionalData":[{"value":"France","key":"CountryName"},{"value":"Nouvelle-Aquitaine","key":"StateName"},{"value":"Creuse","key":"CountyName"}]},"MapReference":{"ReferenceId":"584211263","Spot":0.23,"SideOfStreet":"right","CountryId":"20000001","StateId":"20000383","CountyId":"20061327","CityId":"20091682","DistrictId":"20091684","AddressId":"571417390","RoadLinkId":"52813854"}}},{"Relevance":1.0,"Distance":36.4,"MatchLevel":"houseNumber","MatchQuality":{"Country":1.0,"State":1.0,"County":1.0,"City":1.0,"District":1.0,"Street":[1.0],"HouseNumber":1.0,"PostalCode":1.0},"MatchType":"interpolated","Location":{"LocationId":"NT_oG3UwZyOFsHY-6EQeWTAgD_yA","LocationType":"point","DisplayPosition":{"Latitude":46.02858,"Longitude":1.71358},"MapView":{"TopLeft":{"Latitude":46.0297042,"Longitude":1.7119609},"BottomRight":{"Latitude":46.0274558,"Longitude":1.7151991}},"Address":{"Label":"2 Rue du Jardin, 23400 Saint-Dizier-Masbaraud, France","Country":"FRA","State":"Nouvelle-Aquitaine","County":"Creuse","City":"Saint-Dizier-Masbaraud","District":"Saint-Dizier-Leyrenne","Street":"Rue du Jardin","HouseNumber":"2","PostalCode":"23400","AdditionalData":[{"value":"France","key":"CountryName"},{"value":"Nouvelle-Aquitaine","key":"StateName"},{"value":"Creuse","key":"CountyName"}]},"MapReference":{"ReferenceId":"584211261","Spot":0.75,"SideOfStreet":"right","CountryId":"20000001","StateId":"20000383","CountyId":"20061327","CityId":"20091682","DistrictId":"20091684","AddressId":"345070348","RoadLinkId":"53029042"}}},{"Relevance":1.0,"Distance":36.6,"MatchLevel":"houseNumber","MatchQuality":{"Country":1.0,"State":1.0,"County":1.0,"City":1.0,"District":1.0,"Street":[1.0],"HouseNumber":1.0,"PostalCode":1.0},"MatchType":"interpolated","Location":{"LocationId":"NT_YNDcubAgREZHWE8cwkYpGA_zA","LocationType":"point","DisplayPosition":{"Latitude":46.02846,"Longitude":1.71346},"MapView":{"TopLeft":{"Latitude":46.0295842,"Longitude":1.7118409},"BottomRight":{"Latitude":46.0273358,"Longitude":1.7150791}},"Address":{"Label":"3 Rue du Chêne, 23400 Saint-Dizier-Masbaraud, France","Country":"FRA","State":"Nouvelle-Aquitaine","County":"Creuse","City":"Saint-Dizier-Masbaraud","District":"Saint-Dizier-Leyrenne","Street":"Rue du Chêne","HouseNumber":"3","PostalCode":"23400","AdditionalData":[{"value":"France","key":"CountryName"},{"value":"Nouvelle-Aquitaine","key":"StateName"},{"value":"Creuse","key":"CountyName"}]},"MapReference":{"ReferenceId":"799755950","Spot":0.43,"SideOfStreet":"right","CountryId":"20000001","StateId":"20000383","CountyId":"20061327","CityId":"20091682","DistrictId":"20091684","AddressId":"317468135","RoadLinkId":"190532868"}}},{"Relevance":1.0,"Distance":49.8,"MatchLevel":"street","MatchQuality":{"Country":1.0,"State":1.0,"County":1.0,"City":1.0,"District":1.0,"Street":[1.0],"PostalCode":1.0},"Location":{"LocationId":"NT_oG3UwZyOFsHY-6EQeWTAgD_l_584211265_L","LocationType":"point","DisplayPosition":{"Latitude":46.02866,"Longitude":1.71419},"MapView":{"TopLeft":{"Latitude":46.02866,"Longitude":1.71419},"BottomRight":{"Latitude":46.02865,"Longitude":1.7147}},"Address":{"Label":"Rue du Jardin, 23400 Saint-Dizier-Masbaraud, France","Country":"FRA","State":"Nouvelle-Aquitaine","County":"Creuse","City":"Saint-Dizier-Masbaraud","District":"Saint-Dizier-Leyrenne","Street":"Rue du Jardin","PostalCode":"23400","AdditionalData":[{"value":"France","key":"CountryName"},{"value":"Nouvelle-Aquitaine","key":"StateName"},{"value":"Creuse","key":"CountyName"}]},"MapReference":{"ReferenceId":"584211265","Spot":1.0,"SideOfStreet":"left","CountryId":"20000001","StateId":"20000383","CountyId":"20061327","CityId":"20091682","DistrictId":"20091684"}}},{"Relevance":1.0,"Distance":51.0,"MatchLevel":"street","MatchQuality":{"Country":1.0,"State":1.0,"County":1.0,"City":1.0,"District":1.0,"PostalCode":1.0},"Location":{"LocationId":"NT_ui3zBYyy4.fV27ayWkmptD_l_584211262_R","LocationType":"point","DisplayPosition":{"Latitude":46.0287,"Longitude":1.71365},"MapView":{"TopLeft":{"Latitude":46.0287,"Longitude":1.7134},"BottomRight":{"Latitude":46.02857,"Longitude":1.71365}},"Address":{"Label":"23400 Saint-Dizier-Masbaraud, France","Country":"FRA","State":"Nouvelle-Aquitaine","County":"Creuse","City":"Saint-Dizier-Masbaraud","District":"Saint-Dizier-Leyrenne","PostalCode":"23400","AdditionalData":[{"value":"France","key":"CountryName"},{"value":"Nouvelle-Aquitaine","key":"StateName"},{"value":"Creuse","key":"CountyName"}]},"MapReference":{"ReferenceId":"584211262","Spot":1.0,"SideOfStreet":"right","CountryId":"20000001","StateId":"20000383","CountyId":"20061327","CityId":"20091682","DistrictId":"20091684"}}},{"Relevance":1.0,"Distance":51.0,"MatchLevel":"street","MatchQuality":{"Country":1.0,"State":1.0,"County":1.0,"City":1.0,"District":1.0,"PostalCode":1.0},"Location":{"LocationId":"NT_ui3zBYyy4.fV27ayWkmptD_l_584211260_R","LocationType":"point","DisplayPosition":{"Latitude":46.0287,"Longitude":1.71365},"MapView":{"TopLeft":{"Latitude":46.02916,"Longitude":1.71365},"BottomRight":{"Latitude":46.0287,"Longitude":1.71422}},"Address":{"Label":"23400 Saint-Dizier-Masbaraud, France","Country":"FRA","State":"Nouvelle-Aquitaine","County":"Creuse","City":"Saint-Dizier-Masbaraud","District":"Saint-Dizier-Leyrenne","PostalCode":"23400","AdditionalData":[{"value":"France","key":"CountryName"},{"value":"Nouvelle-Aquitaine","key":"StateName"},{"value":"Creuse","key":"CountyName"}]},"MapReference":{"ReferenceId":"584211260","Spot":0.0,"SideOfStreet":"right","CountryId":"20000001","StateId":"20000383","CountyId":"20061327","CityId":"20091682","DistrictId":"20091684"}}},{"Relevance":1.0,"Distance":55.4,"MatchLevel":"houseNumber","MatchQuality":{"Country":1.0,"State":1.0,"County":1.0,"City":1.0,"District":1.0,"Street":[1.0],"HouseNumber":1.0,"PostalCode":1.0},"MatchType":"interpolated","Location":{"LocationId":"NT_21yjLGtXp74wvC7a2DVJmD_xA","LocationType":"point","DisplayPosition":{"Latitude":46.02809,"Longitude":1.71461},"MapView":{"TopLeft":{"Latitude":46.0292142,"Longitude":1.7129909},"BottomRight":{"Latitude":46.0269658,"Longitude":1.7162291}},"Address":{"Label":"1 Rue du Château, 23400 Saint-Dizier-Masbaraud, France","Country":"FRA","State":"Nouvelle-Aquitaine","County":"Creuse","City":"Saint-Dizier-Masbaraud","District":"Saint-Dizier-Leyrenne","Street":"Rue du Château","HouseNumber":"1","PostalCode":"23400","AdditionalData":[{"value":"France","key":"CountryName"},{"value":"Nouvelle-Aquitaine","key":"StateName"},{"value":"Creuse","key":"CountyName"}]},"MapReference":{"ReferenceId":"57594301","Spot":0.77,"SideOfStreet":"left","CountryId":"20000001","StateId":"20000383","CountyId":"20061327","CityId":"20091682","DistrictId":"20091684","AddressId":"379498573","RoadLinkId":"53015211"}}}]}]}}