{"Response":{"MetaInfo":{"Timestamp":"2020-03-28T11:36:43.014+0000","NextPageInformation":"2"},"View":[{"_type":"SearchResultsViewType","ViewId":0,"Result":[{"Relevance":1.0,"Distance":0.0,"Direction":0.0,"MatchLevel":"district","MatchQuality":{"Country":1.0,"County":1.0,"City":1.0,"District":1.0,"PostalCode":1.0},"Location":{"LocationId":"NT_lcgcVwcxrzotbJfS5nS0XD","LocationType":"point","DisplayPosition":{"Latitude":46.0562106,"Longitude":14.5315846},"MapView":{"TopLeft":{"Latitude":46.05873,"Longitude":14.51638},"BottomRight":{"Latitude":46.05012,"Longitude":14.5407}},"Address":{"Label":"Vodmat, Ljubljana, Slovenija","Country":"SVN","County":"Ljubljana","City":"Ljubljana","District":"Vodmat","PostalCode":"1000","AdditionalData":[{"value":"Slovenija","key":"CountryName"},{"value":"Ljubljana","key":"CountyName"}]},"MapReference":{"ReferenceId":"830603148","SideOfStreet":"neither","CountryId":"20633685","CountyId":"20637391","CityId":"20637495"}}},{"Relevance":1.0,"Distance":18.9,"MatchLevel":"houseNumber","MatchQuality":{"Country":1.0,"County":1.0,"City":1.0,"District":1.0,"Street":[1.0],"HouseNumber":1.0,"PostalCode":1.0},"MatchType":"interpolated","Location":{"LocationId":"NT_xuGoVDPc11p-pyOlvvliGD_3A","LocationType":"point","DisplayPosition":{"Latitude":46.05638,"Longitude":14.53157},"MapView":{"TopLeft":{"Latitude":46.0575042,"Longitude":14.5299501},"BottomRight":{"Latitude":46.0552558,"Longitude":14.5331899}},"Address":{"Label":"Prvomajska ulica 7, SI- 1000 Ljubljana, Slovenija","Country":"SVN","County":"Ljubljana","City":"Ljubljana","District":"Vodmat","Street":"Prvomajska ulica","HouseNumber":"7","PostalCode":"1000","AdditionalData":[{"value":"Slovenija","key":"CountryName"},{"value":"Ljubljana","key":"CountyName"}]},"MapReference":{"ReferenceId":"1243908755","Spot":0.98,"SideOfStreet":"left","CountryId":"20633685","CountyId":"20637391","CityId":"20637495","AddressId":"406966481","RoadLinkId":"565270471"}}},{"Relevance":1.0,"Distance":26.5,"MatchLevel":"houseNumber","MatchQuality":{"Country":1.0,"County":1.0,"City":1.0,"District":1.0,"Street":[1.0],"HouseNumber":1.0,"PostalCode":1.0},"MatchType":"interpolated","Location":{"LocationId":"NT_xuGoVDPc11p-pyOlvvliGD_1A","LocationType":"point","DisplayPosition":{"Latitude":46.05602,"Longitude":14.53179},"MapView":{"TopLeft":{"Latitude":46.0571442,"Longitude":14.5301701},"BottomRight":{"Latitude":46.0548958,"Longitude":14.5334099}},"Address":{"Label":"Prvomajska ulica 5, SI- 1000 Ljubljana, Slovenija","Country":"SVN","County":"Ljubljana","City":"Ljubljana","District":"Vodmat","Street":"Prvomajska ulica","HouseNumber":"5","PostalCode":"1000","AdditionalData":[{"value":"Slovenija","key":"CountryName"},{"value":"Ljubljana","key":"CountyName"}]},"MapReference":{"ReferenceId":"1243908757","Spot":0.7,"SideOfStreet":"left","CountryId":"20633685","CountyId":"20637391","CityId":"20637495","AddressId":"406966479","RoadLinkId":"565270473"}}},{"Relevance":1.0,"Distance":40.9,"MatchLevel":"houseNumber","MatchQuality":{"Country":1.0,"County":1.0,"City":1.0,"District":1.0,"Street":[1.0],"HouseNumber":1.0,"PostalCode":1.0},"MatchType":"interpolated","Location":{"LocationId":"NT_xuGoVDPc11p-pyOlvvliGD_5A","LocationType":"point","DisplayPosition":{"Latitude":46.05657,"Longitude":14.53147},"MapView":{"TopLeft":{"Latitude":46.0576942,"Longitude":14.5298501},"BottomRight":{"Latitude":46.0554458,"Longitude":14.5330899}},"Address":{"Label":"Prvomajska ulica 9, SI- 1000 Ljubljana, Slovenija","Country":"SVN","County":"Ljubljana","City":"Ljubljana","District":"Vodmat","Street":"Prvomajska ulica","HouseNumber":"9","PostalCode":"1000","AdditionalData":[{"value":"Slovenija","key":"CountryName"},{"value":"Ljubljana","key":"CountyName"}]},"MapReference":{"ReferenceId":"585371236","Spot":0.17,"SideOfStreet":"left","CountryId":"20633685","CountyId":"20637391","CityId":"20637495","AddressId":"406576685","RoadLinkId":"54503490"}}},{"Relevance":1.0,"Distance":52.2,"MatchLevel":"houseNumber","MatchQuality":{"Country":1.0,"County":1.0,"City":1.0,"District":1.0,"Street":[1.0],"HouseNumber":1.0,"PostalCode":1.0},"MatchType":"interpolated","Location":{"LocationId":"NT_hWHfFtnTRMLsvAL.tUyvlD_yA","LocationType":"point","DisplayPosition":{"Latitude":46.05653,"Longitude":14.53208},"MapView":{"TopLeft":{"Latitude":46.0576542,"Longitude":14.5304601},"BottomRight":{"Latitude":46.0554058,"Longitude":14.5336999}},"Address":{"Label":"Rojčeva ulica 2, SI- 1000 Ljubljana, Slovenija","Country":"SVN","County":"Ljubljana","City":"Ljubljana","District":"Vodmat","Street":"Rojčeva ulica","HouseNumber":"2","PostalCode":"1000","AdditionalData":[{"value":"Slovenija","key":"CountryName"},{"value":"Ljubljana","key":"CountyName"}]},"MapReference":{"ReferenceId":"847958735","Spot":0.45,"SideOfStreet":"right","CountryId":"20633685","CountyId":"20637391","CityId":"20637495","AddressId":"406638450","RoadLinkId":"228673429"}}},{"Relevance":1.0,"Distance":63.2,"MatchLevel":"houseNumber","MatchQuality":{"Country":1.0,"County":1.0,"City":1.0,"District":1.0,"Street":[1.0],"HouseNumber":1.0,"PostalCode":1.0},"MatchType":"interpolated","Location":{"LocationId":"NT_-7ISsLa74Fibn9AZ3sCXmD_xAD","LocationType":"point","DisplayPosition":{"Latitude":46.05583,"Longitude":14.53085},"MapView":{"TopLeft":{"Latitude":46.0569542,"Longitude":14.5292301},"BottomRight":{"Latitude":46.0547058,"Longitude":14.5324699}},"Address":{"Label":"Društvena ulica 10, SI- 1000 Ljubljana, Slovenija","Country":"SVN","County":"Ljubljana","City":"Ljubljana","District":"Vodmat","Street":"Društvena ulica","HouseNumber":"10","PostalCode":"1000","AdditionalData":[{"value":"Slovenija","key":"CountryName"},{"value":"Ljubljana","key":"CountyName"}]},"MapReference":{"ReferenceId":"585371420","Spot":0.38,"SideOfStreet":"right","CountryId":"20633685","CountyId":"20637391","CityId":"20637495","AddressId":"406943165","RoadLinkId":"54496812"}}},{"Relevance":1.0,"Distance":76.9,"MatchLevel":"houseNumber","MatchQuality":{"Country":1.0,"County":1.0,"City":1.0,"District":1.0,"Street":[1.0],"HouseNumber":1.0,"PostalCode":1.0},"MatchType":"interpolated","Location":{"LocationId":"NT_xuGoVDPc11p-pyOlvvliGD_zA","LocationType":"point","DisplayPosition":{"Latitude":46.05563,"Longitude":14.53202},"MapView":{"TopLeft":{"Latitude":46.0567542,"Longitude":14.5304001},"BottomRight":{"Latitude":46.0545058,"Longitude":14.5336399}},"Address":{"Label":"Prvomajska ulica 3, SI- 1000 Ljubljana, Slovenija","Country":"SVN","County":"Ljubljana","City":"Ljubljana","District":"Vodmat","Street":"Prvomajska ulica","HouseNumber":"3","PostalCode":"1000","AdditionalData":[{"value":"Slovenija","key":"CountryName"},{"value":"Ljubljana","key":"CountyName"}]},"MapReference":{"ReferenceId":"1243908756","Spot":0.61,"SideOfStreet":"left","CountryId":"20633685","CountyId":"20637391","CityId":"20637495","AddressId":"406966478","RoadLinkId":"565270472"}}},{"Relevance":1.0,"Distance":89.9,"MatchLevel":"houseNumber","MatchQuality":{"Country":1.0,"County":1.0,"City":1.0,"District":1.0,"Street":[1.0],"HouseNumber":1.0,"PostalCode":1.0},"MatchType":"interpolated","Location":{"LocationId":"NT_XNNARbw7y-eGKP9T229wnB_0UjQ","LocationType":"point","DisplayPosition":{"Latitude":46.05514,"Longitude":14.53199},"MapView":{"TopLeft":{"Latitude":46.0562642,"Longitude":14.5303701},"BottomRight":{"Latitude":46.0540158,"Longitude":14.5336099}},"Address":{"Label":"Zaloška cesta 45B, SI- 1000 Ljubljana, Slovenija","Country":"SVN","County":"Ljubljana","City":"Ljubljana","District":"Vodmat","Street":"Zaloška cesta","HouseNumber":"45B","PostalCode":"1000","AdditionalData":[{"value":"Slovenija","key":"CountryName"},{"value":"Ljubljana","key":"CountyName"}]},"MapReference":{"ReferenceId":"1167460614","Spot":0.41,"SideOfStreet":"left","CountryId":"20633685","CountyId":"20637391","CityId":"20637495","AddressId":"406539972","RoadLinkId":"474091866"}}},{"Relevance":1.0,"Distance":94.7,"MatchLevel":"houseNumber","MatchQuality":{"Country":1.0,"County":1.0,"City":1.0,"District":1.0,"Street":[1.0],"HouseNumber":1.0,"PostalCode":1.0},"MatchType":"interpolated","Location":{"LocationId":"NT_hWHfFtnTRMLsvAL.tUyvlD_3A","LocationType":"point","DisplayPosition":{"Latitude":46.0568,"Longitude":14.53264},"MapView":{"TopLeft":{"Latitude":46.0579242,"Longitude":14.5310201},"BottomRight":{"Latitude":46.0556758,"Longitude":14.5342599}},"Address":{"Label":"Rojčeva ulica 7, SI- 1000 Ljubljana, Slovenija","Country":"SVN","County":"Ljubljana","City":"Ljubljana","District":"Vodmat","Street":"Rojčeva ulica","HouseNumber":"7","PostalCode":"1000","AdditionalData":[{"value":"Slovenija","key":"CountryName"},{"value":"Ljubljana","key":"CountyName"}]},"MapReference":{"ReferenceId":"847958734","Spot":0.12,"SideOfStreet":"left","CountryId":"20633685","CountyId":"20637391","CityId":"20637495","AddressId":"406930217","RoadLinkId":"228673431"}}},{"Relevance":1.0,"Distance":100.8,"MatchLevel":"houseNumber","MatchQuality":{"Country":1.0,"County":1.0,"City":1.0,"District":1.0,"Street":[1.0],"HouseNumber":1.0,"PostalCode":1.0},"MatchType":"interpolated","Location":{"LocationId":"NT_XNNARbw7y-eGKP9T229wnB_0UTQ","LocationType":"point","DisplayPosition":{"Latitude":46.0551,"Longitude":14.53184},"MapView":{"TopLeft":{"Latitude":46.0562242,"Longitude":14.5302201},"BottomRight":{"Latitude":46.0539758,"Longitude":14.5334599}},"Address":{"Label":"Zaloška cesta 45A, SI- 1000 Ljubljana, Slovenija","Country":"SVN","County":"Ljubljana","City":"Ljubljana","District":"Vodmat","Street":"Zaloška cesta","HouseNumber":"45A","PostalCode":"1000","AdditionalData":[{"value":"Slovenija","key":"CountryName"},{"value":"Ljubljana","key":"CountyName"}]},"MapReference":{"ReferenceId":"1167460613","Spot":0.88,"SideOfStreet":"left","CountryId":"20633685","CountyId":"20637391","CityId":"20637495","AddressId":"406539966","RoadLinkId":"474091865"}}}]}]}}