{"Response":{"MetaInfo":{"Timestamp":"2020-03-31T17:05:17.468+0000","NextPageInformation":"2"},"View":[{"_type":"SearchResultsViewType","ViewId":0,"Result":[{"Relevance":1.0,"Distance":0.0,"Direction":0.0,"MatchLevel":"city","MatchQuality":{"Country":1.0,"County":1.0,"City":1.0,"PostalCode":1.0},"Location":{"LocationId":"NT_NQchRqi.uEL1D0hp8ucxzA","LocationType":"point","DisplayPosition":{"Latitude":46.0882,"Longitude":15.1728},"MapView":{"TopLeft":{"Latitude":46.20082,"Longitude":15.11175},"BottomRight":{"Latitude":46.05522,"Longitude":15.3755}},"Address":{"Label":"Laško, Slovenija","Country":"SVN","County":"Laško","City":"Laško","PostalCode":"3270","AdditionalData":[{"value":"Slovenija","key":"CountryName"},{"value":"Laško","key":"CountyName"}]},"MapReference":{"ReferenceId":"1050436090","SideOfStreet":"neither","CountryId":"20633685","CountyId":"20636974","CityId":"20636975"}}},{"Relevance":1.0,"Distance":256.9,"MatchLevel":"houseNumber","MatchQuality":{"Country":1.0,"County":1.0,"City":1.0,"District":1.0,"Street":[1.0],"HouseNumber":1.0,"PostalCode":1.0},"MatchType":"interpolated","Location":{"LocationId":"NT_HjUsEeljBaUtV5UkIv-3yC_xQD","LocationType":"point","DisplayPosition":{"Latitude":46.08594,"Longitude":15.17383},"MapView":{"TopLeft":{"Latitude":46.0870642,"Longitude":15.1722092},"BottomRight":{"Latitude":46.0848158,"Longitude":15.1754508}},"Address":{"Label":"5 14, SI- 1432 Laško, Slovenija","Country":"SVN","County":"Laško","City":"Laško","District":"Zidani Most","Street":"5","HouseNumber":"14","PostalCode":"1432","AdditionalData":[{"value":"Slovenija","key":"CountryName"},{"value":"Laško","key":"CountyName"}]},"MapReference":{"ReferenceId":"786412641","Spot":0.83,"SideOfStreet":"left","CountryId":"20633685","CountyId":"20636974","CityId":"20636975","DistrictId":"22692491","AddressId":"406713425","RoadLinkId":"179073951"}}},{"Relevance":1.0,"Distance":256.9,"MatchLevel":"street","MatchQuality":{"Country":1.0,"County":1.0,"City":1.0,"District":1.0,"Street":[1.0],"PostalCode":1.0},"Location":{"LocationId":"NT_V-8.EGiMfCbOenUUyzO8qD_l_786412642_L","LocationType":"point","DisplayPosition":{"Latitude":46.08607,"Longitude":15.17409},"MapView":{"TopLeft":{"Latitude":46.08644,"Longitude":15.17409},"BottomRight":{"Latitude":46.08607,"Longitude":15.17485}},"Address":{"Label":"5, SI- 1432 Laško, Slovenija","Country":"SVN","County":"Laško","City":"Laško","District":"Zidani Most","Street":"5","PostalCode":"1432","AdditionalData":[{"value":"Slovenija","key":"CountryName"},{"value":"Laško","key":"CountyName"}]},"MapReference":{"ReferenceId":"786412642","Spot":0.0,"SideOfStreet":"left","CountryId":"20633685","CountyId":"20636974","CityId":"20636975","DistrictId":"22692491"}}},{"Relevance":1.0,"Distance":259.2,"MatchLevel":"houseNumber","MatchQuality":{"Country":1.0,"County":1.0,"City":1.0,"District":1.0,"Street":[1.0],"HouseNumber":1.0,"PostalCode":1.0},"MatchType":"interpolated","Location":{"LocationId":"NT_HjUsEeljBaUtV5UkIv-3yC_xYD","LocationType":"point","DisplayPosition":{"Latitude":46.08669,"Longitude":15.17546},"MapView":{"TopLeft":{"Latitude":46.0878142,"Longitude":15.1738392},"BottomRight":{"Latitude":46.0855658,"Longitude":15.1770808}},"Address":{"Label":"5 16, SI- 1432 Laško, Slovenija","Country":"SVN","County":"Laško","City":"Laško","District":"Zidani Most","Street":"5","HouseNumber":"16","PostalCode":"1432","AdditionalData":[{"value":"Slovenija","key":"CountryName"},{"value":"Laško","key":"CountyName"}]},"MapReference":{"ReferenceId":"786630377","Spot":0.41,"SideOfStreet":"left","CountryId":"20633685","CountyId":"20636974","CityId":"20636975","DistrictId":"22692491","AddressId":"406585663","RoadLinkId":"179250410"}}},{"Relevance":1.0,"Distance":270.6,"MatchLevel":"landmark","MatchQuality":{"Country":1.0,"Name":1.0},"Location":{"LocationId":"NT_t8DKV-uwwEb0NgfZZXIRFB","LocationType":"river","Name":"Savinja","DisplayPosition":{"Latitude":46.21362,"Longitude":15.26193},"MapView":{"TopLeft":{"Latitude":46.34406,"Longitude":14.82986},"BottomRight":{"Latitude":46.08317,"Longitude":15.26749}},"Address":{"Label":"SI-, Slovenija","Country":"SVN","AdditionalData":[{"value":"Slovenija","key":"CountryName"}]},"MapReference":{"CountryId":"20633685","PlaceId":"1401284743"}}},{"Relevance":1.0,"Distance":284.4,"MatchLevel":"street","MatchQuality":{"Country":1.0,"County":1.0,"City":1.0,"District":1.0,"PostalCode":1.0},"Location":{"LocationId":"NT_ACh4TiP6wEEAf2gsWeQ-gC_l_1089162761_L","LocationType":"point","DisplayPosition":{"Latitude":46.09069,"Longitude":15.17196},"MapView":{"TopLeft":{"Latitude":46.09118,"Longitude":15.17095},"BottomRight":{"Latitude":46.09069,"Longitude":15.17196}},"Address":{"Label":"SI- 1432 Laško, Slovenija","Country":"SVN","County":"Laško","City":"Laško","District":"Širje","PostalCode":"1432","AdditionalData":[{"value":"Slovenija","key":"CountryName"},{"value":"Laško","key":"CountyName"}]},"MapReference":{"ReferenceId":"1089162761","Spot":0.0,"SideOfStreet":"left","CountryId":"20633685","CountyId":"20636974","CityId":"20636975","DistrictId":"22695484"}}},{"Relevance":1.0,"Distance":316.7,"MatchLevel":"street","MatchQuality":{"Country":1.0,"County":1.0,"City":1.0,"District":1.0,"Street":[1.0],"PostalCode":1.0},"Location":{"LocationId":"NT_RoQizpWpD5BjMLstEFqyyC_l_710543901_L","LocationType":"point","DisplayPosition":{"Latitude":46.0858,"Longitude":15.17501},"MapView":{"TopLeft":{"Latitude":46.08602,"Longitude":15.17368},"BottomRight":{"Latitude":46.08462,"Longitude":15.17546}},"Address":{"Label":"Obrežje pri Zidanem Mostu, SI- 1432 Laško, Slovenija","Country":"SVN","County":"Laško","City":"Laško","District":"Obrežje pri Zidanem Mostu","Street":"Obrežje pri Zidanem Mostu","PostalCode":"1432","AdditionalData":[{"value":"Slovenija","key":"CountryName"},{"value":"Laško","key":"CountyName"}]},"MapReference":{"ReferenceId":"710543901","Spot":0.78,"SideOfStreet":"left","CountryId":"20633685","CountyId":"20636974","CityId":"20636975","DistrictId":"22695158"}}},{"Relevance":1.0,"Distance":326.1,"MatchLevel":"houseNumber","MatchQuality":{"Country":1.0,"County":1.0,"City":1.0,"District":1.0,"Street":[1.0],"HouseNumber":1.0,"PostalCode":1.0},"MatchType":"interpolated","Location":{"LocationId":"NT_HjUsEeljBaUtV5UkIv-3yC_5A","LocationType":"point","DisplayPosition":{"Latitude":46.0857,"Longitude":15.17059},"MapView":{"TopLeft":{"Latitude":46.0868242,"Longitude":15.1689692},"BottomRight":{"Latitude":46.0845758,"Longitude":15.1722108}},"Address":{"Label":"108 9, SI- 1432 Laško, Slovenija","Country":"SVN","County":"Laško","City":"Laško","District":"Zidani Most","Street":"108","HouseNumber":"9","PostalCode":"1432","AdditionalData":[{"value":"Slovenija","key":"CountryName"},{"value":"Laško","key":"CountyName"}]},"MapReference":{"ReferenceId":"1129871353","Spot":0.4,"SideOfStreet":"left","CountryId":"20633685","CountyId":"20636974","CityId":"20636975","DistrictId":"22692491","AddressId":"406832577","RoadLinkId":"439871978"}}},{"Relevance":1.0,"Distance":329.3,"MatchLevel":"street","MatchQuality":{"Country":1.0,"County":1.0,"City":1.0,"District":1.0,"Street":[1.0],"PostalCode":1.0},"Location":{"LocationId":"NT_HjUsEeljBaUtV5UkIv-3yC_l_1110194757_R","LocationType":"point","DisplayPosition":{"Latitude":46.0852401,"Longitude":15.1726684},"MapView":{"TopLeft":{"Latitude":46.08526,"Longitude":15.17222},"BottomRight":{"Latitude":46.08524,"Longitude":15.17267}},"Address":{"Label":"108, SI- 1432 Laško, Slovenija","Country":"SVN","County":"Laško","City":"Laško","District":"Zidani Most","Street":"108","PostalCode":"1432","AdditionalData":[{"value":"Slovenija","key":"CountryName"},{"value":"Laško","key":"CountyName"}]},"MapReference":{"ReferenceId":"1110194757","Spot":0.0,"SideOfStreet":"right","CountryId":"20633685","CountyId":"20636974","CityId":"20636975","DistrictId":"22692491"}}},{"Relevance":1.0,"Distance":329.3,"MatchLevel":"street","MatchQuality":{"Country":1.0,"County":1.0,"City":1.0,"District":1.0,"Street":[1.0],"PostalCode":1.0},"Location":{"LocationId":"NT_V-8.EGiMfCbOenUUyzO8qD_l_905502174_R","LocationType":"point","DisplayPosition":{"Latitude":46.08524,"Longitude":15.17267},"MapView":{"TopLeft":{"Latitude":46.08524,"Longitude":15.17267},"BottomRight":{"Latitude":46.0852,"Longitude":15.17268}},"Address":{"Label":"5, SI- 1432 Laško, Slovenija","Country":"SVN","County":"Laško","City":"Laško","District":"Zidani Most","Street":"5","PostalCode":"1432","AdditionalData":[{"value":"Slovenija","key":"CountryName"},{"value":"Laško","key":"CountyName"}]},"MapReference":{"ReferenceId":"905502174","Spot":1.0,"SideOfStreet":"right","CountryId":"20633685","CountyId":"20636974","CityId":"20636975","DistrictId":"22692491"}}}]}]}}