{"Response":{"MetaInfo":{"Timestamp":"2020-03-31T17:05:17.703+0000","NextPageInformation":"2"},"View":[{"_type":"SearchResultsViewType","ViewId":0,"Result":[{"Relevance":1.0,"Distance":0.0,"Direction":0.0,"MatchLevel":"district","MatchQuality":{"Country":1.0,"County":1.0,"City":1.0,"District":1.0,"PostalCode":1.0},"Location":{"LocationId":"NT_rQhWNiDhEFLI.399Lz1u-D","LocationType":"point","DisplayPosition":{"Latitude":46.0681,"Longitude":15.1839},"MapView":{"TopLeft":{"Latitude":46.06998,"Longitude":15.15919},"BottomRight":{"Latitude":46.06226,"Longitude":15.18753}},"Address":{"Label":"Radeče, Slovenija","Country":"SVN","County":"Laško","City":"Radeče","District":"Radeče","PostalCode":"1433","AdditionalData":[{"value":"Slovenija","key":"CountryName"},{"value":"Laško","key":"CountyName"}]},"MapReference":{"ReferenceId":"980039756","SideOfStreet":"neither","CountryId":"20633685","CountyId":"20636974","CityId":"22689807","DistrictId":"22693184"}}},{"Relevance":1.0,"Distance":7.6,"MatchLevel":"street","MatchQuality":{"Country":1.0,"County":1.0,"City":1.0,"District":1.0,"Street":[1.0],"PostalCode":1.0},"Location":{"LocationId":"NT_pkU06x1R8xOmLlcR2JJN8C_l_710591414_L","LocationType":"point","DisplayPosition":{"Latitude":46.0681529,"Longitude":15.1839633},"MapView":{"TopLeft":{"Latitude":46.06998,"Longitude":15.18228},"BottomRight":{"Latitude":46.06781,"Longitude":15.18425}},"Address":{"Label":"Zavrate, SI- 1433 Radeče, Slovenija","Country":"SVN","County":"Laško","City":"Radeče","District":"Radeče","Street":"Zavrate","PostalCode":"1433","AdditionalData":[{"value":"Slovenija","key":"CountryName"},{"value":"Laško","key":"CountyName"}]},"MapReference":{"ReferenceId":"710591414","Spot":0.15,"SideOfStreet":"left","CountryId":"20633685","CountyId":"20636974","CityId":"22689807","DistrictId":"22693184"}}},{"Relevance":1.0,"Distance":22.8,"MatchLevel":"landmark","MatchQuality":{"Country":1.0,"Name":1.0},"Location":{"LocationId":"NT_nm90O3FYNJImcUBPSas4gD","LocationType":"river","Name":"Sava","DisplayPosition":{"Latitude":46.00101,"Longitude":15.33507},"MapView":{"TopLeft":{"Latitude":46.14603,"Longitude":14.41389},"BottomRight":{"Latitude":45.85598,"Longitude":15.69793}},"Address":{"Label":"SI-, Slovenija","Country":"SVN","AdditionalData":[{"value":"Slovenija","key":"CountryName"}]},"MapReference":{"CountryId":"20633685","PlaceId":"1404982096"}}},{"Relevance":1.0,"Distance":42.1,"MatchLevel":"street","MatchQuality":{"Country":1.0,"County":1.0,"City":1.0,"District":1.0,"Street":[1.0],"PostalCode":1.0},"Location":{"LocationId":"NT_pkU06x1R8xOmLlcR2JJN8C_l_710591473_R","LocationType":"point","DisplayPosition":{"Latitude":46.06781,"Longitude":15.18425},"MapView":{"TopLeft":{"Latitude":46.06781,"Longitude":15.18389},"BottomRight":{"Latitude":46.06702,"Longitude":15.18467}},"Address":{"Label":"Zavrate, SI- 1433 Radeče, Slovenija","Country":"SVN","County":"Laško","City":"Radeče","District":"Radeče","Street":"Zavrate","PostalCode":"1433","AdditionalData":[{"value":"Slovenija","key":"CountryName"},{"value":"Laško","key":"CountyName"}]},"MapReference":{"ReferenceId":"710591473","Spot":1.0,"SideOfStreet":"right","CountryId":"20633685","CountyId":"20636974","CityId":"22689807","DistrictId":"22693184"}}},{"Relevance":1.0,"Distance":43.3,"MatchLevel":"street","MatchQuality":{"Country":1.0,"County":1.0,"City":1.0,"District":1.0,"Street":[1.0],"PostalCode":1.0},"Location":{"LocationId":"NT_pkU06x1R8xOmLlcR2JJN8C_l_923816041_L","LocationType":"point","DisplayPosition":{"Latitude":46.06778,"Longitude":15.18422},"MapView":{"TopLeft":{"Latitude":46.06781,"Longitude":15.18404},"BottomRight":{"Latitude":46.0676,"Longitude":15.18425}},"Address":{"Label":"Zavrate, SI- 1433 Radeče, Slovenija","Country":"SVN","County":"Laško","City":"Radeče","District":"Radeče","Street":"Zavrate","PostalCode":"1433","AdditionalData":[{"value":"Slovenija","key":"CountryName"},{"value":"Laško","key":"CountyName"}]},"MapReference":{"ReferenceId":"923816041","Spot":0.86,"SideOfStreet":"left","CountryId":"20633685","CountyId":"20636974","CityId":"22689807","DistrictId":"22693184"}}},{"Relevance":1.0,"Distance":44.5,"MatchLevel":"houseNumber","MatchQuality":{"Country":1.0,"County":1.0,"City":1.0,"District":1.0,"Street":[1.0],"HouseNumber":1.0,"PostalCode":1.0},"MatchType":"interpolated","Location":{"LocationId":"NT_10xI4-eZozBLq706jiirmC_xYD","LocationType":"point","DisplayPosition":{"Latitude":46.06796,"Longitude":15.18336},"MapView":{"TopLeft":{"Latitude":46.0690842,"Longitude":15.1817397},"BottomRight":{"Latitude":46.0668358,"Longitude":15.1849803}},"Address":{"Label":"Starograjska ulica 16, SI- 1433 Radeče, Slovenija","Country":"SVN","County":"Laško","City":"Radeče","District":"Radeče","Street":"Starograjska ulica","HouseNumber":"16","PostalCode":"1433","AdditionalData":[{"value":"Slovenija","key":"CountryName"},{"value":"Laško","key":"CountyName"}]},"MapReference":{"ReferenceId":"923816042","Spot":1.0,"SideOfStreet":"right","CountryId":"20633685","CountyId":"20636974","CityId":"22689807","DistrictId":"22693184","AddressId":"690053400","RoadLinkId":"437133905"}}},{"Relevance":1.0,"Distance":65.0,"MatchLevel":"houseNumber","MatchQuality":{"Country":1.0,"County":1.0,"City":1.0,"District":1.0,"Street":[1.0],"HouseNumber":1.0,"PostalCode":1.0},"MatchType":"interpolated","Location":{"LocationId":"NT_10xI4-eZozBLq706jiirmC_yYD","LocationType":"point","DisplayPosition":{"Latitude":46.06858,"Longitude":15.183},"MapView":{"TopLeft":{"Latitude":46.0697042,"Longitude":15.1813797},"BottomRight":{"Latitude":46.0674558,"Longitude":15.1846203}},"Address":{"Label":"Starograjska ulica 26, SI- 1433 Radeče, Slovenija","Country":"SVN","County":"Laško","City":"Radeče","District":"Radeče","Street":"Starograjska ulica","HouseNumber":"26","PostalCode":"1433","AdditionalData":[{"value":"Slovenija","key":"CountryName"},{"value":"Laško","key":"CountyName"}]},"MapReference":{"ReferenceId":"1114248866","Spot":0.37,"SideOfStreet":"right","CountryId":"20633685","CountyId":"20636974","CityId":"22689807","DistrictId":"22693184","AddressId":"676319753","RoadLinkId":"424195247"}}},{"Relevance":1.0,"Distance":80.8,"MatchLevel":"houseNumber","MatchQuality":{"Country":1.0,"County":1.0,"City":1.0,"District":1.0,"Street":[1.0],"HouseNumber":1.0,"PostalCode":1.0},"MatchType":"interpolated","Location":{"LocationId":"NT_10xI4-eZozBLq706jiirmC_xQD","LocationType":"point","DisplayPosition":{"Latitude":46.06799,"Longitude":15.18272},"MapView":{"TopLeft":{"Latitude":46.0691142,"Longitude":15.1810997},"BottomRight":{"Latitude":46.0668658,"Longitude":15.1843403}},"Address":{"Label":"Starograjska ulica 14, SI- 1433 Radeče, Slovenija","Country":"SVN","County":"Laško","City":"Radeče","District":"Radeče","Street":"Starograjska ulica","HouseNumber":"14","PostalCode":"1433","AdditionalData":[{"value":"Slovenija","key":"CountryName"},{"value":"Laško","key":"CountyName"}]},"MapReference":{"ReferenceId":"1117534514","Spot":0.95,"SideOfStreet":"right","CountryId":"20633685","CountyId":"20636974","CityId":"22689807","DistrictId":"22693184","AddressId":"676319174","RoadLinkId":"427818572"}}},{"Relevance":1.0,"Distance":89.7,"MatchLevel":"street","MatchQuality":{"Country":1.0,"County":1.0,"City":1.0,"District":1.0,"Street":[1.0],"PostalCode":1.0},"Location":{"LocationId":"NT_10xI4-eZozBLq706jiirmC_l_926982518_R","LocationType":"point","DisplayPosition":{"Latitude":46.06805,"Longitude":15.18274},"MapView":{"TopLeft":{"Latitude":46.0685,"Longitude":15.18169},"BottomRight":{"Latitude":46.06805,"Longitude":15.18274}},"Address":{"Label":"Starograjska ulica, SI- 1433 Radeče, Slovenija","Country":"SVN","County":"Laško","City":"Radeče","District":"Radeče","Street":"Starograjska ulica","PostalCode":"1433","AdditionalData":[{"value":"Slovenija","key":"CountryName"},{"value":"Laško","key":"CountyName"}]},"MapReference":{"ReferenceId":"926982518","Spot":0.0,"SideOfStreet":"right","CountryId":"20633685","CountyId":"20636974","CityId":"22689807","DistrictId":"22693184"}}},{"Relevance":1.0,"Distance":94.7,"MatchLevel":"houseNumber","MatchQuality":{"Country":1.0,"County":1.0,"City":1.0,"District":1.0,"Street":[1.0],"HouseNumber":1.0,"PostalCode":1.0},"MatchType":"interpolated","Location":{"LocationId":"NT_VUTL53kecxbYsbcUUJMKWC_xAD","LocationType":"point","DisplayPosition":{"Latitude":46.06714,"Longitude":15.18362},"MapView":{"TopLeft":{"Latitude":46.0682642,"Longitude":15.1819998},"BottomRight":{"Latitude":46.0660158,"Longitude":15.1852402}},"Address":{"Label":"Trg 10, SI- 1433 Radeče, Slovenija","Country":"SVN","County":"Laško","City":"Radeče","District":"Radeče","Street":"Trg","HouseNumber":"10","PostalCode":"1433","AdditionalData":[{"value":"Slovenija","key":"CountryName"},{"value":"Laško","key":"CountyName"}]},"MapReference":{"ReferenceId":"923816040","Spot":0.59,"SideOfStreet":"left","CountryId":"20633685","CountyId":"20636974","CityId":"22689807","DistrictId":"22693184","AddressId":"677332489","RoadLinkId":"431331938"}}}]}]}}