{"Response":{"MetaInfo":{"Timestamp":"2020-03-28T09:54:54.539+0000","NextPageInformation":"2"},"View":[{"_type":"SearchResultsViewType","ViewId":0,"Result":[{"Relevance":1.0,"Distance":0.0,"Direction":0.0,"MatchLevel":"district","MatchQuality":{"Country":1.0,"State":1.0,"County":1.0,"City":1.0,"District":1.0,"PostalCode":1.0},"Location":{"LocationId":"NT_.aALI508q4f0Y3-clKGiWC","LocationType":"point","DisplayPosition":{"Latitude":46.0793347,"Longitude":18.2093839},"MapView":{"TopLeft":{"Latitude":46.0941,"Longitude":18.20171},"BottomRight":{"Latitude":46.07715,"Longitude":18.21158}},"Address":{"Label":"Bálics, Pécs, Baranya, Magyarország","Country":"HUN","State":"Baranya","County":"Pécsi Járás","City":"Pécs","District":"Bálics","PostalCode":"7635","AdditionalData":[{"value":"Magyarország","key":"CountryName"},{"value":"Baranya","key":"StateName"},{"value":"Pécsi Járás","key":"CountyName"}]},"MapReference":{"ReferenceId":"598481315","SideOfStreet":"neither","CountryId":"20613038","StateId":"20614237","CountyId":"26680530","CityId":"20614905"}}},{"Relevance":1.0,"Distance":9.9,"MatchLevel":"street","MatchQuality":{"Country":1.0,"State":1.0,"County":1.0,"City":1.0,"District":1.0,"PostalCode":1.0},"Location":{"LocationId":"NT_SymR6CtXNj24ieW5YRElJD_l_833656221_R","LocationType":"point","DisplayPosition":{"Latitude":46.0794233,"Longitude":18.2093855},"MapView":{"TopLeft":{"Latitude":46.07943,"Longitude":18.20877},"BottomRight":{"Latitude":46.07936,"Longitude":18.20957}},"Address":{"Label":"Pécs 7624, Magyarország","Country":"HUN","State":"Baranya","County":"Pécsi Járás","City":"Pécs","District":"Bálics","PostalCode":"7624","AdditionalData":[{"value":"Magyarország","key":"CountryName"},{"value":"Baranya","key":"StateName"},{"value":"Pécsi Járás","key":"CountyName"}]},"MapReference":{"ReferenceId":"833656221","Spot":0.77,"SideOfStreet":"right","CountryId":"20613038","StateId":"20614237","CountyId":"26680530","CityId":"20614905"}}},{"Relevance":1.0,"Distance":16.3,"MatchLevel":"houseNumber","MatchQuality":{"Country":1.0,"State":1.0,"County":1.0,"City":1.0,"District":1.0,"Street":[1.0],"HouseNumber":1.0,"PostalCode":1.0},"MatchType":"interpolated","Location":{"LocationId":"NT_RwSJ2Fep5QJUkLqkK0E1gC_l_833661521_L_xcD","LocationType":"point","DisplayPosition":{"Latitude":46.0791973,"Longitude":18.2096948},"MapView":{"TopLeft":{"Latitude":46.0803214,"Longitude":18.2080742},"BottomRight":{"Latitude":46.0780731,"Longitude":18.2113154}},"Address":{"Label":"Édesanyák útja 17, Pécs 7624, Magyarország","Country":"HUN","State":"Baranya","County":"Pécsi Járás","City":"Pécs","District":"Bálics","Street":"Édesanyák útja","HouseNumber":"17","PostalCode":"7624","AdditionalData":[{"value":"Magyarország","key":"CountryName"},{"value":"Baranya","key":"StateName"},{"value":"Pécsi Járás","key":"CountyName"}]},"MapReference":{"ReferenceId":"833661521","Spot":0.5,"SideOfStreet":"left","CountryId":"20613038","StateId":"20614237","CountyId":"26680530","CityId":"20614905"}}},{"Relevance":1.0,"Distance":17.2,"MatchLevel":"street","MatchQuality":{"Country":1.0,"State":1.0,"County":1.0,"City":1.0,"District":1.0,"Street":[1.0],"PostalCode":1.0},"Location":{"LocationId":"NT_RwSJ2Fep5QJUkLqkK0E1gC_l_833661562_L","LocationType":"point","DisplayPosition":{"Latitude":46.07942,"Longitude":18.20957},"MapView":{"TopLeft":{"Latitude":46.0795,"Longitude":18.20957},"BottomRight":{"Latitude":46.07942,"Longitude":18.20959}},"Address":{"Label":"Édesanyák útja, Pécs 7624, Magyarország","Country":"HUN","State":"Baranya","County":"Pécsi Járás","City":"Pécs","District":"Bálics","Street":"Édesanyák útja","PostalCode":"7624","AdditionalData":[{"value":"Magyarország","key":"CountryName"},{"value":"Baranya","key":"StateName"},{"value":"Pécsi Járás","key":"CountyName"}]},"MapReference":{"ReferenceId":"833661562","Spot":0.0,"SideOfStreet":"left","CountryId":"20613038","StateId":"20614237","CountyId":"26680530","CityId":"20614905"}}},{"Relevance":1.0,"Distance":24.3,"MatchLevel":"street","MatchQuality":{"Country":1.0,"State":1.0,"County":1.0,"City":1.0,"District":1.0,"Street":[1.0],"PostalCode":1.0},"Location":{"LocationId":"NT_RwSJ2Fep5QJUkLqkK0E1gC_l_833661563_L","LocationType":"point","DisplayPosition":{"Latitude":46.0795,"Longitude":18.20959},"MapView":{"TopLeft":{"Latitude":46.08002,"Longitude":18.20959},"BottomRight":{"Latitude":46.0795,"Longitude":18.20973}},"Address":{"Label":"Édesanyák útja, Pécs 7624, Magyarország","Country":"HUN","State":"Baranya","County":"Pécsi Járás","City":"Pécs","District":"Bálics","Street":"Édesanyák útja","PostalCode":"7624","AdditionalData":[{"value":"Magyarország","key":"CountryName"},{"value":"Baranya","key":"StateName"},{"value":"Pécsi Járás","key":"CountyName"}]},"MapReference":{"ReferenceId":"833661563","Spot":0.0,"SideOfStreet":"left","CountryId":"20613038","StateId":"20614237","CountyId":"26680530","CityId":"20614905"}}},{"Relevance":1.0,"Distance":26.4,"MatchLevel":"houseNumber","MatchQuality":{"Country":1.0,"State":1.0,"County":1.0,"City":1.0,"District":1.0,"Street":[1.0],"HouseNumber":1.0,"PostalCode":1.0},"MatchType":"interpolated","Location":{"LocationId":"NT_RwSJ2Fep5QJUkLqkK0E1gC_l_598492602_R_xcD","LocationType":"point","DisplayPosition":{"Latitude":46.0789852,"Longitude":18.2092022},"MapView":{"TopLeft":{"Latitude":46.0801094,"Longitude":18.2075816},"BottomRight":{"Latitude":46.0778611,"Longitude":18.2108228}},"Address":{"Label":"Édesanyák útja 17, Pécs 7624, Magyarország","Country":"HUN","State":"Baranya","County":"Pécsi Járás","City":"Pécs","District":"Bálics","Street":"Édesanyák útja","HouseNumber":"17","PostalCode":"7624","AdditionalData":[{"value":"Magyarország","key":"CountryName"},{"value":"Baranya","key":"StateName"},{"value":"Pécsi Járás","key":"CountyName"}]},"MapReference":{"ReferenceId":"598492602","Spot":0.53,"SideOfStreet":"right","CountryId":"20613038","StateId":"20614237","CountyId":"26680530","CityId":"20614905"}}},{"Relevance":1.0,"Distance":42.0,"MatchLevel":"street","MatchQuality":{"Country":1.0,"State":1.0,"County":1.0,"City":1.0,"District":1.0,"Street":[1.0],"PostalCode":1.0},"Location":{"LocationId":"NT_RwSJ2Fep5QJUkLqkK0E1gC_l_833661520_L","LocationType":"point","DisplayPosition":{"Latitude":46.0789681,"Longitude":18.2095172},"MapView":{"TopLeft":{"Latitude":46.07898,"Longitude":18.20933},"BottomRight":{"Latitude":46.0789,"Longitude":18.20955}},"Address":{"Label":"Édesanyák útja, Pécs 7624, Magyarország","Country":"HUN","State":"Baranya","County":"Pécsi Járás","City":"Pécs","District":"Bálics","Street":"Édesanyák útja","PostalCode":"7624","AdditionalData":[{"value":"Magyarország","key":"CountryName"},{"value":"Baranya","key":"StateName"},{"value":"Pécsi Járás","key":"CountyName"}]},"MapReference":{"ReferenceId":"833661520","Spot":0.85,"SideOfStreet":"left","CountryId":"20613038","StateId":"20614237","CountyId":"26680530","CityId":"20614905"}}},{"Relevance":1.0,"Distance":48.5,"MatchLevel":"street","MatchQuality":{"Country":1.0,"State":1.0,"County":1.0,"City":1.0,"District":1.0,"Street":[1.0],"PostalCode":1.0},"Location":{"LocationId":"NT_RwSJ2Fep5QJUkLqkK0E1gC_l_598482453_L","LocationType":"point","DisplayPosition":{"Latitude":46.0789,"Longitude":18.20933},"MapView":{"TopLeft":{"Latitude":46.0789,"Longitude":18.20908},"BottomRight":{"Latitude":46.07848,"Longitude":18.20933}},"Address":{"Label":"Édesanyák útja, Pécs 7624, Magyarország","Country":"HUN","State":"Baranya","County":"Pécsi Járás","City":"Pécs","District":"Bálics","Street":"Édesanyák útja","PostalCode":"7624","AdditionalData":[{"value":"Magyarország","key":"CountryName"},{"value":"Baranya","key":"StateName"},{"value":"Pécsi Járás","key":"CountyName"}]},"MapReference":{"ReferenceId":"598482453","Spot":1.0,"SideOfStreet":"left","CountryId":"20613038","StateId":"20614237","CountyId":"26680530","CityId":"20614905"}}},{"Relevance":1.0,"Distance":62.5,"MatchLevel":"houseNumber","MatchQuality":{"Country":1.0,"State":1.0,"County":1.0,"City":1.0,"District":1.0,"Street":[1.0],"HouseNumber":1.0,"PostalCode":1.0},"MatchType":"interpolated","Location":{"LocationId":"NT_fxnbTXVEnlnErUBwMMetpA_3A","LocationType":"point","DisplayPosition":{"Latitude":46.07999,"Longitude":18.20919},"MapView":{"TopLeft":{"Latitude":46.0811142,"Longitude":18.2075694},"BottomRight":{"Latitude":46.0788658,"Longitude":18.2108106}},"Address":{"Label":"Rodostó utca 7, Pécs 7624, Magyarország","Country":"HUN","State":"Baranya","County":"Pécsi Járás","City":"Pécs","District":"Bálics","Street":"Rodostó utca","HouseNumber":"7","PostalCode":"7624","AdditionalData":[{"value":"Magyarország","key":"CountryName"},{"value":"Baranya","key":"StateName"},{"value":"Pécsi Járás","key":"CountyName"}]},"MapReference":{"ReferenceId":"598482193","Spot":0.1,"SideOfStreet":"left","CountryId":"20613038","StateId":"20614237","CountyId":"26680530","CityId":"20614905","AddressId":"119338815","RoadLinkId":"60616672"}}},{"Relevance":1.0,"Distance":67.4,"MatchLevel":"houseNumber","MatchQuality":{"Country":1.0,"State":1.0,"County":1.0,"City":1.0,"District":1.0,"Street":[1.0],"HouseNumber":1.0,"PostalCode":1.0},"MatchType":"interpolated","Location":{"LocationId":"NT_fxnbTXVEnlnErUBwMMetpA_1A","LocationType":"point","DisplayPosition":{"Latitude":46.08,"Longitude":18.20941},"MapView":{"TopLeft":{"Latitude":46.0811242,"Longitude":18.2077894},"BottomRight":{"Latitude":46.0788758,"Longitude":18.2110306}},"Address":{"Label":"Rodostó utca 5, Pécs 7624, Magyarország","Country":"HUN","State":"Baranya","County":"Pécsi Járás","City":"Pécs","District":"Bálics","Street":"Rodostó utca","HouseNumber":"5","PostalCode":"7624","AdditionalData":[{"value":"Magyarország","key":"CountryName"},{"value":"Baranya","key":"StateName"},{"value":"Pécsi Járás","key":"CountyName"}]},"MapReference":{"ReferenceId":"598482191","Spot":0.2,"SideOfStreet":"right","CountryId":"20613038","StateId":"20614237","CountyId":"26680530","CityId":"20614905","AddressId":"117701257","RoadLinkId":"60601796"}}}]}]}}