{"Response":{"MetaInfo":{"Timestamp":"2020-03-28T10:29:49.547+0000","NextPageInformation":"2"},"View":[{"_type":"SearchResultsViewType","ViewId":0,"Result":[{"Relevance":1.0,"Distance":0.0,"Direction":0.0,"MatchLevel":"district","MatchQuality":{"Country":1.0,"State":1.0,"County":1.0,"City":1.0,"District":1.0,"PostalCode":1.0},"Location":{"LocationId":"NT_4FUBy57x27olOrHUnQxuRD","LocationType":"point","DisplayPosition":{"Latitude":46.0116588,"Longitude":4.7088922},"MapView":{"TopLeft":{"Latitude":46.02479,"Longitude":4.69034},"BottomRight":{"Latitude":45.99781,"Longitude":4.72918}},"Address":{"Label":"Marietton, Arnas, Auvergne-Rhône-Alpes, France","Country":"FRA","State":"Auvergne-Rhône-Alpes","County":"Rhône","City":"Arnas","District":"Marietton","PostalCode":"69400","AdditionalData":[{"value":"France","key":"CountryName"},{"value":"Auvergne-Rhône-Alpes","key":"StateName"},{"value":"Rhône","key":"CountyName"}]},"MapReference":{"ReferenceId":"719027487","SideOfStreet":"neither","CountryId":"20000001","StateId":"20006029","CountyId":"20035500","CityId":"20052858"}}},{"Relevance":1.0,"Distance":13.9,"MatchLevel":"landmark","MatchQuality":{"Country":1.0,"State":1.0,"County":1.0,"City":1.0,"PostalCode":1.0,"Name":1.0},"Location":{"LocationId":"NT_AYTMksH7NQz07mMvz3rIQA_p_iwPU.8UCLxo9mxUAYgoYiC","LocationType":"hospital","Name":"Polyclinique du Beaujolais","DisplayPosition":{"Latitude":46.01169,"Longitude":4.70754},"MapView":{"TopLeft":{"Latitude":46.01256,"Longitude":4.70719},"BottomRight":{"Latitude":46.01103,"Longitude":4.7092}},"Address":{"Label":"69400 Arnas, France","Country":"FRA","State":"Auvergne-Rhône-Alpes","County":"Rhône","City":"Arnas","PostalCode":"69400","AdditionalData":[{"value":"France","key":"CountryName"},{"value":"Auvergne-Rhône-Alpes","key":"StateName"},{"value":"Rhône","key":"CountyName"}]},"MapReference":{"CountryId":"20000001","StateId":"20006029","CountyId":"20035500","CityId":"20052858","PlaceId":"51429284"}}},{"Relevance":1.0,"Distance":13.9,"MatchLevel":"street","MatchQuality":{"Country":1.0,"State":1.0,"County":1.0,"City":1.0,"PostalCode":1.0},"Location":{"LocationId":"NT_2RivFKTww8NnHykgMwY-JA_l_1208898464_R","LocationType":"point","DisplayPosition":{"Latitude":46.0117839,"Longitude":4.7088872},"MapView":{"TopLeft":{"Latitude":46.01185,"Longitude":4.70874},"BottomRight":{"Latitude":46.01176,"Longitude":4.7092}},"Address":{"Label":"69400 Arnas, France","Country":"FRA","State":"Auvergne-Rhône-Alpes","County":"Rhône","City":"Arnas","PostalCode":"69400","AdditionalData":[{"value":"France","key":"CountryName"},{"value":"Auvergne-Rhône-Alpes","key":"StateName"},{"value":"Rhône","key":"CountyName"}]},"MapReference":{"ReferenceId":"1208898464","Spot":0.32,"SideOfStreet":"right","CountryId":"20000001","StateId":"20006029","CountyId":"20035500","CityId":"20052858"}}},{"Relevance":1.0,"Distance":16.3,"MatchLevel":"street","MatchQuality":{"Country":1.0,"State":1.0,"County":1.0,"City":1.0,"PostalCode":1.0},"Location":{"LocationId":"NT_2RivFKTww8NnHykgMwY-JA_l_1208898463_R","LocationType":"point","DisplayPosition":{"Latitude":46.01176,"Longitude":4.70874},"MapView":{"TopLeft":{"Latitude":46.01176,"Longitude":4.70794},"BottomRight":{"Latitude":46.01103,"Longitude":4.70874}},"Address":{"Label":"69400 Arnas, France","Country":"FRA","State":"Auvergne-Rhône-Alpes","County":"Rhône","City":"Arnas","PostalCode":"69400","AdditionalData":[{"value":"France","key":"CountryName"},{"value":"Auvergne-Rhône-Alpes","key":"StateName"},{"value":"Rhône","key":"CountyName"}]},"MapReference":{"ReferenceId":"1208898463","Spot":1.0,"SideOfStreet":"right","CountryId":"20000001","StateId":"20006029","CountyId":"20035500","CityId":"20052858"}}},{"Relevance":1.0,"Distance":16.3,"MatchLevel":"street","MatchQuality":{"Country":1.0,"State":1.0,"County":1.0,"City":1.0,"PostalCode":1.0},"Location":{"LocationId":"NT_2RivFKTww8NnHykgMwY-JA_l_1208898462_L","LocationType":"point","DisplayPosition":{"Latitude":46.01176,"Longitude":4.70874},"MapView":{"TopLeft":{"Latitude":46.0119,"Longitude":4.70843},"BottomRight":{"Latitude":46.01176,"Longitude":4.70874}},"Address":{"Label":"69400 Arnas, France","Country":"FRA","State":"Auvergne-Rhône-Alpes","County":"Rhône","City":"Arnas","PostalCode":"69400","AdditionalData":[{"value":"France","key":"CountryName"},{"value":"Auvergne-Rhône-Alpes","key":"StateName"},{"value":"Rhône","key":"CountyName"}]},"MapReference":{"ReferenceId":"1208898462","Spot":0.0,"SideOfStreet":"left","CountryId":"20000001","StateId":"20006029","CountyId":"20035500","CityId":"20052858"}}},{"Relevance":1.0,"Distance":22.9,"MatchLevel":"houseNumber","MatchQuality":{"Country":1.0,"State":1.0,"County":1.0,"City":1.0,"Street":[1.0],"HouseNumber":1.0,"PostalCode":1.0},"MatchType":"interpolated","Location":{"LocationId":"NT_c04IZSZDD1kXfXzjrazRwC_l_546135496_L_yUDN","LocationType":"point","DisplayPosition":{"Latitude":46.0119605,"Longitude":4.7090996},"MapView":{"TopLeft":{"Latitude":46.0130846,"Longitude":4.707481},"BottomRight":{"Latitude":46.0108363,"Longitude":4.7107183}},"Address":{"Label":"254 Ancienne Route de Beaujeu, 69400 Arnas, France","Country":"FRA","State":"Auvergne-Rhône-Alpes","County":"Rhône","City":"Arnas","Street":"Ancienne Route de Beaujeu","HouseNumber":"254","PostalCode":"69400","AdditionalData":[{"value":"France","key":"CountryName"},{"value":"Auvergne-Rhône-Alpes","key":"StateName"},{"value":"Rhône","key":"CountyName"}]},"MapReference":{"ReferenceId":"546135496","Spot":0.15,"SideOfStreet":"left","CountryId":"20000001","StateId":"20006029","CountyId":"20035500","CityId":"20052858"}}},{"Relevance":1.0,"Distance":96.5,"MatchLevel":"houseNumber","MatchQuality":{"Country":1.0,"State":1.0,"County":1.0,"City":1.0,"Street":[1.0],"HouseNumber":1.0,"PostalCode":1.0},"MatchType":"interpolated","Location":{"LocationId":"NT_c04IZSZDD1kXfXzjrazRwC_ykjN","LocationType":"point","DisplayPosition":{"Latitude":46.01116,"Longitude":4.7099},"MapView":{"TopLeft":{"Latitude":46.0122842,"Longitude":4.7082814},"BottomRight":{"Latitude":46.0100358,"Longitude":4.7115186}},"Address":{"Label":"296 Ancienne Route de Beaujeu, 69400 Arnas, France","Country":"FRA","State":"Auvergne-Rhône-Alpes","County":"Rhône","City":"Arnas","Street":"Ancienne Route de Beaujeu","HouseNumber":"296","PostalCode":"69400","AdditionalData":[{"value":"France","key":"CountryName"},{"value":"Auvergne-Rhône-Alpes","key":"StateName"},{"value":"Rhône","key":"CountyName"}]},"MapReference":{"ReferenceId":"719027487","Spot":0.38,"SideOfStreet":"left","CountryId":"20000001","StateId":"20006029","CountyId":"20035500","CityId":"20052858","AddressId":"319901309","RoadLinkId":"123893009"}}},{"Relevance":1.0,"Distance":100.0,"MatchLevel":"street","MatchQuality":{"Country":1.0,"State":1.0,"County":1.0,"City":1.0,"PostalCode":1.0},"Location":{"LocationId":"NT_2RivFKTww8NnHykgMwY-JA_l_1209049975_R","LocationType":"point","DisplayPosition":{"Latitude":46.01105,"Longitude":4.70794},"MapView":{"TopLeft":{"Latitude":46.01108,"Longitude":4.70728},"BottomRight":{"Latitude":46.01104,"Longitude":4.70794}},"Address":{"Label":"69400 Arnas, France","Country":"FRA","State":"Auvergne-Rhône-Alpes","County":"Rhône","City":"Arnas","PostalCode":"69400","AdditionalData":[{"value":"France","key":"CountryName"},{"value":"Auvergne-Rhône-Alpes","key":"StateName"},{"value":"Rhône","key":"CountyName"}]},"MapReference":{"ReferenceId":"1209049975","Spot":0.0,"SideOfStreet":"right","CountryId":"20000001","StateId":"20006029","CountyId":"20035500","CityId":"20052858"}}},{"Relevance":1.0,"Distance":101.0,"MatchLevel":"street","MatchQuality":{"Country":1.0,"State":1.0,"County":1.0,"City":1.0,"PostalCode":1.0},"Location":{"LocationId":"NT_2RivFKTww8NnHykgMwY-JA_l_546135499_R","LocationType":"point","DisplayPosition":{"Latitude":46.0125,"Longitude":4.7084},"MapView":{"TopLeft":{"Latitude":46.01256,"Longitude":4.70823},"BottomRight":{"Latitude":46.01247,"Longitude":4.70848}},"Address":{"Label":"69400 Arnas, France","Country":"FRA","State":"Auvergne-Rhône-Alpes","County":"Rhône","City":"Arnas","PostalCode":"69400","AdditionalData":[{"value":"France","key":"CountryName"},{"value":"Auvergne-Rhône-Alpes","key":"StateName"},{"value":"Rhône","key":"CountyName"}]},"MapReference":{"ReferenceId":"546135499","Spot":0.64,"SideOfStreet":"right","CountryId":"20000001","StateId":"20006029","CountyId":"20035500","CityId":"20052858"}}},{"Relevance":1.0,"Distance":104.4,"MatchLevel":"street","MatchQuality":{"Country":1.0,"State":1.0,"County":1.0,"City":1.0,"PostalCode":1.0},"Location":{"LocationId":"NT_2RivFKTww8NnHykgMwY-JA_l_549657588_R","LocationType":"point","DisplayPosition":{"Latitude":46.01167,"Longitude":4.70754},"MapView":{"TopLeft":{"Latitude":46.01174,"Longitude":4.70725},"BottomRight":{"Latitude":46.01162,"Longitude":4.70754}},"Address":{"Label":"69400 Arnas, France","Country":"FRA","State":"Auvergne-Rhône-Alpes","County":"Rhône","City":"Arnas","PostalCode":"69400","AdditionalData":[{"value":"France","key":"CountryName"},{"value":"Auvergne-Rhône-Alpes","key":"StateName"},{"value":"Rhône","key":"CountyName"}]},"MapReference":{"ReferenceId":"549657588","Spot":0.35,"SideOfStreet":"right","CountryId":"20000001","StateId":"20006029","CountyId":"20035500","CityId":"20052858"}}}]}]}}