{"Response":{"MetaInfo":{"Timestamp":"2020-03-28T11:27:20.713+0000","NextPageInformation":"2"},"View":[{"_type":"SearchResultsViewType","ViewId":0,"Result":[{"Relevance":1.0,"Distance":0.0,"Direction":0.0,"MatchLevel":"city","MatchQuality":{"Country":1.0,"State":1.0,"County":1.0,"City":1.0,"PostalCode":1.0},"Location":{"LocationId":"NT_THFDyx9Xu.KZN-sH7BOOfA","LocationType":"point","DisplayPosition":{"Latitude":46.0698038,"Longitude":11.1302573},"MapView":{"TopLeft":{"Latitude":46.15227,"Longitude":11.02148},"BottomRight":{"Latitude":45.97607,"Longitude":11.19382}},"Address":{"Label":"Trento, Trentino-Alto Adige, Italia","Country":"ITA","State":"Trentino-Alto Adige","County":"TN","City":"Trento","PostalCode":"38122","AdditionalData":[{"value":"Italia","key":"CountryName"},{"value":"Trentino-Alto Adige","key":"StateName"},{"value":"Trento","key":"CountyName"}]},"MapReference":{"ReferenceId":"1206004505","SideOfStreet":"neither","CountryId":"20110484","StateId":"20119435","CountyId":"20119848","CityId":"20120446"}}},{"Relevance":1.0,"Distance":29.0,"MatchLevel":"houseNumber","MatchQuality":{"Country":1.0,"State":1.0,"County":1.0,"City":1.0,"Street":[1.0],"HouseNumber":1.0,"PostalCode":1.0},"MatchType":"interpolated","Location":{"LocationId":"NT_PTLzL9IahxN4FXc3rw1hYC_0A","LocationType":"point","DisplayPosition":{"Latitude":46.06948,"Longitude":11.13052},"MapView":{"TopLeft":{"Latitude":46.0706042,"Longitude":11.1288997},"BottomRight":{"Latitude":46.0683558,"Longitude":11.1321403}},"Address":{"Label":"Via della Collina, 4, 38121 Trento TN, Italia","Country":"ITA","State":"Trentino-Alto Adige","County":"TN","City":"Trento","Street":"Via della Collina","HouseNumber":"4","PostalCode":"38121","AdditionalData":[{"value":"Italia","key":"CountryName"},{"value":"Trentino-Alto Adige","key":"StateName"},{"value":"Trento","key":"CountyName"}]},"MapReference":{"ReferenceId":"577298362","Spot":0.08,"SideOfStreet":"left","CountryId":"20110484","StateId":"20119435","CountyId":"20119848","CityId":"20120446","AddressId":"412196326","RoadLinkId":"58563856"}}},{"Relevance":1.0,"Distance":32.5,"MatchLevel":"houseNumber","MatchQuality":{"Country":1.0,"State":1.0,"County":1.0,"City":1.0,"Street":[1.0],"HouseNumber":1.0,"PostalCode":1.0},"MatchType":"interpolated","Location":{"LocationId":"NT_I5h8BJ1v66e3I.mKOEMJoB_xA","LocationType":"point","DisplayPosition":{"Latitude":46.06938,"Longitude":11.13005},"MapView":{"TopLeft":{"Latitude":46.0705042,"Longitude":11.1284297},"BottomRight":{"Latitude":46.0682558,"Longitude":11.1316703}},"Address":{"Label":"Salita dei Giardini, 1, 38122 Trento TN, Italia","Country":"ITA","State":"Trentino-Alto Adige","County":"TN","City":"Trento","Street":"Salita dei Giardini","HouseNumber":"1","PostalCode":"38122","AdditionalData":[{"value":"Italia","key":"CountryName"},{"value":"Trentino-Alto Adige","key":"StateName"},{"value":"Trento","key":"CountyName"}]},"MapReference":{"ReferenceId":"577294962","Spot":0.44,"SideOfStreet":"right","CountryId":"20110484","StateId":"20119435","CountyId":"20119848","CityId":"20120446","AddressId":"412197602","RoadLinkId":"59084377"}}},{"Relevance":1.0,"Distance":55.0,"MatchLevel":"houseNumber","MatchQuality":{"Country":1.0,"State":1.0,"County":1.0,"City":1.0,"Street":[1.0],"HouseNumber":1.0,"PostalCode":1.0},"MatchType":"interpolated","Location":{"LocationId":"NT_-IP7rwx6umE-8v-N1sz2bA_0QD","LocationType":"point","DisplayPosition":{"Latitude":46.0704,"Longitude":11.12931},"MapView":{"TopLeft":{"Latitude":46.0715242,"Longitude":11.1276897},"BottomRight":{"Latitude":46.0692758,"Longitude":11.1309303}},"Address":{"Label":"Via della Saluga, 44, 38121 Trento TN, Italia","Country":"ITA","State":"Trentino-Alto Adige","County":"TN","City":"Trento","Street":"Via della Saluga","HouseNumber":"44","PostalCode":"38121","AdditionalData":[{"value":"Italia","key":"CountryName"},{"value":"Trentino-Alto Adige","key":"StateName"},{"value":"Trento","key":"CountyName"}]},"MapReference":{"ReferenceId":"577294850","Spot":0.47,"SideOfStreet":"right","CountryId":"20110484","StateId":"20119435","CountyId":"20119848","CityId":"20120446","AddressId":"412197763","RoadLinkId":"58987907"}}},{"Relevance":1.0,"Distance":62.7,"MatchLevel":"houseNumber","MatchQuality":{"Country":1.0,"State":1.0,"County":1.0,"City":1.0,"Street":[1.0],"HouseNumber":1.0,"PostalCode":1.0},"MatchType":"interpolated","Location":{"LocationId":"NT_mSHgG3htq4rfXAcJloD8zA_xID","LocationType":"point","DisplayPosition":{"Latitude":46.06923,"Longitude":11.13048},"MapView":{"TopLeft":{"Latitude":46.0703542,"Longitude":11.1288597},"BottomRight":{"Latitude":46.0681058,"Longitude":11.1321003}},"Address":{"Label":"Via della Collina, 12, 38122 Trento TN, Italia","Country":"ITA","State":"Trentino-Alto Adige","County":"TN","City":"Trento","Street":"Via della Collina","HouseNumber":"12","PostalCode":"38122","AdditionalData":[{"value":"Italia","key":"CountryName"},{"value":"Trentino-Alto Adige","key":"StateName"},{"value":"Trento","key":"CountyName"}]},"MapReference":{"ReferenceId":"577295011","Spot":0.74,"SideOfStreet":"left","CountryId":"20110484","StateId":"20119435","CountyId":"20119848","CityId":"20120446","AddressId":"412199406","RoadLinkId":"59546875"}}},{"Relevance":1.0,"Distance":74.6,"MatchLevel":"houseNumber","MatchQuality":{"Country":1.0,"State":1.0,"County":1.0,"City":1.0,"Street":[1.0],"HouseNumber":1.0,"PostalCode":1.0},"MatchType":"interpolated","Location":{"LocationId":"NT_I5h8BJ1v66e3I.mKOEMJoB_y8SM","LocationType":"point","DisplayPosition":{"Latitude":46.06948,"Longitude":11.12941},"MapView":{"TopLeft":{"Latitude":46.0706042,"Longitude":11.1277897},"BottomRight":{"Latitude":46.0683558,"Longitude":11.1310303}},"Address":{"Label":"Salita dei Giardini, 2/1, 38122 Trento TN, Italia","Country":"ITA","State":"Trentino-Alto Adige","County":"TN","City":"Trento","Street":"Salita dei Giardini","HouseNumber":"2/1","PostalCode":"38122","AdditionalData":[{"value":"Italia","key":"CountryName"},{"value":"Trentino-Alto Adige","key":"StateName"},{"value":"Trento","key":"CountyName"}]},"MapReference":{"ReferenceId":"577294956","Spot":0.78,"SideOfStreet":"right","CountryId":"20110484","StateId":"20119435","CountyId":"20119848","CityId":"20120446","AddressId":"412198154","RoadLinkId":"58559729"}}},{"Relevance":1.0,"Distance":76.5,"MatchLevel":"houseNumber","MatchQuality":{"Country":1.0,"State":1.0,"County":1.0,"City":1.0,"Street":[1.0],"HouseNumber":1.0,"PostalCode":1.0},"MatchType":"interpolated","Location":{"LocationId":"NT_W9qhJjme5sgOdwkZLFFRsA_xED","LocationType":"point","DisplayPosition":{"Latitude":46.06949,"Longitude":11.12911},"MapView":{"TopLeft":{"Latitude":46.0706142,"Longitude":11.1274897},"BottomRight":{"Latitude":46.0683658,"Longitude":11.1307303}},"Address":{"Label":"Via dei Giardini, 11, 38122 Trento TN, Italia","Country":"ITA","State":"Trentino-Alto Adige","County":"TN","City":"Trento","Street":"Via dei Giardini","HouseNumber":"11","PostalCode":"38122","AdditionalData":[{"value":"Italia","key":"CountryName"},{"value":"Trentino-Alto Adige","key":"StateName"},{"value":"Trento","key":"CountyName"}]},"MapReference":{"ReferenceId":"577294952","Spot":0.02,"SideOfStreet":"right","CountryId":"20110484","StateId":"20119435","CountyId":"20119848","CityId":"20120446","AddressId":"412199832","RoadLinkId":"59330293"}}},{"Relevance":1.0,"Distance":92.2,"MatchLevel":"houseNumber","MatchQuality":{"Country":1.0,"State":1.0,"County":1.0,"City":1.0,"Street":[1.0],"HouseNumber":1.0,"PostalCode":1.0},"MatchType":"interpolated","Location":{"LocationId":"NT_YVRk4xSitjfnpLrkMpI30B_yAD","LocationType":"point","DisplayPosition":{"Latitude":46.07051,"Longitude":11.13131},"MapView":{"TopLeft":{"Latitude":46.0716342,"Longitude":11.1296897},"BottomRight":{"Latitude":46.0693858,"Longitude":11.1329303}},"Address":{"Label":"Via Augusto Avancini, 20, 38121 Trento TN, Italia","Country":"ITA","State":"Trentino-Alto Adige","County":"TN","City":"Trento","Street":"Via Augusto Avancini","HouseNumber":"20","PostalCode":"38121","AdditionalData":[{"value":"Italia","key":"CountryName"},{"value":"Trentino-Alto Adige","key":"StateName"},{"value":"Trento","key":"CountyName"}]},"MapReference":{"ReferenceId":"577294899","Spot":0.33,"SideOfStreet":"left","CountryId":"20110484","StateId":"20119435","CountyId":"20119848","CityId":"20120446","AddressId":"412205292","RoadLinkId":"59481271"}}},{"Relevance":1.0,"Distance":94.2,"MatchLevel":"houseNumber","MatchQuality":{"Country":1.0,"State":1.0,"County":1.0,"City":1.0,"Street":[1.0],"HouseNumber":1.0,"PostalCode":1.0},"MatchType":"interpolated","Location":{"LocationId":"NT_-IP7rwx6umE-8v-N1sz2bA_0AD","LocationType":"point","DisplayPosition":{"Latitude":46.0703,"Longitude":11.12897},"MapView":{"TopLeft":{"Latitude":46.0714242,"Longitude":11.1273497},"BottomRight":{"Latitude":46.0691758,"Longitude":11.1305903}},"Address":{"Label":"Via della Saluga, 40, 38121 Trento TN, Italia","Country":"ITA","State":"Trentino-Alto Adige","County":"TN","City":"Trento","Street":"Via della Saluga","HouseNumber":"40","PostalCode":"38121","AdditionalData":[{"value":"Italia","key":"CountryName"},{"value":"Trentino-Alto Adige","key":"StateName"},{"value":"Trento","key":"CountyName"}]},"MapReference":{"ReferenceId":"577294869","Spot":0.58,"SideOfStreet":"right","CountryId":"20110484","StateId":"20119435","CountyId":"20119848","CityId":"20120446","AddressId":"412200602","RoadLinkId":"58789026"}}},{"Relevance":1.0,"Distance":96.0,"MatchLevel":"houseNumber","MatchQuality":{"Country":1.0,"State":1.0,"County":1.0,"City":1.0,"Street":[1.0],"HouseNumber":1.0,"PostalCode":1.0},"MatchType":"interpolated","Location":{"LocationId":"NT_PTLzL9IahxN4FXc3rw1hYC_ykD","LocationType":"point","DisplayPosition":{"Latitude":46.06885,"Longitude":11.1308},"MapView":{"TopLeft":{"Latitude":46.0699742,"Longitude":11.1291797},"BottomRight":{"Latitude":46.0677258,"Longitude":11.1324203}},"Address":{"Label":"Via della Collina, 29, 38121 Trento TN, Italia","Country":"ITA","State":"Trentino-Alto Adige","County":"TN","City":"Trento","Street":"Via della Collina","HouseNumber":"29","PostalCode":"38121","AdditionalData":[{"value":"Italia","key":"CountryName"},{"value":"Trentino-Alto Adige","key":"StateName"},{"value":"Trento","key":"CountyName"}]},"MapReference":{"ReferenceId":"577295010","Spot":0.76,"SideOfStreet":"left","CountryId":"20110484","StateId":"20119435","CountyId":"20119848","CityId":"20120446","AddressId":"412202828","RoadLinkId":"58764838"}}}]}]}}