{"Response":{"MetaInfo":{"Timestamp":"2020-03-28T11:48:37.838+0000","NextPageInformation":"2"},"View":[{"_type":"SearchResultsViewType","ViewId":0,"Result":[{"Relevance":1.0,"Distance":0.0,"Direction":0.0,"MatchLevel":"city","MatchQuality":{"Country":1.0,"State":1.0,"County":1.0,"City":1.0,"PostalCode":1.0},"Location":{"LocationId":"NT_apDstYOvmDe.ZALRA2SAXD","LocationType":"point","DisplayPosition":{"Latitude":46.000189,"Longitude":1.469127},"MapView":{"TopLeft":{"Latitude":46.03119,"Longitude":1.44458},"BottomRight":{"Latitude":45.97725,"Longitude":1.50735}},"Address":{"Label":"La Jonchère-Saint-Maurice, Nouvelle-Aquitaine, France","Country":"FRA","State":"Nouvelle-Aquitaine","County":"Haute-Vienne","City":"La Jonchère-Saint-Maurice","PostalCode":"87340","AdditionalData":[{"value":"France","key":"CountryName"},{"value":"Nouvelle-Aquitaine","key":"StateName"},{"value":"Haute-Vienne","key":"CountyName"}]},"MapReference":{"ReferenceId":"812897026","SideOfStreet":"neither","CountryId":"20000001","StateId":"20000383","CountyId":"20082675","CityId":"20110111"}}},{"Relevance":1.0,"Distance":16.6,"MatchLevel":"houseNumber","MatchQuality":{"Country":1.0,"State":1.0,"County":1.0,"City":1.0,"Street":[1.0],"HouseNumber":1.0,"PostalCode":1.0},"MatchType":"interpolated","Location":{"LocationId":"NT_oCAZ3PcKOIaxfb.EhJSLDD_zkD","LocationType":"point","DisplayPosition":{"Latitude":46.0,"Longitude":1.46915},"MapView":{"TopLeft":{"Latitude":46.0011242,"Longitude":1.4675317},"BottomRight":{"Latitude":45.9988758,"Longitude":1.4707683}},"Address":{"Label":"39 Rue de Limoges, 87340 La Jonchère-Saint-Maurice, France","Country":"FRA","State":"Nouvelle-Aquitaine","County":"Haute-Vienne","City":"La Jonchère-Saint-Maurice","Street":"Rue de Limoges","HouseNumber":"39","PostalCode":"87340","AdditionalData":[{"value":"France","key":"CountryName"},{"value":"Nouvelle-Aquitaine","key":"StateName"},{"value":"Haute-Vienne","key":"CountyName"}]},"MapReference":{"ReferenceId":"57653382","Spot":0.14,"SideOfStreet":"left","CountryId":"20000001","StateId":"20000383","CountyId":"20082675","CityId":"20110111","AddressId":"317482376","RoadLinkId":"53452527"}}},{"Relevance":1.0,"Distance":47.6,"MatchLevel":"houseNumber","MatchQuality":{"Country":1.0,"State":1.0,"County":1.0,"City":1.0,"Street":[1.0],"HouseNumber":1.0,"PostalCode":1.0},"MatchType":"interpolated","Location":{"LocationId":"NT_oCAZ3PcKOIaxfb.EhJSLDD_zMD","LocationType":"point","DisplayPosition":{"Latitude":45.99985,"Longitude":1.46875},"MapView":{"TopLeft":{"Latitude":46.0009742,"Longitude":1.4671317},"BottomRight":{"Latitude":45.9987258,"Longitude":1.4703683}},"Address":{"Label":"33 Rue de Limoges, 87340 La Jonchère-Saint-Maurice, France","Country":"FRA","State":"Nouvelle-Aquitaine","County":"Haute-Vienne","City":"La Jonchère-Saint-Maurice","Street":"Rue de Limoges","HouseNumber":"33","PostalCode":"87340","AdditionalData":[{"value":"France","key":"CountryName"},{"value":"Nouvelle-Aquitaine","key":"StateName"},{"value":"Haute-Vienne","key":"CountyName"}]},"MapReference":{"ReferenceId":"57653385","Spot":0.89,"SideOfStreet":"left","CountryId":"20000001","StateId":"20000383","CountyId":"20082675","CityId":"20110111","AddressId":"317435917","RoadLinkId":"52629598"}}},{"Relevance":1.0,"Distance":49.9,"MatchLevel":"houseNumber","MatchQuality":{"Country":1.0,"State":1.0,"County":1.0,"City":1.0,"Street":[1.0],"HouseNumber":1.0,"PostalCode":1.0},"MatchType":"interpolated","Location":{"LocationId":"NT_JQfliUNu6tpe33sEgogk4A_xA","LocationType":"point","DisplayPosition":{"Latitude":45.99978,"Longitude":1.46882},"MapView":{"TopLeft":{"Latitude":46.0009042,"Longitude":1.4672017},"BottomRight":{"Latitude":45.9986558,"Longitude":1.4704383}},"Address":{"Label":"1 Rue de l'Église, 87340 La Jonchère-Saint-Maurice, France","Country":"FRA","State":"Nouvelle-Aquitaine","County":"Haute-Vienne","City":"La Jonchère-Saint-Maurice","Street":"Rue de l'Église","HouseNumber":"1","PostalCode":"87340","AdditionalData":[{"value":"France","key":"CountryName"},{"value":"Nouvelle-Aquitaine","key":"StateName"},{"value":"Haute-Vienne","key":"CountyName"}]},"MapReference":{"ReferenceId":"584848759","Spot":0.83,"SideOfStreet":"right","CountryId":"20000001","StateId":"20000383","CountyId":"20082675","CityId":"20110111","AddressId":"379490257","RoadLinkId":"53401680"}}},{"Relevance":1.0,"Distance":109.7,"MatchLevel":"houseNumber","MatchQuality":{"Country":1.0,"State":1.0,"County":1.0,"City":1.0,"Street":[1.0],"HouseNumber":1.0,"PostalCode":1.0},"MatchType":"interpolated","Location":{"LocationId":"NT_wotyq3f3.knk6bVVQlPfmD_yA","LocationType":"point","DisplayPosition":{"Latitude":45.99921,"Longitude":1.46868},"MapView":{"TopLeft":{"Latitude":46.0003342,"Longitude":1.4670617},"BottomRight":{"Latitude":45.9980858,"Longitude":1.4702983}},"Address":{"Label":"2 Place de l'Église, 87340 La Jonchère-Saint-Maurice, France","Country":"FRA","State":"Nouvelle-Aquitaine","County":"Haute-Vienne","City":"La Jonchère-Saint-Maurice","Street":"Place de l'Église","HouseNumber":"2","PostalCode":"87340","AdditionalData":[{"value":"France","key":"CountryName"},{"value":"Nouvelle-Aquitaine","key":"StateName"},{"value":"Haute-Vienne","key":"CountyName"}]},"MapReference":{"ReferenceId":"584848760","Spot":1.0,"SideOfStreet":"left","CountryId":"20000001","StateId":"20000383","CountyId":"20082675","CityId":"20110111","AddressId":"379484883","RoadLinkId":"52676610"}}},{"Relevance":1.0,"Distance":110.0,"MatchLevel":"houseNumber","MatchQuality":{"Country":1.0,"State":1.0,"County":1.0,"City":1.0,"Street":[1.0],"HouseNumber":1.0,"PostalCode":1.0},"MatchType":"interpolated","Location":{"LocationId":"NT_j7il9OLdPByiAb.FLS-67D_zA","LocationType":"point","DisplayPosition":{"Latitude":45.99917,"Longitude":1.46891},"MapView":{"TopLeft":{"Latitude":46.0002942,"Longitude":1.4672917},"BottomRight":{"Latitude":45.9980458,"Longitude":1.4705283}},"Address":{"Label":"3 Rue de l'École, 87340 La Jonchère-Saint-Maurice, France","Country":"FRA","State":"Nouvelle-Aquitaine","County":"Haute-Vienne","City":"La Jonchère-Saint-Maurice","Street":"Rue de l'École","HouseNumber":"3","PostalCode":"87340","AdditionalData":[{"value":"France","key":"CountryName"},{"value":"Nouvelle-Aquitaine","key":"StateName"},{"value":"Haute-Vienne","key":"CountyName"}]},"MapReference":{"ReferenceId":"984388188","Spot":0.54,"SideOfStreet":"right","CountryId":"20000001","StateId":"20000383","CountyId":"20082675","CityId":"20110111","AddressId":"571416751","RoadLinkId":"315508817"}}},{"Relevance":1.0,"Distance":117.6,"MatchLevel":"houseNumber","MatchQuality":{"Country":1.0,"State":1.0,"County":1.0,"City":1.0,"Street":[1.0],"HouseNumber":1.0,"PostalCode":1.0},"MatchType":"interpolated","Location":{"LocationId":"NT_j7il9OLdPByiAb.FLS-67D_5A","LocationType":"point","DisplayPosition":{"Latitude":45.9991,"Longitude":1.46932},"MapView":{"TopLeft":{"Latitude":46.0002242,"Longitude":1.4677017},"BottomRight":{"Latitude":45.9979758,"Longitude":1.4709383}},"Address":{"Label":"9 Rue de l'École, 87340 La Jonchère-Saint-Maurice, France","Country":"FRA","State":"Nouvelle-Aquitaine","County":"Haute-Vienne","City":"La Jonchère-Saint-Maurice","Street":"Rue de l'École","HouseNumber":"9","PostalCode":"87340","AdditionalData":[{"value":"France","key":"CountryName"},{"value":"Nouvelle-Aquitaine","key":"StateName"},{"value":"Haute-Vienne","key":"CountyName"}]},"MapReference":{"ReferenceId":"984388187","Spot":0.71,"SideOfStreet":"right","CountryId":"20000001","StateId":"20000383","CountyId":"20082675","CityId":"20110111","AddressId":"317516153","RoadLinkId":"315508816"}}},{"Relevance":1.0,"Distance":120.3,"MatchLevel":"houseNumber","MatchQuality":{"Country":1.0,"State":1.0,"County":1.0,"City":1.0,"Street":[1.0],"HouseNumber":1.0,"PostalCode":1.0},"MatchType":"interpolated","Location":{"LocationId":"NT_v0OgKDAknflZUuofBerSkA_xQD","LocationType":"point","DisplayPosition":{"Latitude":45.99958,"Longitude":1.46782},"MapView":{"TopLeft":{"Latitude":46.0007042,"Longitude":1.4662017},"BottomRight":{"Latitude":45.9984558,"Longitude":1.4694383}},"Address":{"Label":"14 Rue de Saint-Léger-la-Montagne, 87340 La Jonchère-Saint-Maurice, France","Country":"FRA","State":"Nouvelle-Aquitaine","County":"Haute-Vienne","City":"La Jonchère-Saint-Maurice","Street":"Rue de Saint-Léger-la-Montagne","HouseNumber":"14","PostalCode":"87340","AdditionalData":[{"value":"France","key":"CountryName"},{"value":"Nouvelle-Aquitaine","key":"StateName"},{"value":"Haute-Vienne","key":"CountyName"}]},"MapReference":{"ReferenceId":"985627231","Spot":0.26,"SideOfStreet":"right","CountryId":"20000001","StateId":"20000383","CountyId":"20082675","CityId":"20110111","AddressId":"317476320","RoadLinkId":"316447324"}}},{"Relevance":1.0,"Distance":121.9,"MatchLevel":"houseNumber","MatchQuality":{"Country":1.0,"State":1.0,"County":1.0,"City":1.0,"Street":[1.0],"HouseNumber":1.0,"PostalCode":1.0},"MatchType":"interpolated","Location":{"LocationId":"NT_v0OgKDAknflZUuofBerSkA_0A","LocationType":"point","DisplayPosition":{"Latitude":45.99916,"Longitude":1.46849},"MapView":{"TopLeft":{"Latitude":46.0002842,"Longitude":1.4668717},"BottomRight":{"Latitude":45.9980358,"Longitude":1.4701083}},"Address":{"Label":"4 Rue de Saint-Léger-la-Montagne, 87340 La Jonchère-Saint-Maurice, France","Country":"FRA","State":"Nouvelle-Aquitaine","County":"Haute-Vienne","City":"La Jonchère-Saint-Maurice","Street":"Rue de Saint-Léger-la-Montagne","HouseNumber":"4","PostalCode":"87340","AdditionalData":[{"value":"France","key":"CountryName"},{"value":"Nouvelle-Aquitaine","key":"StateName"},{"value":"Haute-Vienne","key":"CountyName"}]},"MapReference":{"ReferenceId":"985627229","Spot":0.18,"SideOfStreet":"right","CountryId":"20000001","StateId":"20000383","CountyId":"20082675","CityId":"20110111","AddressId":"571406371","RoadLinkId":"316447318"}}},{"Relevance":1.0,"Distance":123.1,"MatchLevel":"houseNumber","MatchQuality":{"Country":1.0,"State":1.0,"County":1.0,"City":1.0,"Street":[1.0],"HouseNumber":1.0,"PostalCode":1.0},"MatchType":"interpolated","Location":{"LocationId":"NT_v0OgKDAknflZUuofBerSkA_xED","LocationType":"point","DisplayPosition":{"Latitude":45.99945,"Longitude":1.46794},"MapView":{"TopLeft":{"Latitude":46.0005742,"Longitude":1.4663217},"BottomRight":{"Latitude":45.9983258,"Longitude":1.4695583}},"Address":{"Label":"11 Rue de Saint-Léger-la-Montagne, 87340 La Jonchère-Saint-Maurice, France","Country":"FRA","State":"Nouvelle-Aquitaine","County":"Haute-Vienne","City":"La Jonchère-Saint-Maurice","Street":"Rue de Saint-Léger-la-Montagne","HouseNumber":"11","PostalCode":"87340","AdditionalData":[{"value":"France","key":"CountryName"},{"value":"Nouvelle-Aquitaine","key":"StateName"},{"value":"Haute-Vienne","key":"CountyName"}]},"MapReference":{"ReferenceId":"1065906075","Spot":0.25,"SideOfStreet":"left","CountryId":"20000001","StateId":"20000383","CountyId":"20082675","CityId":"20110111","AddressId":"375719333","RoadLinkId":"388199273"}}}]}]}}