{"Response":{"MetaInfo":{"Timestamp":"2020-03-28T10:01:03.824+0000","NextPageInformation":"2"},"View":[{"_type":"SearchResultsViewType","ViewId":0,"Result":[{"Relevance":1.0,"Distance":-22.0,"MatchLevel":"landmark","MatchQuality":{"Country":1.0,"County":1.0,"City":1.0,"District":1.0,"PostalCode":1.0,"Name":1.0},"Location":{"LocationId":"NT_q6EP8kbpiWx4Zt8NtTPunC","LocationType":"hospital","Name":"Klinični center Ljubljana","DisplayPosition":{"Latitude":46.05387,"Longitude":14.52294},"MapView":{"TopLeft":{"Latitude":46.05541,"Longitude":14.519},"BottomRight":{"Latitude":46.05232,"Longitude":14.52681}},"Address":{"Label":"SI- 1000 Ljubljana, Slovenija","Country":"SVN","County":"Ljubljana","City":"Ljubljana","District":"Ljubljana","PostalCode":"1000","AdditionalData":[{"value":"Slovenija","key":"CountryName"},{"value":"Ljubljana","key":"CountyName"}]},"MapReference":{"CountryId":"20633685","CountyId":"20637391","CityId":"20637495","DistrictId":"20637506","PlaceId":"556663155"}}},{"Relevance":1.0,"Distance":0.0,"Direction":0.0,"MatchLevel":"district","MatchQuality":{"Country":1.0,"County":1.0,"City":1.0,"District":1.0,"PostalCode":1.0},"Location":{"LocationId":"NT_lcgcVwcxrzotbJfS5nS0XD","LocationType":"point","DisplayPosition":{"Latitude":46.0525452,"Longitude":14.5204873},"MapView":{"TopLeft":{"Latitude":46.05873,"Longitude":14.51638},"BottomRight":{"Latitude":46.05012,"Longitude":14.5407}},"Address":{"Label":"Vodmat, Ljubljana, Slovenija","Country":"SVN","County":"Ljubljana","City":"Ljubljana","District":"Vodmat","PostalCode":"1000","AdditionalData":[{"value":"Slovenija","key":"CountryName"},{"value":"Ljubljana","key":"CountyName"}]},"MapReference":{"ReferenceId":"830603148","SideOfStreet":"neither","CountryId":"20633685","CountyId":"20637391","CityId":"20637495"}}},{"Relevance":1.0,"Distance":8.5,"MatchLevel":"street","MatchQuality":{"Country":1.0,"County":1.0,"City":1.0,"District":1.0,"PostalCode":1.0},"Location":{"LocationId":"NT_UDARrlmmDavBog1G8Hes5A_l_913423858_R","LocationType":"point","DisplayPosition":{"Latitude":46.0525274,"Longitude":14.5203804},"MapView":{"TopLeft":{"Latitude":46.05284,"Longitude":14.52032},"BottomRight":{"Latitude":46.05234,"Longitude":14.52039}},"Address":{"Label":"SI- 1000 Ljubljana, Slovenija","Country":"SVN","County":"Ljubljana","City":"Ljubljana","District":"Vodmat","PostalCode":"1000","AdditionalData":[{"value":"Slovenija","key":"CountryName"},{"value":"Ljubljana","key":"CountyName"}]},"MapReference":{"ReferenceId":"913423858","Spot":0.37,"SideOfStreet":"right","CountryId":"20633685","CountyId":"20637391","CityId":"20637495"}}},{"Relevance":1.0,"Distance":23.5,"MatchLevel":"houseNumber","MatchQuality":{"Country":1.0,"County":1.0,"City":1.0,"District":1.0,"Street":[1.0],"HouseNumber":1.0,"PostalCode":1.0},"MatchType":"interpolated","Location":{"LocationId":"NT_XNNARbw7y-eGKP9T229wnB_1A","LocationType":"point","DisplayPosition":{"Latitude":46.05238,"Longitude":14.52083},"MapView":{"TopLeft":{"Latitude":46.0535042,"Longitude":14.5192102},"BottomRight":{"Latitude":46.0512558,"Longitude":14.5224498}},"Address":{"Label":"Zaloška cesta 5, SI- 1000 Ljubljana, Slovenija","Country":"SVN","County":"Ljubljana","City":"Ljubljana","District":"Vodmat","Street":"Zaloška cesta","HouseNumber":"5","PostalCode":"1000","AdditionalData":[{"value":"Slovenija","key":"CountryName"},{"value":"Ljubljana","key":"CountyName"}]},"MapReference":{"ReferenceId":"827933659","Spot":0.64,"SideOfStreet":"left","CountryId":"20633685","CountyId":"20637391","CityId":"20637495","AddressId":"406965038","RoadLinkId":"212720988"}}},{"Relevance":1.0,"Distance":34.0,"MatchLevel":"street","MatchQuality":{"Country":1.0,"County":1.0,"City":1.0,"District":1.0,"PostalCode":1.0},"Location":{"LocationId":"NT_UDARrlmmDavBog1G8Hes5A_l_913423860_R","LocationType":"point","DisplayPosition":{"Latitude":46.05285,"Longitude":14.52045},"MapView":{"TopLeft":{"Latitude":46.05285,"Longitude":14.52032},"BottomRight":{"Latitude":46.05284,"Longitude":14.52045}},"Address":{"Label":"SI- 1000 Ljubljana, Slovenija","Country":"SVN","County":"Ljubljana","City":"Ljubljana","District":"Vodmat","PostalCode":"1000","AdditionalData":[{"value":"Slovenija","key":"CountryName"},{"value":"Ljubljana","key":"CountyName"}]},"MapReference":{"ReferenceId":"913423860","Spot":1.0,"SideOfStreet":"right","CountryId":"20633685","CountyId":"20637391","CityId":"20637495"}}},{"Relevance":1.0,"Distance":34.1,"MatchLevel":"street","MatchQuality":{"Country":1.0,"County":1.0,"City":1.0,"District":1.0,"PostalCode":1.0},"Location":{"LocationId":"NT_UDARrlmmDavBog1G8Hes5A_l_913423861_R","LocationType":"point","DisplayPosition":{"Latitude":46.0528511,"Longitude":14.5204682},"MapView":{"TopLeft":{"Latitude":46.05307,"Longitude":14.52045},"BottomRight":{"Latitude":46.05285,"Longitude":14.52116}},"Address":{"Label":"SI- 1000 Ljubljana, Slovenija","Country":"SVN","County":"Ljubljana","City":"Ljubljana","District":"Vodmat","PostalCode":"1000","AdditionalData":[{"value":"Slovenija","key":"CountryName"},{"value":"Ljubljana","key":"CountyName"}]},"MapReference":{"ReferenceId":"913423861","Spot":0.02,"SideOfStreet":"right","CountryId":"20633685","CountyId":"20637391","CityId":"20637495"}}},{"Relevance":1.0,"Distance":35.2,"MatchLevel":"street","MatchQuality":{"Country":1.0,"County":1.0,"City":1.0,"District":1.0,"PostalCode":1.0},"Location":{"LocationId":"NT_UDARrlmmDavBog1G8Hes5A_l_913423859_L","LocationType":"point","DisplayPosition":{"Latitude":46.05284,"Longitude":14.52032},"MapView":{"TopLeft":{"Latitude":46.05292,"Longitude":14.51936},"BottomRight":{"Latitude":46.05284,"Longitude":14.52032}},"Address":{"Label":"SI- 1000 Ljubljana, Slovenija","Country":"SVN","County":"Ljubljana","City":"Ljubljana","District":"Vodmat","PostalCode":"1000","AdditionalData":[{"value":"Slovenija","key":"CountryName"},{"value":"Ljubljana","key":"CountyName"}]},"MapReference":{"ReferenceId":"913423859","Spot":0.0,"SideOfStreet":"left","CountryId":"20633685","CountyId":"20637391","CityId":"20637495"}}},{"Relevance":1.0,"Distance":43.0,"MatchLevel":"houseNumber","MatchQuality":{"Country":1.0,"County":1.0,"City":1.0,"District":1.0,"Street":[1.0],"HouseNumber":1.0,"PostalCode":1.0},"MatchType":"interpolated","Location":{"LocationId":"NT_XNNARbw7y-eGKP9T229wnB_yA","LocationType":"point","DisplayPosition":{"Latitude":46.05207,"Longitude":14.52083},"MapView":{"TopLeft":{"Latitude":46.0531942,"Longitude":14.5192102},"BottomRight":{"Latitude":46.0509458,"Longitude":14.5224498}},"Address":{"Label":"Zaloška cesta 2, SI- 1000 Ljubljana, Slovenija","Country":"SVN","County":"Ljubljana","City":"Ljubljana","District":"Vodmat","Street":"Zaloška cesta","HouseNumber":"2","PostalCode":"1000","AdditionalData":[{"value":"Slovenija","key":"CountryName"},{"value":"Ljubljana","key":"CountyName"}]},"MapReference":{"ReferenceId":"829449454","Spot":0.03,"SideOfStreet":"left","CountryId":"20633685","CountyId":"20637391","CityId":"20637495","AddressId":"406778261","RoadLinkId":"213556862"}}},{"Relevance":1.0,"Distance":46.8,"MatchLevel":"street","MatchQuality":{"Country":1.0,"County":1.0,"City":1.0,"District":1.0,"Street":[1.0],"PostalCode":1.0},"Location":{"LocationId":"NT_XNNARbw7y-eGKP9T229wnB_l_585381510_L","LocationType":"point","DisplayPosition":{"Latitude":46.05243,"Longitude":14.52107},"MapView":{"TopLeft":{"Latitude":46.05243,"Longitude":14.52107},"BottomRight":{"Latitude":46.05235,"Longitude":14.52109}},"Address":{"Label":"Zaloška cesta, SI- 1000 Ljubljana, Slovenija","Country":"SVN","County":"Ljubljana","City":"Ljubljana","District":"Vodmat","Street":"Zaloška cesta","PostalCode":"1000","AdditionalData":[{"value":"Slovenija","key":"CountryName"},{"value":"Ljubljana","key":"CountyName"}]},"MapReference":{"ReferenceId":"585381510","Spot":1.0,"SideOfStreet":"left","CountryId":"20633685","CountyId":"20637391","CityId":"20637495"}}},{"Relevance":1.0,"Distance":50.0,"MatchLevel":"houseNumber","MatchQuality":{"Country":1.0,"County":1.0,"City":1.0,"District":1.0,"Street":[1.0],"HouseNumber":1.0,"PostalCode":1.0},"MatchType":"interpolated","Location":{"LocationId":"NT_XNNARbw7y-eGKP9T229wnB_xA","LocationType":"point","DisplayPosition":{"Latitude":46.05232,"Longitude":14.51985},"MapView":{"TopLeft":{"Latitude":46.0534442,"Longitude":14.5182302},"BottomRight":{"Latitude":46.0511958,"Longitude":14.5214698}},"Address":{"Label":"Zaloška cesta 1, SI- 1000 Ljubljana, Slovenija","Country":"SVN","County":"Ljubljana","City":"Ljubljana","District":"Vodmat","Street":"Zaloška cesta","HouseNumber":"1","PostalCode":"1000","AdditionalData":[{"value":"Slovenija","key":"CountryName"},{"value":"Ljubljana","key":"CountyName"}]},"MapReference":{"ReferenceId":"827933658","Spot":0.41,"SideOfStreet":"left","CountryId":"20633685","CountyId":"20637391","CityId":"20637495","AddressId":"406936330","RoadLinkId":"212720987"}}}]}]}}