{"Response":{"MetaInfo":{"Timestamp":"2020-03-28T11:50:51.487+0000","NextPageInformation":"2"},"View":[{"_type":"SearchResultsViewType","ViewId":0,"Result":[{"Relevance":1.0,"Distance":0.0,"Direction":0.0,"MatchLevel":"city","MatchQuality":{"Country":1.0,"State":1.0,"County":1.0,"City":1.0,"PostalCode":1.0},"Location":{"LocationId":"NT_BY7CZ.Hd8dr68zrAVjsgKC","LocationType":"point","DisplayPosition":{"Latitude":46.029253,"Longitude":2.819761},"MapView":{"TopLeft":{"Latitude":46.06125,"Longitude":2.76997},"BottomRight":{"Latitude":45.97592,"Longitude":2.88788}},"Address":{"Label":"Saint-Gervais-d'Auvergne, Auvergne-Rhône-Alpes, France","Country":"FRA","State":"Auvergne-Rhône-Alpes","County":"Puy-de-Dôme","City":"Saint-Gervais-d'Auvergne","PostalCode":"63390","AdditionalData":[{"value":"France","key":"CountryName"},{"value":"Auvergne-Rhône-Alpes","key":"StateName"},{"value":"Puy-de-Dôme","key":"CountyName"}]},"MapReference":{"ReferenceId":"583831023","SideOfStreet":"neither","CountryId":"20000001","StateId":"20006029","CountyId":"20052821","CityId":"20104227"}}},{"Relevance":1.0,"Distance":6.1,"MatchLevel":"street","MatchQuality":{"Country":1.0,"State":1.0,"County":1.0,"City":1.0,"Street":[1.0],"PostalCode":1.0},"Location":{"LocationId":"NT_AWpQbU4e0a23oa3BULdX7B_l_957975032_L","LocationType":"point","DisplayPosition":{"Latitude":46.0292366,"Longitude":2.8198361},"MapView":{"TopLeft":{"Latitude":46.0293,"Longitude":2.81978},"BottomRight":{"Latitude":46.02898,"Longitude":2.81985}},"Address":{"Label":"Rue Étienne Maison, 63390 Saint-Gervais-d'Auvergne, France","Country":"FRA","State":"Auvergne-Rhône-Alpes","County":"Puy-de-Dôme","City":"Saint-Gervais-d'Auvergne","Street":"Rue Étienne Maison","PostalCode":"63390","AdditionalData":[{"value":"France","key":"CountryName"},{"value":"Auvergne-Rhône-Alpes","key":"StateName"},{"value":"Puy-de-Dôme","key":"CountyName"}]},"MapReference":{"ReferenceId":"957975032","Spot":0.8,"SideOfStreet":"left","CountryId":"20000001","StateId":"20006029","CountyId":"20052821","CityId":"20104227"}}},{"Relevance":1.0,"Distance":8.6,"MatchLevel":"street","MatchQuality":{"Country":1.0,"State":1.0,"County":1.0,"City":1.0,"Street":[1.0],"PostalCode":1.0},"Location":{"LocationId":"NT_AWpQbU4e0a23oa3BULdX7B_l_957975033_L","LocationType":"point","DisplayPosition":{"Latitude":46.0293,"Longitude":2.81985},"MapView":{"TopLeft":{"Latitude":46.0294,"Longitude":2.81985},"BottomRight":{"Latitude":46.0293,"Longitude":2.81988}},"Address":{"Label":"Rue Étienne Maison, 63390 Saint-Gervais-d'Auvergne, France","Country":"FRA","State":"Auvergne-Rhône-Alpes","County":"Puy-de-Dôme","City":"Saint-Gervais-d'Auvergne","Street":"Rue Étienne Maison","PostalCode":"63390","AdditionalData":[{"value":"France","key":"CountryName"},{"value":"Auvergne-Rhône-Alpes","key":"StateName"},{"value":"Puy-de-Dôme","key":"CountyName"}]},"MapReference":{"ReferenceId":"957975033","Spot":0.0,"SideOfStreet":"left","CountryId":"20000001","StateId":"20006029","CountyId":"20052821","CityId":"20104227"}}},{"Relevance":1.0,"Distance":18.0,"MatchLevel":"street","MatchQuality":{"Country":1.0,"State":1.0,"County":1.0,"City":1.0,"Street":[1.0],"PostalCode":1.0},"Location":{"LocationId":"NT_WL-D5qm5um8RMa2wgz5gMC_l_1065052024_L","LocationType":"point","DisplayPosition":{"Latitude":46.0294137,"Longitude":2.819784},"MapView":{"TopLeft":{"Latitude":46.0295,"Longitude":2.8196},"BottomRight":{"Latitude":46.0294,"Longitude":2.81988}},"Address":{"Label":"Rue de la Perrière, 63390 Saint-Gervais-d'Auvergne, France","Country":"FRA","State":"Auvergne-Rhône-Alpes","County":"Puy-de-Dôme","City":"Saint-Gervais-d'Auvergne","Street":"Rue de la Perrière","PostalCode":"63390","AdditionalData":[{"value":"France","key":"CountryName"},{"value":"Auvergne-Rhône-Alpes","key":"StateName"},{"value":"Puy-de-Dôme","key":"CountyName"}]},"MapReference":{"ReferenceId":"1065052024","Spot":0.31,"SideOfStreet":"left","CountryId":"20000001","StateId":"20006029","CountyId":"20052821","CityId":"20104227"}}},{"Relevance":1.0,"Distance":18.8,"MatchLevel":"street","MatchQuality":{"Country":1.0,"State":1.0,"County":1.0,"City":1.0,"Street":[1.0],"PostalCode":1.0},"Location":{"LocationId":"NT_FukQVRMGzglvucau69lh2D_l_1065047909_L","LocationType":"point","DisplayPosition":{"Latitude":46.0294,"Longitude":2.81988},"MapView":{"TopLeft":{"Latitude":46.0294,"Longitude":2.81988},"BottomRight":{"Latitude":46.02934,"Longitude":2.82044}},"Address":{"Label":"Place de la Liberté, 63390 Saint-Gervais-d'Auvergne, France","Country":"FRA","State":"Auvergne-Rhône-Alpes","County":"Puy-de-Dôme","City":"Saint-Gervais-d'Auvergne","Street":"Place de la Liberté","PostalCode":"63390","AdditionalData":[{"value":"France","key":"CountryName"},{"value":"Auvergne-Rhône-Alpes","key":"StateName"},{"value":"Puy-de-Dôme","key":"CountyName"}]},"MapReference":{"ReferenceId":"1065047909","Spot":1.0,"SideOfStreet":"left","CountryId":"20000001","StateId":"20006029","CountyId":"20052821","CityId":"20104227"}}},{"Relevance":1.0,"Distance":18.8,"MatchLevel":"street","MatchQuality":{"Country":1.0,"State":1.0,"County":1.0,"City":1.0,"Street":[1.0],"PostalCode":1.0},"Location":{"LocationId":"NT_AWpQbU4e0a23oa3BULdX7B_l_583831078_L","LocationType":"point","DisplayPosition":{"Latitude":46.0294,"Longitude":2.81988},"MapView":{"TopLeft":{"Latitude":46.0295,"Longitude":2.81988},"BottomRight":{"Latitude":46.0294,"Longitude":2.81992}},"Address":{"Label":"Rue Étienne Maison, 63390 Saint-Gervais-d'Auvergne, France","Country":"FRA","State":"Auvergne-Rhône-Alpes","County":"Puy-de-Dôme","City":"Saint-Gervais-d'Auvergne","Street":"Rue Étienne Maison","PostalCode":"63390","AdditionalData":[{"value":"France","key":"CountryName"},{"value":"Auvergne-Rhône-Alpes","key":"StateName"},{"value":"Puy-de-Dôme","key":"CountyName"}]},"MapReference":{"ReferenceId":"583831078","Spot":0.0,"SideOfStreet":"left","CountryId":"20000001","StateId":"20006029","CountyId":"20052821","CityId":"20104227"}}},{"Relevance":1.0,"Distance":28.6,"MatchLevel":"street","MatchQuality":{"Country":1.0,"State":1.0,"County":1.0,"City":1.0,"Street":[1.0],"PostalCode":1.0},"Location":{"LocationId":"NT_WL-D5qm5um8RMa2wgz5gMC_l_1065052021_R","LocationType":"point","DisplayPosition":{"Latitude":46.0294727,"Longitude":2.8195688},"MapView":{"TopLeft":{"Latitude":46.0295,"Longitude":2.8193},"BottomRight":{"Latitude":46.02904,"Longitude":2.8196}},"Address":{"Label":"Rue de la Perrière, 63390 Saint-Gervais-d'Auvergne, France","Country":"FRA","State":"Auvergne-Rhône-Alpes","County":"Puy-de-Dôme","City":"Saint-Gervais-d'Auvergne","Street":"Rue de la Perrière","PostalCode":"63390","AdditionalData":[{"value":"France","key":"CountryName"},{"value":"Auvergne-Rhône-Alpes","key":"StateName"},{"value":"Puy-de-Dôme","key":"CountyName"}]},"MapReference":{"ReferenceId":"1065052021","Spot":0.93,"SideOfStreet":"right","CountryId":"20000001","StateId":"20006029","CountyId":"20052821","CityId":"20104227"}}},{"Relevance":1.0,"Distance":30.1,"MatchLevel":"street","MatchQuality":{"Country":1.0,"State":1.0,"County":1.0,"City":1.0,"Street":[1.0],"PostalCode":1.0},"Location":{"LocationId":"NT_FukQVRMGzglvucau69lh2D_l_583831076_L","LocationType":"point","DisplayPosition":{"Latitude":46.0295,"Longitude":2.81992},"MapView":{"TopLeft":{"Latitude":46.0295,"Longitude":2.81992},"BottomRight":{"Latitude":46.02946,"Longitude":2.82063}},"Address":{"Label":"Place de la Liberté, 63390 Saint-Gervais-d'Auvergne, France","Country":"FRA","State":"Auvergne-Rhône-Alpes","County":"Puy-de-Dôme","City":"Saint-Gervais-d'Auvergne","Street":"Place de la Liberté","PostalCode":"63390","AdditionalData":[{"value":"France","key":"CountryName"},{"value":"Auvergne-Rhône-Alpes","key":"StateName"},{"value":"Puy-de-Dôme","key":"CountyName"}]},"MapReference":{"ReferenceId":"583831076","Spot":1.0,"SideOfStreet":"left","CountryId":"20000001","StateId":"20006029","CountyId":"20052821","CityId":"20104227"}}},{"Relevance":1.0,"Distance":30.1,"MatchLevel":"street","MatchQuality":{"Country":1.0,"State":1.0,"County":1.0,"City":1.0,"Street":[1.0],"PostalCode":1.0},"Location":{"LocationId":"NT_AWpQbU4e0a23oa3BULdX7B_l_583831041_L","LocationType":"point","DisplayPosition":{"Latitude":46.0295,"Longitude":2.81992},"MapView":{"TopLeft":{"Latitude":46.03046,"Longitude":2.81992},"BottomRight":{"Latitude":46.0295,"Longitude":2.82031}},"Address":{"Label":"Rue Étienne Maison, 63390 Saint-Gervais-d'Auvergne, France","Country":"FRA","State":"Auvergne-Rhône-Alpes","County":"Puy-de-Dôme","City":"Saint-Gervais-d'Auvergne","Street":"Rue Étienne Maison","PostalCode":"63390","AdditionalData":[{"value":"France","key":"CountryName"},{"value":"Auvergne-Rhône-Alpes","key":"StateName"},{"value":"Puy-de-Dôme","key":"CountyName"}]},"MapReference":{"ReferenceId":"583831041","Spot":0.0,"SideOfStreet":"left","CountryId":"20000001","StateId":"20006029","CountyId":"20052821","CityId":"20104227"}}},{"Relevance":1.0,"Distance":30.1,"MatchLevel":"street","MatchQuality":{"Country":1.0,"State":1.0,"County":1.0,"City":1.0,"Street":[1.0],"PostalCode":1.0},"Location":{"LocationId":"NT_WL-D5qm5um8RMa2wgz5gMC_l_1065052025_R","LocationType":"point","DisplayPosition":{"Latitude":46.0295,"Longitude":2.8196},"MapView":{"TopLeft":{"Latitude":46.02958,"Longitude":2.8196},"BottomRight":{"Latitude":46.0295,"Longitude":2.81962}},"Address":{"Label":"Rue de la Perrière, 63390 Saint-Gervais-d'Auvergne, France","Country":"FRA","State":"Auvergne-Rhône-Alpes","County":"Puy-de-Dôme","City":"Saint-Gervais-d'Auvergne","Street":"Rue de la Perrière","PostalCode":"63390","AdditionalData":[{"value":"France","key":"CountryName"},{"value":"Auvergne-Rhône-Alpes","key":"StateName"},{"value":"Puy-de-Dôme","key":"CountyName"}]},"MapReference":{"ReferenceId":"1065052025","Spot":0.0,"SideOfStreet":"right","CountryId":"20000001","StateId":"20006029","CountyId":"20052821","CityId":"20104227"}}}]}]}}