{"Response":{"MetaInfo":{"Timestamp":"2020-03-28T11:08:36.836+0000","NextPageInformation":"2"},"View":[{"_type":"SearchResultsViewType","ViewId":0,"Result":[{"Relevance":1.0,"Distance":0.0,"Direction":0.0,"MatchLevel":"city","MatchQuality":{"Country":1.0,"State":1.0,"County":1.0,"City":1.0,"PostalCode":1.0},"Location":{"LocationId":"NT_1B9ZwGeQhCAXVEMIdvUafC","LocationType":"point","DisplayPosition":{"Latitude":46.0813057,"Longitude":6.4055577},"MapView":{"TopLeft":{"Latitude":46.11474,"Longitude":6.34712},"BottomRight":{"Latitude":46.04262,"Longitude":6.46129}},"Address":{"Label":"Bonneville, Auvergne-Rhône-Alpes, France","Country":"FRA","State":"Auvergne-Rhône-Alpes","County":"Haute-Savoie","City":"Bonneville","PostalCode":"74130","AdditionalData":[{"value":"France","key":"CountryName"},{"value":"Auvergne-Rhône-Alpes","key":"StateName"},{"value":"Haute-Savoie","key":"CountyName"}]},"MapReference":{"ReferenceId":"1076151072","SideOfStreet":"neither","CountryId":"20000001","StateId":"20006029","CountyId":"20054650","CityId":"20054765"}}},{"Relevance":1.0,"Distance":4.0,"MatchLevel":"houseNumber","MatchQuality":{"Country":1.0,"State":1.0,"County":1.0,"City":1.0,"Street":[1.0],"HouseNumber":1.0,"PostalCode":1.0},"MatchType":"interpolated","Location":{"LocationId":"NT_tKFvR9Px.VlJxdduUiKFZD_xQDM","LocationType":"point","DisplayPosition":{"Latitude":46.08132,"Longitude":6.40549},"MapView":{"TopLeft":{"Latitude":46.0824442,"Longitude":6.4038693},"BottomRight":{"Latitude":46.0801958,"Longitude":6.4071107}},"Address":{"Label":"140 Rue du Manet, 74130 Bonneville, France","Country":"FRA","State":"Auvergne-Rhône-Alpes","County":"Haute-Savoie","City":"Bonneville","Street":"Rue du Manet","HouseNumber":"140","PostalCode":"74130","AdditionalData":[{"value":"France","key":"CountryName"},{"value":"Auvergne-Rhône-Alpes","key":"StateName"},{"value":"Haute-Savoie","key":"CountyName"}]},"MapReference":{"ReferenceId":"770459606","Spot":0.66,"SideOfStreet":"right","CountryId":"20000001","StateId":"20006029","CountyId":"20054650","CityId":"20054765","AddressId":"345502923","RoadLinkId":"164023211"}}},{"Relevance":1.0,"Distance":62.4,"MatchLevel":"houseNumber","MatchQuality":{"Country":1.0,"State":1.0,"County":1.0,"City":1.0,"Street":[1.0],"HouseNumber":1.0,"PostalCode":1.0},"MatchType":"interpolated","Location":{"LocationId":"NT_tKFvR9Px.VlJxdduUiKFZD_yEjN","LocationType":"point","DisplayPosition":{"Latitude":46.08182,"Longitude":6.40588},"MapView":{"TopLeft":{"Latitude":46.0829442,"Longitude":6.4042593},"BottomRight":{"Latitude":46.0806958,"Longitude":6.4075007}},"Address":{"Label":"216 Rue du Manet, 74130 Bonneville, France","Country":"FRA","State":"Auvergne-Rhône-Alpes","County":"Haute-Savoie","City":"Bonneville","Street":"Rue du Manet","HouseNumber":"216","PostalCode":"74130","AdditionalData":[{"value":"France","key":"CountryName"},{"value":"Auvergne-Rhône-Alpes","key":"StateName"},{"value":"Haute-Savoie","key":"CountyName"}]},"MapReference":{"ReferenceId":"770459607","Spot":0.5,"SideOfStreet":"right","CountryId":"20000001","StateId":"20006029","CountyId":"20054650","CityId":"20054765","AddressId":"319684616","RoadLinkId":"164023212"}}},{"Relevance":1.0,"Distance":64.9,"MatchLevel":"houseNumber","MatchQuality":{"Country":1.0,"State":1.0,"County":1.0,"City":1.0,"Street":[1.0],"HouseNumber":1.0,"PostalCode":1.0},"MatchType":"interpolated","Location":{"LocationId":"NT_KliG3UtMisYof7QvRVD-bC_yIDM","LocationType":"point","DisplayPosition":{"Latitude":46.08081,"Longitude":6.40506},"MapView":{"TopLeft":{"Latitude":46.0819342,"Longitude":6.4034394},"BottomRight":{"Latitude":46.0796858,"Longitude":6.4066806}},"Address":{"Label":"220 Avenue de Genève, 74130 Bonneville, France","Country":"FRA","State":"Auvergne-Rhône-Alpes","County":"Haute-Savoie","City":"Bonneville","Street":"Avenue de Genève","HouseNumber":"220","PostalCode":"74130","AdditionalData":[{"value":"France","key":"CountryName"},{"value":"Auvergne-Rhône-Alpes","key":"StateName"},{"value":"Haute-Savoie","key":"CountyName"}]},"MapReference":{"ReferenceId":"68276055","Spot":0.52,"SideOfStreet":"right","CountryId":"20000001","StateId":"20006029","CountyId":"20054650","CityId":"20054765","AddressId":"319915346","RoadLinkId":"46064878"}}},{"Relevance":1.0,"Distance":78.8,"MatchLevel":"houseNumber","MatchQuality":{"Country":1.0,"State":1.0,"County":1.0,"City":1.0,"Street":[1.0],"HouseNumber":1.0,"PostalCode":1.0},"MatchType":"interpolated","Location":{"LocationId":"NT_tKFvR9Px.VlJxdduUiKFZD_l_770392114_R_2QD","LocationType":"point","DisplayPosition":{"Latitude":46.080503,"Longitude":6.405667},"MapView":{"TopLeft":{"Latitude":46.0816271,"Longitude":6.4040464},"BottomRight":{"Latitude":46.0793788,"Longitude":6.4072877}},"Address":{"Label":"64 Rue du Manet, 74130 Bonneville, France","Country":"FRA","State":"Auvergne-Rhône-Alpes","County":"Haute-Savoie","City":"Bonneville","Street":"Rue du Manet","HouseNumber":"64","PostalCode":"74130","AdditionalData":[{"value":"France","key":"CountryName"},{"value":"Auvergne-Rhône-Alpes","key":"StateName"},{"value":"Haute-Savoie","key":"CountyName"}]},"MapReference":{"ReferenceId":"770392114","Spot":0.72,"SideOfStreet":"right","CountryId":"20000001","StateId":"20006029","CountyId":"20054650","CityId":"20054765"}}},{"Relevance":1.0,"Distance":83.8,"MatchLevel":"houseNumber","MatchQuality":{"Country":1.0,"State":1.0,"County":1.0,"City":1.0,"Street":[1.0],"HouseNumber":1.0,"PostalCode":1.0},"MatchType":"interpolated","Location":{"LocationId":"NT_KliG3UtMisYof7QvRVD-bC_zADO","LocationType":"point","DisplayPosition":{"Latitude":46.08147,"Longitude":6.40448},"MapView":{"TopLeft":{"Latitude":46.0825942,"Longitude":6.4028593},"BottomRight":{"Latitude":46.0803458,"Longitude":6.4061007}},"Address":{"Label":"308 Avenue de Genève, 74130 Bonneville, France","Country":"FRA","State":"Auvergne-Rhône-Alpes","County":"Haute-Savoie","City":"Bonneville","Street":"Avenue de Genève","HouseNumber":"308","PostalCode":"74130","AdditionalData":[{"value":"France","key":"CountryName"},{"value":"Auvergne-Rhône-Alpes","key":"StateName"},{"value":"Haute-Savoie","key":"CountyName"}]},"MapReference":{"ReferenceId":"1076151069","Spot":0.26,"SideOfStreet":"right","CountryId":"20000001","StateId":"20006029","CountyId":"20054650","CityId":"20054765","AddressId":"319668249","RoadLinkId":"396246755"}}},{"Relevance":1.0,"Distance":113.3,"MatchLevel":"houseNumber","MatchQuality":{"Country":1.0,"State":1.0,"County":1.0,"City":1.0,"Street":[1.0],"HouseNumber":1.0,"PostalCode":1.0},"MatchType":"interpolated","Location":{"LocationId":"NT_KliG3UtMisYof7QvRVD-bC_l_781299955_R_xADO","LocationType":"point","DisplayPosition":{"Latitude":46.0801867,"Longitude":6.40561},"MapView":{"TopLeft":{"Latitude":46.0813108,"Longitude":6.4039894},"BottomRight":{"Latitude":46.0790625,"Longitude":6.4072306}},"Address":{"Label":"108 Avenue de Genève, 74130 Bonneville, France","Country":"FRA","State":"Auvergne-Rhône-Alpes","County":"Haute-Savoie","City":"Bonneville","Street":"Avenue de Genève","HouseNumber":"108","PostalCode":"74130","AdditionalData":[{"value":"France","key":"CountryName"},{"value":"Auvergne-Rhône-Alpes","key":"StateName"},{"value":"Haute-Savoie","key":"CountyName"}]},"MapReference":{"ReferenceId":"781299955","Spot":0.67,"SideOfStreet":"right","CountryId":"20000001","StateId":"20006029","CountyId":"20054650","CityId":"20054765"}}},{"Relevance":1.0,"Distance":116.3,"MatchLevel":"houseNumber","MatchQuality":{"Country":1.0,"State":1.0,"County":1.0,"City":1.0,"Street":[1.0],"HouseNumber":1.0,"PostalCode":1.0},"MatchType":"interpolated","Location":{"LocationId":"NT_SQ27g6bIREsiKPHy8vOWEC_2ED","LocationType":"point","DisplayPosition":{"Latitude":46.08096,"Longitude":6.40408},"MapView":{"TopLeft":{"Latitude":46.0820842,"Longitude":6.4024593},"BottomRight":{"Latitude":46.0798358,"Longitude":6.4057007}},"Address":{"Label":"61 Impasse des Dauphins, 74130 Bonneville, France","Country":"FRA","State":"Auvergne-Rhône-Alpes","County":"Haute-Savoie","City":"Bonneville","Street":"Impasse des Dauphins","HouseNumber":"61","PostalCode":"74130","AdditionalData":[{"value":"France","key":"CountryName"},{"value":"Auvergne-Rhône-Alpes","key":"StateName"},{"value":"Haute-Savoie","key":"CountyName"}]},"MapReference":{"ReferenceId":"65349056","Spot":0.34,"SideOfStreet":"right","CountryId":"20000001","StateId":"20006029","CountyId":"20054650","CityId":"20054765","AddressId":"573930336","RoadLinkId":"45925717"}}},{"Relevance":1.0,"Distance":122.3,"MatchLevel":"houseNumber","MatchQuality":{"Country":1.0,"State":1.0,"County":1.0,"City":1.0,"Street":[1.0],"HouseNumber":1.0,"PostalCode":1.0},"MatchType":"interpolated","Location":{"LocationId":"NT_KliG3UtMisYof7QvRVD-bC_zYDM","LocationType":"point","DisplayPosition":{"Latitude":46.08184,"Longitude":6.40416},"MapView":{"TopLeft":{"Latitude":46.0829642,"Longitude":6.4025393},"BottomRight":{"Latitude":46.0807158,"Longitude":6.4057807}},"Address":{"Label":"360 Avenue de Genève, 74130 Bonneville, France","Country":"FRA","State":"Auvergne-Rhône-Alpes","County":"Haute-Savoie","City":"Bonneville","Street":"Avenue de Genève","HouseNumber":"360","PostalCode":"74130","AdditionalData":[{"value":"France","key":"CountryName"},{"value":"Auvergne-Rhône-Alpes","key":"StateName"},{"value":"Haute-Savoie","key":"CountyName"}]},"MapReference":{"ReferenceId":"1076151070","Spot":0.36,"SideOfStreet":"right","CountryId":"20000001","StateId":"20006029","CountyId":"20054650","CityId":"20054765","AddressId":"319668248","RoadLinkId":"396246756"}}},{"Relevance":1.0,"Distance":123.1,"MatchLevel":"houseNumber","MatchQuality":{"Country":1.0,"State":1.0,"County":1.0,"City":1.0,"Street":[1.0],"HouseNumber":1.0,"PostalCode":1.0},"MatchType":"interpolated","Location":{"LocationId":"NT_KliG3UtMisYof7QvRVD-bC_l_781299954_R_xAjM","LocationType":"point","DisplayPosition":{"Latitude":46.080103,"Longitude":6.405686},"MapView":{"TopLeft":{"Latitude":46.0812272,"Longitude":6.4040654},"BottomRight":{"Latitude":46.0789789,"Longitude":6.4073066}},"Address":{"Label":"102 Avenue de Genève, 74130 Bonneville, France","Country":"FRA","State":"Auvergne-Rhône-Alpes","County":"Haute-Savoie","City":"Bonneville","Street":"Avenue de Genève","HouseNumber":"102","PostalCode":"74130","AdditionalData":[{"value":"France","key":"CountryName"},{"value":"Auvergne-Rhône-Alpes","key":"StateName"},{"value":"Haute-Savoie","key":"CountyName"}]},"MapReference":{"ReferenceId":"781299954","Spot":0.9,"SideOfStreet":"right","CountryId":"20000001","StateId":"20006029","CountyId":"20054650","CityId":"20054765"}}}]}]}}