{"Response":{"MetaInfo":{"Timestamp":"2020-03-28T11:53:18.345+0000","NextPageInformation":"2"},"View":[{"_type":"SearchResultsViewType","ViewId":0,"Result":[{"Relevance":1.0,"Distance":0.0,"Direction":0.0,"MatchLevel":"city","MatchQuality":{"Country":1.0,"State":1.0,"County":1.0,"City":1.0,"PostalCode":1.0},"Location":{"LocationId":"NT_iw8ahR20QqPffoN3MPDQ4D","LocationType":"point","DisplayPosition":{"Latitude":46.0509387,"Longitude":1.8554566},"MapView":{"TopLeft":{"Latitude":46.09425,"Longitude":1.79927},"BottomRight":{"Latitude":46.00595,"Longitude":1.91435}},"Address":{"Label":"Sardent, Nouvelle-Aquitaine, France","Country":"FRA","State":"Nouvelle-Aquitaine","County":"Creuse","City":"Sardent","PostalCode":"23250","AdditionalData":[{"value":"France","key":"CountryName"},{"value":"Nouvelle-Aquitaine","key":"StateName"},{"value":"Creuse","key":"CountyName"}]},"MapReference":{"ReferenceId":"584845576","SideOfStreet":"neither","CountryId":"20000001","StateId":"20000383","CountyId":"20061327","CityId":"20091619"}}},{"Relevance":1.0,"Distance":0.3,"MatchLevel":"houseNumber","MatchQuality":{"Country":1.0,"State":1.0,"County":1.0,"City":1.0,"Street":[1.0],"HouseNumber":1.0,"PostalCode":1.0},"MatchType":"interpolated","Location":{"LocationId":"NT_8cobzN4BKKDhviwdeMaLwB_xAD","LocationType":"point","DisplayPosition":{"Latitude":46.05097,"Longitude":1.8554},"MapView":{"TopLeft":{"Latitude":46.0520942,"Longitude":1.8537802},"BottomRight":{"Latitude":46.0498458,"Longitude":1.8570198}},"Address":{"Label":"10 Rue du Docteur Jamot, 23250 Sardent, France","Country":"FRA","State":"Nouvelle-Aquitaine","County":"Creuse","City":"Sardent","Street":"Rue du Docteur Jamot","HouseNumber":"10","PostalCode":"23250","AdditionalData":[{"value":"France","key":"CountryName"},{"value":"Nouvelle-Aquitaine","key":"StateName"},{"value":"Creuse","key":"CountyName"}]},"MapReference":{"ReferenceId":"584845551","Spot":0.25,"SideOfStreet":"right","CountryId":"20000001","StateId":"20000383","CountyId":"20061327","CityId":"20091619","AddressId":"388842411","RoadLinkId":"53461985"}}},{"Relevance":1.0,"Distance":17.5,"MatchLevel":"street","MatchQuality":{"Country":1.0,"State":1.0,"County":1.0,"City":1.0,"Street":[1.0],"PostalCode":1.0},"Location":{"LocationId":"NT_D4lWMkdhrvxhAj3ofI-9QB_l_584845563_R","LocationType":"point","DisplayPosition":{"Latitude":46.05085,"Longitude":1.85527},"MapView":{"TopLeft":{"Latitude":46.05089,"Longitude":1.85512},"BottomRight":{"Latitude":46.05085,"Longitude":1.85527}},"Address":{"Label":"Rue du Granit, 23250 Sardent, France","Country":"FRA","State":"Nouvelle-Aquitaine","County":"Creuse","City":"Sardent","Street":"Rue du Granit","PostalCode":"23250","AdditionalData":[{"value":"France","key":"CountryName"},{"value":"Nouvelle-Aquitaine","key":"StateName"},{"value":"Creuse","key":"CountyName"}]},"MapReference":{"ReferenceId":"584845563","Spot":0.0,"SideOfStreet":"right","CountryId":"20000001","StateId":"20000383","CountyId":"20061327","CityId":"20091619"}}},{"Relevance":1.0,"Distance":25.0,"MatchLevel":"houseNumber","MatchQuality":{"Country":1.0,"State":1.0,"County":1.0,"City":1.0,"Street":[1.0],"HouseNumber":1.0,"PostalCode":1.0},"MatchType":"interpolated","Location":{"LocationId":"NT_8cobzN4BKKDhviwdeMaLwB_xQD","LocationType":"point","DisplayPosition":{"Latitude":46.05077,"Longitude":1.85523},"MapView":{"TopLeft":{"Latitude":46.0518942,"Longitude":1.8536102},"BottomRight":{"Latitude":46.0496458,"Longitude":1.8568498}},"Address":{"Label":"14 Rue du Docteur Jamot, 23250 Sardent, France","Country":"FRA","State":"Nouvelle-Aquitaine","County":"Creuse","City":"Sardent","Street":"Rue du Docteur Jamot","HouseNumber":"14","PostalCode":"23250","AdditionalData":[{"value":"France","key":"CountryName"},{"value":"Nouvelle-Aquitaine","key":"StateName"},{"value":"Creuse","key":"CountyName"}]},"MapReference":{"ReferenceId":"966285768","Spot":0.63,"SideOfStreet":"right","CountryId":"20000001","StateId":"20000383","CountyId":"20061327","CityId":"20091619","AddressId":"317435793","RoadLinkId":"304646118"}}},{"Relevance":1.0,"Distance":27.5,"MatchLevel":"houseNumber","MatchQuality":{"Country":1.0,"State":1.0,"County":1.0,"City":1.0,"Street":[1.0],"HouseNumber":1.0,"PostalCode":1.0},"MatchType":"interpolated","Location":{"LocationId":"NT_SCWSr1yPbystMT.lfCz9LB_xAD","LocationType":"point","DisplayPosition":{"Latitude":46.05102,"Longitude":1.85611},"MapView":{"TopLeft":{"Latitude":46.0521442,"Longitude":1.8544902},"BottomRight":{"Latitude":46.0498958,"Longitude":1.8577298}},"Address":{"Label":"10 Place du Docteur Vincent, 23250 Sardent, France","Country":"FRA","State":"Nouvelle-Aquitaine","County":"Creuse","City":"Sardent","Street":"Place du Docteur Vincent","HouseNumber":"10","PostalCode":"23250","AdditionalData":[{"value":"France","key":"CountryName"},{"value":"Nouvelle-Aquitaine","key":"StateName"},{"value":"Creuse","key":"CountyName"}]},"MapReference":{"ReferenceId":"584845576","Spot":0.0,"SideOfStreet":"left","CountryId":"20000001","StateId":"20000383","CountyId":"20061327","CityId":"20091619","AddressId":"571408280","RoadLinkId":"53212177"}}},{"Relevance":1.0,"Distance":31.5,"MatchLevel":"houseNumber","MatchQuality":{"Country":1.0,"State":1.0,"County":1.0,"City":1.0,"Street":[1.0],"HouseNumber":1.0,"PostalCode":1.0},"MatchType":"interpolated","Location":{"LocationId":"NT_zIfrJiVHarsy2f72YfXgbB_l_813082515_L_yA","LocationType":"point","DisplayPosition":{"Latitude":46.0512937,"Longitude":1.8557626},"MapView":{"TopLeft":{"Latitude":46.0524179,"Longitude":1.8541428},"BottomRight":{"Latitude":46.0501696,"Longitude":1.8573824}},"Address":{"Label":"2 Place du Docteur Vincent, 23250 Sardent, France","Country":"FRA","State":"Nouvelle-Aquitaine","County":"Creuse","City":"Sardent","Street":"Place du Docteur Vincent","HouseNumber":"2","PostalCode":"23250","AdditionalData":[{"value":"France","key":"CountryName"},{"value":"Nouvelle-Aquitaine","key":"StateName"},{"value":"Creuse","key":"CountyName"}]},"MapReference":{"ReferenceId":"813082515","Spot":0.56,"SideOfStreet":"left","CountryId":"20000001","StateId":"20000383","CountyId":"20061327","CityId":"20091619"}}},{"Relevance":1.0,"Distance":34.1,"MatchLevel":"houseNumber","MatchQuality":{"Country":1.0,"State":1.0,"County":1.0,"City":1.0,"Street":[1.0],"HouseNumber":1.0,"PostalCode":1.0},"MatchType":"interpolated","Location":{"LocationId":"NT_D4lWMkdhrvxhAj3ofI-9QB_l_584845564_L_yA","LocationType":"point","DisplayPosition":{"Latitude":46.051206,"Longitude":1.855113},"MapView":{"TopLeft":{"Latitude":46.0523301,"Longitude":1.8534932},"BottomRight":{"Latitude":46.0500818,"Longitude":1.8567328}},"Address":{"Label":"2 Rue du Granit, 23250 Sardent, France","Country":"FRA","State":"Nouvelle-Aquitaine","County":"Creuse","City":"Sardent","Street":"Rue du Granit","HouseNumber":"2","PostalCode":"23250","AdditionalData":[{"value":"France","key":"CountryName"},{"value":"Nouvelle-Aquitaine","key":"StateName"},{"value":"Creuse","key":"CountyName"}]},"MapReference":{"ReferenceId":"584845564","Spot":0.5,"SideOfStreet":"left","CountryId":"20000001","StateId":"20000383","CountyId":"20061327","CityId":"20091619"}}},{"Relevance":1.0,"Distance":43.9,"MatchLevel":"houseNumber","MatchQuality":{"Country":1.0,"State":1.0,"County":1.0,"City":1.0,"Street":[1.0],"HouseNumber":1.0,"PostalCode":1.0},"MatchType":"interpolated","Location":{"LocationId":"NT_8cobzN4BKKDhviwdeMaLwB_3IE","LocationType":"point","DisplayPosition":{"Latitude":46.05059,"Longitude":1.85519},"MapView":{"TopLeft":{"Latitude":46.0517142,"Longitude":1.8535702},"BottomRight":{"Latitude":46.0494658,"Longitude":1.8568098}},"Address":{"Label":"7B Rue du Docteur Jamot, 23250 Sardent, France","Country":"FRA","State":"Nouvelle-Aquitaine","County":"Creuse","City":"Sardent","Street":"Rue du Docteur Jamot","HouseNumber":"7B","PostalCode":"23250","AdditionalData":[{"value":"France","key":"CountryName"},{"value":"Nouvelle-Aquitaine","key":"StateName"},{"value":"Creuse","key":"CountyName"}]},"MapReference":{"ReferenceId":"966285767","Spot":0.9,"SideOfStreet":"left","CountryId":"20000001","StateId":"20000383","CountyId":"20061327","CityId":"20091619","AddressId":"317435792","RoadLinkId":"304646117"}}},{"Relevance":1.0,"Distance":44.8,"MatchLevel":"houseNumber","MatchQuality":{"Country":1.0,"State":1.0,"County":1.0,"City":1.0,"Street":[1.0],"HouseNumber":1.0,"PostalCode":1.0},"MatchType":"interpolated","Location":{"LocationId":"NT_u2dTImhxxSRMRyOqlxqrkD_3A","LocationType":"point","DisplayPosition":{"Latitude":46.05075,"Longitude":1.85614},"MapView":{"TopLeft":{"Latitude":46.0518742,"Longitude":1.8545202},"BottomRight":{"Latitude":46.0496258,"Longitude":1.8577598}},"Address":{"Label":"7 Rue Grande, 23250 Sardent, France","Country":"FRA","State":"Nouvelle-Aquitaine","County":"Creuse","City":"Sardent","Street":"Rue Grande","HouseNumber":"7","PostalCode":"23250","AdditionalData":[{"value":"France","key":"CountryName"},{"value":"Nouvelle-Aquitaine","key":"StateName"},{"value":"Creuse","key":"CountyName"}]},"MapReference":{"ReferenceId":"584845595","Spot":0.62,"SideOfStreet":"left","CountryId":"20000001","StateId":"20000383","CountyId":"20061327","CityId":"20091619","AddressId":"317437949","RoadLinkId":"52798643"}}},{"Relevance":1.0,"Distance":52.5,"MatchLevel":"houseNumber","MatchQuality":{"Country":1.0,"State":1.0,"County":1.0,"City":1.0,"Street":[1.0],"HouseNumber":1.0,"PostalCode":1.0},"MatchType":"interpolated","Location":{"LocationId":"NT_zIfrJiVHarsy2f72YfXgbB_yA","LocationType":"point","DisplayPosition":{"Latitude":46.05144,"Longitude":1.85544},"MapView":{"TopLeft":{"Latitude":46.0525642,"Longitude":1.8538202},"BottomRight":{"Latitude":46.0503158,"Longitude":1.8570598}},"Address":{"Label":"2 Rue de la Fontaine Saint-Marc, 23250 Sardent, France","Country":"FRA","State":"Nouvelle-Aquitaine","County":"Creuse","City":"Sardent","Street":"Rue de la Fontaine Saint-Marc","HouseNumber":"2","PostalCode":"23250","AdditionalData":[{"value":"France","key":"CountryName"},{"value":"Nouvelle-Aquitaine","key":"StateName"},{"value":"Creuse","key":"CountyName"}]},"MapReference":{"ReferenceId":"813082516","Spot":0.15,"SideOfStreet":"left","CountryId":"20000001","StateId":"20000383","CountyId":"20061327","CityId":"20091619","AddressId":"379492137","RoadLinkId":"200422178"}}}]}]}}