{"Response":{"MetaInfo":{"Timestamp":"2020-03-31T17:07:13.020+0000","NextPageInformation":"2"},"View":[{"_type":"SearchResultsViewType","ViewId":0,"Result":[{"Relevance":1.0,"Distance":0.0,"Direction":0.0,"MatchLevel":"city","MatchQuality":{"Country":1.0,"County":1.0,"City":1.0,"PostalCode":1.0},"Location":{"LocationId":"NT_yiDxGy66OpU21Nt8gbkmkB","LocationType":"point","DisplayPosition":{"Latitude":46.0078,"Longitude":15.3156},"MapView":{"TopLeft":{"Latitude":46.08906,"Longitude":15.0878},"BottomRight":{"Latitude":45.92821,"Longitude":15.42432}},"Address":{"Label":"Sevnica, Slovenija","Country":"SVN","County":"Sevnica","City":"Sevnica","PostalCode":"8290","AdditionalData":[{"value":"Slovenija","key":"CountryName"},{"value":"Sevnica","key":"CountyName"}]},"MapReference":{"ReferenceId":"1171941990","SideOfStreet":"neither","CountryId":"20633685","CountyId":"20639572","CityId":"20639573"}}},{"Relevance":1.0,"Distance":14.1,"MatchLevel":"houseNumber","MatchQuality":{"Country":1.0,"County":1.0,"City":1.0,"District":1.0,"Street":[1.0],"HouseNumber":1.0,"PostalCode":1.0},"MatchType":"interpolated","Location":{"LocationId":"NT_4ePpu07ONfU6y8Lr65yA5A_xcTQ","LocationType":"point","DisplayPosition":{"Latitude":46.00785,"Longitude":15.31501},"MapView":{"TopLeft":{"Latitude":46.0089742,"Longitude":15.3133915},"BottomRight":{"Latitude":46.0067258,"Longitude":15.3166285}},"Address":{"Label":"Cesta na grad 17A, SI- 8290 Sevnica, Slovenija","Country":"SVN","County":"Sevnica","City":"Sevnica","District":"Sevnica","Street":"Cesta na grad","HouseNumber":"17A","PostalCode":"8290","AdditionalData":[{"value":"Slovenija","key":"CountryName"},{"value":"Sevnica","key":"CountyName"}]},"MapReference":{"ReferenceId":"710518245","Spot":0.87,"SideOfStreet":"right","CountryId":"20633685","CountyId":"20639572","CityId":"20639573","DistrictId":"22692914","AddressId":"406534747","RoadLinkId":"115696817"}}},{"Relevance":1.0,"Distance":52.2,"MatchLevel":"houseNumber","MatchQuality":{"Country":1.0,"County":1.0,"City":1.0,"District":1.0,"Street":[1.0],"HouseNumber":1.0,"PostalCode":1.0},"MatchType":"interpolated","Location":{"LocationId":"NT_IP65N.hWZ2.urFLlHvPjrB_1UD","LocationType":"point","DisplayPosition":{"Latitude":46.00786,"Longitude":15.31655},"MapView":{"TopLeft":{"Latitude":46.0089842,"Longitude":15.3149315},"BottomRight":{"Latitude":46.0067358,"Longitude":15.3181685}},"Address":{"Label":"Florjanska ulica 55, SI- 8290 Sevnica, Slovenija","Country":"SVN","County":"Sevnica","City":"Sevnica","District":"Sevnica","Street":"Florjanska ulica","HouseNumber":"55","PostalCode":"8290","AdditionalData":[{"value":"Slovenija","key":"CountryName"},{"value":"Sevnica","key":"CountyName"}]},"MapReference":{"ReferenceId":"710547802","Spot":0.53,"SideOfStreet":"left","CountryId":"20633685","CountyId":"20639572","CityId":"20639573","DistrictId":"22692914","AddressId":"406976877","RoadLinkId":"115724372"}}},{"Relevance":1.0,"Distance":53.2,"MatchLevel":"houseNumber","MatchQuality":{"Country":1.0,"County":1.0,"City":1.0,"District":1.0,"Street":[1.0],"HouseNumber":1.0,"PostalCode":1.0},"MatchType":"interpolated","Location":{"LocationId":"NT_4ePpu07ONfU6y8Lr65yA5A_xkD","LocationType":"point","DisplayPosition":{"Latitude":46.00707,"Longitude":15.31533},"MapView":{"TopLeft":{"Latitude":46.0081942,"Longitude":15.3137115},"BottomRight":{"Latitude":46.0059458,"Longitude":15.3169485}},"Address":{"Label":"Cesta na grad 19, SI- 8290 Sevnica, Slovenija","Country":"SVN","County":"Sevnica","City":"Sevnica","District":"Sevnica","Street":"Cesta na grad","HouseNumber":"19","PostalCode":"8290","AdditionalData":[{"value":"Slovenija","key":"CountryName"},{"value":"Sevnica","key":"CountyName"}]},"MapReference":{"ReferenceId":"711709179","Spot":0.27,"SideOfStreet":"right","CountryId":"20633685","CountyId":"20639572","CityId":"20639573","DistrictId":"22692914","AddressId":"406606450","RoadLinkId":"116644933"}}},{"Relevance":1.0,"Distance":62.9,"MatchLevel":"street","MatchQuality":{"Country":1.0,"County":1.0,"City":1.0,"District":1.0,"Street":[1.0],"PostalCode":1.0},"Location":{"LocationId":"NT_4ePpu07ONfU6y8Lr65yA5A_l_929845910_R","LocationType":"point","DisplayPosition":{"Latitude":46.00809,"Longitude":15.3149},"MapView":{"TopLeft":{"Latitude":46.00894,"Longitude":15.3144},"BottomRight":{"Latitude":46.00809,"Longitude":15.31495}},"Address":{"Label":"Cesta na grad, SI- 8290 Sevnica, Slovenija","Country":"SVN","County":"Sevnica","City":"Sevnica","District":"Sevnica","Street":"Cesta na grad","PostalCode":"8290","AdditionalData":[{"value":"Slovenija","key":"CountryName"},{"value":"Sevnica","key":"CountyName"}]},"MapReference":{"ReferenceId":"929845910","Spot":0.0,"SideOfStreet":"right","CountryId":"20633685","CountyId":"20639572","CityId":"20639573","DistrictId":"22692914"}}},{"Relevance":1.0,"Distance":113.3,"MatchLevel":"houseNumber","MatchQuality":{"Country":1.0,"County":1.0,"City":1.0,"District":1.0,"Street":[1.0],"HouseNumber":1.0,"PostalCode":1.0},"MatchType":"interpolated","Location":{"LocationId":"NT_4ePpu07ONfU6y8Lr65yA5A_yMD","LocationType":"point","DisplayPosition":{"Latitude":46.00672,"Longitude":15.31509},"MapView":{"TopLeft":{"Latitude":46.0078442,"Longitude":15.3134715},"BottomRight":{"Latitude":46.0055958,"Longitude":15.3167085}},"Address":{"Label":"Cesta na grad 23, SI- 8290 Sevnica, Slovenija","Country":"SVN","County":"Sevnica","City":"Sevnica","District":"Sevnica","Street":"Cesta na grad","HouseNumber":"23","PostalCode":"8290","AdditionalData":[{"value":"Slovenija","key":"CountryName"},{"value":"Sevnica","key":"CountyName"}]},"MapReference":{"ReferenceId":"710516469","Spot":0.67,"SideOfStreet":"left","CountryId":"20633685","CountyId":"20639572","CityId":"20639573","DistrictId":"22692914","AddressId":"406945721","RoadLinkId":"115722193"}}},{"Relevance":1.0,"Distance":115.4,"MatchLevel":"houseNumber","MatchQuality":{"Country":1.0,"County":1.0,"City":1.0,"District":1.0,"Street":[1.0],"HouseNumber":1.0,"PostalCode":1.0},"MatchType":"interpolated","Location":{"LocationId":"NT_IP65N.hWZ2.urFLlHvPjrB_1gD","LocationType":"point","DisplayPosition":{"Latitude":46.00682,"Longitude":15.31657},"MapView":{"TopLeft":{"Latitude":46.0079442,"Longitude":15.3149515},"BottomRight":{"Latitude":46.0056958,"Longitude":15.3181885}},"Address":{"Label":"Florjanska ulica 58, SI- 8290 Sevnica, Slovenija","Country":"SVN","County":"Sevnica","City":"Sevnica","District":"Sevnica","Street":"Florjanska ulica","HouseNumber":"58","PostalCode":"8290","AdditionalData":[{"value":"Slovenija","key":"CountryName"},{"value":"Sevnica","key":"CountyName"}]},"MapReference":{"ReferenceId":"710586134","Spot":0.63,"SideOfStreet":"left","CountryId":"20633685","CountyId":"20639572","CityId":"20639573","DistrictId":"22692914","AddressId":"406725490","RoadLinkId":"115717285"}}},{"Relevance":1.0,"Distance":120.2,"MatchLevel":"houseNumber","MatchQuality":{"Country":1.0,"County":1.0,"City":1.0,"District":1.0,"Street":[1.0],"HouseNumber":1.0,"PostalCode":1.0},"MatchType":"interpolated","Location":{"LocationId":"NT_4ePpu07ONfU6y8Lr65yA5A_yQD","LocationType":"point","DisplayPosition":{"Latitude":46.00671,"Longitude":15.31554},"MapView":{"TopLeft":{"Latitude":46.0078342,"Longitude":15.3139215},"BottomRight":{"Latitude":46.0055858,"Longitude":15.3171585}},"Address":{"Label":"Cesta na grad 24, SI- 8290 Sevnica, Slovenija","Country":"SVN","County":"Sevnica","City":"Sevnica","District":"Sevnica","Street":"Cesta na grad","HouseNumber":"24","PostalCode":"8290","AdditionalData":[{"value":"Slovenija","key":"CountryName"},{"value":"Sevnica","key":"CountyName"}]},"MapReference":{"ReferenceId":"710531454","Spot":0.92,"SideOfStreet":"right","CountryId":"20633685","CountyId":"20639572","CityId":"20639573","DistrictId":"22692914","AddressId":"406545725","RoadLinkId":"115739998"}}},{"Relevance":1.0,"Distance":121.2,"MatchLevel":"houseNumber","MatchQuality":{"Country":1.0,"County":1.0,"City":1.0,"District":1.0,"Street":[1.0],"HouseNumber":1.0,"PostalCode":1.0},"MatchType":"interpolated","Location":{"LocationId":"NT_IP65N.hWZ2.urFLlHvPjrB_1AD","LocationType":"point","DisplayPosition":{"Latitude":46.00839,"Longitude":15.31693},"MapView":{"TopLeft":{"Latitude":46.0095142,"Longitude":15.3153115},"BottomRight":{"Latitude":46.0072658,"Longitude":15.3185485}},"Address":{"Label":"Florjanska ulica 50, SI- 8290 Sevnica, Slovenija","Country":"SVN","County":"Sevnica","City":"Sevnica","District":"Sevnica","Street":"Florjanska ulica","HouseNumber":"50","PostalCode":"8290","AdditionalData":[{"value":"Slovenija","key":"CountryName"},{"value":"Sevnica","key":"CountyName"}]},"MapReference":{"ReferenceId":"710513658","Spot":0.0,"SideOfStreet":"left","CountryId":"20633685","CountyId":"20639572","CityId":"20639573","DistrictId":"22692914","AddressId":"406503210","RoadLinkId":"115731336"}}},{"Relevance":1.0,"Distance":142.2,"MatchLevel":"houseNumber","MatchQuality":{"Country":1.0,"County":1.0,"City":1.0,"District":1.0,"Street":[1.0],"HouseNumber":1.0,"PostalCode":1.0},"MatchType":"interpolated","Location":{"LocationId":"NT_IP65N.hWZ2.urFLlHvPjrB_0kD","LocationType":"point","DisplayPosition":{"Latitude":46.00898,"Longitude":15.31681},"MapView":{"TopLeft":{"Latitude":46.0101042,"Longitude":15.3151915},"BottomRight":{"Latitude":46.0078558,"Longitude":15.3184285}},"Address":{"Label":"Florjanska ulica 49, SI- 8290 Sevnica, Slovenija","Country":"SVN","County":"Sevnica","City":"Sevnica","District":"Sevnica","Street":"Florjanska ulica","HouseNumber":"49","PostalCode":"8290","AdditionalData":[{"value":"Slovenija","key":"CountryName"},{"value":"Sevnica","key":"CountyName"}]},"MapReference":{"ReferenceId":"710538618","Spot":0.51,"SideOfStreet":"left","CountryId":"20633685","CountyId":"20639572","CityId":"20639573","DistrictId":"22692914","AddressId":"406842046","RoadLinkId":"115705844"}}}]}]}}