{"Response":{"MetaInfo":{"Timestamp":"2020-03-28T11:46:44.404+0000","NextPageInformation":"2"},"View":[{"_type":"SearchResultsViewType","ViewId":0,"Result":[{"Relevance":1.0,"Distance":0.0,"Direction":0.0,"MatchLevel":"district","MatchQuality":{"Country":1.0,"State":1.0,"County":1.0,"City":1.0,"District":1.0,"PostalCode":1.0},"Location":{"LocationId":"NT_xKaC5Ua96ssb4eVYt60I-C","LocationType":"point","DisplayPosition":{"Latitude":46.1344531,"Longitude":6.2686334},"MapView":{"TopLeft":{"Latitude":46.14461,"Longitude":6.26334},"BottomRight":{"Latitude":46.12445,"Longitude":6.28242}},"Address":{"Label":"Reignier, Reignier-Ésery, Auvergne-Rhône-Alpes, France","Country":"FRA","State":"Auvergne-Rhône-Alpes","County":"Haute-Savoie","City":"Reignier-Ésery","District":"Reignier","PostalCode":"74930","AdditionalData":[{"value":"France","key":"CountryName"},{"value":"Auvergne-Rhône-Alpes","key":"StateName"},{"value":"Haute-Savoie","key":"CountyName"}]},"MapReference":{"ReferenceId":"79438426","SideOfStreet":"neither","CountryId":"20000001","StateId":"20006029","CountyId":"20054650","CityId":"20055273","DistrictId":"20055275"}}},{"Relevance":1.0,"Distance":10.0,"MatchLevel":"houseNumber","MatchQuality":{"Country":1.0,"State":1.0,"County":1.0,"City":1.0,"District":1.0,"Street":[1.0],"HouseNumber":1.0,"PostalCode":1.0},"MatchType":"interpolated","Location":{"LocationId":"NT_nqD21Y5NuzMO5tIT4hc9hC_xYD","LocationType":"point","DisplayPosition":{"Latitude":46.13438,"Longitude":6.26871},"MapView":{"TopLeft":{"Latitude":46.1355042,"Longitude":6.2670878},"BottomRight":{"Latitude":46.1332558,"Longitude":6.2703322}},"Address":{"Label":"16 Rue du Môle, 74930 Reignier-Ésery, France","Country":"FRA","State":"Auvergne-Rhône-Alpes","County":"Haute-Savoie","City":"Reignier-Ésery","District":"Reignier","Street":"Rue du Môle","HouseNumber":"16","PostalCode":"74930","AdditionalData":[{"value":"France","key":"CountryName"},{"value":"Auvergne-Rhône-Alpes","key":"StateName"},{"value":"Haute-Savoie","key":"CountyName"}]},"MapReference":{"ReferenceId":"79438950","Spot":0.8,"SideOfStreet":"right","CountryId":"20000001","StateId":"20006029","CountyId":"20054650","CityId":"20055273","DistrictId":"20055275","AddressId":"573869720","RoadLinkId":"45163575"}}},{"Relevance":1.0,"Distance":12.7,"MatchLevel":"houseNumber","MatchQuality":{"Country":1.0,"State":1.0,"County":1.0,"City":1.0,"District":1.0,"Street":[1.0],"HouseNumber":1.0,"PostalCode":1.0},"MatchType":"interpolated","Location":{"LocationId":"NT_ZGYABvxV0sNLHJFHuNUdIC_1ETM","LocationType":"point","DisplayPosition":{"Latitude":46.13443,"Longitude":6.26844},"MapView":{"TopLeft":{"Latitude":46.1355542,"Longitude":6.2668178},"BottomRight":{"Latitude":46.1333058,"Longitude":6.2700622}},"Address":{"Label":"511 Grande Rue, 74930 Reignier-Ésery, France","Country":"FRA","State":"Auvergne-Rhône-Alpes","County":"Haute-Savoie","City":"Reignier-Ésery","District":"Reignier","Street":"Grande Rue","HouseNumber":"511","PostalCode":"74930","AdditionalData":[{"value":"France","key":"CountryName"},{"value":"Auvergne-Rhône-Alpes","key":"StateName"},{"value":"Haute-Savoie","key":"CountyName"}]},"MapReference":{"ReferenceId":"1075745788","Spot":0.0,"SideOfStreet":"right","CountryId":"20000001","StateId":"20006029","CountyId":"20054650","CityId":"20055273","DistrictId":"20055275","AddressId":"319485053","RoadLinkId":"395898230"}}},{"Relevance":1.0,"Distance":16.4,"MatchLevel":"houseNumber","MatchQuality":{"Country":1.0,"State":1.0,"County":1.0,"City":1.0,"District":1.0,"Street":[1.0],"HouseNumber":1.0,"PostalCode":1.0},"MatchType":"interpolated","Location":{"LocationId":"NT_ZGYABvxV0sNLHJFHuNUdIC_0kzN","LocationType":"point","DisplayPosition":{"Latitude":46.13461,"Longitude":6.26853},"MapView":{"TopLeft":{"Latitude":46.1357342,"Longitude":6.2669078},"BottomRight":{"Latitude":46.1334858,"Longitude":6.2701522}},"Address":{"Label":"497 Grande Rue, 74930 Reignier-Ésery, France","Country":"FRA","State":"Auvergne-Rhône-Alpes","County":"Haute-Savoie","City":"Reignier-Ésery","District":"Reignier","Street":"Grande Rue","HouseNumber":"497","PostalCode":"74930","AdditionalData":[{"value":"France","key":"CountryName"},{"value":"Auvergne-Rhône-Alpes","key":"StateName"},{"value":"Haute-Savoie","key":"CountyName"}]},"MapReference":{"ReferenceId":"1080815869","Spot":0.24,"SideOfStreet":"right","CountryId":"20000001","StateId":"20006029","CountyId":"20054650","CityId":"20055273","DistrictId":"20055275","AddressId":"573870111","RoadLinkId":"398318230"}}},{"Relevance":1.0,"Distance":20.8,"MatchLevel":"street","MatchQuality":{"Country":1.0,"State":1.0,"County":1.0,"City":1.0,"District":1.0,"PostalCode":1.0},"Location":{"LocationId":"NT_Ws.GskcP0Ie.Z7KKbeC8pD_l_1080815877_L","LocationType":"point","DisplayPosition":{"Latitude":46.13451,"Longitude":6.26889},"MapView":{"TopLeft":{"Latitude":46.13451,"Longitude":6.26889},"BottomRight":{"Latitude":46.1344,"Longitude":6.26985}},"Address":{"Label":"74930 Reignier-Ésery, France","Country":"FRA","State":"Auvergne-Rhône-Alpes","County":"Haute-Savoie","City":"Reignier-Ésery","District":"Reignier","PostalCode":"74930","AdditionalData":[{"value":"France","key":"CountryName"},{"value":"Auvergne-Rhône-Alpes","key":"StateName"},{"value":"Haute-Savoie","key":"CountyName"}]},"MapReference":{"ReferenceId":"1080815877","Spot":1.0,"SideOfStreet":"left","CountryId":"20000001","StateId":"20006029","CountyId":"20054650","CityId":"20055273","DistrictId":"20055275"}}},{"Relevance":1.0,"Distance":25.9,"MatchLevel":"houseNumber","MatchQuality":{"Country":1.0,"State":1.0,"County":1.0,"City":1.0,"District":1.0,"Street":[1.0],"HouseNumber":1.0,"PostalCode":1.0},"MatchType":"interpolated","Location":{"LocationId":"NT_ZGYABvxV0sNLHJFHuNUdIC_1ITO","LocationType":"point","DisplayPosition":{"Latitude":46.13426,"Longitude":6.26838},"MapView":{"TopLeft":{"Latitude":46.1353842,"Longitude":6.2667578},"BottomRight":{"Latitude":46.1331358,"Longitude":6.2700022}},"Address":{"Label":"529 Grande Rue, 74930 Reignier-Ésery, France","Country":"FRA","State":"Auvergne-Rhône-Alpes","County":"Haute-Savoie","City":"Reignier-Ésery","District":"Reignier","Street":"Grande Rue","HouseNumber":"529","PostalCode":"74930","AdditionalData":[{"value":"France","key":"CountryName"},{"value":"Auvergne-Rhône-Alpes","key":"StateName"},{"value":"Haute-Savoie","key":"CountyName"}]},"MapReference":{"ReferenceId":"79438944","Spot":0.62,"SideOfStreet":"right","CountryId":"20000001","StateId":"20006029","CountyId":"20054650","CityId":"20055273","DistrictId":"20055275","AddressId":"319677482","RoadLinkId":"46213406"}}},{"Relevance":1.0,"Distance":33.1,"MatchLevel":"street","MatchQuality":{"Country":1.0,"State":1.0,"County":1.0,"City":1.0,"District":1.0,"Street":[1.0],"PostalCode":1.0},"Location":{"LocationId":"NT_nqD21Y5NuzMO5tIT4hc9hC_l_1080815874_L","LocationType":"point","DisplayPosition":{"Latitude":46.1347493,"Longitude":6.2686793},"MapView":{"TopLeft":{"Latitude":46.13476,"Longitude":6.26861},"BottomRight":{"Latitude":46.13456,"Longitude":6.2699}},"Address":{"Label":"Rue du Môle, 74930 Reignier-Ésery, France","Country":"FRA","State":"Auvergne-Rhône-Alpes","County":"Haute-Savoie","City":"Reignier-Ésery","District":"Reignier","Street":"Rue du Môle","PostalCode":"74930","AdditionalData":[{"value":"France","key":"CountryName"},{"value":"Auvergne-Rhône-Alpes","key":"StateName"},{"value":"Haute-Savoie","key":"CountyName"}]},"MapReference":{"ReferenceId":"1080815874","Spot":0.95,"SideOfStreet":"left","CountryId":"20000001","StateId":"20006029","CountyId":"20054650","CityId":"20055273","DistrictId":"20055275"}}},{"Relevance":1.0,"Distance":38.6,"MatchLevel":"houseNumber","MatchQuality":{"Country":1.0,"State":1.0,"County":1.0,"City":1.0,"District":1.0,"Street":[1.0],"HouseNumber":1.0,"PostalCode":1.0},"MatchType":"interpolated","Location":{"LocationId":"NT_ZGYABvxV0sNLHJFHuNUdIC_0YzM","LocationType":"point","DisplayPosition":{"Latitude":46.1348,"Longitude":6.26863},"MapView":{"TopLeft":{"Latitude":46.1359242,"Longitude":6.2670078},"BottomRight":{"Latitude":46.1336758,"Longitude":6.2702522}},"Address":{"Label":"463 Grande Rue, 74930 Reignier-Ésery, France","Country":"FRA","State":"Auvergne-Rhône-Alpes","County":"Haute-Savoie","City":"Reignier-Ésery","District":"Reignier","Street":"Grande Rue","HouseNumber":"463","PostalCode":"74930","AdditionalData":[{"value":"France","key":"CountryName"},{"value":"Auvergne-Rhône-Alpes","key":"StateName"},{"value":"Haute-Savoie","key":"CountyName"}]},"MapReference":{"ReferenceId":"1080815870","Spot":0.23,"SideOfStreet":"right","CountryId":"20000001","StateId":"20006029","CountyId":"20054650","CityId":"20055273","DistrictId":"20055275","AddressId":"319485055","RoadLinkId":"398318231"}}},{"Relevance":1.0,"Distance":58.6,"MatchLevel":"houseNumber","MatchQuality":{"Country":1.0,"State":1.0,"County":1.0,"City":1.0,"District":1.0,"Street":[1.0],"HouseNumber":1.0,"PostalCode":1.0},"MatchType":"interpolated","Location":{"LocationId":"NT_0NUf6GbFFSgRK6if8kciVC_0QD","LocationType":"point","DisplayPosition":{"Latitude":46.13427,"Longitude":6.26789},"MapView":{"TopLeft":{"Latitude":46.1353942,"Longitude":6.2662678},"BottomRight":{"Latitude":46.1331458,"Longitude":6.2695122}},"Address":{"Label":"44 Rue des Myosotis, 74930 Reignier-Ésery, France","Country":"FRA","State":"Auvergne-Rhône-Alpes","County":"Haute-Savoie","City":"Reignier-Ésery","District":"Reignier","Street":"Rue des Myosotis","HouseNumber":"44","PostalCode":"74930","AdditionalData":[{"value":"France","key":"CountryName"},{"value":"Auvergne-Rhône-Alpes","key":"StateName"},{"value":"Haute-Savoie","key":"CountyName"}]},"MapReference":{"ReferenceId":"1262247666","Spot":0.54,"SideOfStreet":"right","CountryId":"20000001","StateId":"20006029","CountyId":"20054650","CityId":"20055273","DistrictId":"20055275","AddressId":"573662491","RoadLinkId":"587940684"}}},{"Relevance":1.0,"Distance":59.2,"MatchLevel":"houseNumber","MatchQuality":{"Country":1.0,"State":1.0,"County":1.0,"City":1.0,"District":1.0,"Street":[1.0],"HouseNumber":1.0,"PostalCode":1.0},"MatchType":"interpolated","Location":{"LocationId":"NT_ZGYABvxV0sNLHJFHuNUdIC_0QTO","LocationType":"point","DisplayPosition":{"Latitude":46.13501,"Longitude":6.26872},"MapView":{"TopLeft":{"Latitude":46.1361342,"Longitude":6.2670978},"BottomRight":{"Latitude":46.1338858,"Longitude":6.2703422}},"Address":{"Label":"449 Grande Rue, 74930 Reignier-Ésery, France","Country":"FRA","State":"Auvergne-Rhône-Alpes","County":"Haute-Savoie","City":"Reignier-Ésery","District":"Reignier","Street":"Grande Rue","HouseNumber":"449","PostalCode":"74930","AdditionalData":[{"value":"France","key":"CountryName"},{"value":"Auvergne-Rhône-Alpes","key":"StateName"},{"value":"Haute-Savoie","key":"CountyName"}]},"MapReference":{"ReferenceId":"764512595","Spot":0.09,"SideOfStreet":"right","CountryId":"20000001","StateId":"20006029","CountyId":"20054650","CityId":"20055273","DistrictId":"20055275","AddressId":"319717742","RoadLinkId":"158768608"}}}]}]}}