{"Response":{"MetaInfo":{"Timestamp":"2020-03-28T11:13:42.031+0000","NextPageInformation":"2"},"View":[{"_type":"SearchResultsViewType","ViewId":0,"Result":[{"Relevance":1.0,"Distance":0.0,"Direction":0.0,"MatchLevel":"city","MatchQuality":{"Country":1.0,"State":1.0,"County":1.0,"City":1.0,"PostalCode":1.0},"Location":{"LocationId":"NT_KdIPxRHx1XdaI-WZJe1bXB","LocationType":"point","DisplayPosition":{"Latitude":46.1232189,"Longitude":1.06049},"MapView":{"TopLeft":{"Latitude":46.13582,"Longitude":0.97047},"BottomRight":{"Latitude":46.06641,"Longitude":1.09463}},"Address":{"Label":"Bellac, Nouvelle-Aquitaine, France","Country":"FRA","State":"Nouvelle-Aquitaine","County":"Haute-Vienne","City":"Bellac","PostalCode":"87300","AdditionalData":[{"value":"France","key":"CountryName"},{"value":"Nouvelle-Aquitaine","key":"StateName"},{"value":"Haute-Vienne","key":"CountyName"}]},"MapReference":{"ReferenceId":"79414874","SideOfStreet":"neither","CountryId":"20000001","StateId":"20000383","CountyId":"20082675","CityId":"20109904"}}},{"Relevance":1.0,"Distance":13.5,"MatchLevel":"street","MatchQuality":{"Country":1.0,"State":1.0,"County":1.0,"City":1.0,"Street":[1.0],"PostalCode":1.0},"Location":{"LocationId":"NT_y6ZN4iYJ4Ogr6wSwa1DCiA_l_584875083_L","LocationType":"point","DisplayPosition":{"Latitude":46.12319,"Longitude":1.06032},"MapView":{"TopLeft":{"Latitude":46.1232,"Longitude":1.05994},"BottomRight":{"Latitude":46.12318,"Longitude":1.06032}},"Address":{"Label":"Avenue Charles de Gaulle, 87300 Bellac, France","Country":"FRA","State":"Nouvelle-Aquitaine","County":"Haute-Vienne","City":"Bellac","Street":"Avenue Charles de Gaulle","PostalCode":"87300","AdditionalData":[{"value":"France","key":"CountryName"},{"value":"Nouvelle-Aquitaine","key":"StateName"},{"value":"Haute-Vienne","key":"CountyName"}]},"MapReference":{"ReferenceId":"584875083","Spot":1.0,"SideOfStreet":"left","CountryId":"20000001","StateId":"20000383","CountyId":"20082675","CityId":"20109904"}}},{"Relevance":1.0,"Distance":18.6,"MatchLevel":"houseNumber","MatchQuality":{"Country":1.0,"State":1.0,"County":1.0,"City":1.0,"Street":[1.0],"HouseNumber":1.0,"PostalCode":1.0},"MatchType":"interpolated","Location":{"LocationId":"NT_y6ZN4iYJ4Ogr6wSwa1DCiA_l_584875081_R_xA","LocationType":"point","DisplayPosition":{"Latitude":46.1229974,"Longitude":1.0603675},"MapView":{"TopLeft":{"Latitude":46.1241216,"Longitude":1.0587456},"BottomRight":{"Latitude":46.1218733,"Longitude":1.0619894}},"Address":{"Label":"1 Avenue Charles de Gaulle, 87300 Bellac, France","Country":"FRA","State":"Nouvelle-Aquitaine","County":"Haute-Vienne","City":"Bellac","Street":"Avenue Charles de Gaulle","HouseNumber":"1","PostalCode":"87300","AdditionalData":[{"value":"France","key":"CountryName"},{"value":"Nouvelle-Aquitaine","key":"StateName"},{"value":"Haute-Vienne","key":"CountyName"}]},"MapReference":{"ReferenceId":"584875081","Spot":0.51,"SideOfStreet":"right","CountryId":"20000001","StateId":"20000383","CountyId":"20082675","CityId":"20109904"}}},{"Relevance":1.0,"Distance":40.7,"MatchLevel":"houseNumber","MatchQuality":{"Country":1.0,"State":1.0,"County":1.0,"City":1.0,"Street":[1.0],"HouseNumber":1.0,"PostalCode":1.0},"MatchType":"interpolated","Location":{"LocationId":"NT_Vb42-GZuYmM5yP7rA0ryvC_xA","LocationType":"point","DisplayPosition":{"Latitude":46.12282,"Longitude":1.06066},"MapView":{"TopLeft":{"Latitude":46.1239442,"Longitude":1.0590381},"BottomRight":{"Latitude":46.1216958,"Longitude":1.0622819}},"Address":{"Label":"1 Résidence La Loge, 87300 Bellac, France","Country":"FRA","State":"Nouvelle-Aquitaine","County":"Haute-Vienne","City":"Bellac","Street":"Résidence La Loge","HouseNumber":"1","PostalCode":"87300","AdditionalData":[{"value":"France","key":"CountryName"},{"value":"Nouvelle-Aquitaine","key":"StateName"},{"value":"Haute-Vienne","key":"CountyName"}]},"MapReference":{"ReferenceId":"584875080","Spot":0.71,"SideOfStreet":"right","CountryId":"20000001","StateId":"20000383","CountyId":"20082675","CityId":"20109904","AddressId":"317496326","RoadLinkId":"52870509"}}},{"Relevance":1.0,"Distance":42.9,"MatchLevel":"street","MatchQuality":{"Country":1.0,"State":1.0,"County":1.0,"City":1.0,"Street":[1.0],"PostalCode":1.0},"Location":{"LocationId":"NT_y6ZN4iYJ4Ogr6wSwa1DCiA_l_584875084_R","LocationType":"point","DisplayPosition":{"Latitude":46.123416,"Longitude":1.0600113},"MapView":{"TopLeft":{"Latitude":46.12351,"Longitude":1.05994},"BottomRight":{"Latitude":46.12318,"Longitude":1.06005}},"Address":{"Label":"Avenue Charles de Gaulle, 87300 Bellac, France","Country":"FRA","State":"Nouvelle-Aquitaine","County":"Haute-Vienne","City":"Bellac","Street":"Avenue Charles de Gaulle","PostalCode":"87300","AdditionalData":[{"value":"France","key":"CountryName"},{"value":"Nouvelle-Aquitaine","key":"StateName"},{"value":"Haute-Vienne","key":"CountyName"}]},"MapReference":{"ReferenceId":"584875084","Spot":0.71,"SideOfStreet":"right","CountryId":"20000001","StateId":"20000383","CountyId":"20082675","CityId":"20109904"}}},{"Relevance":1.0,"Distance":56.7,"MatchLevel":"houseNumber","MatchQuality":{"Country":1.0,"State":1.0,"County":1.0,"City":1.0,"Street":[1.0],"HouseNumber":1.0,"PostalCode":1.0},"MatchType":"interpolated","Location":{"LocationId":"NT_y6ZN4iYJ4Ogr6wSwa1DCiA_xA","LocationType":"point","DisplayPosition":{"Latitude":46.12271,"Longitude":1.06045},"MapView":{"TopLeft":{"Latitude":46.1238342,"Longitude":1.0588281},"BottomRight":{"Latitude":46.1215858,"Longitude":1.0620719}},"Address":{"Label":"1 Avenue Charles de Gaulle, 87300 Bellac, France","Country":"FRA","State":"Nouvelle-Aquitaine","County":"Haute-Vienne","City":"Bellac","Street":"Avenue Charles de Gaulle","HouseNumber":"1","PostalCode":"87300","AdditionalData":[{"value":"France","key":"CountryName"},{"value":"Nouvelle-Aquitaine","key":"StateName"},{"value":"Haute-Vienne","key":"CountyName"}]},"MapReference":{"ReferenceId":"584875079","Spot":0.8,"SideOfStreet":"left","CountryId":"20000001","StateId":"20000383","CountyId":"20082675","CityId":"20109904","AddressId":"379500454","RoadLinkId":"53104213"}}},{"Relevance":1.0,"Distance":69.0,"MatchLevel":"houseNumber","MatchQuality":{"Country":1.0,"State":1.0,"County":1.0,"City":1.0,"Street":[1.0],"HouseNumber":1.0,"PostalCode":1.0},"MatchType":"interpolated","Location":{"LocationId":"NT_y6ZN4iYJ4Ogr6wSwa1DCiA_l_584875082_L_xUD","LocationType":"point","DisplayPosition":{"Latitude":46.12286,"Longitude":1.0597599},"MapView":{"TopLeft":{"Latitude":46.1239841,"Longitude":1.058138},"BottomRight":{"Latitude":46.1217358,"Longitude":1.0613818}},"Address":{"Label":"15 Avenue Charles de Gaulle, 87300 Bellac, France","Country":"FRA","State":"Nouvelle-Aquitaine","County":"Haute-Vienne","City":"Bellac","Street":"Avenue Charles de Gaulle","HouseNumber":"15","PostalCode":"87300","AdditionalData":[{"value":"France","key":"CountryName"},{"value":"Nouvelle-Aquitaine","key":"StateName"},{"value":"Haute-Vienne","key":"CountyName"}]},"MapReference":{"ReferenceId":"584875082","Spot":0.11,"SideOfStreet":"left","CountryId":"20000001","StateId":"20000383","CountyId":"20082675","CityId":"20109904"}}},{"Relevance":1.0,"Distance":84.3,"MatchLevel":"houseNumber","MatchQuality":{"Country":1.0,"State":1.0,"County":1.0,"City":1.0,"Street":[1.0],"HouseNumber":1.0,"PostalCode":1.0},"MatchType":"interpolated","Location":{"LocationId":"NT_kyTOIS.B5dNOHlMx0DOXjC_ykjQ","LocationType":"point","DisplayPosition":{"Latitude":46.12232,"Longitude":1.06023},"MapView":{"TopLeft":{"Latitude":46.1234442,"Longitude":1.0586081},"BottomRight":{"Latitude":46.1211958,"Longitude":1.0618519}},"Address":{"Label":"29B Avenue de la Libération, 87300 Bellac, France","Country":"FRA","State":"Nouvelle-Aquitaine","County":"Haute-Vienne","City":"Bellac","Street":"Avenue de la Libération","HouseNumber":"29B","PostalCode":"87300","AdditionalData":[{"value":"France","key":"CountryName"},{"value":"Nouvelle-Aquitaine","key":"StateName"},{"value":"Haute-Vienne","key":"CountyName"}]},"MapReference":{"ReferenceId":"810384254","Spot":0.61,"SideOfStreet":"left","CountryId":"20000001","StateId":"20000383","CountyId":"20082675","CityId":"20109904","AddressId":"317477875","RoadLinkId":"197708756"}}},{"Relevance":1.0,"Distance":95.0,"MatchLevel":"houseNumber","MatchQuality":{"Country":1.0,"State":1.0,"County":1.0,"City":1.0,"Street":[1.0],"HouseNumber":1.0,"PostalCode":1.0},"MatchType":"interpolated","Location":{"LocationId":"NT_kyTOIS.B5dNOHlMx0DOXjC_ygD","LocationType":"point","DisplayPosition":{"Latitude":46.12239,"Longitude":1.06079},"MapView":{"TopLeft":{"Latitude":46.1235142,"Longitude":1.0591681},"BottomRight":{"Latitude":46.1212658,"Longitude":1.0624119}},"Address":{"Label":"28 Avenue de la Libération, 87300 Bellac, France","Country":"FRA","State":"Nouvelle-Aquitaine","County":"Haute-Vienne","City":"Bellac","Street":"Avenue de la Libération","HouseNumber":"28","PostalCode":"87300","AdditionalData":[{"value":"France","key":"CountryName"},{"value":"Nouvelle-Aquitaine","key":"StateName"},{"value":"Haute-Vienne","key":"CountyName"}]},"MapReference":{"ReferenceId":"810384250","Spot":0.44,"SideOfStreet":"right","CountryId":"20000001","StateId":"20000383","CountyId":"20082675","CityId":"20109904","AddressId":"571395258","RoadLinkId":"197708747"}}},{"Relevance":1.0,"Distance":98.7,"MatchLevel":"houseNumber","MatchQuality":{"Country":1.0,"State":1.0,"County":1.0,"City":1.0,"Street":[1.0],"HouseNumber":1.0,"PostalCode":1.0},"MatchType":"interpolated","Location":{"LocationId":"NT_kyTOIS.B5dNOHlMx0DOXjC_ykTQ","LocationType":"point","DisplayPosition":{"Latitude":46.12228,"Longitude":1.05983},"MapView":{"TopLeft":{"Latitude":46.1234042,"Longitude":1.0582081},"BottomRight":{"Latitude":46.1211558,"Longitude":1.0614519}},"Address":{"Label":"29A Avenue de la Libération, 87300 Bellac, France","Country":"FRA","State":"Nouvelle-Aquitaine","County":"Haute-Vienne","City":"Bellac","Street":"Avenue de la Libération","HouseNumber":"29A","PostalCode":"87300","AdditionalData":[{"value":"France","key":"CountryName"},{"value":"Nouvelle-Aquitaine","key":"StateName"},{"value":"Haute-Vienne","key":"CountyName"}]},"MapReference":{"ReferenceId":"810384255","Spot":0.71,"SideOfStreet":"left","CountryId":"20000001","StateId":"20000383","CountyId":"20082675","CityId":"20109904","AddressId":"317456244","RoadLinkId":"197708758"}}}]}]}}