{"Response":{"MetaInfo":{"Timestamp":"2020-03-28T11:48:55.240+0000","NextPageInformation":"2"},"View":[{"_type":"SearchResultsViewType","ViewId":0,"Result":[{"Relevance":1.0,"Distance":0.0,"Direction":0.0,"MatchLevel":"city","MatchQuality":{"Country":1.0,"State":1.0,"County":1.0,"City":1.0,"PostalCode":1.0},"Location":{"LocationId":"NT_yHFLYQuwGGMh-9l0SWVbVC","LocationType":"point","DisplayPosition":{"Latitude":46.1438634,"Longitude":0.4035803},"MapView":{"TopLeft":{"Latitude":46.17093,"Longitude":0.33959},"BottomRight":{"Latitude":46.10665,"Longitude":0.47572}},"Address":{"Label":"Charroux, Nouvelle-Aquitaine, France","Country":"FRA","State":"Nouvelle-Aquitaine","County":"Vienne","City":"Charroux","PostalCode":"86250","AdditionalData":[{"value":"France","key":"CountryName"},{"value":"Nouvelle-Aquitaine","key":"StateName"},{"value":"Vienne","key":"CountyName"}]},"MapReference":{"ReferenceId":"57228129","SideOfStreet":"neither","CountryId":"20000001","StateId":"20000383","CountyId":"20081830","CityId":"20082004"}}},{"Relevance":1.0,"Distance":8.8,"MatchLevel":"houseNumber","MatchQuality":{"Country":1.0,"State":1.0,"County":1.0,"City":1.0,"Street":[1.0],"HouseNumber":1.0,"PostalCode":1.0},"MatchType":"interpolated","Location":{"LocationId":"NT_rIT5HzPpit-xkaXhcPp-nD_5A","LocationType":"point","DisplayPosition":{"Latitude":46.14383,"Longitude":0.40335},"MapView":{"TopLeft":{"Latitude":46.1449542,"Longitude":0.4017275},"BottomRight":{"Latitude":46.1427058,"Longitude":0.4049725}},"Address":{"Label":"9 Rue de la Batterie, 86250 Charroux, France","Country":"FRA","State":"Nouvelle-Aquitaine","County":"Vienne","City":"Charroux","Street":"Rue de la Batterie","HouseNumber":"9","PostalCode":"86250","AdditionalData":[{"value":"France","key":"CountryName"},{"value":"Nouvelle-Aquitaine","key":"StateName"},{"value":"Vienne","key":"CountyName"}]},"MapReference":{"ReferenceId":"568357928","Spot":1.0,"SideOfStreet":"right","CountryId":"20000001","StateId":"20000383","CountyId":"20081830","CityId":"20082004","AddressId":"590892815","RoadLinkId":"47628956"}}},{"Relevance":1.0,"Distance":10.3,"MatchLevel":"houseNumber","MatchQuality":{"Country":1.0,"State":1.0,"County":1.0,"City":1.0,"Street":[1.0],"HouseNumber":1.0,"PostalCode":1.0},"MatchType":"interpolated","Location":{"LocationId":"NT_vOdtqAgK3CMn0.oy-jZQKD_xAD","LocationType":"point","DisplayPosition":{"Latitude":46.1438,"Longitude":0.40372},"MapView":{"TopLeft":{"Latitude":46.1449242,"Longitude":0.4020975},"BottomRight":{"Latitude":46.1426758,"Longitude":0.4053425}},"Address":{"Label":"10 Place des Halles, 86250 Charroux, France","Country":"FRA","State":"Nouvelle-Aquitaine","County":"Vienne","City":"Charroux","Street":"Place des Halles","HouseNumber":"10","PostalCode":"86250","AdditionalData":[{"value":"France","key":"CountryName"},{"value":"Nouvelle-Aquitaine","key":"StateName"},{"value":"Vienne","key":"CountyName"}]},"MapReference":{"ReferenceId":"568356127","Spot":0.2,"SideOfStreet":"left","CountryId":"20000001","StateId":"20000383","CountyId":"20081830","CityId":"20082004","AddressId":"318039859","RoadLinkId":"47717680"}}},{"Relevance":1.0,"Distance":21.0,"MatchLevel":"houseNumber","MatchQuality":{"Country":1.0,"State":1.0,"County":1.0,"City":1.0,"Street":[1.0],"HouseNumber":1.0,"PostalCode":1.0},"MatchType":"interpolated","Location":{"LocationId":"NT_rIT5HzPpit-xkaXhcPp-nD_2A","LocationType":"point","DisplayPosition":{"Latitude":46.14387,"Longitude":0.40327},"MapView":{"TopLeft":{"Latitude":46.1449942,"Longitude":0.4016475},"BottomRight":{"Latitude":46.1427458,"Longitude":0.4048925}},"Address":{"Label":"12 Rue de la Batterie, 86250 Charroux, France","Country":"FRA","State":"Nouvelle-Aquitaine","County":"Vienne","City":"Charroux","Street":"Rue de la Batterie","HouseNumber":"12","PostalCode":"86250","AdditionalData":[{"value":"France","key":"CountryName"},{"value":"Nouvelle-Aquitaine","key":"StateName"},{"value":"Vienne","key":"CountyName"}]},"MapReference":{"ReferenceId":"568357929","Spot":0.1,"SideOfStreet":"right","CountryId":"20000001","StateId":"20000383","CountyId":"20081830","CityId":"20082004","AddressId":"590889853","RoadLinkId":"47907459"}}},{"Relevance":1.0,"Distance":24.4,"MatchLevel":"houseNumber","MatchQuality":{"Country":1.0,"State":1.0,"County":1.0,"City":1.0,"Street":[1.0],"HouseNumber":1.0,"PostalCode":1.0},"MatchType":"interpolated","Location":{"LocationId":"NT_M4IJ7E20Iw4mBSJUxqE4CB_yA","LocationType":"point","DisplayPosition":{"Latitude":46.14363,"Longitude":0.40346},"MapView":{"TopLeft":{"Latitude":46.1447542,"Longitude":0.4018375},"BottomRight":{"Latitude":46.1425058,"Longitude":0.4050825}},"Address":{"Label":"2 Rue de Rochemeau, 86250 Charroux, France","Country":"FRA","State":"Nouvelle-Aquitaine","County":"Vienne","City":"Charroux","Street":"Rue de Rochemeau","HouseNumber":"2","PostalCode":"86250","AdditionalData":[{"value":"France","key":"CountryName"},{"value":"Nouvelle-Aquitaine","key":"StateName"},{"value":"Vienne","key":"CountyName"}]},"MapReference":{"ReferenceId":"568357927","Spot":0.29,"SideOfStreet":"left","CountryId":"20000001","StateId":"20000383","CountyId":"20081830","CityId":"20082004","AddressId":"318131763","RoadLinkId":"46703412"}}},{"Relevance":1.0,"Distance":28.6,"MatchLevel":"houseNumber","MatchQuality":{"Country":1.0,"State":1.0,"County":1.0,"City":1.0,"Street":[1.0],"HouseNumber":1.0,"PostalCode":1.0},"MatchType":"interpolated","Location":{"LocationId":"NT_lD9eTxVElpsk3uWNepkkED_3A","LocationType":"point","DisplayPosition":{"Latitude":46.14368,"Longitude":0.40384},"MapView":{"TopLeft":{"Latitude":46.1448042,"Longitude":0.4022175},"BottomRight":{"Latitude":46.1425558,"Longitude":0.4054625}},"Address":{"Label":"7 Rue de Rochemaux, 86250 Charroux, France","Country":"FRA","State":"Nouvelle-Aquitaine","County":"Vienne","City":"Charroux","Street":"Rue de Rochemaux","HouseNumber":"7","PostalCode":"86250","AdditionalData":[{"value":"France","key":"CountryName"},{"value":"Nouvelle-Aquitaine","key":"StateName"},{"value":"Vienne","key":"CountyName"}]},"MapReference":{"ReferenceId":"568356081","Spot":0.21,"SideOfStreet":"right","CountryId":"20000001","StateId":"20000383","CountyId":"20081830","CityId":"20082004","AddressId":"318128356","RoadLinkId":"47271296"}}},{"Relevance":1.0,"Distance":28.6,"MatchLevel":"houseNumber","MatchQuality":{"Country":1.0,"State":1.0,"County":1.0,"City":1.0,"Street":[1.0],"HouseNumber":1.0,"PostalCode":1.0},"MatchType":"interpolated","Location":{"LocationId":"NT_M4IJ7E20Iw4mBSJUxqE4CB_0A","LocationType":"point","DisplayPosition":{"Latitude":46.14362,"Longitude":0.40334},"MapView":{"TopLeft":{"Latitude":46.1447442,"Longitude":0.4017175},"BottomRight":{"Latitude":46.1424958,"Longitude":0.4049625}},"Address":{"Label":"4 Rue de Rochemeau, 86250 Charroux, France","Country":"FRA","State":"Nouvelle-Aquitaine","County":"Vienne","City":"Charroux","Street":"Rue de Rochemeau","HouseNumber":"4","PostalCode":"86250","AdditionalData":[{"value":"France","key":"CountryName"},{"value":"Nouvelle-Aquitaine","key":"StateName"},{"value":"Vienne","key":"CountyName"}]},"MapReference":{"ReferenceId":"568357926","Spot":0.86,"SideOfStreet":"left","CountryId":"20000001","StateId":"20000383","CountyId":"20081830","CityId":"20082004","AddressId":"590911506","RoadLinkId":"47172013"}}},{"Relevance":1.0,"Distance":46.4,"MatchLevel":"houseNumber","MatchQuality":{"Country":1.0,"State":1.0,"County":1.0,"City":1.0,"Street":[1.0],"HouseNumber":1.0,"PostalCode":1.0},"MatchType":"interpolated","Location":{"LocationId":"NT_xEWbDL8YaIpyM.bDGrXxsA_xA","LocationType":"point","DisplayPosition":{"Latitude":46.1435,"Longitude":0.40319},"MapView":{"TopLeft":{"Latitude":46.1446242,"Longitude":0.4015675},"BottomRight":{"Latitude":46.1423758,"Longitude":0.4048125}},"Address":{"Label":"1 Rue Saint-Sulpice, 86250 Charroux, France","Country":"FRA","State":"Nouvelle-Aquitaine","County":"Vienne","City":"Charroux","Street":"Rue Saint-Sulpice","HouseNumber":"1","PostalCode":"86250","AdditionalData":[{"value":"France","key":"CountryName"},{"value":"Nouvelle-Aquitaine","key":"StateName"},{"value":"Vienne","key":"CountyName"}]},"MapReference":{"ReferenceId":"568356673","Spot":0.87,"SideOfStreet":"right","CountryId":"20000001","StateId":"20000383","CountyId":"20081830","CityId":"20082004","AddressId":"573115105","RoadLinkId":"46902562"}}},{"Relevance":1.0,"Distance":54.1,"MatchLevel":"houseNumber","MatchQuality":{"Country":1.0,"State":1.0,"County":1.0,"City":1.0,"Street":[1.0],"HouseNumber":1.0,"PostalCode":1.0},"MatchType":"interpolated","Location":{"LocationId":"NT_Sz1DeAIYbz93uuUxfTLMiD_xA","LocationType":"point","DisplayPosition":{"Latitude":46.14357,"Longitude":0.40302},"MapView":{"TopLeft":{"Latitude":46.1446942,"Longitude":0.4013975},"BottomRight":{"Latitude":46.1424458,"Longitude":0.4046425}},"Address":{"Label":"1 Place du Parvis, 86250 Charroux, France","Country":"FRA","State":"Nouvelle-Aquitaine","County":"Vienne","City":"Charroux","Street":"Place du Parvis","HouseNumber":"1","PostalCode":"86250","AdditionalData":[{"value":"France","key":"CountryName"},{"value":"Nouvelle-Aquitaine","key":"StateName"},{"value":"Vienne","key":"CountyName"}]},"MapReference":{"ReferenceId":"568356684","Spot":0.6,"SideOfStreet":"right","CountryId":"20000001","StateId":"20000383","CountyId":"20081830","CityId":"20082004","AddressId":"573211482","RoadLinkId":"47566388"}}},{"Relevance":1.0,"Distance":54.9,"MatchLevel":"houseNumber","MatchQuality":{"Country":1.0,"State":1.0,"County":1.0,"City":1.0,"Street":[1.0],"HouseNumber":1.0,"PostalCode":1.0},"MatchType":"interpolated","Location":{"LocationId":"NT_5LRz8K-c8aXoYa5NEcSR9A_xA","LocationType":"point","DisplayPosition":{"Latitude":46.14413,"Longitude":0.40419},"MapView":{"TopLeft":{"Latitude":46.1452542,"Longitude":0.4025675},"BottomRight":{"Latitude":46.1430058,"Longitude":0.4058125}},"Address":{"Label":"1 Rue de la Gare, 86250 Charroux, France","Country":"FRA","State":"Nouvelle-Aquitaine","County":"Vienne","City":"Charroux","Street":"Rue de la Gare","HouseNumber":"1","PostalCode":"86250","AdditionalData":[{"value":"France","key":"CountryName"},{"value":"Nouvelle-Aquitaine","key":"StateName"},{"value":"Vienne","key":"CountyName"}]},"MapReference":{"ReferenceId":"568356129","Spot":0.21,"SideOfStreet":"left","CountryId":"20000001","StateId":"20000383","CountyId":"20081830","CityId":"20082004","AddressId":"381600790","RoadLinkId":"47946446"}}}]}]}}