{"Response":{"MetaInfo":{"Timestamp":"2020-03-31T17:06:12.471+0000","NextPageInformation":"2"},"View":[{"_type":"SearchResultsViewType","ViewId":0,"Result":[{"Relevance":1.0,"Distance":0.0,"Direction":0.0,"MatchLevel":"city","MatchQuality":{"Country":1.0,"County":1.0,"City":1.0,"PostalCode":1.0},"Location":{"LocationId":"NT_HkH51RbFi1fbcuxWHCHx.C","LocationType":"point","DisplayPosition":{"Latitude":46.1255,"Longitude":15.4774},"MapView":{"TopLeft":{"Latitude":46.31185,"Longitude":15.33015},"BottomRight":{"Latitude":46.06555,"Longitude":15.53587}},"Address":{"Label":"Šentjur, Slovenija","Country":"SVN","County":"Šentjur pri Celju","City":"Šentjur","PostalCode":"3230","AdditionalData":[{"value":"Slovenija","key":"CountryName"},{"value":"Šentjur pri Celju","key":"CountyName"}]},"MapReference":{"ReferenceId":"1111367492","SideOfStreet":"neither","CountryId":"20633685","CountyId":"20639446","CityId":"22689892"}}},{"Relevance":1.0,"Distance":52.6,"MatchLevel":"houseNumber","MatchQuality":{"Country":1.0,"County":1.0,"City":1.0,"District":1.0,"Street":[1.0],"HouseNumber":1.0,"PostalCode":1.0},"MatchType":"interpolated","Location":{"LocationId":"NT_fX1XLxh06R8PdyA9y38QQA_0A","LocationType":"point","DisplayPosition":{"Latitude":46.12509,"Longitude":15.47771},"MapView":{"TopLeft":{"Latitude":46.1262142,"Longitude":15.476088},"BottomRight":{"Latitude":46.1239658,"Longitude":15.479332}},"Address":{"Label":"Lopaca 4, SI- 3262 Šentjur, Slovenija","Country":"SVN","County":"Šentjur pri Celju","City":"Šentjur","District":"Lopaca","Street":"Lopaca","HouseNumber":"4","PostalCode":"3262","AdditionalData":[{"value":"Slovenija","key":"CountryName"},{"value":"Šentjur pri Celju","key":"CountyName"}]},"MapReference":{"ReferenceId":"710665933","Spot":0.09,"SideOfStreet":"left","CountryId":"20633685","CountyId":"20639446","CityId":"22689892","DistrictId":"22693334","AddressId":"406856055","RoadLinkId":"115923323"}}},{"Relevance":1.0,"Distance":54.6,"MatchLevel":"houseNumber","MatchQuality":{"Country":1.0,"County":1.0,"City":1.0,"District":1.0,"Street":[1.0],"HouseNumber":1.0,"PostalCode":1.0},"MatchType":"interpolated","Location":{"LocationId":"NT_fX1XLxh06R8PdyA9y38QQA_zA","LocationType":"point","DisplayPosition":{"Latitude":46.12589,"Longitude":15.47697},"MapView":{"TopLeft":{"Latitude":46.1270142,"Longitude":15.475348},"BottomRight":{"Latitude":46.1247658,"Longitude":15.478592}},"Address":{"Label":"Lopaca 3, SI- 3262 Šentjur, Slovenija","Country":"SVN","County":"Šentjur pri Celju","City":"Šentjur","District":"Lopaca","Street":"Lopaca","HouseNumber":"3","PostalCode":"3262","AdditionalData":[{"value":"Slovenija","key":"CountryName"},{"value":"Šentjur pri Celju","key":"CountyName"}]},"MapReference":{"ReferenceId":"710721629","Spot":0.0,"SideOfStreet":"left","CountryId":"20633685","CountyId":"20639446","CityId":"22689892","DistrictId":"22693334","AddressId":"406500308","RoadLinkId":"115868395"}}},{"Relevance":1.0,"Distance":61.1,"MatchLevel":"houseNumber","MatchQuality":{"Country":1.0,"County":1.0,"City":1.0,"District":1.0,"Street":[1.0],"HouseNumber":1.0,"PostalCode":1.0},"MatchType":"interpolated","Location":{"LocationId":"NT_fX1XLxh06R8PdyA9y38QQA_0EE","LocationType":"point","DisplayPosition":{"Latitude":46.12503,"Longitude":15.47781},"MapView":{"TopLeft":{"Latitude":46.1261542,"Longitude":15.4761881},"BottomRight":{"Latitude":46.1239058,"Longitude":15.4794319}},"Address":{"Label":"Lopaca 4A, SI- 3262 Šentjur, Slovenija","Country":"SVN","County":"Šentjur pri Celju","City":"Šentjur","District":"Lopaca","Street":"Lopaca","HouseNumber":"4A","PostalCode":"3262","AdditionalData":[{"value":"Slovenija","key":"CountryName"},{"value":"Šentjur pri Celju","key":"CountyName"}]},"MapReference":{"ReferenceId":"710667510","Spot":0.0,"SideOfStreet":"right","CountryId":"20633685","CountyId":"20639446","CityId":"22689892","DistrictId":"22693334","AddressId":"406939367","RoadLinkId":"115909835"}}},{"Relevance":1.0,"Distance":103.1,"MatchLevel":"street","MatchQuality":{"Country":1.0,"County":1.0,"City":1.0,"District":1.0,"Street":[1.0],"PostalCode":1.0},"Location":{"LocationId":"NT_fX1XLxh06R8PdyA9y38QQA_l_710625665_L","LocationType":"point","DisplayPosition":{"Latitude":46.12572,"Longitude":15.4787},"MapView":{"TopLeft":{"Latitude":46.12699,"Longitude":15.4784},"BottomRight":{"Latitude":46.12538,"Longitude":15.47879}},"Address":{"Label":"Lopaca, SI- 3262 Šentjur, Slovenija","Country":"SVN","County":"Šentjur pri Celju","City":"Šentjur","District":"Lopaca","Street":"Lopaca","PostalCode":"3262","AdditionalData":[{"value":"Slovenija","key":"CountryName"},{"value":"Šentjur pri Celju","key":"CountyName"}]},"MapReference":{"ReferenceId":"710625665","Spot":0.2,"SideOfStreet":"left","CountryId":"20633685","CountyId":"20639446","CityId":"22689892","DistrictId":"22693334"}}},{"Relevance":1.0,"Distance":108.0,"MatchLevel":"street","MatchQuality":{"Country":1.0,"County":1.0,"City":1.0,"District":1.0,"Street":[1.0],"PostalCode":1.0},"Location":{"LocationId":"NT_fX1XLxh06R8PdyA9y38QQA_l_1127032482_L","LocationType":"point","DisplayPosition":{"Latitude":46.12538,"Longitude":15.47879},"MapView":{"TopLeft":{"Latitude":46.12538,"Longitude":15.47791},"BottomRight":{"Latitude":46.12392,"Longitude":15.47879}},"Address":{"Label":"Lopaca, SI- 3262 Šentjur, Slovenija","Country":"SVN","County":"Šentjur pri Celju","City":"Šentjur","District":"Lopaca","Street":"Lopaca","PostalCode":"3262","AdditionalData":[{"value":"Slovenija","key":"CountryName"},{"value":"Šentjur pri Celju","key":"CountyName"}]},"MapReference":{"ReferenceId":"1127032482","Spot":1.0,"SideOfStreet":"left","CountryId":"20633685","CountyId":"20639446","CityId":"22689892","DistrictId":"22693334"}}},{"Relevance":1.0,"Distance":154.3,"MatchLevel":"houseNumber","MatchQuality":{"Country":1.0,"County":1.0,"City":1.0,"District":1.0,"Street":[1.0],"HouseNumber":1.0,"PostalCode":1.0},"MatchType":"interpolated","Location":{"LocationId":"NT_fX1XLxh06R8PdyA9y38QQA_ycD","LocationType":"point","DisplayPosition":{"Latitude":46.12407,"Longitude":15.47717},"MapView":{"TopLeft":{"Latitude":46.1251942,"Longitude":15.4755481},"BottomRight":{"Latitude":46.1229458,"Longitude":15.4787919}},"Address":{"Label":"Lopaca 27, SI- 3262 Šentjur, Slovenija","Country":"SVN","County":"Šentjur pri Celju","City":"Šentjur","District":"Lopaca","Street":"Lopaca","HouseNumber":"27","PostalCode":"3262","AdditionalData":[{"value":"Slovenija","key":"CountryName"},{"value":"Šentjur pri Celju","key":"CountyName"}]},"MapReference":{"ReferenceId":"1127032483","Spot":0.75,"SideOfStreet":"right","CountryId":"20633685","CountyId":"20639446","CityId":"22689892","DistrictId":"22693334","AddressId":"406494389","RoadLinkId":"467783251"}}},{"Relevance":1.0,"Distance":161.4,"MatchLevel":"street","MatchQuality":{"Country":1.0,"County":1.0,"City":1.0,"District":1.0,"PostalCode":1.0},"Location":{"LocationId":"NT_zjziMj4xOEaGyCUscFpzqD_l_1127032486_R","LocationType":"point","DisplayPosition":{"Latitude":46.12424,"Longitude":15.47636},"MapView":{"TopLeft":{"Latitude":46.12424,"Longitude":15.47605},"BottomRight":{"Latitude":46.12376,"Longitude":15.47638}},"Address":{"Label":"SI- 3262 Šentjur, Slovenija","Country":"SVN","County":"Šentjur pri Celju","City":"Šentjur","District":"Lopaca","PostalCode":"3262","AdditionalData":[{"value":"Slovenija","key":"CountryName"},{"value":"Šentjur pri Celju","key":"CountyName"}]},"MapReference":{"ReferenceId":"1127032486","Spot":1.0,"SideOfStreet":"right","CountryId":"20633685","CountyId":"20639446","CityId":"22689892","DistrictId":"22693334"}}},{"Relevance":1.0,"Distance":174.2,"MatchLevel":"houseNumber","MatchQuality":{"Country":1.0,"County":1.0,"City":1.0,"District":1.0,"Street":[1.0],"HouseNumber":1.0,"PostalCode":1.0},"MatchType":"interpolated","Location":{"LocationId":"NT_fX1XLxh06R8PdyA9y38QQA_5A","LocationType":"point","DisplayPosition":{"Latitude":46.12433,"Longitude":15.47577},"MapView":{"TopLeft":{"Latitude":46.1254542,"Longitude":15.4741481},"BottomRight":{"Latitude":46.1232058,"Longitude":15.4773919}},"Address":{"Label":"Lopaca 9, SI- 3262 Šentjur, Slovenija","Country":"SVN","County":"Šentjur pri Celju","City":"Šentjur","District":"Lopaca","Street":"Lopaca","HouseNumber":"9","PostalCode":"3262","AdditionalData":[{"value":"Slovenija","key":"CountryName"},{"value":"Šentjur pri Celju","key":"CountyName"}]},"MapReference":{"ReferenceId":"929576622","Spot":1.0,"SideOfStreet":"right","CountryId":"20633685","CountyId":"20639446","CityId":"22689892","DistrictId":"22693334","AddressId":"406581243","RoadLinkId":"309784896"}}},{"Relevance":1.0,"Distance":179.0,"MatchLevel":"houseNumber","MatchQuality":{"Country":1.0,"County":1.0,"City":1.0,"District":1.0,"Street":[1.0],"HouseNumber":1.0,"PostalCode":1.0},"MatchType":"interpolated","Location":{"LocationId":"NT_fX1XLxh06R8PdyA9y38QQA_2A","LocationType":"point","DisplayPosition":{"Latitude":46.12391,"Longitude":15.47586},"MapView":{"TopLeft":{"Latitude":46.1250342,"Longitude":15.4742381},"BottomRight":{"Latitude":46.1227858,"Longitude":15.4774819}},"Address":{"Label":"Lopaca 6, SI- 3262 Šentjur, Slovenija","Country":"SVN","County":"Šentjur pri Celju","City":"Šentjur","District":"Lopaca","Street":"Lopaca","HouseNumber":"6","PostalCode":"3262","AdditionalData":[{"value":"Slovenija","key":"CountryName"},{"value":"Šentjur pri Celju","key":"CountyName"}]},"MapReference":{"ReferenceId":"1127032485","Spot":0.6,"SideOfStreet":"right","CountryId":"20633685","CountyId":"20639446","CityId":"22689892","DistrictId":"22693334","AddressId":"406592243","RoadLinkId":"436877645"}}}]}]}}