{"Response":{"MetaInfo":{"Timestamp":"2020-03-28T11:54:04.993+0000","NextPageInformation":"2"},"View":[{"_type":"SearchResultsViewType","ViewId":0,"Result":[{"Relevance":1.0,"Distance":0.0,"Direction":0.0,"MatchLevel":"city","MatchQuality":{"Country":1.0,"State":1.0,"County":1.0,"City":1.0,"PostalCode":1.0},"Location":{"LocationId":"NT_GDbSo5Tuu4pcTHF1HhiMKC","LocationType":"point","DisplayPosition":{"Latitude":46.1760906,"Longitude":2.4855818},"MapView":{"TopLeft":{"Latitude":46.2374,"Longitude":2.43194},"BottomRight":{"Latitude":46.11711,"Longitude":2.56178}},"Address":{"Label":"Évaux-les-Bains, Nouvelle-Aquitaine, France","Country":"FRA","State":"Nouvelle-Aquitaine","County":"Creuse","City":"Évaux-les-Bains","PostalCode":"23110","AdditionalData":[{"value":"France","key":"CountryName"},{"value":"Nouvelle-Aquitaine","key":"StateName"},{"value":"Creuse","key":"CountyName"}]},"MapReference":{"ReferenceId":"1063317978","SideOfStreet":"neither","CountryId":"20000001","StateId":"20000383","CountyId":"20061327","CityId":"20091358"}}},{"Relevance":1.0,"Distance":5.4,"MatchLevel":"houseNumber","MatchQuality":{"Country":1.0,"State":1.0,"County":1.0,"City":1.0,"Street":[1.0],"HouseNumber":1.0,"PostalCode":1.0},"MatchType":"interpolated","Location":{"LocationId":"NT_TtvWCj.NeepAUvWay7IWcD_l_1063317978_R_1A","LocationType":"point","DisplayPosition":{"Latitude":46.1760592,"Longitude":2.4854049},"MapView":{"TopLeft":{"Latitude":46.1771834,"Longitude":2.4837815},"BottomRight":{"Latitude":46.1749351,"Longitude":2.4870284}},"Address":{"Label":"5 Rue de Verdun, 23110 Évaux-les-Bains, France","Country":"FRA","State":"Nouvelle-Aquitaine","County":"Creuse","City":"Évaux-les-Bains","Street":"Rue de Verdun","HouseNumber":"5","PostalCode":"23110","AdditionalData":[{"value":"France","key":"CountryName"},{"value":"Nouvelle-Aquitaine","key":"StateName"},{"value":"Creuse","key":"CountyName"}]},"MapReference":{"ReferenceId":"1063317978","Spot":0.69,"SideOfStreet":"right","CountryId":"20000001","StateId":"20000383","CountyId":"20061327","CityId":"20091358"}}},{"Relevance":1.0,"Distance":32.4,"MatchLevel":"houseNumber","MatchQuality":{"Country":1.0,"State":1.0,"County":1.0,"City":1.0,"Street":[1.0],"HouseNumber":1.0,"PostalCode":1.0},"MatchType":"interpolated","Location":{"LocationId":"NT_T.eKUviMLPGL.E39zyE4CB_2A","LocationType":"point","DisplayPosition":{"Latitude":46.17605,"Longitude":2.48613},"MapView":{"TopLeft":{"Latitude":46.1771742,"Longitude":2.4845065},"BottomRight":{"Latitude":46.1749258,"Longitude":2.4877535}},"Address":{"Label":"6 Place Armand Fourot, 23110 Évaux-les-Bains, France","Country":"FRA","State":"Nouvelle-Aquitaine","County":"Creuse","City":"Évaux-les-Bains","Street":"Place Armand Fourot","HouseNumber":"6","PostalCode":"23110","AdditionalData":[{"value":"France","key":"CountryName"},{"value":"Nouvelle-Aquitaine","key":"StateName"},{"value":"Creuse","key":"CountyName"}]},"MapReference":{"ReferenceId":"584192528","Spot":0.46,"SideOfStreet":"left","CountryId":"20000001","StateId":"20000383","CountyId":"20061327","CityId":"20091358","AddressId":"317494134","RoadLinkId":"53136800"}}},{"Relevance":1.0,"Distance":32.8,"MatchLevel":"houseNumber","MatchQuality":{"Country":1.0,"State":1.0,"County":1.0,"City":1.0,"Street":[1.0],"HouseNumber":1.0,"PostalCode":1.0},"MatchType":"interpolated","Location":{"LocationId":"NT_l3DbZsUGDLJi.jzM-TUBIB_yEE","LocationType":"point","DisplayPosition":{"Latitude":46.17595,"Longitude":2.48604},"MapView":{"TopLeft":{"Latitude":46.1770742,"Longitude":2.4844165},"BottomRight":{"Latitude":46.1748258,"Longitude":2.4876635}},"Address":{"Label":"2A Rue des Écoles, 23110 Évaux-les-Bains, France","Country":"FRA","State":"Nouvelle-Aquitaine","County":"Creuse","City":"Évaux-les-Bains","Street":"Rue des Écoles","HouseNumber":"2A","PostalCode":"23110","AdditionalData":[{"value":"France","key":"CountryName"},{"value":"Nouvelle-Aquitaine","key":"StateName"},{"value":"Creuse","key":"CountyName"}]},"MapReference":{"ReferenceId":"584191358","Spot":0.91,"SideOfStreet":"left","CountryId":"20000001","StateId":"20000383","CountyId":"20061327","CityId":"20091358","AddressId":"317470706","RoadLinkId":"53264381"}}},{"Relevance":1.0,"Distance":40.7,"MatchLevel":"houseNumber","MatchQuality":{"Country":1.0,"State":1.0,"County":1.0,"City":1.0,"Street":[1.0],"HouseNumber":1.0,"PostalCode":1.0},"MatchType":"interpolated","Location":{"LocationId":"NT_ro9u7FXewQrfwN8dHVgDEC_5A","LocationType":"point","DisplayPosition":{"Latitude":46.17645,"Longitude":2.48579},"MapView":{"TopLeft":{"Latitude":46.1775742,"Longitude":2.4841665},"BottomRight":{"Latitude":46.1753258,"Longitude":2.4874135}},"Address":{"Label":"9 Rue Saint-Pierre, 23110 Évaux-les-Bains, France","Country":"FRA","State":"Nouvelle-Aquitaine","County":"Creuse","City":"Évaux-les-Bains","Street":"Rue Saint-Pierre","HouseNumber":"9","PostalCode":"23110","AdditionalData":[{"value":"France","key":"CountryName"},{"value":"Nouvelle-Aquitaine","key":"StateName"},{"value":"Creuse","key":"CountyName"}]},"MapReference":{"ReferenceId":"584191338","Spot":0.56,"SideOfStreet":"left","CountryId":"20000001","StateId":"20000383","CountyId":"20061327","CityId":"20091358","AddressId":"317502380","RoadLinkId":"184668249"}}},{"Relevance":1.0,"Distance":40.9,"MatchLevel":"houseNumber","MatchQuality":{"Country":1.0,"State":1.0,"County":1.0,"City":1.0,"Street":[1.0],"HouseNumber":1.0,"PostalCode":1.0},"MatchType":"interpolated","Location":{"LocationId":"NT_T.eKUviMLPGL.E39zyE4CB_0A","LocationType":"point","DisplayPosition":{"Latitude":46.17618,"Longitude":2.48625},"MapView":{"TopLeft":{"Latitude":46.1773042,"Longitude":2.4846265},"BottomRight":{"Latitude":46.1750558,"Longitude":2.4878735}},"Address":{"Label":"4 Place Armand Fourot, 23110 Évaux-les-Bains, France","Country":"FRA","State":"Nouvelle-Aquitaine","County":"Creuse","City":"Évaux-les-Bains","Street":"Place Armand Fourot","HouseNumber":"4","PostalCode":"23110","AdditionalData":[{"value":"France","key":"CountryName"},{"value":"Nouvelle-Aquitaine","key":"StateName"},{"value":"Creuse","key":"CountyName"}]},"MapReference":{"ReferenceId":"584192527","Spot":0.26,"SideOfStreet":"left","CountryId":"20000001","StateId":"20000383","CountyId":"20061327","CityId":"20091358","AddressId":"571421456","RoadLinkId":"53054174"}}},{"Relevance":1.0,"Distance":45.3,"MatchLevel":"street","MatchQuality":{"Country":1.0,"State":1.0,"County":1.0,"City":1.0,"PostalCode":1.0},"Location":{"LocationId":"NT_ttXkQRh1r9WDqv5ZUfHHPA_l_1258513380_L","LocationType":"point","DisplayPosition":{"Latitude":46.1761,"Longitude":2.48617},"MapView":{"TopLeft":{"Latitude":46.17616,"Longitude":2.48617},"BottomRight":{"Latitude":46.17607,"Longitude":2.48626}},"Address":{"Label":"23110 Évaux-les-Bains, France","Country":"FRA","State":"Nouvelle-Aquitaine","County":"Creuse","City":"Évaux-les-Bains","PostalCode":"23110","AdditionalData":[{"value":"France","key":"CountryName"},{"value":"Nouvelle-Aquitaine","key":"StateName"},{"value":"Creuse","key":"CountyName"}]},"MapReference":{"ReferenceId":"1258513380","Spot":0.21,"SideOfStreet":"left","CountryId":"20000001","StateId":"20000383","CountyId":"20061327","CityId":"20091358"}}},{"Relevance":1.0,"Distance":46.1,"MatchLevel":"street","MatchQuality":{"Country":1.0,"State":1.0,"County":1.0,"City":1.0,"PostalCode":1.0},"Location":{"LocationId":"NT_ttXkQRh1r9WDqv5ZUfHHPA_l_1258513379_R","LocationType":"point","DisplayPosition":{"Latitude":46.17607,"Longitude":2.48618},"MapView":{"TopLeft":{"Latitude":46.17607,"Longitude":2.48618},"BottomRight":{"Latitude":46.17604,"Longitude":2.48634}},"Address":{"Label":"23110 Évaux-les-Bains, France","Country":"FRA","State":"Nouvelle-Aquitaine","County":"Creuse","City":"Évaux-les-Bains","PostalCode":"23110","AdditionalData":[{"value":"France","key":"CountryName"},{"value":"Nouvelle-Aquitaine","key":"StateName"},{"value":"Creuse","key":"CountyName"}]},"MapReference":{"ReferenceId":"1258513379","Spot":0.0,"SideOfStreet":"right","CountryId":"20000001","StateId":"20000383","CountyId":"20061327","CityId":"20091358"}}},{"Relevance":1.0,"Distance":52.8,"MatchLevel":"street","MatchQuality":{"Country":1.0,"State":1.0,"County":1.0,"City":1.0,"PostalCode":1.0},"Location":{"LocationId":"NT_ttXkQRh1r9WDqv5ZUfHHPA_l_1258513381_L","LocationType":"point","DisplayPosition":{"Latitude":46.17616,"Longitude":2.48626},"MapView":{"TopLeft":{"Latitude":46.17616,"Longitude":2.48626},"BottomRight":{"Latitude":46.17607,"Longitude":2.48635}},"Address":{"Label":"23110 Évaux-les-Bains, France","Country":"FRA","State":"Nouvelle-Aquitaine","County":"Creuse","City":"Évaux-les-Bains","PostalCode":"23110","AdditionalData":[{"value":"France","key":"CountryName"},{"value":"Nouvelle-Aquitaine","key":"StateName"},{"value":"Creuse","key":"CountyName"}]},"MapReference":{"ReferenceId":"1258513381","Spot":1.0,"SideOfStreet":"left","CountryId":"20000001","StateId":"20000383","CountyId":"20061327","CityId":"20091358"}}},{"Relevance":1.0,"Distance":58.4,"MatchLevel":"street","MatchQuality":{"Country":1.0,"State":1.0,"County":1.0,"City":1.0,"Street":[1.0],"PostalCode":1.0},"Location":{"LocationId":"NT_OLZbP1sYc6MfaubSgcbQXA_l_584192530_L","LocationType":"point","DisplayPosition":{"Latitude":46.17607,"Longitude":2.48634},"MapView":{"TopLeft":{"Latitude":46.17607,"Longitude":2.48634},"BottomRight":{"Latitude":46.17601,"Longitude":2.48639}},"Address":{"Label":"Place Armand Fourot, 23110 Évaux-les-Bains, France","Country":"FRA","State":"Nouvelle-Aquitaine","County":"Creuse","City":"Évaux-les-Bains","Street":"Place Armand Fourot","PostalCode":"23110","AdditionalData":[{"value":"France","key":"CountryName"},{"value":"Nouvelle-Aquitaine","key":"StateName"},{"value":"Creuse","key":"CountyName"}]},"MapReference":{"ReferenceId":"584192530","Spot":1.0,"SideOfStreet":"left","CountryId":"20000001","StateId":"20000383","CountyId":"20061327","CityId":"20091358"}}}]}]}}