{"Response":{"MetaInfo":{"Timestamp":"2020-03-31T17:05:15.580+0000","NextPageInformation":"2"},"View":[{"_type":"SearchResultsViewType","ViewId":0,"Result":[{"Relevance":1.0,"Distance":0.0,"Direction":0.0,"MatchLevel":"district","MatchQuality":{"Country":1.0,"County":1.0,"City":1.0,"District":1.0,"PostalCode":1.0},"Location":{"LocationId":"NT_hVE0NL7x8VsAoezXfTchsD","LocationType":"point","DisplayPosition":{"Latitude":46.1391,"Longitude":14.9629},"MapView":{"TopLeft":{"Latitude":46.14185,"Longitude":14.95384},"BottomRight":{"Latitude":46.1349,"Longitude":14.9686}},"Address":{"Label":"Kisovec, Zagorje ob Savi, Slovenija","Country":"SVN","County":"Zagorje ob Savi","City":"Zagorje ob Savi","District":"Kisovec","PostalCode":"1412","AdditionalData":[{"value":"Slovenija","key":"CountryName"},{"value":"Zagorje ob Savi","key":"CountyName"}]},"MapReference":{"ReferenceId":"710514249","SideOfStreet":"neither","CountryId":"20633685","CountyId":"20641023","CityId":"20641024","DistrictId":"22691627"}}},{"Relevance":1.0,"Distance":7.7,"MatchLevel":"houseNumber","MatchQuality":{"Country":1.0,"County":1.0,"City":1.0,"District":1.0,"Street":[1.0],"HouseNumber":1.0,"PostalCode":1.0},"MatchType":"interpolated","Location":{"LocationId":"NT_-1OPfRU8EkNK8moAxRpyBD_xgD","LocationType":"point","DisplayPosition":{"Latitude":46.13913,"Longitude":14.96267},"MapView":{"TopLeft":{"Latitude":46.1402542,"Longitude":14.9610476},"BottomRight":{"Latitude":46.1380058,"Longitude":14.9642924}},"Address":{"Label":"Trg Pohorskega bataljona 18, SI- 1412 Zagorje ob Savi, Slovenija","Country":"SVN","County":"Zagorje ob Savi","City":"Zagorje ob Savi","District":"Kisovec","Street":"Trg Pohorskega bataljona","HouseNumber":"18","PostalCode":"1412","AdditionalData":[{"value":"Slovenija","key":"CountryName"},{"value":"Zagorje ob Savi","key":"CountyName"}]},"MapReference":{"ReferenceId":"710510203","Spot":0.57,"SideOfStreet":"right","CountryId":"20633685","CountyId":"20641023","CityId":"20641024","DistrictId":"22691627","AddressId":"406723266","RoadLinkId":"115749834"}}},{"Relevance":1.0,"Distance":22.0,"MatchLevel":"houseNumber","MatchQuality":{"Country":1.0,"County":1.0,"City":1.0,"District":1.0,"Street":[1.0],"HouseNumber":1.0,"PostalCode":1.0},"MatchType":"interpolated","Location":{"LocationId":"NT_-1OPfRU8EkNK8moAxRpyBD_xcD","LocationType":"point","DisplayPosition":{"Latitude":46.13939,"Longitude":14.96301},"MapView":{"TopLeft":{"Latitude":46.1405142,"Longitude":14.9613876},"BottomRight":{"Latitude":46.1382658,"Longitude":14.9646324}},"Address":{"Label":"Trg Pohorskega bataljona 17, SI- 1412 Zagorje ob Savi, Slovenija","Country":"SVN","County":"Zagorje ob Savi","City":"Zagorje ob Savi","District":"Kisovec","Street":"Trg Pohorskega bataljona","HouseNumber":"17","PostalCode":"1412","AdditionalData":[{"value":"Slovenija","key":"CountryName"},{"value":"Zagorje ob Savi","key":"CountyName"}]},"MapReference":{"ReferenceId":"710557406","Spot":0.66,"SideOfStreet":"left","CountryId":"20633685","CountyId":"20641023","CityId":"20641024","DistrictId":"22691627","AddressId":"406748226","RoadLinkId":"115721075"}}},{"Relevance":1.0,"Distance":27.8,"MatchLevel":"houseNumber","MatchQuality":{"Country":1.0,"County":1.0,"City":1.0,"District":1.0,"Street":[1.0],"HouseNumber":1.0,"PostalCode":1.0},"MatchType":"interpolated","Location":{"LocationId":"NT_-1OPfRU8EkNK8moAxRpyBD_xkD","LocationType":"point","DisplayPosition":{"Latitude":46.13881,"Longitude":14.96332},"MapView":{"TopLeft":{"Latitude":46.1399342,"Longitude":14.9616976},"BottomRight":{"Latitude":46.1376858,"Longitude":14.9649424}},"Address":{"Label":"Trg Pohorskega bataljona 19, SI- 1412 Zagorje ob Savi, Slovenija","Country":"SVN","County":"Zagorje ob Savi","City":"Zagorje ob Savi","District":"Kisovec","Street":"Trg Pohorskega bataljona","HouseNumber":"19","PostalCode":"1412","AdditionalData":[{"value":"Slovenija","key":"CountryName"},{"value":"Zagorje ob Savi","key":"CountyName"}]},"MapReference":{"ReferenceId":"710563827","Spot":0.51,"SideOfStreet":"left","CountryId":"20633685","CountyId":"20641023","CityId":"20641024","DistrictId":"22691627","AddressId":"406822324","RoadLinkId":"115754864"}}},{"Relevance":1.0,"Distance":47.9,"MatchLevel":"street","MatchQuality":{"Country":1.0,"County":1.0,"City":1.0,"District":1.0,"Street":[1.0],"PostalCode":1.0},"Location":{"LocationId":"NT_-1OPfRU8EkNK8moAxRpyBD_l_710565926_R","LocationType":"point","DisplayPosition":{"Latitude":46.1387,"Longitude":14.96267},"MapView":{"TopLeft":{"Latitude":46.1387,"Longitude":14.96263},"BottomRight":{"Latitude":46.13862,"Longitude":14.96267}},"Address":{"Label":"Trg Pohorskega bataljona, SI- 1412 Zagorje ob Savi, Slovenija","Country":"SVN","County":"Zagorje ob Savi","City":"Zagorje ob Savi","District":"Kisovec","Street":"Trg Pohorskega bataljona","PostalCode":"1412","AdditionalData":[{"value":"Slovenija","key":"CountryName"},{"value":"Zagorje ob Savi","key":"CountyName"}]},"MapReference":{"ReferenceId":"710565926","Spot":1.0,"SideOfStreet":"right","CountryId":"20633685","CountyId":"20641023","CityId":"20641024","DistrictId":"22691627"}}},{"Relevance":1.0,"Distance":53.2,"MatchLevel":"houseNumber","MatchQuality":{"Country":1.0,"County":1.0,"City":1.0,"District":1.0,"Street":[1.0],"HouseNumber":1.0,"PostalCode":1.0},"MatchType":"interpolated","Location":{"LocationId":"NT_-1OPfRU8EkNK8moAxRpyBD_xUD","LocationType":"point","DisplayPosition":{"Latitude":46.1395,"Longitude":14.96237},"MapView":{"TopLeft":{"Latitude":46.1406242,"Longitude":14.9607476},"BottomRight":{"Latitude":46.1383758,"Longitude":14.9639924}},"Address":{"Label":"Trg Pohorskega bataljona 15, SI- 1412 Zagorje ob Savi, Slovenija","Country":"SVN","County":"Zagorje ob Savi","City":"Zagorje ob Savi","District":"Kisovec","Street":"Trg Pohorskega bataljona","HouseNumber":"15","PostalCode":"1412","AdditionalData":[{"value":"Slovenija","key":"CountryName"},{"value":"Zagorje ob Savi","key":"CountyName"}]},"MapReference":{"ReferenceId":"710530667","Spot":0.22,"SideOfStreet":"left","CountryId":"20633685","CountyId":"20641023","CityId":"20641024","DistrictId":"22691627","AddressId":"406903360","RoadLinkId":"115693182"}}},{"Relevance":1.0,"Distance":59.2,"MatchLevel":"houseNumber","MatchQuality":{"Country":1.0,"County":1.0,"City":1.0,"District":1.0,"Street":[1.0],"HouseNumber":1.0,"PostalCode":1.0},"MatchType":"interpolated","Location":{"LocationId":"NT_dENJwvPLvQxm624suRmVTC_xITQ","LocationType":"point","DisplayPosition":{"Latitude":46.13848,"Longitude":14.96303},"MapView":{"TopLeft":{"Latitude":46.1396042,"Longitude":14.9614077},"BottomRight":{"Latitude":46.1373558,"Longitude":14.9646523}},"Address":{"Label":"Rudarska cesta 12A, SI- 1412 Zagorje ob Savi, Slovenija","Country":"SVN","County":"Zagorje ob Savi","City":"Zagorje ob Savi","District":"Kisovec","Street":"Rudarska cesta","HouseNumber":"12A","PostalCode":"1412","AdditionalData":[{"value":"Slovenija","key":"CountryName"},{"value":"Zagorje ob Savi","key":"CountyName"}]},"MapReference":{"ReferenceId":"710582687","Spot":0.47,"SideOfStreet":"right","CountryId":"20633685","CountyId":"20641023","CityId":"20641024","DistrictId":"22691627","AddressId":"406916134","RoadLinkId":"115781231"}}},{"Relevance":1.0,"Distance":67.4,"MatchLevel":"street","MatchQuality":{"Country":1.0,"County":1.0,"City":1.0,"District":1.0,"Street":[1.0],"PostalCode":1.0},"Location":{"LocationId":"NT_-1OPfRU8EkNK8moAxRpyBD_l_710595804_R","LocationType":"point","DisplayPosition":{"Latitude":46.13936,"Longitude":14.96369},"MapView":{"TopLeft":{"Latitude":46.1394,"Longitude":14.96369},"BottomRight":{"Latitude":46.13936,"Longitude":14.9639}},"Address":{"Label":"Trg Pohorskega bataljona, SI- 1412 Zagorje ob Savi, Slovenija","Country":"SVN","County":"Zagorje ob Savi","City":"Zagorje ob Savi","District":"Kisovec","Street":"Trg Pohorskega bataljona","PostalCode":"1412","AdditionalData":[{"value":"Slovenija","key":"CountryName"},{"value":"Zagorje ob Savi","key":"CountyName"}]},"MapReference":{"ReferenceId":"710595804","Spot":0.0,"SideOfStreet":"right","CountryId":"20633685","CountyId":"20641023","CityId":"20641024","DistrictId":"22691627"}}},{"Relevance":1.0,"Distance":71.4,"MatchLevel":"houseNumber","MatchQuality":{"Country":1.0,"County":1.0,"City":1.0,"District":1.0,"Street":[1.0],"HouseNumber":1.0,"PostalCode":1.0},"MatchType":"interpolated","Location":{"LocationId":"NT_dENJwvPLvQxm624suRmVTC_4A","LocationType":"point","DisplayPosition":{"Latitude":46.13877,"Longitude":14.96394},"MapView":{"TopLeft":{"Latitude":46.1398942,"Longitude":14.9623176},"BottomRight":{"Latitude":46.1376458,"Longitude":14.9655624}},"Address":{"Label":"Rudarska cesta 8, SI- 1412 Zagorje ob Savi, Slovenija","Country":"SVN","County":"Zagorje ob Savi","City":"Zagorje ob Savi","District":"Kisovec","Street":"Rudarska cesta","HouseNumber":"8","PostalCode":"1412","AdditionalData":[{"value":"Slovenija","key":"CountryName"},{"value":"Zagorje ob Savi","key":"CountyName"}]},"MapReference":{"ReferenceId":"710603596","Spot":0.07,"SideOfStreet":"left","CountryId":"20633685","CountyId":"20641023","CityId":"20641024","DistrictId":"22691627","AddressId":"406511294","RoadLinkId":"115696483"}}},{"Relevance":1.0,"Distance":75.1,"MatchLevel":"houseNumber","MatchQuality":{"Country":1.0,"County":1.0,"City":1.0,"District":1.0,"Street":[1.0],"HouseNumber":1.0,"PostalCode":1.0},"MatchType":"interpolated","Location":{"LocationId":"NT_dENJwvPLvQxm624suRmVTC_xAD","LocationType":"point","DisplayPosition":{"Latitude":46.13856,"Longitude":14.96369},"MapView":{"TopLeft":{"Latitude":46.1396842,"Longitude":14.9620677},"BottomRight":{"Latitude":46.1374358,"Longitude":14.9653123}},"Address":{"Label":"Rudarska cesta 10, SI- 1412 Zagorje ob Savi, Slovenija","Country":"SVN","County":"Zagorje ob Savi","City":"Zagorje ob Savi","District":"Kisovec","Street":"Rudarska cesta","HouseNumber":"10","PostalCode":"1412","AdditionalData":[{"value":"Slovenija","key":"CountryName"},{"value":"Zagorje ob Savi","key":"CountyName"}]},"MapReference":{"ReferenceId":"710591659","Spot":0.58,"SideOfStreet":"left","CountryId":"20633685","CountyId":"20641023","CityId":"20641024","DistrictId":"22691627","AddressId":"406662412","RoadLinkId":"115763100"}}}]}]}}