{"Response":{"MetaInfo":{"Timestamp":"2020-03-28T11:24:54.764+0000","NextPageInformation":"2"},"View":[{"_type":"SearchResultsViewType","ViewId":0,"Result":[{"Relevance":1.0,"Distance":0.0,"Direction":0.0,"MatchLevel":"city","MatchQuality":{"Country":1.0,"State":1.0,"County":1.0,"City":1.0,"PostalCode":1.0},"Location":{"LocationId":"NT_GLDJlyujNlhH90uVeuBHFD","LocationType":"point","DisplayPosition":{"Latitude":46.1124706,"Longitude":12.8921267},"MapView":{"TopLeft":{"Latitude":46.15719,"Longitude":12.80299},"BottomRight":{"Latitude":46.06139,"Longitude":12.94347}},"Address":{"Label":"Spilimbergo, Friuli-Venezia Giulia, Italia","Country":"ITA","State":"Friuli-Venezia Giulia","County":"PN","City":"Spilimbergo","PostalCode":"33097","AdditionalData":[{"value":"Italia","key":"CountryName"},{"value":"Friuli-Venezia Giulia","key":"StateName"},{"value":"Pordenone","key":"CountyName"}]},"MapReference":{"ReferenceId":"833351334","SideOfStreet":"neither","CountryId":"20110484","StateId":"20122842","CountyId":"20123532","CityId":"20123712"}}},{"Relevance":1.0,"Distance":29.0,"MatchLevel":"houseNumber","MatchQuality":{"Country":1.0,"State":1.0,"County":1.0,"City":1.0,"Street":[1.0],"HouseNumber":1.0,"PostalCode":1.0},"MatchType":"interpolated","Location":{"LocationId":"NT_XZX2.VxAeCkQP4Vitjr3yB_58SM","LocationType":"point","DisplayPosition":{"Latitude":46.11274,"Longitude":12.89218},"MapView":{"TopLeft":{"Latitude":46.1138642,"Longitude":12.8905584},"BottomRight":{"Latitude":46.1116158,"Longitude":12.8938016}},"Address":{"Label":"Via Raffaello Sanzio, 9/1, 33097 Spilimbergo PN, Italia","Country":"ITA","State":"Friuli-Venezia Giulia","County":"PN","City":"Spilimbergo","Street":"Via Raffaello Sanzio","HouseNumber":"9/1","PostalCode":"33097","AdditionalData":[{"value":"Italia","key":"CountryName"},{"value":"Friuli-Venezia Giulia","key":"StateName"},{"value":"Pordenone","key":"CountyName"}]},"MapReference":{"ReferenceId":"586684537","Spot":0.37,"SideOfStreet":"left","CountryId":"20110484","StateId":"20122842","CountyId":"20123532","CityId":"20123712","AddressId":"385286602","RoadLinkId":"59547107"}}},{"Relevance":1.0,"Distance":44.5,"MatchLevel":"houseNumber","MatchQuality":{"Country":1.0,"State":1.0,"County":1.0,"City":1.0,"Street":[1.0],"HouseNumber":1.0,"PostalCode":1.0},"MatchType":"interpolated","Location":{"LocationId":"NT_bJbyrjlQre5-ZrRqb6tjWD_5A","LocationType":"point","DisplayPosition":{"Latitude":46.11268,"Longitude":12.89273},"MapView":{"TopLeft":{"Latitude":46.1138042,"Longitude":12.8911084},"BottomRight":{"Latitude":46.1115558,"Longitude":12.8943516}},"Address":{"Label":"Via Michelangelo Buonarroti, 9, 33097 Spilimbergo PN, Italia","Country":"ITA","State":"Friuli-Venezia Giulia","County":"PN","City":"Spilimbergo","Street":"Via Michelangelo Buonarroti","HouseNumber":"9","PostalCode":"33097","AdditionalData":[{"value":"Italia","key":"CountryName"},{"value":"Friuli-Venezia Giulia","key":"StateName"},{"value":"Pordenone","key":"CountyName"}]},"MapReference":{"ReferenceId":"575456411","Spot":0.52,"SideOfStreet":"left","CountryId":"20110484","StateId":"20122842","CountyId":"20123532","CityId":"20123712","AddressId":"728564194","RoadLinkId":"59535342"}}},{"Relevance":1.0,"Distance":47.9,"MatchLevel":"landmark","MatchQuality":{"Country":1.0,"State":1.0,"County":1.0,"City":1.0,"Street":[1.0],"PostalCode":1.0,"Name":1.0},"Location":{"LocationId":"NT_mK13mTga.g4DFQGY.H0EnB_p_GudALqaLoa.A8aYQqnor7D","LocationType":"hospital","Name":"San Giovanni dei Battuti","DisplayPosition":{"Latitude":46.11205,"Longitude":12.8912},"MapView":{"TopLeft":{"Latitude":46.1124,"Longitude":12.88986},"BottomRight":{"Latitude":46.11098,"Longitude":12.89211}},"Address":{"Label":"Via Raffaello Sanzio, 33097 Spilimbergo PN, Italia","Country":"ITA","State":"Friuli-Venezia Giulia","County":"PN","City":"Spilimbergo","Street":"Via Raffaello Sanzio","PostalCode":"33097","AdditionalData":[{"value":"Italia","key":"CountryName"},{"value":"Friuli-Venezia Giulia","key":"StateName"},{"value":"Pordenone","key":"CountyName"}]},"MapReference":{"CountryId":"20110484","StateId":"20122842","CountyId":"20123532","CityId":"20123712","PlaceId":"552739698"}}},{"Relevance":1.0,"Distance":47.9,"MatchLevel":"street","MatchQuality":{"Country":1.0,"State":1.0,"County":1.0,"City":1.0,"Street":[1.0],"PostalCode":1.0},"Location":{"LocationId":"NT_XZX2.VxAeCkQP4Vitjr3yB_l_591616904_R","LocationType":"point","DisplayPosition":{"Latitude":46.11204,"Longitude":12.89211},"MapView":{"TopLeft":{"Latitude":46.11208,"Longitude":12.89111},"BottomRight":{"Latitude":46.11204,"Longitude":12.89211}},"Address":{"Label":"Via Raffaello Sanzio, 33097 Spilimbergo PN, Italia","Country":"ITA","State":"Friuli-Venezia Giulia","County":"PN","City":"Spilimbergo","Street":"Via Raffaello Sanzio","PostalCode":"33097","AdditionalData":[{"value":"Italia","key":"CountryName"},{"value":"Friuli-Venezia Giulia","key":"StateName"},{"value":"Pordenone","key":"CountyName"}]},"MapReference":{"ReferenceId":"591616904","Spot":0.0,"SideOfStreet":"right","CountryId":"20110484","StateId":"20122842","CountyId":"20123532","CityId":"20123712"}}},{"Relevance":1.0,"Distance":105.1,"MatchLevel":"houseNumber","MatchQuality":{"Country":1.0,"State":1.0,"County":1.0,"City":1.0,"Street":[1.0],"HouseNumber":1.0,"PostalCode":1.0},"MatchType":"interpolated","Location":{"LocationId":"NT_XZX2.VxAeCkQP4Vitjr3yB_z8SM","LocationType":"point","DisplayPosition":{"Latitude":46.11153,"Longitude":12.89199},"MapView":{"TopLeft":{"Latitude":46.1126542,"Longitude":12.8903684},"BottomRight":{"Latitude":46.1104058,"Longitude":12.8936116}},"Address":{"Label":"Via Raffaello Sanzio, 3/1, 33097 Spilimbergo PN, Italia","Country":"ITA","State":"Friuli-Venezia Giulia","County":"PN","City":"Spilimbergo","Street":"Via Raffaello Sanzio","HouseNumber":"3/1","PostalCode":"33097","AdditionalData":[{"value":"Italia","key":"CountryName"},{"value":"Friuli-Venezia Giulia","key":"StateName"},{"value":"Pordenone","key":"CountyName"}]},"MapReference":{"ReferenceId":"586684525","Spot":0.48,"SideOfStreet":"left","CountryId":"20110484","StateId":"20122842","CountyId":"20123532","CityId":"20123712","AddressId":"385309893","RoadLinkId":"58707861"}}},{"Relevance":1.0,"Distance":140.5,"MatchLevel":"street","MatchQuality":{"Country":1.0,"State":1.0,"County":1.0,"City":1.0,"Street":[1.0],"PostalCode":1.0},"Location":{"LocationId":"NT_dLAeSDRe6Q6LrarOHiYsMC_l_575456390_L","LocationType":"point","DisplayPosition":{"Latitude":46.1136,"Longitude":12.89131},"MapView":{"TopLeft":{"Latitude":46.11368,"Longitude":12.88984},"BottomRight":{"Latitude":46.1136,"Longitude":12.89131}},"Address":{"Label":"Via Casali Toneatti, 33097 Spilimbergo PN, Italia","Country":"ITA","State":"Friuli-Venezia Giulia","County":"PN","City":"Spilimbergo","Street":"Via Casali Toneatti","PostalCode":"33097","AdditionalData":[{"value":"Italia","key":"CountryName"},{"value":"Friuli-Venezia Giulia","key":"StateName"},{"value":"Pordenone","key":"CountyName"}]},"MapReference":{"ReferenceId":"575456390","Spot":0.0,"SideOfStreet":"left","CountryId":"20110484","StateId":"20122842","CountyId":"20123532","CityId":"20123712"}}},{"Relevance":1.0,"Distance":145.6,"MatchLevel":"houseNumber","MatchQuality":{"Country":1.0,"State":1.0,"County":1.0,"City":1.0,"Street":[1.0],"HouseNumber":1.0,"PostalCode":1.0},"MatchType":"interpolated","Location":{"LocationId":"NT_XZX2.VxAeCkQP4Vitjr3yB_xA","LocationType":"point","DisplayPosition":{"Latitude":46.11193,"Longitude":12.8904},"MapView":{"TopLeft":{"Latitude":46.1130542,"Longitude":12.8887784},"BottomRight":{"Latitude":46.1108058,"Longitude":12.8920216}},"Address":{"Label":"Via Raffaello Sanzio, 1, 33097 Spilimbergo PN, Italia","Country":"ITA","State":"Friuli-Venezia Giulia","County":"PN","City":"Spilimbergo","Street":"Via Raffaello Sanzio","HouseNumber":"1","PostalCode":"33097","AdditionalData":[{"value":"Italia","key":"CountryName"},{"value":"Friuli-Venezia Giulia","key":"StateName"},{"value":"Pordenone","key":"CountyName"}]},"MapReference":{"ReferenceId":"591616905","Spot":0.52,"SideOfStreet":"left","CountryId":"20110484","StateId":"20122842","CountyId":"20123532","CityId":"20123712","AddressId":"728518098","RoadLinkId":"59479379"}}},{"Relevance":1.0,"Distance":157.4,"MatchLevel":"houseNumber","MatchQuality":{"Country":1.0,"State":1.0,"County":1.0,"City":1.0,"Street":[1.0],"HouseNumber":1.0,"PostalCode":1.0},"MatchType":"interpolated","Location":{"LocationId":"NT_UrSqlBg1ineWGFWGsLSXTC_x8SM","LocationType":"point","DisplayPosition":{"Latitude":46.11378,"Longitude":12.89134},"MapView":{"TopLeft":{"Latitude":46.1149042,"Longitude":12.8897184},"BottomRight":{"Latitude":46.1126558,"Longitude":12.8929616}},"Address":{"Label":"Via Tramonti, 1/1, 33097 Spilimbergo PN, Italia","Country":"ITA","State":"Friuli-Venezia Giulia","County":"PN","City":"Spilimbergo","Street":"Via Tramonti","HouseNumber":"1/1","PostalCode":"33097","AdditionalData":[{"value":"Italia","key":"CountryName"},{"value":"Friuli-Venezia Giulia","key":"StateName"},{"value":"Pordenone","key":"CountyName"}]},"MapReference":{"ReferenceId":"586683552","Spot":0.12,"SideOfStreet":"right","CountryId":"20110484","StateId":"20122842","CountyId":"20123532","CityId":"20123712","AddressId":"385320250","RoadLinkId":"59080321"}}},{"Relevance":1.0,"Distance":159.2,"MatchLevel":"houseNumber","MatchQuality":{"Country":1.0,"State":1.0,"County":1.0,"City":1.0,"Street":[1.0],"HouseNumber":1.0,"PostalCode":1.0},"MatchType":"interpolated","Location":{"LocationId":"NT_aThyEM-Fcor5zkQ1G1lNdA_1ED","LocationType":"point","DisplayPosition":{"Latitude":46.11104,"Longitude":12.89204},"MapView":{"TopLeft":{"Latitude":46.1121642,"Longitude":12.8904185},"BottomRight":{"Latitude":46.1099158,"Longitude":12.8936615}},"Address":{"Label":"Via Camillo Benso di Cavour, 51, 33097 Spilimbergo PN, Italia","Country":"ITA","State":"Friuli-Venezia Giulia","County":"PN","City":"Spilimbergo","Street":"Via Camillo Benso di Cavour","HouseNumber":"51","PostalCode":"33097","AdditionalData":[{"value":"Italia","key":"CountryName"},{"value":"Friuli-Venezia Giulia","key":"StateName"},{"value":"Pordenone","key":"CountyName"}]},"MapReference":{"ReferenceId":"586684037","Spot":0.18,"SideOfStreet":"right","CountryId":"20110484","StateId":"20122842","CountyId":"20123532","CityId":"20123712","AddressId":"728561324","RoadLinkId":"58415342"}}}]}]}}