{"Response":{"MetaInfo":{"Timestamp":"2020-03-28T11:36:49.844+0000","NextPageInformation":"2"},"View":[{"_type":"SearchResultsViewType","ViewId":0,"Result":[{"Relevance":1.0,"Distance":0.0,"Direction":0.0,"MatchLevel":"district","MatchQuality":{"Country":1.0,"County":1.0,"City":1.0,"District":1.0,"PostalCode":1.0},"Location":{"LocationId":"NT_S3lvLlC0dgDbUQbgOR5v3B","LocationType":"point","DisplayPosition":{"Latitude":46.1031662,"Longitude":14.5318629},"MapView":{"TopLeft":{"Latitude":46.11333,"Longitude":14.51942},"BottomRight":{"Latitude":46.10247,"Longitude":14.53501}},"Address":{"Label":"Gmajna, Ljubljana, Slovenija","Country":"SVN","County":"Ljubljana","City":"Ljubljana","District":"Gmajna","PostalCode":"1231","AdditionalData":[{"value":"Slovenija","key":"CountryName"},{"value":"Ljubljana","key":"CountyName"}]},"MapReference":{"ReferenceId":"585376417","SideOfStreet":"neither","CountryId":"20633685","CountyId":"20637391","CityId":"20637495"}}},{"Relevance":1.0,"Distance":12.6,"MatchLevel":"houseNumber","MatchQuality":{"Country":1.0,"County":1.0,"City":1.0,"District":1.0,"Street":[1.0],"HouseNumber":1.0,"PostalCode":1.0},"MatchType":"interpolated","Location":{"LocationId":"NT_lPVNwNH-Gf61jQ7KHqq9SA_zcTM","LocationType":"point","DisplayPosition":{"Latitude":46.10294,"Longitude":14.532},"MapView":{"TopLeft":{"Latitude":46.1040642,"Longitude":14.5303787},"BottomRight":{"Latitude":46.1018158,"Longitude":14.5336213}},"Address":{"Label":"Dunajska cesta 371, SI- 1231 Ljubljana, Slovenija","Country":"SVN","County":"Ljubljana","City":"Ljubljana","District":"Gmajna","Street":"Dunajska cesta","HouseNumber":"371","PostalCode":"1231","AdditionalData":[{"value":"Slovenija","key":"CountryName"},{"value":"Ljubljana","key":"CountyName"}]},"MapReference":{"ReferenceId":"1064556510","Spot":0.88,"SideOfStreet":"left","CountryId":"20633685","CountyId":"20637391","CityId":"20637495","AddressId":"406986857","RoadLinkId":"386837461"}}},{"Relevance":1.0,"Distance":27.5,"MatchLevel":"street","MatchQuality":{"Country":1.0,"County":1.0,"City":1.0,"District":1.0,"Street":[1.0],"PostalCode":1.0},"Location":{"LocationId":"NT_lPVNwNH-Gf61jQ7KHqq9SA_l_1064556511_L","LocationType":"point","DisplayPosition":{"Latitude":46.10296,"Longitude":14.53206},"MapView":{"TopLeft":{"Latitude":46.10305,"Longitude":14.53206},"BottomRight":{"Latitude":46.10296,"Longitude":14.53232}},"Address":{"Label":"Dunajska cesta, SI- 1231 Ljubljana, Slovenija","Country":"SVN","County":"Ljubljana","City":"Ljubljana","District":"Gmajna","Street":"Dunajska cesta","PostalCode":"1231","AdditionalData":[{"value":"Slovenija","key":"CountryName"},{"value":"Ljubljana","key":"CountyName"}]},"MapReference":{"ReferenceId":"1064556511","Spot":0.0,"SideOfStreet":"left","CountryId":"20633685","CountyId":"20637391","CityId":"20637495"}}},{"Relevance":1.0,"Distance":29.1,"MatchLevel":"houseNumber","MatchQuality":{"Country":1.0,"County":1.0,"City":1.0,"District":1.0,"Street":[1.0],"HouseNumber":1.0,"PostalCode":1.0},"MatchType":"interpolated","Location":{"LocationId":"NT_zdbl24DWzxYCXRGsbk.5mB_yA","LocationType":"point","DisplayPosition":{"Latitude":46.10334,"Longitude":14.53162},"MapView":{"TopLeft":{"Latitude":46.1044642,"Longitude":14.5299987},"BottomRight":{"Latitude":46.1022158,"Longitude":14.5332413}},"Address":{"Label":"Primožičeva ulica 2, SI- 1231 Ljubljana, Slovenija","Country":"SVN","County":"Ljubljana","City":"Ljubljana","District":"Gmajna","Street":"Primožičeva ulica","HouseNumber":"2","PostalCode":"1231","AdditionalData":[{"value":"Slovenija","key":"CountryName"},{"value":"Ljubljana","key":"CountyName"}]},"MapReference":{"ReferenceId":"913594986","Spot":1.0,"SideOfStreet":"left","CountryId":"20633685","CountyId":"20637391","CityId":"20637495","AddressId":"406765304","RoadLinkId":"271389548"}}},{"Relevance":1.0,"Distance":32.6,"MatchLevel":"landmark","MatchQuality":{"Country":1.0,"County":1.0,"City":1.0,"PostalCode":1.0,"Name":1.0},"Location":{"LocationId":"NT_.wtsm0rdXdASCtJv2VW3hA","LocationType":"river","Name":"Črnušnjica","DisplayPosition":{"Latitude":46.11067,"Longitude":14.52524},"MapView":{"TopLeft":{"Latitude":46.12801,"Longitude":14.50624},"BottomRight":{"Latitude":46.08779,"Longitude":14.53375}},"Address":{"Label":"SI- 1000 Ljubljana, Slovenija","Country":"SVN","County":"Ljubljana","City":"Ljubljana","PostalCode":"1000","AdditionalData":[{"value":"Slovenija","key":"CountryName"},{"value":"Ljubljana","key":"CountyName"}]},"MapReference":{"CountryId":"20633685","CountyId":"20637391","CityId":"20637495","PlaceId":"1259089159"}}},{"Relevance":1.0,"Distance":37.5,"MatchLevel":"street","MatchQuality":{"Country":1.0,"County":1.0,"City":1.0,"District":1.0,"Street":[1.0],"PostalCode":1.0},"Location":{"LocationId":"NT_lPVNwNH-Gf61jQ7KHqq9SA_l_1064556512_L","LocationType":"point","DisplayPosition":{"Latitude":46.10305,"Longitude":14.53232},"MapView":{"TopLeft":{"Latitude":46.10319,"Longitude":14.53232},"BottomRight":{"Latitude":46.10305,"Longitude":14.53273}},"Address":{"Label":"Dunajska cesta, SI- 1231 Ljubljana, Slovenija","Country":"SVN","County":"Ljubljana","City":"Ljubljana","District":"Gmajna","Street":"Dunajska cesta","PostalCode":"1231","AdditionalData":[{"value":"Slovenija","key":"CountryName"},{"value":"Ljubljana","key":"CountyName"}]},"MapReference":{"ReferenceId":"1064556512","Spot":0.0,"SideOfStreet":"left","CountryId":"20633685","CountyId":"20637391","CityId":"20637495"}}},{"Relevance":1.0,"Distance":39.4,"MatchLevel":"street","MatchQuality":{"Country":1.0,"County":1.0,"City":1.0,"District":1.0,"PostalCode":1.0},"Location":{"LocationId":"NT_IWg6VQifSZGQbv93rCloZA_l_913594989_R","LocationType":"point","DisplayPosition":{"Latitude":46.1029223,"Longitude":14.5314928},"MapView":{"TopLeft":{"Latitude":46.10323,"Longitude":14.53129},"BottomRight":{"Latitude":46.10279,"Longitude":14.53158}},"Address":{"Label":"SI- 1231 Ljubljana, Slovenija","Country":"SVN","County":"Ljubljana","City":"Ljubljana","District":"Gmajna","PostalCode":"1231","AdditionalData":[{"value":"Slovenija","key":"CountryName"},{"value":"Ljubljana","key":"CountyName"}]},"MapReference":{"ReferenceId":"913594989","Spot":0.3,"SideOfStreet":"right","CountryId":"20633685","CountyId":"20637391","CityId":"20637495"}}},{"Relevance":1.0,"Distance":44.7,"MatchLevel":"street","MatchQuality":{"Country":1.0,"County":1.0,"City":1.0,"District":1.0,"Street":[1.0],"PostalCode":1.0},"Location":{"LocationId":"NT_zdbl24DWzxYCXRGsbk.5mB_l_913594985_R","LocationType":"point","DisplayPosition":{"Latitude":46.10323,"Longitude":14.53129},"MapView":{"TopLeft":{"Latitude":46.10333,"Longitude":14.53122},"BottomRight":{"Latitude":46.10323,"Longitude":14.53129}},"Address":{"Label":"Primožičeva ulica, SI- 1231 Ljubljana, Slovenija","Country":"SVN","County":"Ljubljana","City":"Ljubljana","District":"Gmajna","Street":"Primožičeva ulica","PostalCode":"1231","AdditionalData":[{"value":"Slovenija","key":"CountryName"},{"value":"Ljubljana","key":"CountyName"}]},"MapReference":{"ReferenceId":"913594985","Spot":0.0,"SideOfStreet":"right","CountryId":"20633685","CountyId":"20637391","CityId":"20637495"}}},{"Relevance":1.0,"Distance":52.5,"MatchLevel":"houseNumber","MatchQuality":{"Country":1.0,"County":1.0,"City":1.0,"District":1.0,"Street":[1.0],"HouseNumber":1.0,"PostalCode":1.0},"MatchType":"interpolated","Location":{"LocationId":"NT_lPVNwNH-Gf61jQ7KHqq9SA_zgzMBB","LocationType":"point","DisplayPosition":{"Latitude":46.1038,"Longitude":14.53238},"MapView":{"TopLeft":{"Latitude":46.1049242,"Longitude":14.5307587},"BottomRight":{"Latitude":46.1026758,"Longitude":14.5340013}},"Address":{"Label":"Dunajska cesta 383A, SI- 1231 Ljubljana, Slovenija","Country":"SVN","County":"Ljubljana","City":"Ljubljana","District":"Gmajna","Street":"Dunajska cesta","HouseNumber":"383A","PostalCode":"1231","AdditionalData":[{"value":"Slovenija","key":"CountryName"},{"value":"Ljubljana","key":"CountyName"}]},"MapReference":{"ReferenceId":"585368248","Spot":1.0,"SideOfStreet":"left","CountryId":"20633685","CountyId":"20637391","CityId":"20637495","AddressId":"742780609","RoadLinkId":"54487075"}}},{"Relevance":1.0,"Distance":52.8,"MatchLevel":"street","MatchQuality":{"Country":1.0,"County":1.0,"City":1.0,"District":1.0,"Street":[1.0],"PostalCode":1.0},"Location":{"LocationId":"NT_zdbl24DWzxYCXRGsbk.5mB_l_585368279_R","LocationType":"point","DisplayPosition":{"Latitude":46.10333,"Longitude":14.53122},"MapView":{"TopLeft":{"Latitude":46.10333,"Longitude":14.53023},"BottomRight":{"Latitude":46.10301,"Longitude":14.53122}},"Address":{"Label":"Primožičeva ulica, SI- 1231 Ljubljana, Slovenija","Country":"SVN","County":"Ljubljana","City":"Ljubljana","District":"Gmajna","Street":"Primožičeva ulica","PostalCode":"1231","AdditionalData":[{"value":"Slovenija","key":"CountryName"},{"value":"Ljubljana","key":"CountyName"}]},"MapReference":{"ReferenceId":"585368279","Spot":1.0,"SideOfStreet":"right","CountryId":"20633685","CountyId":"20637391","CityId":"20637495"}}}]}]}}