{"Response":{"MetaInfo":{"Timestamp":"2020-03-31T17:05:03.586+0000","NextPageInformation":"2"},"View":[{"_type":"SearchResultsViewType","ViewId":0,"Result":[{"Relevance":1.0,"Distance":0.0,"Direction":0.0,"MatchLevel":"district","MatchQuality":{"Country":1.0,"County":1.0,"City":1.0,"District":1.0,"PostalCode":1.0},"Location":{"LocationId":"NT_4pZX-wBrTedtESg7AbSslA","LocationType":"point","DisplayPosition":{"Latitude":46.102,"Longitude":14.7858},"MapView":{"TopLeft":{"Latitude":46.10355,"Longitude":14.77887},"BottomRight":{"Latitude":46.09676,"Longitude":14.79353}},"Address":{"Label":"Kresnice, Litija, Slovenija","Country":"SVN","County":"Litija","City":"Litija","District":"Kresnice","PostalCode":"1281","AdditionalData":[{"value":"Slovenija","key":"CountryName"},{"value":"Litija","key":"CountyName"}]},"MapReference":{"ReferenceId":"1141943131","SideOfStreet":"neither","CountryId":"20633685","CountyId":"20637220","CityId":"20637227","DistrictId":"22692968"}}},{"Relevance":1.0,"Distance":5.7,"MatchLevel":"houseNumber","MatchQuality":{"Country":1.0,"County":1.0,"City":1.0,"District":1.0,"Street":[1.0],"HouseNumber":1.0,"PostalCode":1.0},"MatchType":"interpolated","Location":{"LocationId":"NT_Nbh4M-OR4FNG0c2FYSEx-D_zYD","LocationType":"point","DisplayPosition":{"Latitude":46.10206,"Longitude":14.7859},"MapView":{"TopLeft":{"Latitude":46.1031842,"Longitude":14.7842787},"BottomRight":{"Latitude":46.1009358,"Longitude":14.7875213}},"Address":{"Label":"Kresnice 36, SI- 1281 Litija, Slovenija","Country":"SVN","County":"Litija","City":"Litija","District":"Kresnice","Street":"Kresnice","HouseNumber":"36","PostalCode":"1281","AdditionalData":[{"value":"Slovenija","key":"CountryName"},{"value":"Litija","key":"CountyName"}]},"MapReference":{"ReferenceId":"1141943131","Spot":0.45,"SideOfStreet":"left","CountryId":"20633685","CountyId":"20637220","CityId":"20637227","DistrictId":"22692968","AddressId":"406648960","RoadLinkId":"447449525"}}},{"Relevance":1.0,"Distance":35.6,"MatchLevel":"houseNumber","MatchQuality":{"Country":1.0,"County":1.0,"City":1.0,"District":1.0,"Street":[1.0],"HouseNumber":1.0,"PostalCode":1.0},"MatchType":"interpolated","Location":{"LocationId":"NT_Nbh4M-OR4FNG0c2FYSEx-D_zcD","LocationType":"point","DisplayPosition":{"Latitude":46.10207,"Longitude":14.78531},"MapView":{"TopLeft":{"Latitude":46.1031942,"Longitude":14.7836887},"BottomRight":{"Latitude":46.1009458,"Longitude":14.7869313}},"Address":{"Label":"Kresnice 37, SI- 1281 Litija, Slovenija","Country":"SVN","County":"Litija","City":"Litija","District":"Kresnice","Street":"Kresnice","HouseNumber":"37","PostalCode":"1281","AdditionalData":[{"value":"Slovenija","key":"CountryName"},{"value":"Litija","key":"CountyName"}]},"MapReference":{"ReferenceId":"710544880","Spot":0.89,"SideOfStreet":"right","CountryId":"20633685","CountyId":"20637220","CityId":"20637227","DistrictId":"22692968","AddressId":"406505872","RoadLinkId":"115689816"}}},{"Relevance":1.0,"Distance":39.2,"MatchLevel":"houseNumber","MatchQuality":{"Country":1.0,"County":1.0,"City":1.0,"District":1.0,"Street":[1.0],"HouseNumber":1.0,"PostalCode":1.0},"MatchType":"interpolated","Location":{"LocationId":"NT_Nbh4M-OR4FNG0c2FYSEx-D_zYTR","LocationType":"point","DisplayPosition":{"Latitude":46.10235,"Longitude":14.78586},"MapView":{"TopLeft":{"Latitude":46.1034742,"Longitude":14.7842387},"BottomRight":{"Latitude":46.1012258,"Longitude":14.7874813}},"Address":{"Label":"Kresnice 36E, SI- 1281 Litija, Slovenija","Country":"SVN","County":"Litija","City":"Litija","District":"Kresnice","Street":"Kresnice","HouseNumber":"36E","PostalCode":"1281","AdditionalData":[{"value":"Slovenija","key":"CountryName"},{"value":"Litija","key":"CountyName"}]},"MapReference":{"ReferenceId":"1141947011","Spot":0.85,"SideOfStreet":"right","CountryId":"20633685","CountyId":"20637220","CityId":"20637227","DistrictId":"22692968","AddressId":"742794588","RoadLinkId":"447453549"}}},{"Relevance":1.0,"Distance":44.3,"MatchLevel":"houseNumber","MatchQuality":{"Country":1.0,"County":1.0,"City":1.0,"District":1.0,"Street":[1.0],"HouseNumber":1.0,"PostalCode":1.0},"MatchType":"interpolated","Location":{"LocationId":"NT_Nbh4M-OR4FNG0c2FYSEx-D_zQjQ","LocationType":"point","DisplayPosition":{"Latitude":46.10197,"Longitude":14.78637},"MapView":{"TopLeft":{"Latitude":46.1030942,"Longitude":14.7847487},"BottomRight":{"Latitude":46.1008458,"Longitude":14.7879913}},"Address":{"Label":"Kresnice 34B, SI- 1281 Litija, Slovenija","Country":"SVN","County":"Litija","City":"Litija","District":"Kresnice","Street":"Kresnice","HouseNumber":"34B","PostalCode":"1281","AdditionalData":[{"value":"Slovenija","key":"CountryName"},{"value":"Litija","key":"CountyName"}]},"MapReference":{"ReferenceId":"1180985716","Spot":0.82,"SideOfStreet":"left","CountryId":"20633685","CountyId":"20637220","CityId":"20637227","DistrictId":"22692968","AddressId":"406648961","RoadLinkId":"488999268"}}},{"Relevance":1.0,"Distance":74.6,"MatchLevel":"houseNumber","MatchQuality":{"Country":1.0,"County":1.0,"City":1.0,"District":1.0,"Street":[1.0],"HouseNumber":1.0,"PostalCode":1.0},"MatchType":"interpolated","Location":{"LocationId":"NT_Nbh4M-OR4FNG0c2FYSEx-D_xATN","LocationType":"point","DisplayPosition":{"Latitude":46.10272,"Longitude":14.78519},"MapView":{"TopLeft":{"Latitude":46.1038442,"Longitude":14.7835687},"BottomRight":{"Latitude":46.1015958,"Longitude":14.7868113}},"Address":{"Label":"Kresnice 105, SI- 1281 Litija, Slovenija","Country":"SVN","County":"Litija","City":"Litija","District":"Kresnice","Street":"Kresnice","HouseNumber":"105","PostalCode":"1281","AdditionalData":[{"value":"Slovenija","key":"CountryName"},{"value":"Litija","key":"CountyName"}]},"MapReference":{"ReferenceId":"1182091261","Spot":0.87,"SideOfStreet":"right","CountryId":"20633685","CountyId":"20637220","CityId":"20637227","DistrictId":"22692968","AddressId":"406533343","RoadLinkId":"490260228"}}},{"Relevance":1.0,"Distance":77.2,"MatchLevel":"houseNumber","MatchQuality":{"Country":1.0,"County":1.0,"City":1.0,"District":1.0,"Street":[1.0],"HouseNumber":1.0,"PostalCode":1.0},"MatchType":"interpolated","Location":{"LocationId":"NT_Nbh4M-OR4FNG0c2FYSEx-D_zUTQ","LocationType":"point","DisplayPosition":{"Latitude":46.10279,"Longitude":14.78541},"MapView":{"TopLeft":{"Latitude":46.1039142,"Longitude":14.7837887},"BottomRight":{"Latitude":46.1016658,"Longitude":14.7870313}},"Address":{"Label":"Kresnice 35A, SI- 1281 Litija, Slovenija","Country":"SVN","County":"Litija","City":"Litija","District":"Kresnice","Street":"Kresnice","HouseNumber":"35A","PostalCode":"1281","AdditionalData":[{"value":"Slovenija","key":"CountryName"},{"value":"Litija","key":"CountyName"}]},"MapReference":{"ReferenceId":"1182091262","Spot":0.01,"SideOfStreet":"right","CountryId":"20633685","CountyId":"20637220","CityId":"20637227","DistrictId":"22692968","AddressId":"406533339","RoadLinkId":"490260229"}}},{"Relevance":1.0,"Distance":79.4,"MatchLevel":"houseNumber","MatchQuality":{"Country":1.0,"County":1.0,"City":1.0,"District":1.0,"Street":[1.0],"HouseNumber":1.0,"PostalCode":1.0},"MatchType":"interpolated","Location":{"LocationId":"NT_Nbh4M-OR4FNG0c2FYSEx-D_zMD","LocationType":"point","DisplayPosition":{"Latitude":46.10132,"Longitude":14.7864},"MapView":{"TopLeft":{"Latitude":46.1024442,"Longitude":14.7847787},"BottomRight":{"Latitude":46.1001958,"Longitude":14.7880213}},"Address":{"Label":"Kresnice 33, SI- 1281 Litija, Slovenija","Country":"SVN","County":"Litija","City":"Litija","District":"Kresnice","Street":"Kresnice","HouseNumber":"33","PostalCode":"1281","AdditionalData":[{"value":"Slovenija","key":"CountryName"},{"value":"Litija","key":"CountyName"}]},"MapReference":{"ReferenceId":"710530513","Spot":0.59,"SideOfStreet":"left","CountryId":"20633685","CountyId":"20637220","CityId":"20637227","DistrictId":"22692968","AddressId":"406520629","RoadLinkId":"115781066"}}},{"Relevance":1.0,"Distance":89.0,"MatchLevel":"houseNumber","MatchQuality":{"Country":1.0,"County":1.0,"City":1.0,"District":1.0,"Street":[1.0],"HouseNumber":1.0,"PostalCode":1.0},"MatchType":"interpolated","Location":{"LocationId":"NT_Nbh4M-OR4FNG0c2FYSEx-D_3YD","LocationType":"point","DisplayPosition":{"Latitude":46.1011,"Longitude":14.78578},"MapView":{"TopLeft":{"Latitude":46.1022242,"Longitude":14.7841588},"BottomRight":{"Latitude":46.0999758,"Longitude":14.7874012}},"Address":{"Label":"Kresnice 76, SI- 1281 Litija, Slovenija","Country":"SVN","County":"Litija","City":"Litija","District":"Kresnice","Street":"Kresnice","HouseNumber":"76","PostalCode":"1281","AdditionalData":[{"value":"Slovenija","key":"CountryName"},{"value":"Litija","key":"CountyName"}]},"MapReference":{"ReferenceId":"710576915","Spot":0.41,"SideOfStreet":"right","CountryId":"20633685","CountyId":"20637220","CityId":"20637227","DistrictId":"22692968","AddressId":"406627691","RoadLinkId":"115764736"}}},{"Relevance":1.0,"Distance":91.7,"MatchLevel":"houseNumber","MatchQuality":{"Country":1.0,"County":1.0,"City":1.0,"District":1.0,"Street":[1.0],"HouseNumber":1.0,"PostalCode":1.0},"MatchType":"interpolated","Location":{"LocationId":"NT_Nbh4M-OR4FNG0c2FYSEx-D_zQTQ","LocationType":"point","DisplayPosition":{"Latitude":46.10145,"Longitude":14.78697},"MapView":{"TopLeft":{"Latitude":46.1025742,"Longitude":14.7853487},"BottomRight":{"Latitude":46.1003258,"Longitude":14.7885913}},"Address":{"Label":"Kresnice 34A, SI- 1281 Litija, Slovenija","Country":"SVN","County":"Litija","City":"Litija","District":"Kresnice","Street":"Kresnice","HouseNumber":"34A","PostalCode":"1281","AdditionalData":[{"value":"Slovenija","key":"CountryName"},{"value":"Litija","key":"CountyName"}]},"MapReference":{"ReferenceId":"710571436","Spot":0.27,"SideOfStreet":"left","CountryId":"20633685","CountyId":"20637220","CityId":"20637227","DistrictId":"22692968","AddressId":"406539758","RoadLinkId":"115775375"}}}]}]}}