{"Response":{"MetaInfo":{"Timestamp":"2020-03-28T11:49:14.116+0000","NextPageInformation":"2"},"View":[{"_type":"SearchResultsViewType","ViewId":0,"Result":[{"Relevance":1.0,"Distance":0.0,"Direction":0.0,"MatchLevel":"city","MatchQuality":{"Country":1.0,"State":1.0,"County":1.0,"City":1.0,"PostalCode":1.0},"Location":{"LocationId":"NT_i.e-havPVK1Ep7WuYhCnyC","LocationType":"point","DisplayPosition":{"Latitude":46.2151452,"Longitude":1.0802591},"MapView":{"TopLeft":{"Latitude":46.2352,"Longitude":1.02395},"BottomRight":{"Latitude":46.18216,"Longitude":1.11959}},"Address":{"Label":"Le Dorat, Nouvelle-Aquitaine, France","Country":"FRA","State":"Nouvelle-Aquitaine","County":"Haute-Vienne","City":"Le Dorat","PostalCode":"87210","AdditionalData":[{"value":"France","key":"CountryName"},{"value":"Nouvelle-Aquitaine","key":"StateName"},{"value":"Haute-Vienne","key":"CountyName"}]},"MapReference":{"ReferenceId":"584874511","SideOfStreet":"neither","CountryId":"20000001","StateId":"20000383","CountyId":"20082675","CityId":"20110051"}}},{"Relevance":1.0,"Distance":9.2,"MatchLevel":"houseNumber","MatchQuality":{"Country":1.0,"State":1.0,"County":1.0,"City":1.0,"Street":[1.0],"HouseNumber":1.0,"PostalCode":1.0},"MatchType":"interpolated","Location":{"LocationId":"NT_OO-mvOFGyAF-XtXgEJ9CgD_zMD","LocationType":"point","DisplayPosition":{"Latitude":46.21517,"Longitude":1.08006},"MapView":{"TopLeft":{"Latitude":46.2162942,"Longitude":1.0784354},"BottomRight":{"Latitude":46.2140458,"Longitude":1.0816846}},"Address":{"Label":"33 Place Charles de Gaulle, 87210 Le Dorat, France","Country":"FRA","State":"Nouvelle-Aquitaine","County":"Haute-Vienne","City":"Le Dorat","Street":"Place Charles de Gaulle","HouseNumber":"33","PostalCode":"87210","AdditionalData":[{"value":"France","key":"CountryName"},{"value":"Nouvelle-Aquitaine","key":"StateName"},{"value":"Haute-Vienne","key":"CountyName"}]},"MapReference":{"ReferenceId":"584874452","Spot":0.53,"SideOfStreet":"right","CountryId":"20000001","StateId":"20000383","CountyId":"20082675","CityId":"20110051","AddressId":"317490546","RoadLinkId":"53367959"}}},{"Relevance":1.0,"Distance":13.2,"MatchLevel":"houseNumber","MatchQuality":{"Country":1.0,"State":1.0,"County":1.0,"City":1.0,"Street":[1.0],"HouseNumber":1.0,"PostalCode":1.0},"MatchType":"interpolated","Location":{"LocationId":"NT_OO-mvOFGyAF-XtXgEJ9CgD_ykD","LocationType":"point","DisplayPosition":{"Latitude":46.21534,"Longitude":1.08029},"MapView":{"TopLeft":{"Latitude":46.2164642,"Longitude":1.0786654},"BottomRight":{"Latitude":46.2142158,"Longitude":1.0819146}},"Address":{"Label":"29 Place Charles de Gaulle, 87210 Le Dorat, France","Country":"FRA","State":"Nouvelle-Aquitaine","County":"Haute-Vienne","City":"Le Dorat","Street":"Place Charles de Gaulle","HouseNumber":"29","PostalCode":"87210","AdditionalData":[{"value":"France","key":"CountryName"},{"value":"Nouvelle-Aquitaine","key":"StateName"},{"value":"Haute-Vienne","key":"CountyName"}]},"MapReference":{"ReferenceId":"584874458","Spot":0.82,"SideOfStreet":"right","CountryId":"20000001","StateId":"20000383","CountyId":"20082675","CityId":"20110051","AddressId":"388840653","RoadLinkId":"52800845"}}},{"Relevance":1.0,"Distance":18.0,"MatchLevel":"houseNumber","MatchQuality":{"Country":1.0,"State":1.0,"County":1.0,"City":1.0,"Street":[1.0],"HouseNumber":1.0,"PostalCode":1.0},"MatchType":"interpolated","Location":{"LocationId":"NT_CL43nkuJuqukp5uTx-sB.C_yA","LocationType":"point","DisplayPosition":{"Latitude":46.21517,"Longitude":1.08049},"MapView":{"TopLeft":{"Latitude":46.2162942,"Longitude":1.0788654},"BottomRight":{"Latitude":46.2140458,"Longitude":1.0821146}},"Address":{"Label":"2 Rue Rouge, 87210 Le Dorat, France","Country":"FRA","State":"Nouvelle-Aquitaine","County":"Haute-Vienne","City":"Le Dorat","Street":"Rue Rouge","HouseNumber":"2","PostalCode":"87210","AdditionalData":[{"value":"France","key":"CountryName"},{"value":"Nouvelle-Aquitaine","key":"StateName"},{"value":"Haute-Vienne","key":"CountyName"}]},"MapReference":{"ReferenceId":"584874459","Spot":0.45,"SideOfStreet":"right","CountryId":"20000001","StateId":"20000383","CountyId":"20082675","CityId":"20110051","AddressId":"317457404","RoadLinkId":"52996320"}}},{"Relevance":1.0,"Distance":23.2,"MatchLevel":"street","MatchQuality":{"Country":1.0,"State":1.0,"County":1.0,"City":1.0,"Street":[1.0],"PostalCode":1.0},"Location":{"LocationId":"NT_v1PcGjQT8J-GEJi6cG8GHD_l_584874457_R","LocationType":"point","DisplayPosition":{"Latitude":46.21535,"Longitude":1.08032},"MapView":{"TopLeft":{"Latitude":46.21537,"Longitude":1.08032},"BottomRight":{"Latitude":46.21535,"Longitude":1.08081}},"Address":{"Label":"Ruelle de la Roche, 87210 Le Dorat, France","Country":"FRA","State":"Nouvelle-Aquitaine","County":"Haute-Vienne","City":"Le Dorat","Street":"Ruelle de la Roche","PostalCode":"87210","AdditionalData":[{"value":"France","key":"CountryName"},{"value":"Nouvelle-Aquitaine","key":"StateName"},{"value":"Haute-Vienne","key":"CountyName"}]},"MapReference":{"ReferenceId":"584874457","Spot":0.0,"SideOfStreet":"right","CountryId":"20000001","StateId":"20000383","CountyId":"20082675","CityId":"20110051"}}},{"Relevance":1.0,"Distance":29.7,"MatchLevel":"houseNumber","MatchQuality":{"Country":1.0,"State":1.0,"County":1.0,"City":1.0,"Street":[1.0],"HouseNumber":1.0,"PostalCode":1.0},"MatchType":"interpolated","Location":{"LocationId":"NT_OO-mvOFGyAF-XtXgEJ9CgD_yED","LocationType":"point","DisplayPosition":{"Latitude":46.21541,"Longitude":1.08031},"MapView":{"TopLeft":{"Latitude":46.2165342,"Longitude":1.0786854},"BottomRight":{"Latitude":46.2142858,"Longitude":1.0819346}},"Address":{"Label":"21 Place Charles de Gaulle, 87210 Le Dorat, France","Country":"FRA","State":"Nouvelle-Aquitaine","County":"Haute-Vienne","City":"Le Dorat","Street":"Place Charles de Gaulle","HouseNumber":"21","PostalCode":"87210","AdditionalData":[{"value":"France","key":"CountryName"},{"value":"Nouvelle-Aquitaine","key":"StateName"},{"value":"Haute-Vienne","key":"CountyName"}]},"MapReference":{"ReferenceId":"584874453","Spot":0.3,"SideOfStreet":"right","CountryId":"20000001","StateId":"20000383","CountyId":"20082675","CityId":"20110051","AddressId":"317473303","RoadLinkId":"53106026"}}},{"Relevance":1.0,"Distance":30.3,"MatchLevel":"houseNumber","MatchQuality":{"Country":1.0,"State":1.0,"County":1.0,"City":1.0,"Street":[1.0],"HouseNumber":1.0,"PostalCode":1.0},"MatchType":"interpolated","Location":{"LocationId":"NT_OO-mvOFGyAF-XtXgEJ9CgD_zkD","LocationType":"point","DisplayPosition":{"Latitude":46.21496,"Longitude":1.07992},"MapView":{"TopLeft":{"Latitude":46.2160842,"Longitude":1.0782954},"BottomRight":{"Latitude":46.2138358,"Longitude":1.0815446}},"Address":{"Label":"39 Place Charles de Gaulle, 87210 Le Dorat, France","Country":"FRA","State":"Nouvelle-Aquitaine","County":"Haute-Vienne","City":"Le Dorat","Street":"Place Charles de Gaulle","HouseNumber":"39","PostalCode":"87210","AdditionalData":[{"value":"France","key":"CountryName"},{"value":"Nouvelle-Aquitaine","key":"StateName"},{"value":"Haute-Vienne","key":"CountyName"}]},"MapReference":{"ReferenceId":"584874379","Spot":0.74,"SideOfStreet":"right","CountryId":"20000001","StateId":"20000383","CountyId":"20082675","CityId":"20110051","AddressId":"317514364","RoadLinkId":"52622464"}}},{"Relevance":1.0,"Distance":30.7,"MatchLevel":"houseNumber","MatchQuality":{"Country":1.0,"State":1.0,"County":1.0,"City":1.0,"Street":[1.0],"HouseNumber":1.0,"PostalCode":1.0},"MatchType":"interpolated","Location":{"LocationId":"NT_OO-mvOFGyAF-XtXgEJ9CgD_0A","LocationType":"point","DisplayPosition":{"Latitude":46.21514,"Longitude":1.07986},"MapView":{"TopLeft":{"Latitude":46.2162642,"Longitude":1.0782354},"BottomRight":{"Latitude":46.2140158,"Longitude":1.0814846}},"Address":{"Label":"4 Place Charles de Gaulle, 87210 Le Dorat, France","Country":"FRA","State":"Nouvelle-Aquitaine","County":"Haute-Vienne","City":"Le Dorat","Street":"Place Charles de Gaulle","HouseNumber":"4","PostalCode":"87210","AdditionalData":[{"value":"France","key":"CountryName"},{"value":"Nouvelle-Aquitaine","key":"StateName"},{"value":"Haute-Vienne","key":"CountyName"}]},"MapReference":{"ReferenceId":"584874378","Spot":0.33,"SideOfStreet":"left","CountryId":"20000001","StateId":"20000383","CountyId":"20082675","CityId":"20110051","AddressId":"317514368","RoadLinkId":"53084971"}}},{"Relevance":1.0,"Distance":39.5,"MatchLevel":"houseNumber","MatchQuality":{"Country":1.0,"State":1.0,"County":1.0,"City":1.0,"Street":[1.0],"HouseNumber":1.0,"PostalCode":1.0},"MatchType":"interpolated","Location":{"LocationId":"NT_kimNkA0PNhlWWSniVoD2LA_xUD","LocationType":"point","DisplayPosition":{"Latitude":46.21528,"Longitude":1.08082},"MapView":{"TopLeft":{"Latitude":46.2164042,"Longitude":1.0791954},"BottomRight":{"Latitude":46.2141558,"Longitude":1.0824446}},"Address":{"Label":"15 Grande Rue, 87210 Le Dorat, France","Country":"FRA","State":"Nouvelle-Aquitaine","County":"Haute-Vienne","City":"Le Dorat","Street":"Grande Rue","HouseNumber":"15","PostalCode":"87210","AdditionalData":[{"value":"France","key":"CountryName"},{"value":"Nouvelle-Aquitaine","key":"StateName"},{"value":"Haute-Vienne","key":"CountyName"}]},"MapReference":{"ReferenceId":"584874469","Spot":0.41,"SideOfStreet":"left","CountryId":"20000001","StateId":"20000383","CountyId":"20082675","CityId":"20110051","AddressId":"571419955","RoadLinkId":"53115826"}}},{"Relevance":1.0,"Distance":40.0,"MatchLevel":"houseNumber","MatchQuality":{"Country":1.0,"State":1.0,"County":1.0,"City":1.0,"Street":[1.0],"HouseNumber":1.0,"PostalCode":1.0},"MatchType":"interpolated","Location":{"LocationId":"NT_YPX40RE.EgwQPFivumnpgD_2A","LocationType":"point","DisplayPosition":{"Latitude":46.21488,"Longitude":1.08063},"MapView":{"TopLeft":{"Latitude":46.2160042,"Longitude":1.0790054},"BottomRight":{"Latitude":46.2137558,"Longitude":1.0822546}},"Address":{"Label":"6 Rue du Puits Chatonnier, 87210 Le Dorat, France","Country":"FRA","State":"Nouvelle-Aquitaine","County":"Haute-Vienne","City":"Le Dorat","Street":"Rue du Puits Chatonnier","HouseNumber":"6","PostalCode":"87210","AdditionalData":[{"value":"France","key":"CountryName"},{"value":"Nouvelle-Aquitaine","key":"StateName"},{"value":"Haute-Vienne","key":"CountyName"}]},"MapReference":{"ReferenceId":"812898598","Spot":0.49,"SideOfStreet":"left","CountryId":"20000001","StateId":"20000383","CountyId":"20082675","CityId":"20110051","AddressId":"375723760","RoadLinkId":"200220051"}}}]}]}}