{"Response":{"MetaInfo":{"Timestamp":"2020-03-28T09:54:13.308+0000","NextPageInformation":"2"},"View":[{"_type":"SearchResultsViewType","ViewId":0,"Result":[{"Relevance":1.0,"Distance":0.0,"Direction":0.0,"MatchLevel":"district","MatchQuality":{"Country":1.0,"County":1.0,"City":1.0,"District":1.0,"PostalCode":1.0},"Location":{"LocationId":"NT_XA1CObK.QfX2H7yciueJsC","LocationType":"point","DisplayPosition":{"Latitude":46.2247459,"Longitude":16.1270056},"MapView":{"TopLeft":{"Latitude":46.23207,"Longitude":16.10653},"BottomRight":{"Latitude":46.20658,"Longitude":16.1372}},"Address":{"Label":"Ivanec, Hrvatska","Country":"HRV","County":"Varaždinska županija","City":"Ivanec","District":"Ivanec","PostalCode":"42240","AdditionalData":[{"value":"Hrvatska","key":"CountryName"},{"value":"Varaždinska županija","key":"CountyName"}]},"MapReference":{"ReferenceId":"1114481595","SideOfStreet":"neither","CountryId":"20633739","CountyId":"20642263","CityId":"22871323","DistrictId":"22872669"}}},{"Relevance":1.0,"Distance":10.1,"MatchLevel":"houseNumber","MatchQuality":{"Country":1.0,"County":1.0,"City":1.0,"District":1.0,"Street":[1.0],"HouseNumber":1.0,"PostalCode":1.0},"MatchType":"interpolated","Location":{"LocationId":"NT_6uncOq5EIquuoUlrFbYq1C_1A","LocationType":"point","DisplayPosition":{"Latitude":46.22472,"Longitude":16.12688},"MapView":{"TopLeft":{"Latitude":46.2258442,"Longitude":16.1252551},"BottomRight":{"Latitude":46.2235958,"Longitude":16.1285049}},"Address":{"Label":"Varaždinska ulica 5, HR-42240 Ivanec, Hrvatska","Country":"HRV","County":"Varaždinska županija","City":"Ivanec","District":"Ivanec","Street":"Varaždinska ulica","HouseNumber":"5","PostalCode":"42240","AdditionalData":[{"value":"Hrvatska","key":"CountryName"},{"value":"Varaždinska županija","key":"CountyName"}]},"MapReference":{"ReferenceId":"755966073","Spot":0.48,"SideOfStreet":"left","CountryId":"20633739","CountyId":"20642263","CityId":"22871323","DistrictId":"22872669","AddressId":"623882627","RoadLinkId":"151184051"}}},{"Relevance":1.0,"Distance":12.7,"MatchLevel":"houseNumber","MatchQuality":{"Country":1.0,"County":1.0,"City":1.0,"District":1.0,"Street":[1.0],"HouseNumber":1.0,"PostalCode":1.0},"MatchType":"interpolated","Location":{"LocationId":"NT_6uncOq5EIquuoUlrFbYq1C_4EE","LocationType":"point","DisplayPosition":{"Latitude":46.22486,"Longitude":16.12701},"MapView":{"TopLeft":{"Latitude":46.2259842,"Longitude":16.1253851},"BottomRight":{"Latitude":46.2237358,"Longitude":16.1286349}},"Address":{"Label":"Varaždinska ulica 8A, HR-42240 Ivanec, Hrvatska","Country":"HRV","County":"Varaždinska županija","City":"Ivanec","District":"Ivanec","Street":"Varaždinska ulica","HouseNumber":"8A","PostalCode":"42240","AdditionalData":[{"value":"Hrvatska","key":"CountryName"},{"value":"Varaždinska županija","key":"CountyName"}]},"MapReference":{"ReferenceId":"755966049","Spot":0.19,"SideOfStreet":"right","CountryId":"20633739","CountyId":"20642263","CityId":"22871323","DistrictId":"22872669","AddressId":"623875585","RoadLinkId":"151184027"}}},{"Relevance":1.0,"Distance":25.6,"MatchLevel":"houseNumber","MatchQuality":{"Country":1.0,"County":1.0,"City":1.0,"District":1.0,"Street":[1.0],"HouseNumber":1.0,"PostalCode":1.0},"MatchType":"interpolated","Location":{"LocationId":"NT_6hSfmPXF3.41ZC.3KvzzXC_xA","LocationType":"point","DisplayPosition":{"Latitude":46.22459,"Longitude":16.12725},"MapView":{"TopLeft":{"Latitude":46.2257142,"Longitude":16.1256251},"BottomRight":{"Latitude":46.2234658,"Longitude":16.1288749}},"Address":{"Label":"Ulica Ivana Kukuljevića Sakcinskog 1, HR-42240 Ivanec, Hrvatska","Country":"HRV","County":"Varaždinska županija","City":"Ivanec","District":"Ivanec","Street":"Ulica Ivana Kukuljevića Sakcinskog","HouseNumber":"1","PostalCode":"42240","AdditionalData":[{"value":"Hrvatska","key":"CountryName"},{"value":"Varaždinska županija","key":"CountyName"}]},"MapReference":{"ReferenceId":"755966067","Spot":0.39,"SideOfStreet":"right","CountryId":"20633739","CountyId":"20642263","CityId":"22871323","DistrictId":"22872669","AddressId":"623848640","RoadLinkId":"151184045"}}},{"Relevance":1.0,"Distance":26.9,"MatchLevel":"street","MatchQuality":{"Country":1.0,"County":1.0,"City":1.0,"District":1.0,"Street":[1.0],"PostalCode":1.0},"Location":{"LocationId":"NT_nHUAyDq0MIhtH2tASvJTaD_l_755966075_L","LocationType":"point","DisplayPosition":{"Latitude":46.2249875,"Longitude":16.1270324},"MapView":{"TopLeft":{"Latitude":46.22501,"Longitude":16.12627},"BottomRight":{"Latitude":46.22498,"Longitude":16.1271}},"Address":{"Label":"Ulica dr. Đure Arnolda, HR-42240 Ivanec, Hrvatska","Country":"HRV","County":"Varaždinska županija","City":"Ivanec","District":"Ivanec","Street":"Ulica dr. Đure Arnolda","PostalCode":"42240","AdditionalData":[{"value":"Hrvatska","key":"CountryName"},{"value":"Varaždinska županija","key":"CountyName"}]},"MapReference":{"ReferenceId":"755966075","Spot":0.08,"SideOfStreet":"left","CountryId":"20633739","CountyId":"20642263","CityId":"22871323","DistrictId":"22872669"}}},{"Relevance":1.0,"Distance":28.3,"MatchLevel":"houseNumber","MatchQuality":{"Country":1.0,"County":1.0,"City":1.0,"District":1.0,"Street":[1.0],"HouseNumber":1.0,"PostalCode":1.0},"MatchType":"interpolated","Location":{"LocationId":"NT_6uncOq5EIquuoUlrFbYq1C_xAD","LocationType":"point","DisplayPosition":{"Latitude":46.22499,"Longitude":16.12711},"MapView":{"TopLeft":{"Latitude":46.2261142,"Longitude":16.1254851},"BottomRight":{"Latitude":46.2238658,"Longitude":16.1287349}},"Address":{"Label":"Varaždinska ulica 10, HR-42240 Ivanec, Hrvatska","Country":"HRV","County":"Varaždinska županija","City":"Ivanec","District":"Ivanec","Street":"Varaždinska ulica","HouseNumber":"10","PostalCode":"42240","AdditionalData":[{"value":"Hrvatska","key":"CountryName"},{"value":"Varaždinska županija","key":"CountyName"}]},"MapReference":{"ReferenceId":"1191885644","Spot":0.07,"SideOfStreet":"right","CountryId":"20633739","CountyId":"20642263","CityId":"22871323","DistrictId":"22872669","AddressId":"623850103","RoadLinkId":"501472105"}}},{"Relevance":1.0,"Distance":34.8,"MatchLevel":"houseNumber","MatchQuality":{"Country":1.0,"County":1.0,"City":1.0,"District":1.0,"Street":[1.0],"HouseNumber":1.0,"PostalCode":1.0},"MatchType":"interpolated","Location":{"LocationId":"NT_6uncOq5EIquuoUlrFbYq1C_yA","LocationType":"point","DisplayPosition":{"Latitude":46.22456,"Longitude":16.12667},"MapView":{"TopLeft":{"Latitude":46.2256842,"Longitude":16.1250451},"BottomRight":{"Latitude":46.2234358,"Longitude":16.1282949}},"Address":{"Label":"Varaždinska ulica 2, HR-42240 Ivanec, Hrvatska","Country":"HRV","County":"Varaždinska županija","City":"Ivanec","District":"Ivanec","Street":"Varaždinska ulica","HouseNumber":"2","PostalCode":"42240","AdditionalData":[{"value":"Hrvatska","key":"CountryName"},{"value":"Varaždinska županija","key":"CountyName"}]},"MapReference":{"ReferenceId":"1114720397","Spot":0.8,"SideOfStreet":"right","CountryId":"20633739","CountyId":"20642263","CityId":"22871323","DistrictId":"22872669","AddressId":"623896474","RoadLinkId":"424666067"}}},{"Relevance":1.0,"Distance":43.3,"MatchLevel":"houseNumber","MatchQuality":{"Country":1.0,"County":1.0,"City":1.0,"District":1.0,"Street":[1.0],"HouseNumber":1.0,"PostalCode":1.0},"MatchType":"interpolated","Location":{"LocationId":"NT_nHUAyDq0MIhtH2tASvJTaD_l_845644220_L_0A","LocationType":"point","DisplayPosition":{"Latitude":46.2243655,"Longitude":16.1271251},"MapView":{"TopLeft":{"Latitude":46.2254896,"Longitude":16.1255002},"BottomRight":{"Latitude":46.2232413,"Longitude":16.12875}},"Address":{"Label":"Ulica dr. Đure Arnolda 4, HR-42240 Ivanec, Hrvatska","Country":"HRV","County":"Varaždinska županija","City":"Ivanec","District":"Ivanec","Street":"Ulica dr. Đure Arnolda","HouseNumber":"4","PostalCode":"42240","AdditionalData":[{"value":"Hrvatska","key":"CountryName"},{"value":"Varaždinska županija","key":"CountyName"}]},"MapReference":{"ReferenceId":"845644220","Spot":0.45,"SideOfStreet":"left","CountryId":"20633739","CountyId":"20642263","CityId":"22871323","DistrictId":"22872669"}}},{"Relevance":1.0,"Distance":46.1,"MatchLevel":"street","MatchQuality":{"Country":1.0,"County":1.0,"City":1.0,"District":1.0,"Street":[1.0],"PostalCode":1.0},"Location":{"LocationId":"NT_wYUoJeyGSYb31fQFINuZYD_l_1259463100_L","LocationType":"point","DisplayPosition":{"Latitude":46.22513,"Longitude":16.12723},"MapView":{"TopLeft":{"Latitude":46.22519,"Longitude":16.12714},"BottomRight":{"Latitude":46.22513,"Longitude":16.12723}},"Address":{"Label":"Ulica Eugena Kumičića, HR-42240 Ivanec, Hrvatska","Country":"HRV","County":"Varaždinska županija","City":"Ivanec","District":"Ivanec","Street":"Ulica Eugena Kumičića","PostalCode":"42240","AdditionalData":[{"value":"Hrvatska","key":"CountryName"},{"value":"Varaždinska županija","key":"CountyName"}]},"MapReference":{"ReferenceId":"1259463100","Spot":0.0,"SideOfStreet":"left","CountryId":"20633739","CountyId":"20642263","CityId":"22871323","DistrictId":"22872669"}}},{"Relevance":1.0,"Distance":50.5,"MatchLevel":"houseNumber","MatchQuality":{"Country":1.0,"County":1.0,"City":1.0,"District":1.0,"Street":[1.0],"HouseNumber":1.0,"PostalCode":1.0},"MatchType":"interpolated","Location":{"LocationId":"NT_wYUoJeyGSYb31fQFINuZYD_xA","LocationType":"point","DisplayPosition":{"Latitude":46.22527,"Longitude":16.12706},"MapView":{"TopLeft":{"Latitude":46.2263942,"Longitude":16.1254351},"BottomRight":{"Latitude":46.2241458,"Longitude":16.1286849}},"Address":{"Label":"Ulica Eugena Kumičića 1, HR-42240 Ivanec, Hrvatska","Country":"HRV","County":"Varaždinska županija","City":"Ivanec","District":"Ivanec","Street":"Ulica Eugena Kumičića","HouseNumber":"1","PostalCode":"42240","AdditionalData":[{"value":"Hrvatska","key":"CountryName"},{"value":"Varaždinska županija","key":"CountyName"}]},"MapReference":{"ReferenceId":"1259535870","Spot":0.61,"SideOfStreet":"left","CountryId":"20633739","CountyId":"20642263","CityId":"22871323","DistrictId":"22872669","AddressId":"623871403","RoadLinkId":"584787726"}}}]}]}}