{"Response":{"MetaInfo":{"Timestamp":"2020-03-31T17:06:40.484+0000","NextPageInformation":"2"},"View":[{"_type":"SearchResultsViewType","ViewId":0,"Result":[{"Relevance":1.0,"Distance":0.0,"Direction":0.0,"MatchLevel":"district","MatchQuality":{"Country":1.0,"County":1.0,"City":1.0,"District":1.0,"PostalCode":1.0},"Location":{"LocationId":"NT_63WLI0u6z8YB19hOR8afWC","LocationType":"point","DisplayPosition":{"Latitude":46.2728,"Longitude":14.3172},"MapView":{"TopLeft":{"Latitude":46.27715,"Longitude":14.30682},"BottomRight":{"Latitude":46.26088,"Longitude":14.32548}},"Address":{"Label":"Naklo, Slovenija","Country":"SVN","County":"Kranj","City":"Naklo","District":"Naklo","PostalCode":"4202","AdditionalData":[{"value":"Slovenija","key":"CountryName"},{"value":"Kranj","key":"CountyName"}]},"MapReference":{"ReferenceId":"715251488","SideOfStreet":"neither","CountryId":"20633685","CountyId":"20636658","CityId":"22689852","DistrictId":"22695805"}}},{"Relevance":1.0,"Distance":6.7,"MatchLevel":"houseNumber","MatchQuality":{"Country":1.0,"County":1.0,"City":1.0,"District":1.0,"Street":[1.0],"HouseNumber":1.0,"PostalCode":1.0},"MatchType":"interpolated","Location":{"LocationId":"NT_HVg2ZXECj4xH4tQHoNq7ZA_0ID","LocationType":"point","DisplayPosition":{"Latitude":46.27249,"Longitude":14.3166},"MapView":{"TopLeft":{"Latitude":46.2736142,"Longitude":14.3149737},"BottomRight":{"Latitude":46.2713658,"Longitude":14.3182263}},"Address":{"Label":"Glavna cesta 42, SI- 4202 Naklo, Slovenija","Country":"SVN","County":"Kranj","City":"Naklo","District":"Naklo","Street":"Glavna cesta","HouseNumber":"42","PostalCode":"4202","AdditionalData":[{"value":"Slovenija","key":"CountryName"},{"value":"Kranj","key":"CountyName"}]},"MapReference":{"ReferenceId":"1254023353","Spot":0.14,"SideOfStreet":"right","CountryId":"20633685","CountyId":"20636658","CityId":"22689852","DistrictId":"22695805","AddressId":"406790204","RoadLinkId":"577224658"}}},{"Relevance":1.0,"Distance":44.5,"MatchLevel":"houseNumber","MatchQuality":{"Country":1.0,"County":1.0,"City":1.0,"District":1.0,"Street":[1.0],"HouseNumber":1.0,"PostalCode":1.0},"MatchType":"interpolated","Location":{"LocationId":"NT_HVg2ZXECj4xH4tQHoNq7ZA_zgD","LocationType":"point","DisplayPosition":{"Latitude":46.27304,"Longitude":14.31785},"MapView":{"TopLeft":{"Latitude":46.2741642,"Longitude":14.3162237},"BottomRight":{"Latitude":46.2719158,"Longitude":14.3194763}},"Address":{"Label":"Glavna cesta 38, SI- 4202 Naklo, Slovenija","Country":"SVN","County":"Kranj","City":"Naklo","District":"Naklo","Street":"Glavna cesta","HouseNumber":"38","PostalCode":"4202","AdditionalData":[{"value":"Slovenija","key":"CountryName"},{"value":"Kranj","key":"CountyName"}]},"MapReference":{"ReferenceId":"1254134172","Spot":0.79,"SideOfStreet":"left","CountryId":"20633685","CountyId":"20636658","CityId":"22689852","DistrictId":"22695805","AddressId":"406578533","RoadLinkId":"577356621"}}},{"Relevance":1.0,"Distance":46.9,"MatchLevel":"houseNumber","MatchQuality":{"Country":1.0,"County":1.0,"City":1.0,"District":1.0,"Street":[1.0],"HouseNumber":1.0,"PostalCode":1.0},"MatchType":"interpolated","Location":{"LocationId":"NT_HVg2ZXECj4xH4tQHoNq7ZA_zQD","LocationType":"point","DisplayPosition":{"Latitude":46.2733,"Longitude":14.31752},"MapView":{"TopLeft":{"Latitude":46.2744242,"Longitude":14.3158937},"BottomRight":{"Latitude":46.2721758,"Longitude":14.3191463}},"Address":{"Label":"Glavna cesta 34, SI- 4202 Naklo, Slovenija","Country":"SVN","County":"Kranj","City":"Naklo","District":"Naklo","Street":"Glavna cesta","HouseNumber":"34","PostalCode":"4202","AdditionalData":[{"value":"Slovenija","key":"CountryName"},{"value":"Kranj","key":"CountyName"}]},"MapReference":{"ReferenceId":"1254123665","Spot":1.0,"SideOfStreet":"left","CountryId":"20633685","CountyId":"20636658","CityId":"22689852","DistrictId":"22695805","AddressId":"406674872","RoadLinkId":"577344204"}}},{"Relevance":1.0,"Distance":57.0,"MatchLevel":"houseNumber","MatchQuality":{"Country":1.0,"County":1.0,"City":1.0,"District":1.0,"Street":[1.0],"HouseNumber":1.0,"PostalCode":1.0},"MatchType":"interpolated","Location":{"LocationId":"NT_88pdvx-Q8NMIbgj8961weC_xA","LocationType":"point","DisplayPosition":{"Latitude":46.27224,"Longitude":14.31683},"MapView":{"TopLeft":{"Latitude":46.2733642,"Longitude":14.3152037},"BottomRight":{"Latitude":46.2711158,"Longitude":14.3184563}},"Address":{"Label":"Pot pod Gradiščem 1, SI- 4202 Naklo, Slovenija","Country":"SVN","County":"Kranj","City":"Naklo","District":"Naklo","Street":"Pot pod Gradiščem","HouseNumber":"1","PostalCode":"4202","AdditionalData":[{"value":"Slovenija","key":"CountryName"},{"value":"Kranj","key":"CountyName"}]},"MapReference":{"ReferenceId":"710333016","Spot":0.9,"SideOfStreet":"right","CountryId":"20633685","CountyId":"20636658","CityId":"22689852","DistrictId":"22695805","AddressId":"715235766","RoadLinkId":"115571631"}}},{"Relevance":1.0,"Distance":59.5,"MatchLevel":"houseNumber","MatchQuality":{"Country":1.0,"County":1.0,"City":1.0,"District":1.0,"Street":[1.0],"HouseNumber":1.0,"PostalCode":1.0},"MatchType":"interpolated","Location":{"LocationId":"NT_HVg2ZXECj4xH4tQHoNq7ZA_zID","LocationType":"point","DisplayPosition":{"Latitude":46.27338,"Longitude":14.31664},"MapView":{"TopLeft":{"Latitude":46.2745042,"Longitude":14.3150137},"BottomRight":{"Latitude":46.2722558,"Longitude":14.3182663}},"Address":{"Label":"Glavna cesta 32, SI- 4202 Naklo, Slovenija","Country":"SVN","County":"Kranj","City":"Naklo","District":"Naklo","Street":"Glavna cesta","HouseNumber":"32","PostalCode":"4202","AdditionalData":[{"value":"Slovenija","key":"CountryName"},{"value":"Kranj","key":"CountyName"}]},"MapReference":{"ReferenceId":"1254123662","Spot":0.16,"SideOfStreet":"right","CountryId":"20633685","CountyId":"20636658","CityId":"22689852","DistrictId":"22695805","AddressId":"406603748","RoadLinkId":"577344201"}}},{"Relevance":1.0,"Distance":61.6,"MatchLevel":"street","MatchQuality":{"Country":1.0,"County":1.0,"City":1.0,"District":1.0,"Street":[1.0],"PostalCode":1.0},"Location":{"LocationId":"NT_HVg2ZXECj4xH4tQHoNq7ZA_l_1254123666_L","LocationType":"point","DisplayPosition":{"Latitude":46.2733166,"Longitude":14.3174906},"MapView":{"TopLeft":{"Latitude":46.27339,"Longitude":14.31736},"BottomRight":{"Latitude":46.2733,"Longitude":14.31752}},"Address":{"Label":"Glavna cesta, SI- 4202 Naklo, Slovenija","Country":"SVN","County":"Kranj","City":"Naklo","District":"Naklo","Street":"Glavna cesta","PostalCode":"4202","AdditionalData":[{"value":"Slovenija","key":"CountryName"},{"value":"Kranj","key":"CountyName"}]},"MapReference":{"ReferenceId":"1254123666","Spot":0.18,"SideOfStreet":"left","CountryId":"20633685","CountyId":"20636658","CityId":"22689852","DistrictId":"22695805"}}},{"Relevance":1.0,"Distance":62.7,"MatchLevel":"street","MatchQuality":{"Country":1.0,"County":1.0,"City":1.0,"District":1.0,"PostalCode":1.0},"Location":{"LocationId":"NT_XJb-e89WRBejyBdCiOa3gD_l_1258727400_L","LocationType":"point","DisplayPosition":{"Latitude":46.27336,"Longitude":14.31729},"MapView":{"TopLeft":{"Latitude":46.27345,"Longitude":14.31721},"BottomRight":{"Latitude":46.27336,"Longitude":14.31736}},"Address":{"Label":"SI- 4202 Naklo, Slovenija","Country":"SVN","County":"Kranj","City":"Naklo","District":"Naklo","PostalCode":"4202","AdditionalData":[{"value":"Slovenija","key":"CountryName"},{"value":"Kranj","key":"CountyName"}]},"MapReference":{"ReferenceId":"1258727400","Spot":0.35,"SideOfStreet":"left","CountryId":"20633685","CountyId":"20636658","CityId":"22689852","DistrictId":"22695805"}}},{"Relevance":1.0,"Distance":66.7,"MatchLevel":"street","MatchQuality":{"Country":1.0,"County":1.0,"City":1.0,"District":1.0,"PostalCode":1.0},"Location":{"LocationId":"NT_XJb-e89WRBejyBdCiOa3gD_l_1258727403_R","LocationType":"point","DisplayPosition":{"Latitude":46.27339,"Longitude":14.31736},"MapView":{"TopLeft":{"Latitude":46.27347,"Longitude":14.31733},"BottomRight":{"Latitude":46.27339,"Longitude":14.31737}},"Address":{"Label":"SI- 4202 Naklo, Slovenija","Country":"SVN","County":"Kranj","City":"Naklo","District":"Naklo","PostalCode":"4202","AdditionalData":[{"value":"Slovenija","key":"CountryName"},{"value":"Kranj","key":"CountyName"}]},"MapReference":{"ReferenceId":"1258727403","Spot":0.0,"SideOfStreet":"right","CountryId":"20633685","CountyId":"20636658","CityId":"22689852","DistrictId":"22695805"}}},{"Relevance":1.0,"Distance":72.3,"MatchLevel":"street","MatchQuality":{"Country":1.0,"County":1.0,"City":1.0,"District":1.0,"Street":[1.0],"PostalCode":1.0},"Location":{"LocationId":"NT_HVg2ZXECj4xH4tQHoNq7ZA_l_1254123664_L","LocationType":"point","DisplayPosition":{"Latitude":46.27345,"Longitude":14.31722},"MapView":{"TopLeft":{"Latitude":46.27346,"Longitude":14.31712},"BottomRight":{"Latitude":46.27345,"Longitude":14.31722}},"Address":{"Label":"Glavna cesta, SI- 4202 Naklo, Slovenija","Country":"SVN","County":"Kranj","City":"Naklo","District":"Naklo","Street":"Glavna cesta","PostalCode":"4202","AdditionalData":[{"value":"Slovenija","key":"CountryName"},{"value":"Kranj","key":"CountyName"}]},"MapReference":{"ReferenceId":"1254123664","Spot":0.0,"SideOfStreet":"left","CountryId":"20633685","CountyId":"20636658","CityId":"22689852","DistrictId":"22695805"}}}]}]}}