{"Response":{"MetaInfo":{"Timestamp":"2020-03-28T10:27:31.928+0000","NextPageInformation":"2"},"View":[{"_type":"SearchResultsViewType","ViewId":0,"Result":[{"Relevance":1.0,"Distance":-2256.2,"MatchLevel":"landmark","MatchQuality":{"Country":1.0,"Name":1.0},"Location":{"LocationId":"NT_UEHlkrgRpTpsmMsnDKvKHC","LocationType":"park","Name":"P.N.R. du Marais Poitevin","DisplayPosition":{"Latitude":46.35512,"Longitude":-1.0068},"MapView":{"TopLeft":{"Latitude":46.55846,"Longitude":-1.54334},"BottomRight":{"Latitude":46.15178,"Longitude":-0.38042}},"Address":{"Label":"France","Country":"FRA","AdditionalData":[{"value":"France","key":"CountryName"}]},"MapReference":{"CountryId":"20000001","PlaceId":"1629380700"}}},{"Relevance":1.0,"Distance":0.0,"Direction":0.0,"MatchLevel":"city","MatchQuality":{"Country":1.0,"State":1.0,"County":1.0,"City":1.0,"PostalCode":1.0},"Location":{"LocationId":"NT_rzPrbQ18HkzfqncGObchDA","LocationType":"point","DisplayPosition":{"Latitude":46.2486842,"Longitude":-0.5405105},"MapView":{"TopLeft":{"Latitude":46.29341,"Longitude":-0.58452},"BottomRight":{"Latitude":46.22892,"Longitude":-0.47879}},"Address":{"Label":"Frontenay-Rohan-Rohan, Nouvelle-Aquitaine, France","Country":"FRA","State":"Nouvelle-Aquitaine","County":"Deux-Sèvres","City":"Frontenay-Rohan-Rohan","PostalCode":"79270","AdditionalData":[{"value":"France","key":"CountryName"},{"value":"Nouvelle-Aquitaine","key":"StateName"},{"value":"Deux-Sèvres","key":"CountyName"}]},"MapReference":{"ReferenceId":"568335384","SideOfStreet":"neither","CountryId":"20000001","StateId":"20000383","CountyId":"20080046","CityId":"20080397"}}},{"Relevance":1.0,"Distance":10.0,"MatchLevel":"houseNumber","MatchQuality":{"Country":1.0,"State":1.0,"County":1.0,"City":1.0,"Street":[1.0],"HouseNumber":1.0,"PostalCode":1.0},"MatchType":"interpolated","Location":{"LocationId":"NT_mV93Nvuygt0avcXvMtnueA_xMD","LocationType":"point","DisplayPosition":{"Latitude":46.24869,"Longitude":-0.54068},"MapView":{"TopLeft":{"Latitude":46.2498142,"Longitude":-0.5423056},"BottomRight":{"Latitude":46.2475658,"Longitude":-0.5390544}},"Address":{"Label":"13 Allée des Jardins, 79270 Frontenay-Rohan-Rohan, France","Country":"FRA","State":"Nouvelle-Aquitaine","County":"Deux-Sèvres","City":"Frontenay-Rohan-Rohan","Street":"Allée des Jardins","HouseNumber":"13","PostalCode":"79270","AdditionalData":[{"value":"France","key":"CountryName"},{"value":"Nouvelle-Aquitaine","key":"StateName"},{"value":"Deux-Sèvres","key":"CountyName"}]},"MapReference":{"ReferenceId":"1267578202","Spot":0.04,"SideOfStreet":"right","CountryId":"20000001","StateId":"20000383","CountyId":"20080046","CityId":"20080397","AddressId":"388673942","RoadLinkId":"594378476"}}},{"Relevance":1.0,"Distance":14.1,"MatchLevel":"street","MatchQuality":{"Country":1.0,"State":1.0,"County":1.0,"City":1.0,"Street":[1.0],"PostalCode":1.0},"Location":{"LocationId":"NT_AijazyklPboTpRNyU6AzzC_l_1267579299_R","LocationType":"point","DisplayPosition":{"Latitude":46.24866,"Longitude":-0.54069},"MapView":{"TopLeft":{"Latitude":46.24891,"Longitude":-0.54132},"BottomRight":{"Latitude":46.24866,"Longitude":-0.54069}},"Address":{"Label":"Rue du Docteur Jean Debègue, 79270 Frontenay-Rohan-Rohan, France","Country":"FRA","State":"Nouvelle-Aquitaine","County":"Deux-Sèvres","City":"Frontenay-Rohan-Rohan","Street":"Rue du Docteur Jean Debègue","PostalCode":"79270","AdditionalData":[{"value":"France","key":"CountryName"},{"value":"Nouvelle-Aquitaine","key":"StateName"},{"value":"Deux-Sèvres","key":"CountyName"}]},"MapReference":{"ReferenceId":"1267579299","Spot":0.0,"SideOfStreet":"right","CountryId":"20000001","StateId":"20000383","CountyId":"20080046","CityId":"20080397"}}},{"Relevance":1.0,"Distance":14.1,"MatchLevel":"street","MatchQuality":{"Country":1.0,"State":1.0,"County":1.0,"City":1.0,"Street":[1.0],"PostalCode":1.0},"Location":{"LocationId":"NT_mV93Nvuygt0avcXvMtnueA_l_1267578201_R","LocationType":"point","DisplayPosition":{"Latitude":46.24866,"Longitude":-0.54069},"MapView":{"TopLeft":{"Latitude":46.24866,"Longitude":-0.54072},"BottomRight":{"Latitude":46.24851,"Longitude":-0.54069}},"Address":{"Label":"Allée des Jardins, 79270 Frontenay-Rohan-Rohan, France","Country":"FRA","State":"Nouvelle-Aquitaine","County":"Deux-Sèvres","City":"Frontenay-Rohan-Rohan","Street":"Allée des Jardins","PostalCode":"79270","AdditionalData":[{"value":"France","key":"CountryName"},{"value":"Nouvelle-Aquitaine","key":"StateName"},{"value":"Deux-Sèvres","key":"CountyName"}]},"MapReference":{"ReferenceId":"1267578201","Spot":1.0,"SideOfStreet":"right","CountryId":"20000001","StateId":"20000383","CountyId":"20080046","CityId":"20080397"}}},{"Relevance":1.0,"Distance":25.2,"MatchLevel":"street","MatchQuality":{"Country":1.0,"State":1.0,"County":1.0,"City":1.0,"Street":[1.0],"PostalCode":1.0},"Location":{"LocationId":"NT_mV93Nvuygt0avcXvMtnueA_l_568335294_R","LocationType":"point","DisplayPosition":{"Latitude":46.24851,"Longitude":-0.54072},"MapView":{"TopLeft":{"Latitude":46.24851,"Longitude":-0.54083},"BottomRight":{"Latitude":46.24809,"Longitude":-0.54072}},"Address":{"Label":"Allée des Jardins, 79270 Frontenay-Rohan-Rohan, France","Country":"FRA","State":"Nouvelle-Aquitaine","County":"Deux-Sèvres","City":"Frontenay-Rohan-Rohan","Street":"Allée des Jardins","PostalCode":"79270","AdditionalData":[{"value":"France","key":"CountryName"},{"value":"Nouvelle-Aquitaine","key":"StateName"},{"value":"Deux-Sèvres","key":"CountyName"}]},"MapReference":{"ReferenceId":"568335294","Spot":1.0,"SideOfStreet":"right","CountryId":"20000001","StateId":"20000383","CountyId":"20080046","CityId":"20080397"}}},{"Relevance":1.0,"Distance":44.7,"MatchLevel":"houseNumber","MatchQuality":{"Country":1.0,"State":1.0,"County":1.0,"City":1.0,"Street":[1.0],"HouseNumber":1.0,"PostalCode":1.0},"MatchType":"interpolated","Location":{"LocationId":"NT_mV93Nvuygt0avcXvMtnueA_xA","LocationType":"point","DisplayPosition":{"Latitude":46.24848,"Longitude":-0.53998},"MapView":{"TopLeft":{"Latitude":46.2496042,"Longitude":-0.5416056},"BottomRight":{"Latitude":46.2473558,"Longitude":-0.5383544}},"Address":{"Label":"1 Allée des Jardins, 79270 Frontenay-Rohan-Rohan, France","Country":"FRA","State":"Nouvelle-Aquitaine","County":"Deux-Sèvres","City":"Frontenay-Rohan-Rohan","Street":"Allée des Jardins","HouseNumber":"1","PostalCode":"79270","AdditionalData":[{"value":"France","key":"CountryName"},{"value":"Nouvelle-Aquitaine","key":"StateName"},{"value":"Deux-Sèvres","key":"CountyName"}]},"MapReference":{"ReferenceId":"568335296","Spot":0.33,"SideOfStreet":"left","CountryId":"20000001","StateId":"20000383","CountyId":"20080046","CityId":"20080397","AddressId":"388682926","RoadLinkId":"47156808"}}},{"Relevance":1.0,"Distance":65.0,"MatchLevel":"street","MatchQuality":{"Country":1.0,"State":1.0,"County":1.0,"City":1.0,"Street":[1.0],"PostalCode":1.0},"Location":{"LocationId":"NT_HfylFUrqvq8gOG4BMmf0QD_l_1267606475_L","LocationType":"point","DisplayPosition":{"Latitude":46.24891,"Longitude":-0.54129},"MapView":{"TopLeft":{"Latitude":46.24895,"Longitude":-0.54169},"BottomRight":{"Latitude":46.24891,"Longitude":-0.54129}},"Address":{"Label":"Rue des Meuniers, 79270 Frontenay-Rohan-Rohan, France","Country":"FRA","State":"Nouvelle-Aquitaine","County":"Deux-Sèvres","City":"Frontenay-Rohan-Rohan","Street":"Rue des Meuniers","PostalCode":"79270","AdditionalData":[{"value":"France","key":"CountryName"},{"value":"Nouvelle-Aquitaine","key":"StateName"},{"value":"Deux-Sèvres","key":"CountyName"}]},"MapReference":{"ReferenceId":"1267606475","Spot":0.0,"SideOfStreet":"left","CountryId":"20000001","StateId":"20000383","CountyId":"20080046","CityId":"20080397"}}},{"Relevance":1.0,"Distance":65.0,"MatchLevel":"street","MatchQuality":{"Country":1.0,"State":1.0,"County":1.0,"City":1.0,"Street":[1.0],"PostalCode":1.0},"Location":{"LocationId":"NT_AijazyklPboTpRNyU6AzzC_l_1267579326_R","LocationType":"point","DisplayPosition":{"Latitude":46.24891,"Longitude":-0.54129},"MapView":{"TopLeft":{"Latitude":46.24909,"Longitude":-0.54129},"BottomRight":{"Latitude":46.24891,"Longitude":-0.54126}},"Address":{"Label":"Rue du Docteur Jean Debègue, 79270 Frontenay-Rohan-Rohan, France","Country":"FRA","State":"Nouvelle-Aquitaine","County":"Deux-Sèvres","City":"Frontenay-Rohan-Rohan","Street":"Rue du Docteur Jean Debègue","PostalCode":"79270","AdditionalData":[{"value":"France","key":"CountryName"},{"value":"Nouvelle-Aquitaine","key":"StateName"},{"value":"Deux-Sèvres","key":"CountyName"}]},"MapReference":{"ReferenceId":"1267579326","Spot":0.0,"SideOfStreet":"right","CountryId":"20000001","StateId":"20000383","CountyId":"20080046","CityId":"20080397"}}},{"Relevance":1.0,"Distance":72.2,"MatchLevel":"houseNumber","MatchQuality":{"Country":1.0,"State":1.0,"County":1.0,"City":1.0,"Street":[1.0],"HouseNumber":1.0,"PostalCode":1.0},"MatchType":"interpolated","Location":{"LocationId":"NT_v3Oph7Z06u.aNiebD-PI9B_xAD","LocationType":"point","DisplayPosition":{"Latitude":46.24803,"Longitude":-0.54076},"MapView":{"TopLeft":{"Latitude":46.2491542,"Longitude":-0.5423856},"BottomRight":{"Latitude":46.2469058,"Longitude":-0.5391344}},"Address":{"Label":"10 Allée des Rois, 79270 Frontenay-Rohan-Rohan, France","Country":"FRA","State":"Nouvelle-Aquitaine","County":"Deux-Sèvres","City":"Frontenay-Rohan-Rohan","Street":"Allée des Rois","HouseNumber":"10","PostalCode":"79270","AdditionalData":[{"value":"France","key":"CountryName"},{"value":"Nouvelle-Aquitaine","key":"StateName"},{"value":"Deux-Sèvres","key":"CountyName"}]},"MapReference":{"ReferenceId":"568335293","Spot":0.87,"SideOfStreet":"right","CountryId":"20000001","StateId":"20000383","CountyId":"20080046","CityId":"20080397","AddressId":"318016699","RoadLinkId":"48006619"}}}]}]}}