{"Response":{"MetaInfo":{"Timestamp":"2020-03-28T09:54:57.351+0000","NextPageInformation":"2"},"View":[{"_type":"SearchResultsViewType","ViewId":0,"Result":[{"Relevance":1.0,"Distance":0.0,"Direction":0.0,"MatchLevel":"district","MatchQuality":{"Country":1.0,"State":1.0,"County":1.0,"City":1.0,"District":1.0,"PostalCode":1.0},"Location":{"LocationId":"NT_IdnkjDuJ.oDfS4z7VT3wgC","LocationType":"point","DisplayPosition":{"Latitude":46.2461001,"Longitude":20.1468972},"MapView":{"TopLeft":{"Latitude":46.28692,"Longitude":20.08645},"BottomRight":{"Latitude":46.21805,"Longitude":20.20119}},"Address":{"Label":"Szeged, Csongrád, Magyarország","Country":"HUN","State":"Csongrád","County":"Szegedi Járás","City":"Szeged","District":"Szeged","PostalCode":"6720","AdditionalData":[{"value":"Magyarország","key":"CountryName"},{"value":"Csongrád","key":"StateName"},{"value":"Szegedi Járás","key":"CountyName"}]},"MapReference":{"ReferenceId":"995747828","SideOfStreet":"neither","CountryId":"20613038","StateId":"20616343","CountyId":"26678387","CityId":"20616519","DistrictId":"26678697"}}},{"Relevance":1.0,"Distance":49.6,"MatchLevel":"street","MatchQuality":{"Country":1.0,"State":1.0,"County":1.0,"City":1.0,"District":1.0,"Street":[1.0],"PostalCode":1.0},"Location":{"LocationId":"NT_aPdLqvwHGcQ-FyxEsV1O8C_l_1185061501_L","LocationType":"point","DisplayPosition":{"Latitude":46.24596,"Longitude":20.14751},"MapView":{"TopLeft":{"Latitude":46.24596,"Longitude":20.14751},"BottomRight":{"Latitude":46.24591,"Longitude":20.14761}},"Address":{"Label":"Klinikák, Szeged 6725, Magyarország","Country":"HUN","State":"Csongrád","County":"Szegedi Járás","City":"Szeged","District":"Szeged","Street":"Klinikák","PostalCode":"6725","AdditionalData":[{"value":"Magyarország","key":"CountryName"},{"value":"Csongrád","key":"StateName"},{"value":"Szegedi Járás","key":"CountyName"}]},"MapReference":{"ReferenceId":"1185061501","Spot":1.0,"SideOfStreet":"left","CountryId":"20613038","StateId":"20616343","CountyId":"26678387","CityId":"20616519","DistrictId":"26678697"}}},{"Relevance":1.0,"Distance":50.7,"MatchLevel":"houseNumber","MatchQuality":{"Country":1.0,"State":1.0,"County":1.0,"City":1.0,"District":1.0,"Street":[1.0],"HouseNumber":1.0,"PostalCode":1.0},"MatchType":"interpolated","Location":{"LocationId":"NT_vhUL9vdLFkdfYaRISXbF3C_0A","LocationType":"point","DisplayPosition":{"Latitude":46.24579,"Longitude":20.14738},"MapView":{"TopLeft":{"Latitude":46.2469142,"Longitude":20.1457545},"BottomRight":{"Latitude":46.2446658,"Longitude":20.1490055}},"Address":{"Label":"Semmelweis utca 4, Szeged 6725, Magyarország","Country":"HUN","State":"Csongrád","County":"Szegedi Járás","City":"Szeged","District":"Szeged","Street":"Semmelweis utca","HouseNumber":"4","PostalCode":"6725","AdditionalData":[{"value":"Magyarország","key":"CountryName"},{"value":"Csongrád","key":"StateName"},{"value":"Szegedi Járás","key":"CountyName"}]},"MapReference":{"ReferenceId":"598455307","Spot":0.68,"SideOfStreet":"right","CountryId":"20613038","StateId":"20616343","CountyId":"26678387","CityId":"20616519","DistrictId":"26678697","AddressId":"356318590","RoadLinkId":"60482721"}}},{"Relevance":1.0,"Distance":58.7,"MatchLevel":"street","MatchQuality":{"Country":1.0,"State":1.0,"County":1.0,"City":1.0,"District":1.0,"Street":[1.0],"PostalCode":1.0},"Location":{"LocationId":"NT_aPdLqvwHGcQ-FyxEsV1O8C_l_1185061500_L","LocationType":"point","DisplayPosition":{"Latitude":46.24591,"Longitude":20.14761},"MapView":{"TopLeft":{"Latitude":46.24591,"Longitude":20.14761},"BottomRight":{"Latitude":46.2456,"Longitude":20.14845}},"Address":{"Label":"Klinikák, Szeged 6725, Magyarország","Country":"HUN","State":"Csongrád","County":"Szegedi Járás","City":"Szeged","District":"Szeged","Street":"Klinikák","PostalCode":"6725","AdditionalData":[{"value":"Magyarország","key":"CountryName"},{"value":"Csongrád","key":"StateName"},{"value":"Szegedi Járás","key":"CountyName"}]},"MapReference":{"ReferenceId":"1185061500","Spot":1.0,"SideOfStreet":"left","CountryId":"20613038","StateId":"20616343","CountyId":"26678387","CityId":"20616519","DistrictId":"26678697"}}},{"Relevance":1.0,"Distance":61.3,"MatchLevel":"street","MatchQuality":{"Country":1.0,"State":1.0,"County":1.0,"City":1.0,"District":1.0,"Street":[1.0],"PostalCode":1.0},"Location":{"LocationId":"NT_DuuN2eiFL0uMpOo4ejLxHB_l_598455308_R","LocationType":"point","DisplayPosition":{"Latitude":46.2455653,"Longitude":20.146702},"MapView":{"TopLeft":{"Latitude":46.24592,"Longitude":20.14573},"BottomRight":{"Latitude":46.24542,"Longitude":20.1471}},"Address":{"Label":"Markovits Iván utca, Szeged 6725, Magyarország","Country":"HUN","State":"Csongrád","County":"Szegedi Járás","City":"Szeged","District":"Szeged","Street":"Markovits Iván utca","PostalCode":"6725","AdditionalData":[{"value":"Magyarország","key":"CountryName"},{"value":"Csongrád","key":"StateName"},{"value":"Szegedi Járás","key":"CountyName"}]},"MapReference":{"ReferenceId":"598455308","Spot":0.29,"SideOfStreet":"right","CountryId":"20613038","StateId":"20616343","CountyId":"26678387","CityId":"20616519","DistrictId":"26678697"}}},{"Relevance":1.0,"Distance":67.9,"MatchLevel":"houseNumber","MatchQuality":{"Country":1.0,"State":1.0,"County":1.0,"City":1.0,"District":1.0,"Street":[1.0],"HouseNumber":1.0,"PostalCode":1.0},"MatchType":"interpolated","Location":{"LocationId":"NT_aXLSSpOcWhthPUnRaAX8fC_0A","LocationType":"point","DisplayPosition":{"Latitude":46.24659,"Longitude":20.14616},"MapView":{"TopLeft":{"Latitude":46.2477142,"Longitude":20.1445345},"BottomRight":{"Latitude":46.2454658,"Longitude":20.1477855}},"Address":{"Label":"Boldogasszony sugárút 4, Szeged 6725, Magyarország","Country":"HUN","State":"Csongrád","County":"Szegedi Járás","City":"Szeged","District":"Szeged","Street":"Boldogasszony sugárút","HouseNumber":"4","PostalCode":"6725","AdditionalData":[{"value":"Magyarország","key":"CountryName"},{"value":"Csongrád","key":"StateName"},{"value":"Szegedi Járás","key":"CountyName"}]},"MapReference":{"ReferenceId":"972325376","Spot":0.39,"SideOfStreet":"right","CountryId":"20613038","StateId":"20616343","CountyId":"26678387","CityId":"20616519","DistrictId":"26678697","AddressId":"157128010","RoadLinkId":"308746152"}}},{"Relevance":1.0,"Distance":71.5,"MatchLevel":"houseNumber","MatchQuality":{"Country":1.0,"State":1.0,"County":1.0,"City":1.0,"District":1.0,"Street":[1.0],"HouseNumber":1.0,"PostalCode":1.0},"MatchType":"interpolated","Location":{"LocationId":"NT_vhUL9vdLFkdfYaRISXbF3C_xA","LocationType":"point","DisplayPosition":{"Latitude":46.24636,"Longitude":20.14782},"MapView":{"TopLeft":{"Latitude":46.2474842,"Longitude":20.1461945},"BottomRight":{"Latitude":46.2452358,"Longitude":20.1494455}},"Address":{"Label":"Semmelweis utca 1, Szeged 6725, Magyarország","Country":"HUN","State":"Csongrád","County":"Szegedi Járás","City":"Szeged","District":"Szeged","Street":"Semmelweis utca","HouseNumber":"1","PostalCode":"6725","AdditionalData":[{"value":"Magyarország","key":"CountryName"},{"value":"Csongrád","key":"StateName"},{"value":"Szegedi Járás","key":"CountyName"}]},"MapReference":{"ReferenceId":"598455253","Spot":0.6,"SideOfStreet":"left","CountryId":"20613038","StateId":"20616343","CountyId":"26678387","CityId":"20616519","DistrictId":"26678697","AddressId":"356080549","RoadLinkId":"60538952"}}},{"Relevance":1.0,"Distance":73.6,"MatchLevel":"houseNumber","MatchQuality":{"Country":1.0,"State":1.0,"County":1.0,"City":1.0,"District":1.0,"Street":[1.0],"HouseNumber":1.0,"PostalCode":1.0},"MatchType":"interpolated","Location":{"LocationId":"NT_vhUL9vdLFkdfYaRISXbF3C_zA","LocationType":"point","DisplayPosition":{"Latitude":46.2454,"Longitude":20.14708},"MapView":{"TopLeft":{"Latitude":46.2465242,"Longitude":20.1454545},"BottomRight":{"Latitude":46.2442758,"Longitude":20.1487055}},"Address":{"Label":"Semmelweis utca 3, Szeged 6725, Magyarország","Country":"HUN","State":"Csongrád","County":"Szegedi Járás","City":"Szeged","District":"Szeged","Street":"Semmelweis utca","HouseNumber":"3","PostalCode":"6725","AdditionalData":[{"value":"Magyarország","key":"CountryName"},{"value":"Csongrád","key":"StateName"},{"value":"Szegedi Járás","key":"CountyName"}]},"MapReference":{"ReferenceId":"598455433","Spot":0.98,"SideOfStreet":"left","CountryId":"20613038","StateId":"20616343","CountyId":"26678387","CityId":"20616519","DistrictId":"26678697","AddressId":"357203319","RoadLinkId":"60388061"}}},{"Relevance":1.0,"Distance":76.1,"MatchLevel":"houseNumber","MatchQuality":{"Country":1.0,"State":1.0,"County":1.0,"City":1.0,"District":1.0,"Street":[1.0],"HouseNumber":1.0,"PostalCode":1.0},"MatchType":"interpolated","Location":{"LocationId":"NT_aXLSSpOcWhthPUnRaAX8fC_l_972325375_R_4A","LocationType":"point","DisplayPosition":{"Latitude":46.246017,"Longitude":20.1457811},"MapView":{"TopLeft":{"Latitude":46.2471412,"Longitude":20.1441556},"BottomRight":{"Latitude":46.2448929,"Longitude":20.1474066}},"Address":{"Label":"Boldogasszony sugárút 8, Szeged 6725, Magyarország","Country":"HUN","State":"Csongrád","County":"Szegedi Járás","City":"Szeged","District":"Szeged","Street":"Boldogasszony sugárút","HouseNumber":"8","PostalCode":"6725","AdditionalData":[{"value":"Magyarország","key":"CountryName"},{"value":"Csongrád","key":"StateName"},{"value":"Szegedi Járás","key":"CountyName"}]},"MapReference":{"ReferenceId":"972325375","Spot":0.51,"SideOfStreet":"right","CountryId":"20613038","StateId":"20616343","CountyId":"26678387","CityId":"20616519","DistrictId":"26678697"}}},{"Relevance":1.0,"Distance":83.0,"MatchLevel":"houseNumber","MatchQuality":{"Country":1.0,"State":1.0,"County":1.0,"City":1.0,"District":1.0,"Street":[1.0],"HouseNumber":1.0,"PostalCode":1.0},"MatchType":"interpolated","Location":{"LocationId":"NT_hRHW9v9Sogp2qEgUBdS2IC_3A","LocationType":"point","DisplayPosition":{"Latitude":46.24647,"Longitude":20.14596},"MapView":{"TopLeft":{"Latitude":46.2475942,"Longitude":20.1443345},"BottomRight":{"Latitude":46.2453458,"Longitude":20.1475855}},"Address":{"Label":"Boldogasszony sugárút 7, Szeged 6722, Magyarország","Country":"HUN","State":"Csongrád","County":"Szegedi Járás","City":"Szeged","District":"Szeged","Street":"Boldogasszony sugárút","HouseNumber":"7","PostalCode":"6722","AdditionalData":[{"value":"Magyarország","key":"CountryName"},{"value":"Csongrád","key":"StateName"},{"value":"Szegedi Járás","key":"CountyName"}]},"MapReference":{"ReferenceId":"839681111","Spot":0.69,"SideOfStreet":"left","CountryId":"20613038","StateId":"20616343","CountyId":"26678387","CityId":"20616519","DistrictId":"26678697","AddressId":"357534580","RoadLinkId":"221821270"}}}]}]}}