{"Response":{"MetaInfo":{"Timestamp":"2020-03-28T11:53:21.753+0000","NextPageInformation":"2"},"View":[{"_type":"SearchResultsViewType","ViewId":0,"Result":[{"Relevance":1.0,"Distance":0.0,"Direction":0.0,"MatchLevel":"city","MatchQuality":{"Country":1.0,"State":1.0,"County":1.0,"City":1.0,"PostalCode":1.0},"Location":{"LocationId":"NT_Z48ny4daABNHKRoVcWDzPA","LocationType":"point","DisplayPosition":{"Latitude":46.2318706,"Longitude":6.3186056},"MapView":{"TopLeft":{"Latitude":46.25524,"Longitude":6.29425},"BottomRight":{"Latitude":46.21161,"Longitude":6.35472}},"Address":{"Label":"Saint-Cergues, Auvergne-Rhône-Alpes, France","Country":"FRA","State":"Auvergne-Rhône-Alpes","County":"Haute-Savoie","City":"Saint-Cergues","PostalCode":"74140","AdditionalData":[{"value":"France","key":"CountryName"},{"value":"Auvergne-Rhône-Alpes","key":"StateName"},{"value":"Haute-Savoie","key":"CountyName"}]},"MapReference":{"ReferenceId":"764536433","SideOfStreet":"neither","CountryId":"20000001","StateId":"20006029","CountyId":"20054650","CityId":"20055297"}}},{"Relevance":1.0,"Distance":16.4,"MatchLevel":"houseNumber","MatchQuality":{"Country":1.0,"State":1.0,"County":1.0,"City":1.0,"Street":[1.0],"HouseNumber":1.0,"PostalCode":1.0},"MatchType":"interpolated","Location":{"LocationId":"NT_u9dCANr.QsiukBK5c6yKyB_xUzM0A","LocationType":"point","DisplayPosition":{"Latitude":46.23173,"Longitude":6.31867},"MapView":{"TopLeft":{"Latitude":46.2328542,"Longitude":6.3170449},"BottomRight":{"Latitude":46.2306058,"Longitude":6.3202951}},"Address":{"Label":"1534 Rue des Allobroges, 74140 Saint-Cergues, France","Country":"FRA","State":"Auvergne-Rhône-Alpes","County":"Haute-Savoie","City":"Saint-Cergues","Street":"Rue des Allobroges","HouseNumber":"1534","PostalCode":"74140","AdditionalData":[{"value":"France","key":"CountryName"},{"value":"Auvergne-Rhône-Alpes","key":"StateName"},{"value":"Haute-Savoie","key":"CountyName"}]},"MapReference":{"ReferenceId":"962174583","Spot":0.71,"SideOfStreet":"left","CountryId":"20000001","StateId":"20006029","CountyId":"20054650","CityId":"20055297","AddressId":"319533417","RoadLinkId":"303995862"}}},{"Relevance":1.0,"Distance":16.8,"MatchLevel":"houseNumber","MatchQuality":{"Country":1.0,"State":1.0,"County":1.0,"City":1.0,"Street":[1.0],"HouseNumber":1.0,"PostalCode":1.0},"MatchType":"interpolated","Location":{"LocationId":"NT_u9dCANr.QsiukBK5c6yKyB_xUTM2A","LocationType":"point","DisplayPosition":{"Latitude":46.23196,"Longitude":6.3188},"MapView":{"TopLeft":{"Latitude":46.2330842,"Longitude":6.3171749},"BottomRight":{"Latitude":46.2308358,"Longitude":6.3204251}},"Address":{"Label":"1516 Rue des Allobroges, 74140 Saint-Cergues, France","Country":"FRA","State":"Auvergne-Rhône-Alpes","County":"Haute-Savoie","City":"Saint-Cergues","Street":"Rue des Allobroges","HouseNumber":"1516","PostalCode":"74140","AdditionalData":[{"value":"France","key":"CountryName"},{"value":"Auvergne-Rhône-Alpes","key":"StateName"},{"value":"Haute-Savoie","key":"CountyName"}]},"MapReference":{"ReferenceId":"962174584","Spot":0.34,"SideOfStreet":"left","CountryId":"20000001","StateId":"20006029","CountyId":"20054650","CityId":"20055297","AddressId":"573871708","RoadLinkId":"303995863"}}},{"Relevance":1.0,"Distance":35.3,"MatchLevel":"houseNumber","MatchQuality":{"Country":1.0,"State":1.0,"County":1.0,"City":1.0,"Street":[1.0],"HouseNumber":1.0,"PostalCode":1.0},"MatchType":"interpolated","Location":{"LocationId":"NT_u9dCANr.QsiukBK5c6yKyB_xQTO5A","LocationType":"point","DisplayPosition":{"Latitude":46.23212,"Longitude":6.31897},"MapView":{"TopLeft":{"Latitude":46.2332442,"Longitude":6.3173449},"BottomRight":{"Latitude":46.2309958,"Longitude":6.3205951}},"Address":{"Label":"1499 Rue des Allobroges, 74140 Saint-Cergues, France","Country":"FRA","State":"Auvergne-Rhône-Alpes","County":"Haute-Savoie","City":"Saint-Cergues","Street":"Rue des Allobroges","HouseNumber":"1499","PostalCode":"74140","AdditionalData":[{"value":"France","key":"CountryName"},{"value":"Auvergne-Rhône-Alpes","key":"StateName"},{"value":"Haute-Savoie","key":"CountyName"}]},"MapReference":{"ReferenceId":"71628628","Spot":0.97,"SideOfStreet":"left","CountryId":"20000001","StateId":"20006029","CountyId":"20054650","CityId":"20055297","AddressId":"573756143","RoadLinkId":"45795439"}}},{"Relevance":1.0,"Distance":43.3,"MatchLevel":"houseNumber","MatchQuality":{"Country":1.0,"State":1.0,"County":1.0,"City":1.0,"Street":[1.0],"HouseNumber":1.0,"PostalCode":1.0},"MatchType":"interpolated","Location":{"LocationId":"NT_u9dCANr.QsiukBK5c6yKyB_xQTOyA","LocationType":"point","DisplayPosition":{"Latitude":46.23214,"Longitude":6.31893},"MapView":{"TopLeft":{"Latitude":46.2332642,"Longitude":6.3173049},"BottomRight":{"Latitude":46.2310158,"Longitude":6.3205551}},"Address":{"Label":"1492 Rue des Allobroges, 74140 Saint-Cergues, France","Country":"FRA","State":"Auvergne-Rhône-Alpes","County":"Haute-Savoie","City":"Saint-Cergues","Street":"Rue des Allobroges","HouseNumber":"1492","PostalCode":"74140","AdditionalData":[{"value":"France","key":"CountryName"},{"value":"Auvergne-Rhône-Alpes","key":"StateName"},{"value":"Haute-Savoie","key":"CountyName"}]},"MapReference":{"ReferenceId":"71628627","Spot":0.0,"SideOfStreet":"left","CountryId":"20000001","StateId":"20006029","CountyId":"20054650","CityId":"20055297","AddressId":"319474306","RoadLinkId":"45991469"}}},{"Relevance":1.0,"Distance":47.8,"MatchLevel":"houseNumber","MatchQuality":{"Country":1.0,"State":1.0,"County":1.0,"City":1.0,"Street":[1.0],"HouseNumber":1.0,"PostalCode":1.0},"MatchType":"interpolated","Location":{"LocationId":"NT_u9dCANr.QsiukBK5c6yKyB_xUzM2A","LocationType":"point","DisplayPosition":{"Latitude":46.23212,"Longitude":6.3181},"MapView":{"TopLeft":{"Latitude":46.2332442,"Longitude":6.3164749},"BottomRight":{"Latitude":46.2309958,"Longitude":6.3197251}},"Address":{"Label":"1536 Rue des Allobroges, 74140 Saint-Cergues, France","Country":"FRA","State":"Auvergne-Rhône-Alpes","County":"Haute-Savoie","City":"Saint-Cergues","Street":"Rue des Allobroges","HouseNumber":"1536","PostalCode":"74140","AdditionalData":[{"value":"France","key":"CountryName"},{"value":"Auvergne-Rhône-Alpes","key":"StateName"},{"value":"Haute-Savoie","key":"CountyName"}]},"MapReference":{"ReferenceId":"962174585","Spot":0.8,"SideOfStreet":"left","CountryId":"20000001","StateId":"20006029","CountyId":"20054650","CityId":"20055297","AddressId":"376518634","RoadLinkId":"303995864"}}},{"Relevance":1.0,"Distance":53.0,"MatchLevel":"street","MatchQuality":{"Country":1.0,"State":1.0,"County":1.0,"City":1.0,"PostalCode":1.0},"Location":{"LocationId":"NT_.UoHBgqYOrNaTka5hgo2tD_l_716316600_R","LocationType":"point","DisplayPosition":{"Latitude":46.2314,"Longitude":6.3185},"MapView":{"TopLeft":{"Latitude":46.2314,"Longitude":6.3185},"BottomRight":{"Latitude":46.23135,"Longitude":6.31854}},"Address":{"Label":"74140 Saint-Cergues, France","Country":"FRA","State":"Auvergne-Rhône-Alpes","County":"Haute-Savoie","City":"Saint-Cergues","PostalCode":"74140","AdditionalData":[{"value":"France","key":"CountryName"},{"value":"Auvergne-Rhône-Alpes","key":"StateName"},{"value":"Haute-Savoie","key":"CountyName"}]},"MapReference":{"ReferenceId":"716316600","Spot":1.0,"SideOfStreet":"right","CountryId":"20000001","StateId":"20006029","CountyId":"20054650","CityId":"20055297"}}},{"Relevance":1.0,"Distance":53.0,"MatchLevel":"street","MatchQuality":{"Country":1.0,"State":1.0,"County":1.0,"City":1.0,"PostalCode":1.0},"Location":{"LocationId":"NT_.UoHBgqYOrNaTka5hgo2tD_l_716316599_L","LocationType":"point","DisplayPosition":{"Latitude":46.2314,"Longitude":6.3185},"MapView":{"TopLeft":{"Latitude":46.2314,"Longitude":6.31843},"BottomRight":{"Latitude":46.23133,"Longitude":6.3185}},"Address":{"Label":"74140 Saint-Cergues, France","Country":"FRA","State":"Auvergne-Rhône-Alpes","County":"Haute-Savoie","City":"Saint-Cergues","PostalCode":"74140","AdditionalData":[{"value":"France","key":"CountryName"},{"value":"Auvergne-Rhône-Alpes","key":"StateName"},{"value":"Haute-Savoie","key":"CountyName"}]},"MapReference":{"ReferenceId":"716316599","Spot":1.0,"SideOfStreet":"left","CountryId":"20000001","StateId":"20006029","CountyId":"20054650","CityId":"20055297"}}},{"Relevance":1.0,"Distance":58.1,"MatchLevel":"street","MatchQuality":{"Country":1.0,"State":1.0,"County":1.0,"City":1.0,"PostalCode":1.0},"Location":{"LocationId":"NT_.UoHBgqYOrNaTka5hgo2tD_l_716316598_L","LocationType":"point","DisplayPosition":{"Latitude":46.23135,"Longitude":6.31854},"MapView":{"TopLeft":{"Latitude":46.23135,"Longitude":6.31844},"BottomRight":{"Latitude":46.23132,"Longitude":6.31854}},"Address":{"Label":"74140 Saint-Cergues, France","Country":"FRA","State":"Auvergne-Rhône-Alpes","County":"Haute-Savoie","City":"Saint-Cergues","PostalCode":"74140","AdditionalData":[{"value":"France","key":"CountryName"},{"value":"Auvergne-Rhône-Alpes","key":"StateName"},{"value":"Haute-Savoie","key":"CountyName"}]},"MapReference":{"ReferenceId":"716316598","Spot":1.0,"SideOfStreet":"left","CountryId":"20000001","StateId":"20006029","CountyId":"20054650","CityId":"20055297"}}},{"Relevance":1.0,"Distance":75.9,"MatchLevel":"street","MatchQuality":{"Country":1.0,"State":1.0,"County":1.0,"City":1.0,"Street":[1.0],"PostalCode":1.0},"Location":{"LocationId":"NT_u9dCANr.QsiukBK5c6yKyB_l_780595156_L","LocationType":"point","DisplayPosition":{"Latitude":46.23244,"Longitude":6.31915},"MapView":{"TopLeft":{"Latitude":46.2325,"Longitude":6.31915},"BottomRight":{"Latitude":46.23244,"Longitude":6.31919}},"Address":{"Label":"Rue des Allobroges, 74140 Saint-Cergues, France","Country":"FRA","State":"Auvergne-Rhône-Alpes","County":"Haute-Savoie","City":"Saint-Cergues","Street":"Rue des Allobroges","PostalCode":"74140","AdditionalData":[{"value":"France","key":"CountryName"},{"value":"Auvergne-Rhône-Alpes","key":"StateName"},{"value":"Haute-Savoie","key":"CountyName"}]},"MapReference":{"ReferenceId":"780595156","Spot":0.0,"SideOfStreet":"left","CountryId":"20000001","StateId":"20006029","CountyId":"20054650","CityId":"20055297"}}}]}]}}