{"Response":{"MetaInfo":{"Timestamp":"2020-03-28T11:52:53.575+0000","NextPageInformation":"2"},"View":[{"_type":"SearchResultsViewType","ViewId":0,"Result":[{"Relevance":1.0,"Distance":0.0,"Direction":0.0,"MatchLevel":"city","MatchQuality":{"Country":1.0,"State":1.0,"County":1.0,"City":1.0,"PostalCode":1.0},"Location":{"LocationId":"NT_-QpQfy0FrivOs5QIiEhVUB","LocationType":"point","DisplayPosition":{"Latitude":46.2467896,"Longitude":6.0811363},"MapView":{"TopLeft":{"Latitude":46.28695,"Longitude":6.04213},"BottomRight":{"Latitude":46.2316,"Longitude":6.10272}},"Address":{"Label":"Prévessin-Moëns, Auvergne-Rhône-Alpes, France","Country":"FRA","State":"Auvergne-Rhône-Alpes","County":"Ain","City":"Prévessin-Moëns","PostalCode":"01280","AdditionalData":[{"value":"France","key":"CountryName"},{"value":"Auvergne-Rhône-Alpes","key":"StateName"},{"value":"Ain","key":"CountyName"}]},"MapReference":{"ReferenceId":"1081031800","SideOfStreet":"neither","CountryId":"20000001","StateId":"20006029","CountyId":"20006030","CityId":"20045387"}}},{"Relevance":1.0,"Distance":24.0,"MatchLevel":"landmark","MatchQuality":{"Country":1.0,"State":1.0,"County":1.0,"City":1.0,"District":1.0,"Street":[1.0],"PostalCode":1.0,"Name":1.0},"Location":{"LocationId":"NT_zN0Lft4zPdF497XXySB1ED_p_evTMk7mGUP1qIBprGqd9EC","LocationType":"shoppingCentre","Name":"Z.A. du Clos de Magny","DisplayPosition":{"Latitude":46.24865,"Longitude":6.08752},"MapView":{"TopLeft":{"Latitude":46.25172,"Longitude":6.08103},"BottomRight":{"Latitude":46.24602,"Longitude":6.09437}},"Address":{"Label":"Route du Nant, 01280 Prévessin-Moëns, France","Country":"FRA","State":"Auvergne-Rhône-Alpes","County":"Ain","City":"Prévessin-Moëns","District":"Prévessin","Street":"Route du Nant","PostalCode":"01280","AdditionalData":[{"value":"France","key":"CountryName"},{"value":"Auvergne-Rhône-Alpes","key":"StateName"},{"value":"Ain","key":"CountyName"}]},"MapReference":{"CountryId":"20000001","StateId":"20006029","CountyId":"20006030","CityId":"20045387","DistrictId":"20045389","PlaceId":"1161086451"}}},{"Relevance":1.0,"Distance":24.0,"MatchLevel":"street","MatchQuality":{"Country":1.0,"State":1.0,"County":1.0,"City":1.0,"District":1.0,"PostalCode":1.0},"Location":{"LocationId":"NT_Dm9lMY7eY4UWM8gcBeY2GD_l_1124558926_L","LocationType":"point","DisplayPosition":{"Latitude":46.2467358,"Longitude":6.081439},"MapView":{"TopLeft":{"Latitude":46.24691,"Longitude":6.08139},"BottomRight":{"Latitude":46.24646,"Longitude":6.08147}},"Address":{"Label":"01280 Prévessin-Moëns, France","Country":"FRA","State":"Auvergne-Rhône-Alpes","County":"Ain","City":"Prévessin-Moëns","District":"Prévessin","PostalCode":"01280","AdditionalData":[{"value":"France","key":"CountryName"},{"value":"Auvergne-Rhône-Alpes","key":"StateName"},{"value":"Ain","key":"CountyName"}]},"MapReference":{"ReferenceId":"1124558926","Spot":0.61,"SideOfStreet":"left","CountryId":"20000001","StateId":"20006029","CountyId":"20006030","CityId":"20045387","DistrictId":"20045389"}}},{"Relevance":1.0,"Distance":28.9,"MatchLevel":"street","MatchQuality":{"Country":1.0,"State":1.0,"County":1.0,"City":1.0,"District":1.0,"PostalCode":1.0},"Location":{"LocationId":"NT_Dm9lMY7eY4UWM8gcBeY2GD_l_1124558927_L","LocationType":"point","DisplayPosition":{"Latitude":46.24691,"Longitude":6.08147},"MapView":{"TopLeft":{"Latitude":46.24713,"Longitude":6.08147},"BottomRight":{"Latitude":46.24691,"Longitude":6.08183}},"Address":{"Label":"01280 Prévessin-Moëns, France","Country":"FRA","State":"Auvergne-Rhône-Alpes","County":"Ain","City":"Prévessin-Moëns","District":"Prévessin","PostalCode":"01280","AdditionalData":[{"value":"France","key":"CountryName"},{"value":"Auvergne-Rhône-Alpes","key":"StateName"},{"value":"Ain","key":"CountyName"}]},"MapReference":{"ReferenceId":"1124558927","Spot":0.0,"SideOfStreet":"left","CountryId":"20000001","StateId":"20006029","CountyId":"20006030","CityId":"20045387","DistrictId":"20045389"}}},{"Relevance":1.0,"Distance":32.4,"MatchLevel":"street","MatchQuality":{"Country":1.0,"State":1.0,"County":1.0,"City":1.0,"Street":[1.0],"PostalCode":1.0},"Location":{"LocationId":"NT_iqb.P.e0wgbhxIT1DGPnSB_l_1124560251_R","LocationType":"point","DisplayPosition":{"Latitude":46.2465264,"Longitude":6.0809548},"MapView":{"TopLeft":{"Latitude":46.24664,"Longitude":6.08079},"BottomRight":{"Latitude":46.2464,"Longitude":6.08113}},"Address":{"Label":"Route de Mategnin, 01280 Prévessin-Moëns, France","Country":"FRA","State":"Auvergne-Rhône-Alpes","County":"Ain","City":"Prévessin-Moëns","Street":"Route de Mategnin","PostalCode":"01280","AdditionalData":[{"value":"France","key":"CountryName"},{"value":"Auvergne-Rhône-Alpes","key":"StateName"},{"value":"Ain","key":"CountyName"}]},"MapReference":{"ReferenceId":"1124560251","Spot":0.52,"SideOfStreet":"right","CountryId":"20000001","StateId":"20006029","CountyId":"20006030","CityId":"20045387"}}},{"Relevance":1.0,"Distance":39.6,"MatchLevel":"street","MatchQuality":{"Country":1.0,"State":1.0,"County":1.0,"City":1.0,"District":1.0,"PostalCode":1.0},"Location":{"LocationId":"NT_Dm9lMY7eY4UWM8gcBeY2GD_l_546056806_L","LocationType":"point","DisplayPosition":{"Latitude":46.2464385,"Longitude":6.0812241},"MapView":{"TopLeft":{"Latitude":46.24646,"Longitude":6.08113},"BottomRight":{"Latitude":46.2464,"Longitude":6.08139}},"Address":{"Label":"01280 Prévessin-Moëns, France","Country":"FRA","State":"Auvergne-Rhône-Alpes","County":"Ain","City":"Prévessin-Moëns","District":"Prévessin","PostalCode":"01280","AdditionalData":[{"value":"France","key":"CountryName"},{"value":"Auvergne-Rhône-Alpes","key":"StateName"},{"value":"Ain","key":"CountyName"}]},"MapReference":{"ReferenceId":"546056806","Spot":0.38,"SideOfStreet":"left","CountryId":"20000001","StateId":"20006029","CountyId":"20006030","CityId":"20045387","DistrictId":"20045389"}}},{"Relevance":1.0,"Distance":41.5,"MatchLevel":"street","MatchQuality":{"Country":1.0,"State":1.0,"County":1.0,"City":1.0,"District":1.0,"PostalCode":1.0},"Location":{"LocationId":"NT_Dm9lMY7eY4UWM8gcBeY2GD_l_546056805_R","LocationType":"point","DisplayPosition":{"Latitude":46.24646,"Longitude":6.08139},"MapView":{"TopLeft":{"Latitude":46.24646,"Longitude":6.08139},"BottomRight":{"Latitude":46.24634,"Longitude":6.08165}},"Address":{"Label":"01280 Prévessin-Moëns, France","Country":"FRA","State":"Auvergne-Rhône-Alpes","County":"Ain","City":"Prévessin-Moëns","District":"Prévessin","PostalCode":"01280","AdditionalData":[{"value":"France","key":"CountryName"},{"value":"Auvergne-Rhône-Alpes","key":"StateName"},{"value":"Ain","key":"CountyName"}]},"MapReference":{"ReferenceId":"546056805","Spot":1.0,"SideOfStreet":"right","CountryId":"20000001","StateId":"20006029","CountyId":"20006030","CityId":"20045387","DistrictId":"20045389"}}},{"Relevance":1.0,"Distance":43.3,"MatchLevel":"street","MatchQuality":{"Country":1.0,"State":1.0,"County":1.0,"City":1.0,"District":1.0,"PostalCode":1.0},"Location":{"LocationId":"NT_Dm9lMY7eY4UWM8gcBeY2GD_l_61617633_L","LocationType":"point","DisplayPosition":{"Latitude":46.2464,"Longitude":6.08113},"MapView":{"TopLeft":{"Latitude":46.2464,"Longitude":6.08103},"BottomRight":{"Latitude":46.24624,"Longitude":6.08113}},"Address":{"Label":"01280 Prévessin-Moëns, France","Country":"FRA","State":"Auvergne-Rhône-Alpes","County":"Ain","City":"Prévessin-Moëns","District":"Prévessin","PostalCode":"01280","AdditionalData":[{"value":"France","key":"CountryName"},{"value":"Auvergne-Rhône-Alpes","key":"StateName"},{"value":"Ain","key":"CountyName"}]},"MapReference":{"ReferenceId":"61617633","Spot":1.0,"SideOfStreet":"left","CountryId":"20000001","StateId":"20006029","CountyId":"20006030","CityId":"20045387","DistrictId":"20045389"}}},{"Relevance":1.0,"Distance":61.7,"MatchLevel":"street","MatchQuality":{"Country":1.0,"State":1.0,"County":1.0,"City":1.0,"Street":[1.0],"PostalCode":1.0},"Location":{"LocationId":"NT_MMh7KEV7hnLtbxWd7W9toA_l_880371635_L","LocationType":"point","DisplayPosition":{"Latitude":46.24624,"Longitude":6.08103},"MapView":{"TopLeft":{"Latitude":46.24624,"Longitude":6.08035},"BottomRight":{"Latitude":46.24593,"Longitude":6.08103}},"Address":{"Label":"D35, 01280 Prévessin-Moëns, France","Country":"FRA","State":"Auvergne-Rhône-Alpes","County":"Ain","City":"Prévessin-Moëns","Street":"D35","PostalCode":"01280","AdditionalData":[{"value":"France","key":"CountryName"},{"value":"Auvergne-Rhône-Alpes","key":"StateName"},{"value":"Ain","key":"CountyName"}]},"MapReference":{"ReferenceId":"880371635","Spot":1.0,"SideOfStreet":"left","CountryId":"20000001","StateId":"20006029","CountyId":"20006030","CityId":"20045387"}}},{"Relevance":1.0,"Distance":61.7,"MatchLevel":"street","MatchQuality":{"Country":1.0,"State":1.0,"County":1.0,"City":1.0,"District":1.0,"PostalCode":1.0},"Location":{"LocationId":"NT_Dm9lMY7eY4UWM8gcBeY2GD_l_1190250408_R","LocationType":"point","DisplayPosition":{"Latitude":46.24624,"Longitude":6.08103},"MapView":{"TopLeft":{"Latitude":46.24624,"Longitude":6.08103},"BottomRight":{"Latitude":46.24608,"Longitude":6.08112}},"Address":{"Label":"01280 Prévessin-Moëns, France","Country":"FRA","State":"Auvergne-Rhône-Alpes","County":"Ain","City":"Prévessin-Moëns","District":"Prévessin","PostalCode":"01280","AdditionalData":[{"value":"France","key":"CountryName"},{"value":"Auvergne-Rhône-Alpes","key":"StateName"},{"value":"Ain","key":"CountyName"}]},"MapReference":{"ReferenceId":"1190250408","Spot":1.0,"SideOfStreet":"right","CountryId":"20000001","StateId":"20006029","CountyId":"20006030","CityId":"20045387","DistrictId":"20045389"}}}]}]}}