{"Response":{"MetaInfo":{"Timestamp":"2020-03-31T17:05:46.817+0000","NextPageInformation":"2"},"View":[{"_type":"SearchResultsViewType","ViewId":0,"Result":[{"Relevance":1.0,"Distance":0.0,"Direction":0.0,"MatchLevel":"district","MatchQuality":{"Country":1.0,"County":1.0,"City":1.0,"District":1.0,"PostalCode":1.0},"Location":{"LocationId":"NT_fWGJSpqe0Khxec8d54EJqC","LocationType":"point","DisplayPosition":{"Latitude":46.275,"Longitude":15.7939},"MapView":{"TopLeft":{"Latitude":46.31994,"Longitude":15.75554},"BottomRight":{"Latitude":46.25911,"Longitude":15.86746}},"Address":{"Label":"Žetale, Slovenija","Country":"SVN","County":"Ptuj","City":"Žetale","District":"Žetale","PostalCode":"2287","AdditionalData":[{"value":"Slovenija","key":"CountryName"},{"value":"Ptuj","key":"CountyName"}]},"MapReference":{"ReferenceId":"927481256","SideOfStreet":"neither","CountryId":"20633685","CountyId":"20638877","CityId":"22689890","DistrictId":"22694671"}}},{"Relevance":1.0,"Distance":11.5,"MatchLevel":"houseNumber","MatchQuality":{"Country":1.0,"County":1.0,"City":1.0,"District":1.0,"Street":[1.0],"HouseNumber":1.0,"PostalCode":1.0},"MatchType":"interpolated","Location":{"LocationId":"NT_qQfYrGtztlZ1lkKo7pbcuC_xITQ","LocationType":"point","DisplayPosition":{"Latitude":46.27526,"Longitude":15.79407},"MapView":{"TopLeft":{"Latitude":46.2763842,"Longitude":15.7924436},"BottomRight":{"Latitude":46.2741358,"Longitude":15.7956964}},"Address":{"Label":"Žetale 12A, SI- 2287 Žetale, Slovenija","Country":"SVN","County":"Ptuj","City":"Žetale","District":"Žetale","Street":"Žetale","HouseNumber":"12A","PostalCode":"2287","AdditionalData":[{"value":"Slovenija","key":"CountryName"},{"value":"Ptuj","key":"CountyName"}]},"MapReference":{"ReferenceId":"1136547848","Spot":0.73,"SideOfStreet":"left","CountryId":"20633685","CountyId":"20638877","CityId":"22689890","DistrictId":"22694671","AddressId":"406745328","RoadLinkId":"445296355"}}},{"Relevance":1.0,"Distance":25.9,"MatchLevel":"houseNumber","MatchQuality":{"Country":1.0,"County":1.0,"City":1.0,"District":1.0,"Street":[1.0],"HouseNumber":1.0,"PostalCode":1.0},"MatchType":"interpolated","Location":{"LocationId":"NT_qQfYrGtztlZ1lkKo7pbcuC_xID","LocationType":"point","DisplayPosition":{"Latitude":46.27506,"Longitude":15.79346},"MapView":{"TopLeft":{"Latitude":46.2761842,"Longitude":15.7918336},"BottomRight":{"Latitude":46.2739358,"Longitude":15.7950864}},"Address":{"Label":"Žetale 12, SI- 2287 Žetale, Slovenija","Country":"SVN","County":"Ptuj","City":"Žetale","District":"Žetale","Street":"Žetale","HouseNumber":"12","PostalCode":"2287","AdditionalData":[{"value":"Slovenija","key":"CountryName"},{"value":"Ptuj","key":"CountyName"}]},"MapReference":{"ReferenceId":"711683870","Spot":0.74,"SideOfStreet":"right","CountryId":"20633685","CountyId":"20638877","CityId":"22689890","DistrictId":"22694671","AddressId":"406534137","RoadLinkId":"116622674"}}},{"Relevance":1.0,"Distance":39.0,"MatchLevel":"street","MatchQuality":{"Country":1.0,"County":1.0,"City":1.0,"District":1.0,"Street":[1.0],"PostalCode":1.0},"Location":{"LocationId":"NT_qQfYrGtztlZ1lkKo7pbcuC_l_1136704828_L","LocationType":"point","DisplayPosition":{"Latitude":46.27535,"Longitude":15.79393},"MapView":{"TopLeft":{"Latitude":46.27535,"Longitude":15.79393},"BottomRight":{"Latitude":46.27527,"Longitude":15.79442}},"Address":{"Label":"Žetale, SI- 2287 Žetale, Slovenija","Country":"SVN","County":"Ptuj","City":"Žetale","District":"Žetale","Street":"Žetale","PostalCode":"2287","AdditionalData":[{"value":"Slovenija","key":"CountryName"},{"value":"Ptuj","key":"CountyName"}]},"MapReference":{"ReferenceId":"1136704828","Spot":1.0,"SideOfStreet":"left","CountryId":"20633685","CountyId":"20638877","CityId":"22689890","DistrictId":"22694671"}}},{"Relevance":1.0,"Distance":39.0,"MatchLevel":"street","MatchQuality":{"Country":1.0,"County":1.0,"City":1.0,"District":1.0,"Street":[1.0],"PostalCode":1.0},"Location":{"LocationId":"NT_qQfYrGtztlZ1lkKo7pbcuC_l_1136547849_L","LocationType":"point","DisplayPosition":{"Latitude":46.27535,"Longitude":15.79393},"MapView":{"TopLeft":{"Latitude":46.27548,"Longitude":15.79371},"BottomRight":{"Latitude":46.27535,"Longitude":15.79393}},"Address":{"Label":"Žetale, SI- 2287 Žetale, Slovenija","Country":"SVN","County":"Ptuj","City":"Žetale","District":"Žetale","Street":"Žetale","PostalCode":"2287","AdditionalData":[{"value":"Slovenija","key":"CountryName"},{"value":"Ptuj","key":"CountyName"}]},"MapReference":{"ReferenceId":"1136547849","Spot":0.0,"SideOfStreet":"left","CountryId":"20633685","CountyId":"20638877","CityId":"22689890","DistrictId":"22694671"}}},{"Relevance":1.0,"Distance":43.2,"MatchLevel":"houseNumber","MatchQuality":{"Country":1.0,"County":1.0,"City":1.0,"District":1.0,"Street":[1.0],"HouseNumber":1.0,"PostalCode":1.0},"MatchType":"interpolated","Location":{"LocationId":"NT_qQfYrGtztlZ1lkKo7pbcuC_xcD","LocationType":"point","DisplayPosition":{"Latitude":46.27492,"Longitude":15.79445},"MapView":{"TopLeft":{"Latitude":46.2760442,"Longitude":15.7928236},"BottomRight":{"Latitude":46.2737958,"Longitude":15.7960764}},"Address":{"Label":"Žetale 17, SI- 2287 Žetale, Slovenija","Country":"SVN","County":"Ptuj","City":"Žetale","District":"Žetale","Street":"Žetale","HouseNumber":"17","PostalCode":"2287","AdditionalData":[{"value":"Slovenija","key":"CountryName"},{"value":"Ptuj","key":"CountyName"}]},"MapReference":{"ReferenceId":"711683862","Spot":0.68,"SideOfStreet":"right","CountryId":"20633685","CountyId":"20638877","CityId":"22689890","DistrictId":"22694671","AddressId":"406922421","RoadLinkId":"116622668"}}},{"Relevance":1.0,"Distance":50.2,"MatchLevel":"street","MatchQuality":{"Country":1.0,"County":1.0,"City":1.0,"District":1.0,"Street":[1.0],"PostalCode":1.0},"Location":{"LocationId":"NT_2po4girQSYdci-MCwjW1AB_l_927459587_R","LocationType":"point","DisplayPosition":{"Latitude":46.27539,"Longitude":15.79357},"MapView":{"TopLeft":{"Latitude":46.27539,"Longitude":15.79342},"BottomRight":{"Latitude":46.27531,"Longitude":15.79357}},"Address":{"Label":"689, SI- 2287 Žetale, Slovenija","Country":"SVN","County":"Ptuj","City":"Žetale","District":"Žetale","Street":"689","PostalCode":"2287","AdditionalData":[{"value":"Slovenija","key":"CountryName"},{"value":"Ptuj","key":"CountyName"}]},"MapReference":{"ReferenceId":"927459587","Spot":1.0,"SideOfStreet":"right","CountryId":"20633685","CountyId":"20638877","CityId":"22689890","DistrictId":"22694671"}}},{"Relevance":1.0,"Distance":50.5,"MatchLevel":"street","MatchQuality":{"Country":1.0,"County":1.0,"City":1.0,"District":1.0,"Street":[1.0],"PostalCode":1.0},"Location":{"LocationId":"NT_M-BsLQsGuus49cE1lxqK.D_l_710662653_R","LocationType":"point","DisplayPosition":{"Latitude":46.27531,"Longitude":15.79342},"MapView":{"TopLeft":{"Latitude":46.27531,"Longitude":15.79325},"BottomRight":{"Latitude":46.27525,"Longitude":15.79342}},"Address":{"Label":"689, SI- 2287 Žetale, Slovenija","Country":"SVN","County":"Ptuj","City":"Žetale","District":"Žetale","Street":"689","PostalCode":"2287","AdditionalData":[{"value":"Slovenija","key":"CountryName"},{"value":"Ptuj","key":"CountyName"}]},"MapReference":{"ReferenceId":"710662653","Spot":1.0,"SideOfStreet":"right","CountryId":"20633685","CountyId":"20638877","CityId":"22689890","DistrictId":"22694671"}}},{"Relevance":1.0,"Distance":51.8,"MatchLevel":"street","MatchQuality":{"Country":1.0,"County":1.0,"City":1.0,"District":1.0,"Street":[1.0],"PostalCode":1.0},"Location":{"LocationId":"NT_2po4girQSYdci-MCwjW1AB_l_927459585_R","LocationType":"point","DisplayPosition":{"Latitude":46.2754261,"Longitude":15.7936261},"MapView":{"TopLeft":{"Latitude":46.27548,"Longitude":15.79357},"BottomRight":{"Latitude":46.27539,"Longitude":15.79371}},"Address":{"Label":"689, SI- 2287 Žetale, Slovenija","Country":"SVN","County":"Ptuj","City":"Žetale","District":"Žetale","Street":"689","PostalCode":"2287","AdditionalData":[{"value":"Slovenija","key":"CountryName"},{"value":"Ptuj","key":"CountyName"}]},"MapReference":{"ReferenceId":"927459585","Spot":0.4,"SideOfStreet":"right","CountryId":"20633685","CountyId":"20638877","CityId":"22689890","DistrictId":"22694671"}}},{"Relevance":1.0,"Distance":54.8,"MatchLevel":"houseNumber","MatchQuality":{"Country":1.0,"County":1.0,"City":1.0,"District":1.0,"Street":[1.0],"HouseNumber":1.0,"PostalCode":1.0},"MatchType":"interpolated","Location":{"LocationId":"NT_qQfYrGtztlZ1lkKo7pbcuC_xQjQ","LocationType":"point","DisplayPosition":{"Latitude":46.27451,"Longitude":15.79397},"MapView":{"TopLeft":{"Latitude":46.2756342,"Longitude":15.7923436},"BottomRight":{"Latitude":46.2733858,"Longitude":15.7955964}},"Address":{"Label":"Žetale 14B, SI- 2287 Žetale, Slovenija","Country":"SVN","County":"Ptuj","City":"Žetale","District":"Žetale","Street":"Žetale","HouseNumber":"14B","PostalCode":"2287","AdditionalData":[{"value":"Slovenija","key":"CountryName"},{"value":"Ptuj","key":"CountyName"}]},"MapReference":{"ReferenceId":"711683869","Spot":0.14,"SideOfStreet":"right","CountryId":"20633685","CountyId":"20638877","CityId":"22689890","DistrictId":"22694671","AddressId":"768361692","RoadLinkId":"116622673"}}}]}]}}