{"Response":{"MetaInfo":{"Timestamp":"2020-03-31T17:06:44.824+0000","NextPageInformation":"2"},"View":[{"_type":"SearchResultsViewType","ViewId":0,"Result":[{"Relevance":1.0,"Distance":0.0,"Direction":0.0,"MatchLevel":"district","MatchQuality":{"Country":1.0,"County":1.0,"City":1.0,"District":1.0,"PostalCode":1.0},"Location":{"LocationId":"NT_2aJdZte0VBjgeMUaRJe8mB","LocationType":"point","DisplayPosition":{"Latitude":46.2917,"Longitude":13.4988},"MapView":{"TopLeft":{"Latitude":46.29285,"Longitude":13.49639},"BottomRight":{"Latitude":46.28906,"Longitude":13.50128}},"Address":{"Label":"Srpenica, Bovec, Slovenija","Country":"SVN","County":"Tolmin","City":"Bovec","District":"Srpenica","PostalCode":"5224","AdditionalData":[{"value":"Slovenija","key":"CountryName"},{"value":"Tolmin","key":"CountyName"}]},"MapReference":{"ReferenceId":"710472176","SideOfStreet":"neither","CountryId":"20633685","CountyId":"20640530","CityId":"22689904","DistrictId":"22691027"}}},{"Relevance":1.0,"Distance":2.3,"MatchLevel":"houseNumber","MatchQuality":{"Country":1.0,"County":1.0,"City":1.0,"District":1.0,"Street":[1.0],"HouseNumber":1.0,"PostalCode":1.0},"MatchType":"interpolated","Location":{"LocationId":"NT_i4nSOll6rNBliwZu0dqP6C_2MD","LocationType":"point","DisplayPosition":{"Latitude":46.2917,"Longitude":13.49883},"MapView":{"TopLeft":{"Latitude":46.2928242,"Longitude":13.4972031},"BottomRight":{"Latitude":46.2905758,"Longitude":13.5004569}},"Address":{"Label":"Srpenica 63, SI- 5224 Bovec, Slovenija","Country":"SVN","County":"Tolmin","City":"Bovec","District":"Srpenica","Street":"Srpenica","HouseNumber":"63","PostalCode":"5224","AdditionalData":[{"value":"Slovenija","key":"CountryName"},{"value":"Tolmin","key":"CountyName"}]},"MapReference":{"ReferenceId":"710415853","Spot":0.54,"SideOfStreet":"left","CountryId":"20633685","CountyId":"20640530","CityId":"22689904","DistrictId":"22691027","AddressId":"406759493","RoadLinkId":"115615661"}}},{"Relevance":1.0,"Distance":43.7,"MatchLevel":"houseNumber","MatchQuality":{"Country":1.0,"County":1.0,"City":1.0,"District":1.0,"Street":[1.0],"HouseNumber":1.0,"PostalCode":1.0},"MatchType":"interpolated","Location":{"LocationId":"NT_Fjkl7o18vuq7jMzzwCyJDB_1gD","LocationType":"point","DisplayPosition":{"Latitude":46.29123,"Longitude":13.49826},"MapView":{"TopLeft":{"Latitude":46.2923542,"Longitude":13.4966331},"BottomRight":{"Latitude":46.2901058,"Longitude":13.4998869}},"Address":{"Label":"203 58, SI- 5224 Bovec, Slovenija","Country":"SVN","County":"Tolmin","City":"Bovec","District":"Srpenica","Street":"203","HouseNumber":"58","PostalCode":"5224","AdditionalData":[{"value":"Slovenija","key":"CountryName"},{"value":"Tolmin","key":"CountyName"}]},"MapReference":{"ReferenceId":"710472176","Spot":0.24,"SideOfStreet":"right","CountryId":"20633685","CountyId":"20640530","CityId":"22689904","DistrictId":"22691027","AddressId":"406764135","RoadLinkId":"115661225"}}},{"Relevance":1.0,"Distance":47.9,"MatchLevel":"houseNumber","MatchQuality":{"Country":1.0,"County":1.0,"City":1.0,"District":1.0,"Street":[1.0],"HouseNumber":1.0,"PostalCode":1.0},"MatchType":"interpolated","Location":{"LocationId":"NT_i4nSOll6rNBliwZu0dqP6C_1YD","LocationType":"point","DisplayPosition":{"Latitude":46.29121,"Longitude":13.49897},"MapView":{"TopLeft":{"Latitude":46.2923342,"Longitude":13.4973431},"BottomRight":{"Latitude":46.2900858,"Longitude":13.5005969}},"Address":{"Label":"Srpenica 56, SI- 5224 Bovec, Slovenija","Country":"SVN","County":"Tolmin","City":"Bovec","District":"Srpenica","Street":"Srpenica","HouseNumber":"56","PostalCode":"5224","AdditionalData":[{"value":"Slovenija","key":"CountryName"},{"value":"Tolmin","key":"CountyName"}]},"MapReference":{"ReferenceId":"710424039","Spot":1.0,"SideOfStreet":"left","CountryId":"20633685","CountyId":"20640530","CityId":"22689904","DistrictId":"22691027","AddressId":"406991913","RoadLinkId":"115624251"}}},{"Relevance":1.0,"Distance":52.8,"MatchLevel":"houseNumber","MatchQuality":{"Country":1.0,"County":1.0,"City":1.0,"District":1.0,"Street":[1.0],"HouseNumber":1.0,"PostalCode":1.0},"MatchType":"interpolated","Location":{"LocationId":"NT_i4nSOll6rNBliwZu0dqP6C_3cD","LocationType":"point","DisplayPosition":{"Latitude":46.29234,"Longitude":13.49885},"MapView":{"TopLeft":{"Latitude":46.2934642,"Longitude":13.4972231},"BottomRight":{"Latitude":46.2912158,"Longitude":13.5004769}},"Address":{"Label":"Srpenica 77, SI- 5224 Bovec, Slovenija","Country":"SVN","County":"Tolmin","City":"Bovec","District":"Srpenica","Street":"Srpenica","HouseNumber":"77","PostalCode":"5224","AdditionalData":[{"value":"Slovenija","key":"CountryName"},{"value":"Tolmin","key":"CountyName"}]},"MapReference":{"ReferenceId":"710446918","Spot":0.83,"SideOfStreet":"right","CountryId":"20633685","CountyId":"20640530","CityId":"22689904","DistrictId":"22691027","AddressId":"406964710","RoadLinkId":"115650964"}}},{"Relevance":1.0,"Distance":54.3,"MatchLevel":"houseNumber","MatchQuality":{"Country":1.0,"County":1.0,"City":1.0,"District":1.0,"Street":[1.0],"HouseNumber":1.0,"PostalCode":1.0},"MatchType":"interpolated","Location":{"LocationId":"NT_i4nSOll6rNBliwZu0dqP6C_0ID","LocationType":"point","DisplayPosition":{"Latitude":46.29122,"Longitude":13.49924},"MapView":{"TopLeft":{"Latitude":46.2923442,"Longitude":13.4976131},"BottomRight":{"Latitude":46.2900958,"Longitude":13.5008669}},"Address":{"Label":"Srpenica 42, SI- 5224 Bovec, Slovenija","Country":"SVN","County":"Tolmin","City":"Bovec","District":"Srpenica","Street":"Srpenica","HouseNumber":"42","PostalCode":"5224","AdditionalData":[{"value":"Slovenija","key":"CountryName"},{"value":"Tolmin","key":"CountyName"}]},"MapReference":{"ReferenceId":"710435437","Spot":0.57,"SideOfStreet":"left","CountryId":"20633685","CountyId":"20640530","CityId":"22689904","DistrictId":"22691027","AddressId":"406815171","RoadLinkId":"115622097"}}},{"Relevance":1.0,"Distance":64.5,"MatchLevel":"houseNumber","MatchQuality":{"Country":1.0,"County":1.0,"City":1.0,"District":1.0,"Street":[1.0],"HouseNumber":1.0,"PostalCode":1.0},"MatchType":"interpolated","Location":{"LocationId":"NT_i4nSOll6rNBliwZu0dqP6C_4ID","LocationType":"point","DisplayPosition":{"Latitude":46.29219,"Longitude":13.49835},"MapView":{"TopLeft":{"Latitude":46.2933142,"Longitude":13.4967231},"BottomRight":{"Latitude":46.2910658,"Longitude":13.4999769}},"Address":{"Label":"Srpenica 82, SI- 5224 Bovec, Slovenija","Country":"SVN","County":"Tolmin","City":"Bovec","District":"Srpenica","Street":"Srpenica","HouseNumber":"82","PostalCode":"5224","AdditionalData":[{"value":"Slovenija","key":"CountryName"},{"value":"Tolmin","key":"CountyName"}]},"MapReference":{"ReferenceId":"710490467","Spot":0.18,"SideOfStreet":"left","CountryId":"20633685","CountyId":"20640530","CityId":"22689904","DistrictId":"22691027","AddressId":"406572974","RoadLinkId":"115677517"}}},{"Relevance":1.0,"Distance":64.7,"MatchLevel":"houseNumber","MatchQuality":{"Country":1.0,"County":1.0,"City":1.0,"District":1.0,"Street":[1.0],"HouseNumber":1.0,"PostalCode":1.0},"MatchType":"interpolated","Location":{"LocationId":"NT_i4nSOll6rNBliwZu0dqP6C_1MD","LocationType":"point","DisplayPosition":{"Latitude":46.291,"Longitude":13.4989},"MapView":{"TopLeft":{"Latitude":46.2921242,"Longitude":13.4972731},"BottomRight":{"Latitude":46.2898758,"Longitude":13.5005269}},"Address":{"Label":"Srpenica 53, SI- 5224 Bovec, Slovenija","Country":"SVN","County":"Tolmin","City":"Bovec","District":"Srpenica","Street":"Srpenica","HouseNumber":"53","PostalCode":"5224","AdditionalData":[{"value":"Slovenija","key":"CountryName"},{"value":"Tolmin","key":"CountyName"}]},"MapReference":{"ReferenceId":"779455397","Spot":0.0,"SideOfStreet":"left","CountryId":"20633685","CountyId":"20640530","CityId":"22689904","DistrictId":"22691027","AddressId":"406610881","RoadLinkId":"172876847"}}},{"Relevance":1.0,"Distance":71.2,"MatchLevel":"street","MatchQuality":{"Country":1.0,"County":1.0,"City":1.0,"District":1.0,"Street":[1.0],"PostalCode":1.0},"Location":{"LocationId":"NT_i4nSOll6rNBliwZu0dqP6C_l_779455396_L","LocationType":"point","DisplayPosition":{"Latitude":46.29108,"Longitude":13.49903},"MapView":{"TopLeft":{"Latitude":46.29108,"Longitude":13.49899},"BottomRight":{"Latitude":46.29106,"Longitude":13.49903}},"Address":{"Label":"Srpenica, SI- 5224 Bovec, Slovenija","Country":"SVN","County":"Tolmin","City":"Bovec","District":"Srpenica","Street":"Srpenica","PostalCode":"5224","AdditionalData":[{"value":"Slovenija","key":"CountryName"},{"value":"Tolmin","key":"CountyName"}]},"MapReference":{"ReferenceId":"779455396","Spot":1.0,"SideOfStreet":"left","CountryId":"20633685","CountyId":"20640530","CityId":"22689904","DistrictId":"22691027"}}},{"Relevance":1.0,"Distance":72.3,"MatchLevel":"houseNumber","MatchQuality":{"Country":1.0,"County":1.0,"City":1.0,"District":1.0,"Street":[1.0],"HouseNumber":1.0,"PostalCode":1.0},"MatchType":"interpolated","Location":{"LocationId":"NT_i4nSOll6rNBliwZu0dqP6C_1AD","LocationType":"point","DisplayPosition":{"Latitude":46.29099,"Longitude":13.49889},"MapView":{"TopLeft":{"Latitude":46.2921142,"Longitude":13.4972631},"BottomRight":{"Latitude":46.2898658,"Longitude":13.5005169}},"Address":{"Label":"Srpenica 50, SI- 5224 Bovec, Slovenija","Country":"SVN","County":"Tolmin","City":"Bovec","District":"Srpenica","Street":"Srpenica","HouseNumber":"50","PostalCode":"5224","AdditionalData":[{"value":"Slovenija","key":"CountryName"},{"value":"Tolmin","key":"CountyName"}]},"MapReference":{"ReferenceId":"779455399","Spot":0.72,"SideOfStreet":"left","CountryId":"20633685","CountyId":"20640530","CityId":"22689904","DistrictId":"22691027","AddressId":"406607981","RoadLinkId":"172876849"}}}]}]}}