{"Response":{"MetaInfo":{"Timestamp":"2020-03-28T12:02:31.304+0000","NextPageInformation":"2"},"View":[{"_type":"SearchResultsViewType","ViewId":0,"Result":[{"Relevance":1.0,"Distance":0.0,"Direction":0.0,"MatchLevel":"district","MatchQuality":{"Country":1.0,"State":1.0,"County":1.0,"City":1.0,"District":1.0,"PostalCode":1.0},"Location":{"LocationId":"NT_xQV-qb-AGTQG2i4kK394aC","LocationType":"point","DisplayPosition":{"Latitude":46.2782781,"Longitude":19.4918345},"MapView":{"TopLeft":{"Latitude":46.2906,"Longitude":19.4799},"BottomRight":{"Latitude":46.27019,"Longitude":19.50337}},"Address":{"Label":"Kisszállás, Bács-Kiskun, Magyarország","Country":"HUN","State":"Bács-Kiskun","County":"Kiskunhalasi Járás","City":"Kisszállás","District":"Kisszállás","PostalCode":"6421","AdditionalData":[{"value":"Magyarország","key":"CountryName"},{"value":"Bács-Kiskun","key":"StateName"},{"value":"Kiskunhalasi Járás","key":"CountyName"}]},"MapReference":{"ReferenceId":"707906172","SideOfStreet":"neither","CountryId":"20613038","StateId":"20613573","CountyId":"26677990","CityId":"22639850","DistrictId":"26678136"}}},{"Relevance":1.0,"Distance":10.3,"MatchLevel":"houseNumber","MatchQuality":{"Country":1.0,"State":1.0,"County":1.0,"City":1.0,"District":1.0,"Street":[1.0],"HouseNumber":1.0,"PostalCode":1.0},"MatchType":"interpolated","Location":{"LocationId":"NT_WBFkNvT2P04uj8BtMdgmNB_ygD","LocationType":"point","DisplayPosition":{"Latitude":46.27842,"Longitude":19.49207},"MapView":{"TopLeft":{"Latitude":46.2795442,"Longitude":19.4904435},"BottomRight":{"Latitude":46.2772958,"Longitude":19.4936965}},"Address":{"Label":"Fő utca 28, Kisszállás 6421, Magyarország","Country":"HUN","State":"Bács-Kiskun","County":"Kiskunhalasi Járás","City":"Kisszállás","District":"Kisszállás","Street":"Fő utca","HouseNumber":"28","PostalCode":"6421","AdditionalData":[{"value":"Magyarország","key":"CountryName"},{"value":"Bács-Kiskun","key":"StateName"},{"value":"Kiskunhalasi Járás","key":"CountyName"}]},"MapReference":{"ReferenceId":"707906203","Spot":0.49,"SideOfStreet":"left","CountryId":"20613038","StateId":"20613573","CountyId":"26677990","CityId":"22639850","DistrictId":"26678136","AddressId":"355600267","RoadLinkId":"113313907"}}},{"Relevance":1.0,"Distance":48.5,"MatchLevel":"houseNumber","MatchQuality":{"Country":1.0,"State":1.0,"County":1.0,"City":1.0,"District":1.0,"Street":[1.0],"HouseNumber":1.0,"PostalCode":1.0},"MatchType":"interpolated","Location":{"LocationId":"NT_veytuQyDcRv0-dybxWiizA_0A","LocationType":"point","DisplayPosition":{"Latitude":46.2779,"Longitude":19.49152},"MapView":{"TopLeft":{"Latitude":46.2790242,"Longitude":19.4898935},"BottomRight":{"Latitude":46.2767758,"Longitude":19.4931465}},"Address":{"Label":"Ady Endre utca 4, Kisszállás 6421, Magyarország","Country":"HUN","State":"Bács-Kiskun","County":"Kiskunhalasi Járás","City":"Kisszállás","District":"Kisszállás","Street":"Ady Endre utca","HouseNumber":"4","PostalCode":"6421","AdditionalData":[{"value":"Magyarország","key":"CountryName"},{"value":"Bács-Kiskun","key":"StateName"},{"value":"Kiskunhalasi Járás","key":"CountyName"}]},"MapReference":{"ReferenceId":"707906206","Spot":0.22,"SideOfStreet":"left","CountryId":"20613038","StateId":"20613573","CountyId":"26677990","CityId":"22639850","DistrictId":"26678136","AddressId":"357034777","RoadLinkId":"113313910"}}},{"Relevance":1.0,"Distance":77.2,"MatchLevel":"houseNumber","MatchQuality":{"Country":1.0,"State":1.0,"County":1.0,"City":1.0,"District":1.0,"Street":[1.0],"HouseNumber":1.0,"PostalCode":1.0},"MatchType":"interpolated","Location":{"LocationId":"NT_WBFkNvT2P04uj8BtMdgmNB_ycD","LocationType":"point","DisplayPosition":{"Latitude":46.27847,"Longitude":19.4928},"MapView":{"TopLeft":{"Latitude":46.2795942,"Longitude":19.4911735},"BottomRight":{"Latitude":46.2773458,"Longitude":19.4944265}},"Address":{"Label":"Fő utca 27, Kisszállás 6421, Magyarország","Country":"HUN","State":"Bács-Kiskun","County":"Kiskunhalasi Járás","City":"Kisszállás","District":"Kisszállás","Street":"Fő utca","HouseNumber":"27","PostalCode":"6421","AdditionalData":[{"value":"Magyarország","key":"CountryName"},{"value":"Bács-Kiskun","key":"StateName"},{"value":"Kiskunhalasi Járás","key":"CountyName"}]},"MapReference":{"ReferenceId":"707906200","Spot":0.51,"SideOfStreet":"right","CountryId":"20613038","StateId":"20613573","CountyId":"26677990","CityId":"22639850","DistrictId":"26678136","AddressId":"355632981","RoadLinkId":"113313904"}}},{"Relevance":1.0,"Distance":80.5,"MatchLevel":"houseNumber","MatchQuality":{"Country":1.0,"State":1.0,"County":1.0,"City":1.0,"District":1.0,"Street":[1.0],"HouseNumber":1.0,"PostalCode":1.0},"MatchType":"interpolated","Location":{"LocationId":"NT_hTWpqPq.KQushVp-B6PvmC_yAD","LocationType":"point","DisplayPosition":{"Latitude":46.2775,"Longitude":19.49246},"MapView":{"TopLeft":{"Latitude":46.2786242,"Longitude":19.4908335},"BottomRight":{"Latitude":46.2763758,"Longitude":19.4940865}},"Address":{"Label":"Malom utca 20, Kisszállás 6421, Magyarország","Country":"HUN","State":"Bács-Kiskun","County":"Kiskunhalasi Járás","City":"Kisszállás","District":"Kisszállás","Street":"Malom utca","HouseNumber":"20","PostalCode":"6421","AdditionalData":[{"value":"Magyarország","key":"CountryName"},{"value":"Bács-Kiskun","key":"StateName"},{"value":"Kiskunhalasi Járás","key":"CountyName"}]},"MapReference":{"ReferenceId":"707906213","Spot":0.54,"SideOfStreet":"left","CountryId":"20613038","StateId":"20613573","CountyId":"26677990","CityId":"22639850","DistrictId":"26678136","AddressId":"357131105","RoadLinkId":"113313917"}}},{"Relevance":1.0,"Distance":84.0,"MatchLevel":"houseNumber","MatchQuality":{"Country":1.0,"State":1.0,"County":1.0,"City":1.0,"District":1.0,"Street":[1.0],"HouseNumber":1.0,"PostalCode":1.0},"MatchType":"interpolated","Location":{"LocationId":"NT_WBFkNvT2P04uj8BtMdgmNB_xgD","LocationType":"point","DisplayPosition":{"Latitude":46.27778,"Longitude":19.49268},"MapView":{"TopLeft":{"Latitude":46.2789042,"Longitude":19.4910535},"BottomRight":{"Latitude":46.2766558,"Longitude":19.4943065}},"Address":{"Label":"Fő utca 18, Kisszállás 6421, Magyarország","Country":"HUN","State":"Bács-Kiskun","County":"Kiskunhalasi Járás","City":"Kisszállás","District":"Kisszállás","Street":"Fő utca","HouseNumber":"18","PostalCode":"6421","AdditionalData":[{"value":"Magyarország","key":"CountryName"},{"value":"Bács-Kiskun","key":"StateName"},{"value":"Kiskunhalasi Járás","key":"CountyName"}]},"MapReference":{"ReferenceId":"707906205","Spot":0.68,"SideOfStreet":"left","CountryId":"20613038","StateId":"20613573","CountyId":"26677990","CityId":"22639850","DistrictId":"26678136","AddressId":"777225626","RoadLinkId":"113313909"}}},{"Relevance":1.0,"Distance":85.5,"MatchLevel":"street","MatchQuality":{"Country":1.0,"State":1.0,"County":1.0,"City":1.0,"District":1.0,"Street":[1.0],"PostalCode":1.0},"Location":{"LocationId":"NT_veytuQyDcRv0-dybxWiizA_l_707906214_R","LocationType":"point","DisplayPosition":{"Latitude":46.27751,"Longitude":19.49188},"MapView":{"TopLeft":{"Latitude":46.27751,"Longitude":19.49188},"BottomRight":{"Latitude":46.27734,"Longitude":19.49205}},"Address":{"Label":"Ady Endre utca, Kisszállás 6421, Magyarország","Country":"HUN","State":"Bács-Kiskun","County":"Kiskunhalasi Járás","City":"Kisszállás","District":"Kisszállás","Street":"Ady Endre utca","PostalCode":"6421","AdditionalData":[{"value":"Magyarország","key":"CountryName"},{"value":"Bács-Kiskun","key":"StateName"},{"value":"Kiskunhalasi Járás","key":"CountyName"}]},"MapReference":{"ReferenceId":"707906214","Spot":1.0,"SideOfStreet":"right","CountryId":"20613038","StateId":"20613573","CountyId":"26677990","CityId":"22639850","DistrictId":"26678136"}}},{"Relevance":1.0,"Distance":93.9,"MatchLevel":"houseNumber","MatchQuality":{"Country":1.0,"State":1.0,"County":1.0,"City":1.0,"District":1.0,"Street":[1.0],"HouseNumber":1.0,"PostalCode":1.0},"MatchType":"interpolated","Location":{"LocationId":"NT_WBFkNvT2P04uj8BtMdgmNB_ykD","LocationType":"point","DisplayPosition":{"Latitude":46.27907,"Longitude":19.49226},"MapView":{"TopLeft":{"Latitude":46.2801942,"Longitude":19.4906335},"BottomRight":{"Latitude":46.2779458,"Longitude":19.4938865}},"Address":{"Label":"Fő utca 29, Kisszállás 6421, Magyarország","Country":"HUN","State":"Bács-Kiskun","County":"Kiskunhalasi Járás","City":"Kisszállás","District":"Kisszállás","Street":"Fő utca","HouseNumber":"29","PostalCode":"6421","AdditionalData":[{"value":"Magyarország","key":"CountryName"},{"value":"Bács-Kiskun","key":"StateName"},{"value":"Kiskunhalasi Járás","key":"CountyName"}]},"MapReference":{"ReferenceId":"707906181","Spot":0.17,"SideOfStreet":"right","CountryId":"20613038","StateId":"20613573","CountyId":"26677990","CityId":"22639850","DistrictId":"26678136","AddressId":"355295110","RoadLinkId":"113313883"}}},{"Relevance":1.0,"Distance":100.4,"MatchLevel":"street","MatchQuality":{"Country":1.0,"State":1.0,"County":1.0,"City":1.0,"District":1.0,"Street":[1.0],"PostalCode":1.0},"Location":{"LocationId":"NT_-3lBZvEPl.QJ8CRnmUlTnA_l_707906204_L","LocationType":"point","DisplayPosition":{"Latitude":46.27767,"Longitude":19.4928},"MapView":{"TopLeft":{"Latitude":46.27793,"Longitude":19.4928},"BottomRight":{"Latitude":46.27767,"Longitude":19.49329}},"Address":{"Label":"Malom utca, Kisszállás 6421, Magyarország","Country":"HUN","State":"Bács-Kiskun","County":"Kiskunhalasi Járás","City":"Kisszállás","District":"Kisszállás","Street":"Malom utca","PostalCode":"6421","AdditionalData":[{"value":"Magyarország","key":"CountryName"},{"value":"Bács-Kiskun","key":"StateName"},{"value":"Kiskunhalasi Járás","key":"CountyName"}]},"MapReference":{"ReferenceId":"707906204","Spot":0.0,"SideOfStreet":"left","CountryId":"20613038","StateId":"20613573","CountyId":"26677990","CityId":"22639850","DistrictId":"26678136"}}},{"Relevance":1.0,"Distance":105.6,"MatchLevel":"houseNumber","MatchQuality":{"Country":1.0,"State":1.0,"County":1.0,"City":1.0,"District":1.0,"Street":[1.0],"HouseNumber":1.0,"PostalCode":1.0},"MatchType":"interpolated","Location":{"LocationId":"NT_nsbFTovguWl8ShuazjIrhB_xA","LocationType":"point","DisplayPosition":{"Latitude":46.27912,"Longitude":19.49261},"MapView":{"TopLeft":{"Latitude":46.2802442,"Longitude":19.4909835},"BottomRight":{"Latitude":46.2779958,"Longitude":19.4942365}},"Address":{"Label":"Baba utca 1, Kisszállás 6421, Magyarország","Country":"HUN","State":"Bács-Kiskun","County":"Kiskunhalasi Járás","City":"Kisszállás","District":"Kisszállás","Street":"Baba utca","HouseNumber":"1","PostalCode":"6421","AdditionalData":[{"value":"Magyarország","key":"CountryName"},{"value":"Bács-Kiskun","key":"StateName"},{"value":"Kiskunhalasi Járás","key":"CountyName"}]},"MapReference":{"ReferenceId":"707906180","Spot":0.1,"SideOfStreet":"right","CountryId":"20613038","StateId":"20613573","CountyId":"26677990","CityId":"22639850","DistrictId":"26678136","AddressId":"357408133","RoadLinkId":"113313882"}}}]}]}}