{"Response":{"MetaInfo":{"Timestamp":"2020-03-28T11:51:08.364+0000","NextPageInformation":"2"},"View":[{"_type":"SearchResultsViewType","ViewId":0,"Result":[{"Relevance":1.0,"Distance":-3176.5,"MatchLevel":"landmark","MatchQuality":{"Country":1.0,"Name":1.0},"Location":{"LocationId":"NT_UEHlkrgRpTpsmMsnDKvKHC","LocationType":"park","Name":"P.N.R. du Marais Poitevin","DisplayPosition":{"Latitude":46.35512,"Longitude":-1.0068},"MapView":{"TopLeft":{"Latitude":46.55846,"Longitude":-1.54334},"BottomRight":{"Latitude":46.15178,"Longitude":-0.38042}},"Address":{"Label":"France","Country":"FRA","AdditionalData":[{"value":"France","key":"CountryName"}]},"MapReference":{"CountryId":"20000001","PlaceId":"1629380700"}}},{"Relevance":1.0,"Distance":0.0,"Direction":0.0,"MatchLevel":"city","MatchQuality":{"Country":1.0,"State":1.0,"County":1.0,"City":1.0,"PostalCode":1.0},"Location":{"LocationId":"NT_9w3dn0Wb2QCdnBwYX6IH6C","LocationType":"point","DisplayPosition":{"Latitude":46.37035,"Longitude":-0.5902471},"MapView":{"TopLeft":{"Latitude":46.41376,"Longitude":-0.6911},"BottomRight":{"Latitude":46.31694,"Longitude":-0.53815}},"Address":{"Label":"Benet, Pays de la Loire, France","Country":"FRA","State":"Pays de la Loire","County":"Vendée","City":"Benet","PostalCode":"85490","AdditionalData":[{"value":"France","key":"CountryName"},{"value":"Pays de la Loire","key":"StateName"},{"value":"Vendée","key":"CountyName"}]},"MapReference":{"ReferenceId":"561952222","SideOfStreet":"neither","CountryId":"20000001","StateId":"20068992","CountyId":"20080973","CityId":"20081030"}}},{"Relevance":1.0,"Distance":17.1,"MatchLevel":"houseNumber","MatchQuality":{"Country":1.0,"State":1.0,"County":1.0,"City":1.0,"Street":[1.0],"HouseNumber":1.0,"PostalCode":1.0},"MatchType":"interpolated","Location":{"LocationId":"NT_7xYKwvuMtkSncwjF.zKEVA_zID","LocationType":"point","DisplayPosition":{"Latitude":46.37061,"Longitude":-0.59022},"MapView":{"TopLeft":{"Latitude":46.3717342,"Longitude":-0.5918492},"BottomRight":{"Latitude":46.3694858,"Longitude":-0.5885908}},"Address":{"Label":"32 Rue de la Gare, 85490 Benet, France","Country":"FRA","State":"Pays de la Loire","County":"Vendée","City":"Benet","Street":"Rue de la Gare","HouseNumber":"32","PostalCode":"85490","AdditionalData":[{"value":"France","key":"CountryName"},{"value":"Pays de la Loire","key":"StateName"},{"value":"Vendée","key":"CountyName"}]},"MapReference":{"ReferenceId":"561952587","Spot":0.77,"SideOfStreet":"right","CountryId":"20000001","StateId":"20068992","CountyId":"20080973","CityId":"20081030","AddressId":"381421571","RoadLinkId":"47441910"}}},{"Relevance":1.0,"Distance":60.6,"MatchLevel":"houseNumber","MatchQuality":{"Country":1.0,"State":1.0,"County":1.0,"City":1.0,"Street":[1.0],"HouseNumber":1.0,"PostalCode":1.0},"MatchType":"interpolated","Location":{"LocationId":"NT_K2flRVmZlUQJLKHPBvKY1B_xAD","LocationType":"point","DisplayPosition":{"Latitude":46.3701,"Longitude":-0.58943},"MapView":{"TopLeft":{"Latitude":46.3712242,"Longitude":-0.5910592},"BottomRight":{"Latitude":46.3689758,"Longitude":-0.5878008}},"Address":{"Label":"10 Rue de Chambray, 85490 Benet, France","Country":"FRA","State":"Pays de la Loire","County":"Vendée","City":"Benet","Street":"Rue de Chambray","HouseNumber":"10","PostalCode":"85490","AdditionalData":[{"value":"France","key":"CountryName"},{"value":"Pays de la Loire","key":"StateName"},{"value":"Vendée","key":"CountyName"}]},"MapReference":{"ReferenceId":"561952589","Spot":0.35,"SideOfStreet":"left","CountryId":"20000001","StateId":"20068992","CountyId":"20080973","CityId":"20081030","AddressId":"323820639","RoadLinkId":"47958649"}}},{"Relevance":1.0,"Distance":62.4,"MatchLevel":"street","MatchQuality":{"Country":1.0,"State":1.0,"County":1.0,"City":1.0,"Street":[1.0],"PostalCode":1.0},"Location":{"LocationId":"NT_fNiFrqZdIMmQWjuWahzEJB_l_561952588_L","LocationType":"point","DisplayPosition":{"Latitude":46.37065,"Longitude":-0.58956},"MapView":{"TopLeft":{"Latitude":46.37065,"Longitude":-0.58956},"BottomRight":{"Latitude":46.37064,"Longitude":-0.58944}},"Address":{"Label":"Rue de la Gare, 85490 Benet, France","Country":"FRA","State":"Pays de la Loire","County":"Vendée","City":"Benet","Street":"Rue de la Gare","PostalCode":"85490","AdditionalData":[{"value":"France","key":"CountryName"},{"value":"Pays de la Loire","key":"StateName"},{"value":"Vendée","key":"CountyName"}]},"MapReference":{"ReferenceId":"561952588","Spot":1.0,"SideOfStreet":"left","CountryId":"20000001","StateId":"20068992","CountyId":"20080973","CityId":"20081030"}}},{"Relevance":1.0,"Distance":75.3,"MatchLevel":"houseNumber","MatchQuality":{"Country":1.0,"State":1.0,"County":1.0,"City":1.0,"Street":[1.0],"HouseNumber":1.0,"PostalCode":1.0},"MatchType":"interpolated","Location":{"LocationId":"NT_NT78Dt31eaGA88Qp0WbzMA_2MD","LocationType":"point","DisplayPosition":{"Latitude":46.36981,"Longitude":-0.58933},"MapView":{"TopLeft":{"Latitude":46.3709342,"Longitude":-0.5909592},"BottomRight":{"Latitude":46.3686858,"Longitude":-0.5877008}},"Address":{"Label":"63 Rue de Mervent, 85490 Benet, France","Country":"FRA","State":"Pays de la Loire","County":"Vendée","City":"Benet","Street":"Rue de Mervent","HouseNumber":"63","PostalCode":"85490","AdditionalData":[{"value":"France","key":"CountryName"},{"value":"Pays de la Loire","key":"StateName"},{"value":"Vendée","key":"CountyName"}]},"MapReference":{"ReferenceId":"561952579","Spot":0.02,"SideOfStreet":"left","CountryId":"20000001","StateId":"20068992","CountyId":"20080973","CityId":"20081030","AddressId":"376406353","RoadLinkId":"46737397"}}},{"Relevance":1.0,"Distance":77.8,"MatchLevel":"houseNumber","MatchQuality":{"Country":1.0,"State":1.0,"County":1.0,"City":1.0,"Street":[1.0],"HouseNumber":1.0,"PostalCode":1.0},"MatchType":"interpolated","Location":{"LocationId":"NT_7xYKwvuMtkSncwjF.zKEVA_zYD","LocationType":"point","DisplayPosition":{"Latitude":46.37062,"Longitude":-0.58928},"MapView":{"TopLeft":{"Latitude":46.3717442,"Longitude":-0.5909092},"BottomRight":{"Latitude":46.3694958,"Longitude":-0.5876508}},"Address":{"Label":"36 Rue de la Gare, 85490 Benet, France","Country":"FRA","State":"Pays de la Loire","County":"Vendée","City":"Benet","Street":"Rue de la Gare","HouseNumber":"36","PostalCode":"85490","AdditionalData":[{"value":"France","key":"CountryName"},{"value":"Pays de la Loire","key":"StateName"},{"value":"Vendée","key":"CountyName"}]},"MapReference":{"ReferenceId":"1056585203","Spot":0.81,"SideOfStreet":"left","CountryId":"20000001","StateId":"20068992","CountyId":"20080973","CityId":"20081030","AddressId":"381301853","RoadLinkId":"374874027"}}},{"Relevance":1.0,"Distance":101.5,"MatchLevel":"houseNumber","MatchQuality":{"Country":1.0,"State":1.0,"County":1.0,"City":1.0,"Street":[1.0],"HouseNumber":1.0,"PostalCode":1.0},"MatchType":"interpolated","Location":{"LocationId":"NT_2RLC6FIOpFWQTIMWO.ohdA_5A","LocationType":"point","DisplayPosition":{"Latitude":46.37122,"Longitude":-0.5907},"MapView":{"TopLeft":{"Latitude":46.3723442,"Longitude":-0.5923292},"BottomRight":{"Latitude":46.3700958,"Longitude":-0.5890708}},"Address":{"Label":"9 Rue du Grand Saint-Jean, 85490 Benet, France","Country":"FRA","State":"Pays de la Loire","County":"Vendée","City":"Benet","Street":"Rue du Grand Saint-Jean","HouseNumber":"9","PostalCode":"85490","AdditionalData":[{"value":"France","key":"CountryName"},{"value":"Pays de la Loire","key":"StateName"},{"value":"Vendée","key":"CountyName"}]},"MapReference":{"ReferenceId":"1062475977","Spot":0.84,"SideOfStreet":"left","CountryId":"20000001","StateId":"20068992","CountyId":"20080973","CityId":"20081030","AddressId":"323585805","RoadLinkId":"384605684"}}},{"Relevance":1.0,"Distance":132.9,"MatchLevel":"houseNumber","MatchQuality":{"Country":1.0,"State":1.0,"County":1.0,"City":1.0,"Street":[1.0],"HouseNumber":1.0,"PostalCode":1.0},"MatchType":"interpolated","Location":{"LocationId":"NT_7xYKwvuMtkSncwjF.zKEVA_zkD","LocationType":"point","DisplayPosition":{"Latitude":46.37051,"Longitude":-0.58853},"MapView":{"TopLeft":{"Latitude":46.3716342,"Longitude":-0.5901592},"BottomRight":{"Latitude":46.3693858,"Longitude":-0.5869008}},"Address":{"Label":"39 Rue de la Gare, 85490 Benet, France","Country":"FRA","State":"Pays de la Loire","County":"Vendée","City":"Benet","Street":"Rue de la Gare","HouseNumber":"39","PostalCode":"85490","AdditionalData":[{"value":"France","key":"CountryName"},{"value":"Pays de la Loire","key":"StateName"},{"value":"Vendée","key":"CountyName"}]},"MapReference":{"ReferenceId":"1056585202","Spot":0.59,"SideOfStreet":"right","CountryId":"20000001","StateId":"20068992","CountyId":"20080973","CityId":"20081030","AddressId":"572764824","RoadLinkId":"374874026"}}},{"Relevance":1.0,"Distance":138.1,"MatchLevel":"street","MatchQuality":{"Country":1.0,"State":1.0,"County":1.0,"City":1.0,"Street":[1.0],"PostalCode":1.0},"Location":{"LocationId":"NT_fNiFrqZdIMmQWjuWahzEJB_l_1056585200_R","LocationType":"point","DisplayPosition":{"Latitude":46.3705,"Longitude":-0.58846},"MapView":{"TopLeft":{"Latitude":46.37051,"Longitude":-0.58846},"BottomRight":{"Latitude":46.3705,"Longitude":-0.58832}},"Address":{"Label":"Rue de la Gare, 85490 Benet, France","Country":"FRA","State":"Pays de la Loire","County":"Vendée","City":"Benet","Street":"Rue de la Gare","PostalCode":"85490","AdditionalData":[{"value":"France","key":"CountryName"},{"value":"Pays de la Loire","key":"StateName"},{"value":"Vendée","key":"CountyName"}]},"MapReference":{"ReferenceId":"1056585200","Spot":0.0,"SideOfStreet":"right","CountryId":"20000001","StateId":"20068992","CountyId":"20080973","CityId":"20081030"}}}]}]}}