{"Response":{"MetaInfo":{"Timestamp":"2020-03-31T17:06:36.270+0000","NextPageInformation":"2"},"View":[{"_type":"SearchResultsViewType","ViewId":0,"Result":[{"Relevance":1.0,"Distance":0.0,"Direction":0.0,"MatchLevel":"district","MatchQuality":{"Country":1.0,"County":1.0,"City":1.0,"District":1.0,"PostalCode":1.0},"Location":{"LocationId":"NT_tmFtKzkLoos9iTByYTUl2A","LocationType":"point","DisplayPosition":{"Latitude":46.3611,"Longitude":14.1578},"MapView":{"TopLeft":{"Latitude":46.36529,"Longitude":14.14939},"BottomRight":{"Latitude":46.35197,"Longitude":14.16839}},"Address":{"Label":"Lesce, Radovljica, Slovenija","Country":"SVN","County":"Radovljica","City":"Radovljica","District":"Lesce","PostalCode":"4248","AdditionalData":[{"value":"Slovenija","key":"CountryName"},{"value":"Radovljica","key":"CountyName"}]},"MapReference":{"ReferenceId":"1254425867","SideOfStreet":"neither","CountryId":"20633685","CountyId":"20639151","CityId":"20639200","DistrictId":"22694913"}}},{"Relevance":1.0,"Distance":15.9,"MatchLevel":"houseNumber","MatchQuality":{"Country":1.0,"County":1.0,"City":1.0,"District":1.0,"Street":[1.0],"HouseNumber":1.0,"PostalCode":1.0},"MatchType":"interpolated","Location":{"LocationId":"NT_cKY1ahpcUXV0kjnPsqITcB_4A","LocationType":"point","DisplayPosition":{"Latitude":46.36096,"Longitude":14.15784},"MapView":{"TopLeft":{"Latitude":46.3620842,"Longitude":14.1562111},"BottomRight":{"Latitude":46.3598358,"Longitude":14.1594689}},"Address":{"Label":"Železniška ulica 8, SI- 4248 Radovljica, Slovenija","Country":"SVN","County":"Radovljica","City":"Radovljica","District":"Lesce","Street":"Železniška ulica","HouseNumber":"8","PostalCode":"4248","AdditionalData":[{"value":"Slovenija","key":"CountryName"},{"value":"Radovljica","key":"CountyName"}]},"MapReference":{"ReferenceId":"1254892295","Spot":0.51,"SideOfStreet":"right","CountryId":"20633685","CountyId":"20639151","CityId":"20639200","DistrictId":"22694913","AddressId":"406868693","RoadLinkId":"578233826"}}},{"Relevance":1.0,"Distance":29.4,"MatchLevel":"houseNumber","MatchQuality":{"Country":1.0,"County":1.0,"City":1.0,"District":1.0,"Street":[1.0],"HouseNumber":1.0,"PostalCode":1.0},"MatchType":"interpolated","Location":{"LocationId":"NT_02E3MTx.9Gysg4HMxHubEA_zcjQ","LocationType":"point","DisplayPosition":{"Latitude":46.36153,"Longitude":14.15847},"MapView":{"TopLeft":{"Latitude":46.3626542,"Longitude":14.156841},"BottomRight":{"Latitude":46.3604058,"Longitude":14.160099}},"Address":{"Label":"Alpska cesta 37B, SI- 4248 Radovljica, Slovenija","Country":"SVN","County":"Radovljica","City":"Radovljica","District":"Lesce","Street":"Alpska cesta","HouseNumber":"37B","PostalCode":"4248","AdditionalData":[{"value":"Slovenija","key":"CountryName"},{"value":"Radovljica","key":"CountyName"}]},"MapReference":{"ReferenceId":"1171666772","Spot":0.51,"SideOfStreet":"left","CountryId":"20633685","CountyId":"20639151","CityId":"20639200","DistrictId":"22694913","AddressId":"406889558","RoadLinkId":"478743301"}}},{"Relevance":1.0,"Distance":42.3,"MatchLevel":"houseNumber","MatchQuality":{"Country":1.0,"County":1.0,"City":1.0,"District":1.0,"Street":[1.0],"HouseNumber":1.0,"PostalCode":1.0},"MatchType":"interpolated","Location":{"LocationId":"NT_02E3MTx.9Gysg4HMxHubEA_zcTQ","LocationType":"point","DisplayPosition":{"Latitude":46.36138,"Longitude":14.15867},"MapView":{"TopLeft":{"Latitude":46.3625042,"Longitude":14.157041},"BottomRight":{"Latitude":46.3602558,"Longitude":14.160299}},"Address":{"Label":"Alpska cesta 37A, SI- 4248 Radovljica, Slovenija","Country":"SVN","County":"Radovljica","City":"Radovljica","District":"Lesce","Street":"Alpska cesta","HouseNumber":"37A","PostalCode":"4248","AdditionalData":[{"value":"Slovenija","key":"CountryName"},{"value":"Radovljica","key":"CountyName"}]},"MapReference":{"ReferenceId":"1254425873","Spot":1.0,"SideOfStreet":"left","CountryId":"20633685","CountyId":"20639151","CityId":"20639200","DistrictId":"22694913","AddressId":"406889560","RoadLinkId":"577699265"}}},{"Relevance":1.0,"Distance":44.9,"MatchLevel":"houseNumber","MatchQuality":{"Country":1.0,"County":1.0,"City":1.0,"District":1.0,"Street":[1.0],"HouseNumber":1.0,"PostalCode":1.0},"MatchType":"interpolated","Location":{"LocationId":"NT_cKY1ahpcUXV0kjnPsqITcB_xAD","LocationType":"point","DisplayPosition":{"Latitude":46.36145,"Longitude":14.15753},"MapView":{"TopLeft":{"Latitude":46.3625742,"Longitude":14.155901},"BottomRight":{"Latitude":46.3603258,"Longitude":14.159159}},"Address":{"Label":"Železniška ulica 10, SI- 4248 Radovljica, Slovenija","Country":"SVN","County":"Radovljica","City":"Radovljica","District":"Lesce","Street":"Železniška ulica","HouseNumber":"10","PostalCode":"4248","AdditionalData":[{"value":"Slovenija","key":"CountryName"},{"value":"Radovljica","key":"CountyName"}]},"MapReference":{"ReferenceId":"1254427023","Spot":0.2,"SideOfStreet":"right","CountryId":"20633685","CountyId":"20639151","CityId":"20639200","DistrictId":"22694913","AddressId":"406868694","RoadLinkId":"577700610"}}},{"Relevance":1.0,"Distance":48.3,"MatchLevel":"street","MatchQuality":{"Country":1.0,"County":1.0,"City":1.0,"District":1.0,"PostalCode":1.0},"Location":{"LocationId":"NT_Av9N3WsiOPxL8.07UCMsSA_l_1254892188_R","LocationType":"point","DisplayPosition":{"Latitude":46.360815,"Longitude":14.1573257},"MapView":{"TopLeft":{"Latitude":46.36229,"Longitude":14.15637},"BottomRight":{"Latitude":46.3577,"Longitude":14.1592}},"Address":{"Label":"SI- 4248 Radovljica, Slovenija","Country":"SVN","County":"Radovljica","City":"Radovljica","District":"Lesce","PostalCode":"4248","AdditionalData":[{"value":"Slovenija","key":"CountryName"},{"value":"Radovljica","key":"CountyName"}]},"MapReference":{"ReferenceId":"1254892188","Spot":0.67,"SideOfStreet":"right","CountryId":"20633685","CountyId":"20639151","CityId":"20639200","DistrictId":"22694913"}}},{"Relevance":1.0,"Distance":64.3,"MatchLevel":"houseNumber","MatchQuality":{"Country":1.0,"County":1.0,"City":1.0,"District":1.0,"Street":[1.0],"HouseNumber":1.0,"PostalCode":1.0},"MatchType":"interpolated","Location":{"LocationId":"NT_02E3MTx.9Gysg4HMxHubEA_zkD","LocationType":"point","DisplayPosition":{"Latitude":46.36172,"Longitude":14.15821},"MapView":{"TopLeft":{"Latitude":46.3628442,"Longitude":14.156581},"BottomRight":{"Latitude":46.3605958,"Longitude":14.159839}},"Address":{"Label":"Alpska cesta 39, SI- 4248 Radovljica, Slovenija","Country":"SVN","County":"Radovljica","City":"Radovljica","District":"Lesce","Street":"Alpska cesta","HouseNumber":"39","PostalCode":"4248","AdditionalData":[{"value":"Slovenija","key":"CountryName"},{"value":"Radovljica","key":"CountyName"}]},"MapReference":{"ReferenceId":"1254892181","Spot":0.17,"SideOfStreet":"left","CountryId":"20633685","CountyId":"20639151","CityId":"20639200","DistrictId":"22694913","AddressId":"406517542","RoadLinkId":"578233688"}}},{"Relevance":1.0,"Distance":66.6,"MatchLevel":"houseNumber","MatchQuality":{"Country":1.0,"County":1.0,"City":1.0,"District":1.0,"Street":[1.0],"HouseNumber":1.0,"PostalCode":1.0},"MatchType":"interpolated","Location":{"LocationId":"NT_cKY1ahpcUXV0kjnPsqITcB_1A","LocationType":"point","DisplayPosition":{"Latitude":46.36079,"Longitude":14.15901},"MapView":{"TopLeft":{"Latitude":46.3619142,"Longitude":14.1573811},"BottomRight":{"Latitude":46.3596658,"Longitude":14.1606389}},"Address":{"Label":"Železniška ulica 5, SI- 4248 Radovljica, Slovenija","Country":"SVN","County":"Radovljica","City":"Radovljica","District":"Lesce","Street":"Železniška ulica","HouseNumber":"5","PostalCode":"4248","AdditionalData":[{"value":"Slovenija","key":"CountryName"},{"value":"Radovljica","key":"CountyName"}]},"MapReference":{"ReferenceId":"1254425864","Spot":0.7,"SideOfStreet":"left","CountryId":"20633685","CountyId":"20639151","CityId":"20639200","DistrictId":"22694913","AddressId":"406755747","RoadLinkId":"577699254"}}},{"Relevance":1.0,"Distance":83.8,"MatchLevel":"houseNumber","MatchQuality":{"Country":1.0,"County":1.0,"City":1.0,"District":1.0,"Street":[1.0],"HouseNumber":1.0,"PostalCode":1.0},"MatchType":"interpolated","Location":{"LocationId":"NT_cKY1ahpcUXV0kjnPsqITcB_0A","LocationType":"point","DisplayPosition":{"Latitude":46.36042,"Longitude":14.15827},"MapView":{"TopLeft":{"Latitude":46.3615442,"Longitude":14.1566411},"BottomRight":{"Latitude":46.3592958,"Longitude":14.1598989}},"Address":{"Label":"Železniška ulica 4, SI- 4248 Radovljica, Slovenija","Country":"SVN","County":"Radovljica","City":"Radovljica","District":"Lesce","Street":"Železniška ulica","HouseNumber":"4","PostalCode":"4248","AdditionalData":[{"value":"Slovenija","key":"CountryName"},{"value":"Radovljica","key":"CountyName"}]},"MapReference":{"ReferenceId":"1254892294","Spot":0.25,"SideOfStreet":"right","CountryId":"20633685","CountyId":"20639151","CityId":"20639200","DistrictId":"22694913","AddressId":"406868692","RoadLinkId":"578233825"}}},{"Relevance":1.0,"Distance":92.4,"MatchLevel":"street","MatchQuality":{"Country":1.0,"County":1.0,"City":1.0,"District":1.0,"Street":[1.0],"PostalCode":1.0},"Location":{"LocationId":"NT_w80PMDllFF1UYSjfQXj0GC_l_1254892182_L","LocationType":"point","DisplayPosition":{"Latitude":46.36193,"Longitude":14.15786},"MapView":{"TopLeft":{"Latitude":46.36207,"Longitude":14.15752},"BottomRight":{"Latitude":46.36193,"Longitude":14.15786}},"Address":{"Label":"Alpska cesta, SI- 4248 Radovljica, Slovenija","Country":"SVN","County":"Radovljica","City":"Radovljica","District":"Lesce","Street":"Alpska cesta","PostalCode":"4248","AdditionalData":[{"value":"Slovenija","key":"CountryName"},{"value":"Radovljica","key":"CountyName"}]},"MapReference":{"ReferenceId":"1254892182","Spot":0.0,"SideOfStreet":"left","CountryId":"20633685","CountyId":"20639151","CityId":"20639200","DistrictId":"22694913"}}}]}]}}