{"Response":{"MetaInfo":{"Timestamp":"2020-03-28T11:36:38.463+0000","NextPageInformation":"2"},"View":[{"_type":"SearchResultsViewType","ViewId":0,"Result":[{"Relevance":1.0,"Distance":0.0,"Direction":0.0,"MatchLevel":"district","MatchQuality":{"Country":1.0,"County":1.0,"City":1.0,"District":1.0,"PostalCode":1.0},"Location":{"LocationId":"NT_ASFzWR3Gph3fi0X7zzf8kA","LocationType":"point","DisplayPosition":{"Latitude":46.3130359,"Longitude":15.5780869},"MapView":{"TopLeft":{"Latitude":46.32301,"Longitude":15.56728},"BottomRight":{"Latitude":46.30768,"Longitude":15.58822}},"Address":{"Label":"Poljčane, Slovenija","Country":"SVN","County":"Slovenska Bistrica","City":"Poljčane","District":"Poljčane","PostalCode":"2319","AdditionalData":[{"value":"Slovenija","key":"CountryName"},{"value":"Slovenska Bistrica","key":"CountyName"}]},"MapReference":{"ReferenceId":"1172551545","SideOfStreet":"neither","CountryId":"20633685","CountyId":"20640102","CityId":"23488084","DistrictId":"22693249"}}},{"Relevance":1.0,"Distance":19.6,"MatchLevel":"houseNumber","MatchQuality":{"Country":1.0,"County":1.0,"City":1.0,"District":1.0,"Street":[1.0],"HouseNumber":1.0,"PostalCode":1.0},"MatchType":"interpolated","Location":{"LocationId":"NT_ykUV-MEHlhwstJelK107.D_2ID","LocationType":"point","DisplayPosition":{"Latitude":46.31277,"Longitude":15.57819},"MapView":{"TopLeft":{"Latitude":46.3138942,"Longitude":15.5765625},"BottomRight":{"Latitude":46.3116458,"Longitude":15.5798175}},"Address":{"Label":"Ob železnici 62, SI- 2319 Poljčane, Slovenija","Country":"SVN","County":"Slovenska Bistrica","City":"Poljčane","District":"Poljčane","Street":"Ob železnici","HouseNumber":"62","PostalCode":"2319","AdditionalData":[{"value":"Slovenija","key":"CountryName"},{"value":"Slovenska Bistrica","key":"CountyName"}]},"MapReference":{"ReferenceId":"1268519273","Spot":0.24,"SideOfStreet":"right","CountryId":"20633685","CountyId":"20640102","CityId":"23488084","DistrictId":"22693249","AddressId":"406519375","RoadLinkId":"595611028"}}},{"Relevance":1.0,"Distance":28.7,"MatchLevel":"houseNumber","MatchQuality":{"Country":1.0,"County":1.0,"City":1.0,"District":1.0,"Street":[1.0],"HouseNumber":1.0,"PostalCode":1.0},"MatchType":"interpolated","Location":{"LocationId":"NT_MzsZo4IQaHwlNANAnE0DzC_2AD","LocationType":"point","DisplayPosition":{"Latitude":46.31328,"Longitude":15.57821},"MapView":{"TopLeft":{"Latitude":46.3144042,"Longitude":15.5765825},"BottomRight":{"Latitude":46.3121558,"Longitude":15.5798375}},"Address":{"Label":"Bistriška cesta 60, SI- 2319 Poljčane, Slovenija","Country":"SVN","County":"Slovenska Bistrica","City":"Poljčane","District":"Poljčane","Street":"Bistriška cesta","HouseNumber":"60","PostalCode":"2319","AdditionalData":[{"value":"Slovenija","key":"CountryName"},{"value":"Slovenska Bistrica","key":"CountyName"}]},"MapReference":{"ReferenceId":"931750304","Spot":0.12,"SideOfStreet":"right","CountryId":"20633685","CountyId":"20640102","CityId":"23488084","DistrictId":"22693249","AddressId":"709621554","RoadLinkId":"285698229"}}},{"Relevance":1.0,"Distance":35.2,"MatchLevel":"street","MatchQuality":{"Country":1.0,"County":1.0,"City":1.0,"District":1.0,"Street":[1.0],"PostalCode":1.0},"Location":{"LocationId":"NT_MzsZo4IQaHwlNANAnE0DzC_l_1133045974_L","LocationType":"point","DisplayPosition":{"Latitude":46.3129617,"Longitude":15.578532},"MapView":{"TopLeft":{"Latitude":46.31307,"Longitude":15.57852},"BottomRight":{"Latitude":46.31289,"Longitude":15.57855}},"Address":{"Label":"Bistriška cesta, SI- 2319 Poljčane, Slovenija","Country":"SVN","County":"Slovenska Bistrica","City":"Poljčane","District":"Poljčane","Street":"Bistriška cesta","PostalCode":"2319","AdditionalData":[{"value":"Slovenija","key":"CountryName"},{"value":"Slovenska Bistrica","key":"CountyName"}]},"MapReference":{"ReferenceId":"1133045974","Spot":0.4,"SideOfStreet":"left","CountryId":"20633685","CountyId":"20640102","CityId":"23488084","DistrictId":"22693249"}}},{"Relevance":1.0,"Distance":36.1,"MatchLevel":"houseNumber","MatchQuality":{"Country":1.0,"County":1.0,"City":1.0,"District":1.0,"Street":[1.0],"HouseNumber":1.0,"PostalCode":1.0},"MatchType":"interpolated","Location":{"LocationId":"NT_MzsZo4IQaHwlNANAnE0DzC_2cD","LocationType":"point","DisplayPosition":{"Latitude":46.31309,"Longitude":15.57855},"MapView":{"TopLeft":{"Latitude":46.3142142,"Longitude":15.5769225},"BottomRight":{"Latitude":46.3119658,"Longitude":15.5801775}},"Address":{"Label":"Bistriška cesta 67, SI- 2319 Poljčane, Slovenija","Country":"SVN","County":"Slovenska Bistrica","City":"Poljčane","District":"Poljčane","Street":"Bistriška cesta","HouseNumber":"67","PostalCode":"2319","AdditionalData":[{"value":"Slovenija","key":"CountryName"},{"value":"Slovenska Bistrica","key":"CountyName"}]},"MapReference":{"ReferenceId":"1133045975","Spot":0.05,"SideOfStreet":"right","CountryId":"20633685","CountyId":"20640102","CityId":"23488084","DistrictId":"22693249","AddressId":"742798814","RoadLinkId":"443032505"}}},{"Relevance":1.0,"Distance":37.0,"MatchLevel":"street","MatchQuality":{"Country":1.0,"County":1.0,"City":1.0,"District":1.0,"Street":[1.0],"PostalCode":1.0},"Location":{"LocationId":"NT_eeGbN5gFqOksQWJ-Aeu4EC_l_1133045973_L","LocationType":"point","DisplayPosition":{"Latitude":46.31289,"Longitude":15.57852},"MapView":{"TopLeft":{"Latitude":46.31289,"Longitude":15.57849},"BottomRight":{"Latitude":46.31273,"Longitude":15.57852}},"Address":{"Label":"Bistriška cesta, SI- 2319 Poljčane, Slovenija","Country":"SVN","County":"Slovenska Bistrica","City":"Poljčane","District":"Poljčane","Street":"Bistriška cesta","PostalCode":"2319","AdditionalData":[{"value":"Slovenija","key":"CountryName"},{"value":"Slovenska Bistrica","key":"CountyName"}]},"MapReference":{"ReferenceId":"1133045973","Spot":1.0,"SideOfStreet":"left","CountryId":"20633685","CountyId":"20640102","CityId":"23488084","DistrictId":"22693249"}}},{"Relevance":1.0,"Distance":44.0,"MatchLevel":"houseNumber","MatchQuality":{"Country":1.0,"County":1.0,"City":1.0,"District":1.0,"Street":[1.0],"HouseNumber":1.0,"PostalCode":1.0},"MatchType":"interpolated","Location":{"LocationId":"NT_ykUV-MEHlhwstJelK107.D_2cD","LocationType":"point","DisplayPosition":{"Latitude":46.31304,"Longitude":15.57866},"MapView":{"TopLeft":{"Latitude":46.3141642,"Longitude":15.5770325},"BottomRight":{"Latitude":46.3119158,"Longitude":15.5802875}},"Address":{"Label":"Ob železnici 67, SI- 2319 Poljčane, Slovenija","Country":"SVN","County":"Slovenska Bistrica","City":"Poljčane","District":"Poljčane","Street":"Ob železnici","HouseNumber":"67","PostalCode":"2319","AdditionalData":[{"value":"Slovenija","key":"CountryName"},{"value":"Slovenska Bistrica","key":"CountyName"}]},"MapReference":{"ReferenceId":"1133045976","Spot":0.6,"SideOfStreet":"right","CountryId":"20633685","CountyId":"20640102","CityId":"23488084","DistrictId":"22693249","AddressId":"709621555","RoadLinkId":"443032507"}}},{"Relevance":1.0,"Distance":46.0,"MatchLevel":"houseNumber","MatchQuality":{"Country":1.0,"County":1.0,"City":1.0,"District":1.0,"Street":[1.0],"HouseNumber":1.0,"PostalCode":1.0},"MatchType":"interpolated","Location":{"LocationId":"NT_MzsZo4IQaHwlNANAnE0DzC_3ED","LocationType":"point","DisplayPosition":{"Latitude":46.31273,"Longitude":15.57849},"MapView":{"TopLeft":{"Latitude":46.3138542,"Longitude":15.5768625},"BottomRight":{"Latitude":46.3116058,"Longitude":15.5801175}},"Address":{"Label":"Bistriška cesta 71, SI- 2319 Poljčane, Slovenija","Country":"SVN","County":"Slovenska Bistrica","City":"Poljčane","District":"Poljčane","Street":"Bistriška cesta","HouseNumber":"71","PostalCode":"2319","AdditionalData":[{"value":"Slovenija","key":"CountryName"},{"value":"Slovenska Bistrica","key":"CountyName"}]},"MapReference":{"ReferenceId":"1133045972","Spot":1.0,"SideOfStreet":"right","CountryId":"20633685","CountyId":"20640102","CityId":"23488084","DistrictId":"22693249","AddressId":"742790833","RoadLinkId":"443032500"}}},{"Relevance":1.0,"Distance":52.0,"MatchLevel":"houseNumber","MatchQuality":{"Country":1.0,"County":1.0,"City":1.0,"District":1.0,"Street":[1.0],"HouseNumber":1.0,"PostalCode":1.0},"MatchType":"interpolated","Location":{"LocationId":"NT_ykUV-MEHlhwstJelK107.D_2kD","LocationType":"point","DisplayPosition":{"Latitude":46.31287,"Longitude":15.57872},"MapView":{"TopLeft":{"Latitude":46.3139942,"Longitude":15.5770925},"BottomRight":{"Latitude":46.3117458,"Longitude":15.5803475}},"Address":{"Label":"Ob železnici 69, SI- 2319 Poljčane, Slovenija","Country":"SVN","County":"Slovenska Bistrica","City":"Poljčane","District":"Poljčane","Street":"Ob železnici","HouseNumber":"69","PostalCode":"2319","AdditionalData":[{"value":"Slovenija","key":"CountryName"},{"value":"Slovenska Bistrica","key":"CountyName"}]},"MapReference":{"ReferenceId":"1133045968","Spot":0.56,"SideOfStreet":"left","CountryId":"20633685","CountyId":"20640102","CityId":"23488084","DistrictId":"22693249","AddressId":"709622973","RoadLinkId":"443032506"}}},{"Relevance":1.0,"Distance":59.9,"MatchLevel":"houseNumber","MatchQuality":{"Country":1.0,"County":1.0,"City":1.0,"District":1.0,"Street":[1.0],"HouseNumber":1.0,"PostalCode":1.0},"MatchType":"interpolated","Location":{"LocationId":"NT_MzsZo4IQaHwlNANAnE0DzC_2QD","LocationType":"point","DisplayPosition":{"Latitude":46.31246,"Longitude":15.57845},"MapView":{"TopLeft":{"Latitude":46.3135842,"Longitude":15.5768225},"BottomRight":{"Latitude":46.3113358,"Longitude":15.5800775}},"Address":{"Label":"Bistriška cesta 64, SI- 2319 Poljčane, Slovenija","Country":"SVN","County":"Slovenska Bistrica","City":"Poljčane","District":"Poljčane","Street":"Bistriška cesta","HouseNumber":"64","PostalCode":"2319","AdditionalData":[{"value":"Slovenija","key":"CountryName"},{"value":"Slovenska Bistrica","key":"CountyName"}]},"MapReference":{"ReferenceId":"1133045971","Spot":0.08,"SideOfStreet":"left","CountryId":"20633685","CountyId":"20640102","CityId":"23488084","DistrictId":"22693249","AddressId":"406519369","RoadLinkId":"443032496"}}}]}]}}