{"Response":{"MetaInfo":{"Timestamp":"2020-03-28T11:50:58.655+0000","NextPageInformation":"2"},"View":[{"_type":"SearchResultsViewType","ViewId":0,"Result":[{"Relevance":1.0,"Distance":0.0,"Direction":0.0,"MatchLevel":"city","MatchQuality":{"Country":1.0,"State":1.0,"County":1.0,"City":1.0,"PostalCode":1.0},"Location":{"LocationId":"NT_s18mE9HKBNtDRg8oElOryB","LocationType":"point","DisplayPosition":{"Latitude":46.3820554,"Longitude":4.8504657},"MapView":{"TopLeft":{"Latitude":46.39284,"Longitude":4.83947},"BottomRight":{"Latitude":46.36836,"Longitude":4.8741}},"Address":{"Label":"Saint-Martin-Belle-Roche, Bourgogne-Franche-Comté, France","Country":"FRA","State":"Bourgogne-Franche-Comté","County":"Saône-et-Loire","City":"Saint-Martin-Belle-Roche","PostalCode":"71118","AdditionalData":[{"value":"France","key":"CountryName"},{"value":"Bourgogne-Franche-Comté","key":"StateName"},{"value":"Saône-et-Loire","key":"CountyName"}]},"MapReference":{"ReferenceId":"1044193879","SideOfStreet":"neither","CountryId":"20000001","StateId":"20013306","CountyId":"20037146","CityId":"20038506"}}},{"Relevance":1.0,"Distance":47.8,"MatchLevel":"street","MatchQuality":{"Country":1.0,"State":1.0,"County":1.0,"City":1.0,"PostalCode":1.0},"Location":{"LocationId":"NT_1ktvvokAjmseXrVBIngcvA_l_582772897_L","LocationType":"point","DisplayPosition":{"Latitude":46.3816972,"Longitude":4.8508104},"MapView":{"TopLeft":{"Latitude":46.38239,"Longitude":4.85046},"BottomRight":{"Latitude":46.38136,"Longitude":4.85163}},"Address":{"Label":"71118 Saint-Martin-Belle-Roche, France","Country":"FRA","State":"Bourgogne-Franche-Comté","County":"Saône-et-Loire","City":"Saint-Martin-Belle-Roche","PostalCode":"71118","AdditionalData":[{"value":"France","key":"CountryName"},{"value":"Bourgogne-Franche-Comté","key":"StateName"},{"value":"Saône-et-Loire","key":"CountyName"}]},"MapReference":{"ReferenceId":"582772897","Spot":0.31,"SideOfStreet":"left","CountryId":"20000001","StateId":"20013306","CountyId":"20037146","CityId":"20038506"}}},{"Relevance":1.0,"Distance":75.8,"MatchLevel":"houseNumber","MatchQuality":{"Country":1.0,"State":1.0,"County":1.0,"City":1.0,"Street":[1.0],"HouseNumber":1.0,"PostalCode":1.0},"MatchType":"interpolated","Location":{"LocationId":"NT_ZyoC6jGVL1u5H0msPid6NA_l_582773229_L_1UD","LocationType":"point","DisplayPosition":{"Latitude":46.3828404,"Longitude":4.8507883},"MapView":{"TopLeft":{"Latitude":46.3839646,"Longitude":4.8491587},"BottomRight":{"Latitude":46.3817163,"Longitude":4.8524179}},"Address":{"Label":"55 Route des Carrières, 71118 Saint-Martin-Belle-Roche, France","Country":"FRA","State":"Bourgogne-Franche-Comté","County":"Saône-et-Loire","City":"Saint-Martin-Belle-Roche","Street":"Route des Carrières","HouseNumber":"55","PostalCode":"71118","AdditionalData":[{"value":"France","key":"CountryName"},{"value":"Bourgogne-Franche-Comté","key":"StateName"},{"value":"Saône-et-Loire","key":"CountyName"}]},"MapReference":{"ReferenceId":"582773229","Spot":0.06,"SideOfStreet":"left","CountryId":"20000001","StateId":"20013306","CountyId":"20037146","CityId":"20038506"}}},{"Relevance":1.0,"Distance":92.9,"MatchLevel":"street","MatchQuality":{"Country":1.0,"State":1.0,"County":1.0,"City":1.0,"Street":[1.0],"PostalCode":1.0},"Location":{"LocationId":"NT_LVZHJPmGaxiHEdOyk3PVJA_l_582772880_L","LocationType":"point","DisplayPosition":{"Latitude":46.38147,"Longitude":4.85133},"MapView":{"TopLeft":{"Latitude":46.38185,"Longitude":4.85122},"BottomRight":{"Latitude":46.38105,"Longitude":4.85167}},"Address":{"Label":"Route de Sennecé, 71118 Saint-Martin-Belle-Roche, France","Country":"FRA","State":"Bourgogne-Franche-Comté","County":"Saône-et-Loire","City":"Saint-Martin-Belle-Roche","Street":"Route de Sennecé","PostalCode":"71118","AdditionalData":[{"value":"France","key":"CountryName"},{"value":"Bourgogne-Franche-Comté","key":"StateName"},{"value":"Saône-et-Loire","key":"CountyName"}]},"MapReference":{"ReferenceId":"582772880","Spot":0.47,"SideOfStreet":"left","CountryId":"20000001","StateId":"20013306","CountyId":"20037146","CityId":"20038506"}}},{"Relevance":1.0,"Distance":94.8,"MatchLevel":"houseNumber","MatchQuality":{"Country":1.0,"State":1.0,"County":1.0,"City":1.0,"Street":[1.0],"HouseNumber":1.0,"PostalCode":1.0},"MatchType":"interpolated","Location":{"LocationId":"NT_ZyoC6jGVL1u5H0msPid6NA_l_582773228_R_1QD","LocationType":"point","DisplayPosition":{"Latitude":46.3827552,"Longitude":4.8511715},"MapView":{"TopLeft":{"Latitude":46.3838793,"Longitude":4.8495419},"BottomRight":{"Latitude":46.381631,"Longitude":4.8528011}},"Address":{"Label":"54 Route des Carrières, 71118 Saint-Martin-Belle-Roche, France","Country":"FRA","State":"Bourgogne-Franche-Comté","County":"Saône-et-Loire","City":"Saint-Martin-Belle-Roche","Street":"Route des Carrières","HouseNumber":"54","PostalCode":"71118","AdditionalData":[{"value":"France","key":"CountryName"},{"value":"Bourgogne-Franche-Comté","key":"StateName"},{"value":"Saône-et-Loire","key":"CountyName"}]},"MapReference":{"ReferenceId":"582773228","Spot":0.72,"SideOfStreet":"right","CountryId":"20000001","StateId":"20013306","CountyId":"20037146","CityId":"20038506"}}},{"Relevance":1.0,"Distance":95.2,"MatchLevel":"street","MatchQuality":{"Country":1.0,"State":1.0,"County":1.0,"City":1.0,"Street":[1.0],"PostalCode":1.0},"Location":{"LocationId":"NT_LVZHJPmGaxiHEdOyk3PVJA_l_582772881_L","LocationType":"point","DisplayPosition":{"Latitude":46.38185,"Longitude":4.85167},"MapView":{"TopLeft":{"Latitude":46.38187,"Longitude":4.85167},"BottomRight":{"Latitude":46.38185,"Longitude":4.85177}},"Address":{"Label":"Route de Sennecé, 71118 Saint-Martin-Belle-Roche, France","Country":"FRA","State":"Bourgogne-Franche-Comté","County":"Saône-et-Loire","City":"Saint-Martin-Belle-Roche","Street":"Route de Sennecé","PostalCode":"71118","AdditionalData":[{"value":"France","key":"CountryName"},{"value":"Bourgogne-Franche-Comté","key":"StateName"},{"value":"Saône-et-Loire","key":"CountyName"}]},"MapReference":{"ReferenceId":"582772881","Spot":0.0,"SideOfStreet":"left","CountryId":"20000001","StateId":"20013306","CountyId":"20037146","CityId":"20038506"}}},{"Relevance":1.0,"Distance":96.8,"MatchLevel":"street","MatchQuality":{"Country":1.0,"State":1.0,"County":1.0,"City":1.0,"PostalCode":1.0},"Location":{"LocationId":"NT_1ktvvokAjmseXrVBIngcvA_l_582772895_L","LocationType":"point","DisplayPosition":{"Latitude":46.38239,"Longitude":4.85163},"MapView":{"TopLeft":{"Latitude":46.38239,"Longitude":4.85163},"BottomRight":{"Latitude":46.3823,"Longitude":4.85182}},"Address":{"Label":"71118 Saint-Martin-Belle-Roche, France","Country":"FRA","State":"Bourgogne-Franche-Comté","County":"Saône-et-Loire","City":"Saint-Martin-Belle-Roche","PostalCode":"71118","AdditionalData":[{"value":"France","key":"CountryName"},{"value":"Bourgogne-Franche-Comté","key":"StateName"},{"value":"Saône-et-Loire","key":"CountyName"}]},"MapReference":{"ReferenceId":"582772895","Spot":1.0,"SideOfStreet":"left","CountryId":"20000001","StateId":"20013306","CountyId":"20037146","CityId":"20038506"}}},{"Relevance":1.0,"Distance":97.8,"MatchLevel":"street","MatchQuality":{"Country":1.0,"State":1.0,"County":1.0,"City":1.0,"PostalCode":1.0},"Location":{"LocationId":"NT_1ktvvokAjmseXrVBIngcvA_l_582772896_L","LocationType":"point","DisplayPosition":{"Latitude":46.3824382,"Longitude":4.8516139},"MapView":{"TopLeft":{"Latitude":46.38257,"Longitude":4.85161},"BottomRight":{"Latitude":46.38239,"Longitude":4.85164}},"Address":{"Label":"71118 Saint-Martin-Belle-Roche, France","Country":"FRA","State":"Bourgogne-Franche-Comté","County":"Saône-et-Loire","City":"Saint-Martin-Belle-Roche","PostalCode":"71118","AdditionalData":[{"value":"France","key":"CountryName"},{"value":"Bourgogne-Franche-Comté","key":"StateName"},{"value":"Saône-et-Loire","key":"CountyName"}]},"MapReference":{"ReferenceId":"582772896","Spot":0.27,"SideOfStreet":"left","CountryId":"20000001","StateId":"20013306","CountyId":"20037146","CityId":"20038506"}}},{"Relevance":1.0,"Distance":102.2,"MatchLevel":"street","MatchQuality":{"Country":1.0,"State":1.0,"County":1.0,"City":1.0,"Street":[1.0],"PostalCode":1.0},"Location":{"LocationId":"NT_LVZHJPmGaxiHEdOyk3PVJA_l_1152233720_L","LocationType":"point","DisplayPosition":{"Latitude":46.38187,"Longitude":4.85177},"MapView":{"TopLeft":{"Latitude":46.38206,"Longitude":4.85177},"BottomRight":{"Latitude":46.38187,"Longitude":4.85181}},"Address":{"Label":"Route de Sennecé, 71118 Saint-Martin-Belle-Roche, France","Country":"FRA","State":"Bourgogne-Franche-Comté","County":"Saône-et-Loire","City":"Saint-Martin-Belle-Roche","Street":"Route de Sennecé","PostalCode":"71118","AdditionalData":[{"value":"France","key":"CountryName"},{"value":"Bourgogne-Franche-Comté","key":"StateName"},{"value":"Saône-et-Loire","key":"CountyName"}]},"MapReference":{"ReferenceId":"1152233720","Spot":0.0,"SideOfStreet":"left","CountryId":"20000001","StateId":"20013306","CountyId":"20037146","CityId":"20038506"}}},{"Relevance":1.0,"Distance":106.7,"MatchLevel":"street","MatchQuality":{"Country":1.0,"State":1.0,"County":1.0,"City":1.0,"PostalCode":1.0},"Location":{"LocationId":"NT_1ktvvokAjmseXrVBIngcvA_l_582772889_L","LocationType":"point","DisplayPosition":{"Latitude":46.38257,"Longitude":4.85164},"MapView":{"TopLeft":{"Latitude":46.38262,"Longitude":4.85164},"BottomRight":{"Latitude":46.38257,"Longitude":4.85171}},"Address":{"Label":"71118 Saint-Martin-Belle-Roche, France","Country":"FRA","State":"Bourgogne-Franche-Comté","County":"Saône-et-Loire","City":"Saint-Martin-Belle-Roche","PostalCode":"71118","AdditionalData":[{"value":"France","key":"CountryName"},{"value":"Bourgogne-Franche-Comté","key":"StateName"},{"value":"Saône-et-Loire","key":"CountyName"}]},"MapReference":{"ReferenceId":"582772889","Spot":0.0,"SideOfStreet":"left","CountryId":"20000001","StateId":"20013306","CountyId":"20037146","CityId":"20038506"}}}]}]}}