{"Response":{"MetaInfo":{"Timestamp":"2020-03-31T17:06:03.728+0000","NextPageInformation":"2"},"View":[{"_type":"SearchResultsViewType","ViewId":0,"Result":[{"Relevance":1.0,"Distance":0.0,"Direction":0.0,"MatchLevel":"district","MatchQuality":{"Country":1.0,"County":1.0,"City":1.0,"District":1.0,"PostalCode":1.0},"Location":{"LocationId":"NT_JpJydSaY.PTOVW5WaRO.RD","LocationType":"point","DisplayPosition":{"Latitude":46.3128,"Longitude":15.2856},"MapView":{"TopLeft":{"Latitude":46.31847,"Longitude":15.27503},"BottomRight":{"Latitude":46.30838,"Longitude":15.29171}},"Address":{"Label":"Nova Cerkev, Vojnik, Slovenija","Country":"SVN","County":"Celje","City":"Vojnik","District":"Nova Cerkev","PostalCode":"3203","AdditionalData":[{"value":"Slovenija","key":"CountryName"},{"value":"Celje","key":"CountyName"}]},"MapReference":{"ReferenceId":"710599152","SideOfStreet":"neither","CountryId":"20633685","CountyId":"20635092","CityId":"22689843","DistrictId":"22690009"}}},{"Relevance":1.0,"Distance":11.4,"MatchLevel":"houseNumber","MatchQuality":{"Country":1.0,"County":1.0,"City":1.0,"District":1.0,"Street":[1.0],"HouseNumber":1.0,"PostalCode":1.0},"MatchType":"interpolated","Location":{"LocationId":"NT_aOBYs3zdYnVS-2u14hyvkA_zED","LocationType":"point","DisplayPosition":{"Latitude":46.3129,"Longitude":15.28536},"MapView":{"TopLeft":{"Latitude":46.3140242,"Longitude":15.2837325},"BottomRight":{"Latitude":46.3117758,"Longitude":15.2869875}},"Address":{"Label":"Nova cerkev 31, SI- 3203 Vojnik, Slovenija","Country":"SVN","County":"Celje","City":"Vojnik","District":"Nova Cerkev","Street":"Nova cerkev","HouseNumber":"31","PostalCode":"3203","AdditionalData":[{"value":"Slovenija","key":"CountryName"},{"value":"Celje","key":"CountyName"}]},"MapReference":{"ReferenceId":"710555565","Spot":0.19,"SideOfStreet":"right","CountryId":"20633685","CountyId":"20635092","CityId":"22689843","DistrictId":"22690009","AddressId":"406563948","RoadLinkId":"115788638"}}},{"Relevance":1.0,"Distance":27.2,"MatchLevel":"houseNumber","MatchQuality":{"Country":1.0,"County":1.0,"City":1.0,"District":1.0,"Street":[1.0],"HouseNumber":1.0,"PostalCode":1.0},"MatchType":"interpolated","Location":{"LocationId":"NT_aOBYs3zdYnVS-2u14hyvkA_ykD","LocationType":"point","DisplayPosition":{"Latitude":46.31271,"Longitude":15.2852},"MapView":{"TopLeft":{"Latitude":46.3138342,"Longitude":15.2835725},"BottomRight":{"Latitude":46.3115858,"Longitude":15.2868275}},"Address":{"Label":"Nova cerkev 29, SI- 3203 Vojnik, Slovenija","Country":"SVN","County":"Celje","City":"Vojnik","District":"Nova Cerkev","Street":"Nova cerkev","HouseNumber":"29","PostalCode":"3203","AdditionalData":[{"value":"Slovenija","key":"CountryName"},{"value":"Celje","key":"CountyName"}]},"MapReference":{"ReferenceId":"710522541","Spot":0.57,"SideOfStreet":"right","CountryId":"20633685","CountyId":"20635092","CityId":"22689843","DistrictId":"22690009","AddressId":"406829542","RoadLinkId":"115778826"}}},{"Relevance":1.0,"Distance":30.4,"MatchLevel":"houseNumber","MatchQuality":{"Country":1.0,"County":1.0,"City":1.0,"District":1.0,"Street":[1.0],"HouseNumber":1.0,"PostalCode":1.0},"MatchType":"interpolated","Location":{"LocationId":"NT_aOBYs3zdYnVS-2u14hyvkA_zID","LocationType":"point","DisplayPosition":{"Latitude":46.31266,"Longitude":15.28594},"MapView":{"TopLeft":{"Latitude":46.3137842,"Longitude":15.2843125},"BottomRight":{"Latitude":46.3115358,"Longitude":15.2875675}},"Address":{"Label":"Nova cerkev 32, SI- 3203 Vojnik, Slovenija","Country":"SVN","County":"Celje","City":"Vojnik","District":"Nova Cerkev","Street":"Nova cerkev","HouseNumber":"32","PostalCode":"3203","AdditionalData":[{"value":"Slovenija","key":"CountryName"},{"value":"Celje","key":"CountyName"}]},"MapReference":{"ReferenceId":"710518205","Spot":0.46,"SideOfStreet":"left","CountryId":"20633685","CountyId":"20635092","CityId":"22689843","DistrictId":"22690009","AddressId":"406479429","RoadLinkId":"115755866"}}},{"Relevance":1.0,"Distance":40.0,"MatchLevel":"houseNumber","MatchQuality":{"Country":1.0,"County":1.0,"City":1.0,"District":1.0,"Street":[1.0],"HouseNumber":1.0,"PostalCode":1.0},"MatchType":"interpolated","Location":{"LocationId":"NT_BsxzBi3qWmIWgOII7TONkA_yQTQ","LocationType":"point","DisplayPosition":{"Latitude":46.3124,"Longitude":15.2852},"MapView":{"TopLeft":{"Latitude":46.3135242,"Longitude":15.2835725},"BottomRight":{"Latitude":46.3112758,"Longitude":15.2868275}},"Address":{"Label":"693 24A, SI- 3203 Vojnik, Slovenija","Country":"SVN","County":"Celje","City":"Vojnik","District":"Nova Cerkev","Street":"693","HouseNumber":"24A","PostalCode":"3203","AdditionalData":[{"value":"Slovenija","key":"CountryName"},{"value":"Celje","key":"CountyName"}]},"MapReference":{"ReferenceId":"710599152","Spot":0.97,"SideOfStreet":"right","CountryId":"20633685","CountyId":"20635092","CityId":"22689843","DistrictId":"22690009","AddressId":"406774576","RoadLinkId":"115803067"}}},{"Relevance":1.0,"Distance":46.4,"MatchLevel":"street","MatchQuality":{"Country":1.0,"County":1.0,"City":1.0,"District":1.0,"Street":[1.0],"PostalCode":1.0},"Location":{"LocationId":"NT_ayd-hy.jHDhc7u1IIGeofD_l_710516795_R","LocationType":"point","DisplayPosition":{"Latitude":46.3125387,"Longitude":15.2851296},"MapView":{"TopLeft":{"Latitude":46.31261,"Longitude":15.28509},"BottomRight":{"Latitude":46.31242,"Longitude":15.28519}},"Address":{"Label":"693, SI- 3203 Vojnik, Slovenija","Country":"SVN","County":"Celje","City":"Vojnik","District":"Nova Cerkev","Street":"693","PostalCode":"3203","AdditionalData":[{"value":"Slovenija","key":"CountryName"},{"value":"Celje","key":"CountyName"}]},"MapReference":{"ReferenceId":"710516795","Spot":0.62,"SideOfStreet":"right","CountryId":"20633685","CountyId":"20635092","CityId":"22689843","DistrictId":"22690009"}}},{"Relevance":1.0,"Distance":56.1,"MatchLevel":"houseNumber","MatchQuality":{"Country":1.0,"County":1.0,"City":1.0,"District":1.0,"Street":[1.0],"HouseNumber":1.0,"PostalCode":1.0},"MatchType":"interpolated","Location":{"LocationId":"NT_BsxzBi3qWmIWgOII7TONkA_zYD","LocationType":"point","DisplayPosition":{"Latitude":46.31275,"Longitude":15.28483},"MapView":{"TopLeft":{"Latitude":46.3138742,"Longitude":15.2832025},"BottomRight":{"Latitude":46.3116258,"Longitude":15.2864575}},"Address":{"Label":"693 36, SI- 3203 Vojnik, Slovenija","Country":"SVN","County":"Celje","City":"Vojnik","District":"Nova Cerkev","Street":"693","HouseNumber":"36","PostalCode":"3203","AdditionalData":[{"value":"Slovenija","key":"CountryName"},{"value":"Celje","key":"CountyName"}]},"MapReference":{"ReferenceId":"979895111","Spot":0.28,"SideOfStreet":"right","CountryId":"20633685","CountyId":"20635092","CityId":"22689843","DistrictId":"22690009","AddressId":"406870770","RoadLinkId":"312826932"}}},{"Relevance":1.0,"Distance":81.3,"MatchLevel":"houseNumber","MatchQuality":{"Country":1.0,"County":1.0,"City":1.0,"District":1.0,"Street":[1.0],"HouseNumber":1.0,"PostalCode":1.0},"MatchType":"interpolated","Location":{"LocationId":"NT_aOBYs3zdYnVS-2u14hyvkA_3ED","LocationType":"point","DisplayPosition":{"Latitude":46.31355,"Longitude":15.2859},"MapView":{"TopLeft":{"Latitude":46.3146742,"Longitude":15.2842725},"BottomRight":{"Latitude":46.3124258,"Longitude":15.2875275}},"Address":{"Label":"Nova cerkev 71, SI- 3203 Vojnik, Slovenija","Country":"SVN","County":"Celje","City":"Vojnik","District":"Nova Cerkev","Street":"Nova cerkev","HouseNumber":"71","PostalCode":"3203","AdditionalData":[{"value":"Slovenija","key":"CountryName"},{"value":"Celje","key":"CountyName"}]},"MapReference":{"ReferenceId":"710594641","Spot":0.46,"SideOfStreet":"right","CountryId":"20633685","CountyId":"20635092","CityId":"22689843","DistrictId":"22690009","AddressId":"406671301","RoadLinkId":"115736572"}}},{"Relevance":1.0,"Distance":87.7,"MatchLevel":"houseNumber","MatchQuality":{"Country":1.0,"County":1.0,"City":1.0,"District":1.0,"Street":[1.0],"HouseNumber":1.0,"PostalCode":1.0},"MatchType":"interpolated","Location":{"LocationId":"NT_aOBYs3zdYnVS-2u14hyvkA_xIDO","LocationType":"point","DisplayPosition":{"Latitude":46.31304,"Longitude":15.28688},"MapView":{"TopLeft":{"Latitude":46.3141642,"Longitude":15.2852525},"BottomRight":{"Latitude":46.3119158,"Longitude":15.2885075}},"Address":{"Label":"Nova cerkev 128, SI- 3203 Vojnik, Slovenija","Country":"SVN","County":"Celje","City":"Vojnik","District":"Nova Cerkev","Street":"Nova cerkev","HouseNumber":"128","PostalCode":"3203","AdditionalData":[{"value":"Slovenija","key":"CountryName"},{"value":"Celje","key":"CountyName"}]},"MapReference":{"ReferenceId":"710606653","Spot":0.14,"SideOfStreet":"left","CountryId":"20633685","CountyId":"20635092","CityId":"22689843","DistrictId":"22690009","AddressId":"406524557","RoadLinkId":"115778785"}}},{"Relevance":1.0,"Distance":88.5,"MatchLevel":"houseNumber","MatchQuality":{"Country":1.0,"County":1.0,"City":1.0,"District":1.0,"Street":[1.0],"HouseNumber":1.0,"PostalCode":1.0},"MatchType":"interpolated","Location":{"LocationId":"NT_aOBYs3zdYnVS-2u14hyvkA_ycD","LocationType":"point","DisplayPosition":{"Latitude":46.31229,"Longitude":15.28462},"MapView":{"TopLeft":{"Latitude":46.3134142,"Longitude":15.2829925},"BottomRight":{"Latitude":46.3111658,"Longitude":15.2862475}},"Address":{"Label":"Nova cerkev 27, SI- 3203 Vojnik, Slovenija","Country":"SVN","County":"Celje","City":"Vojnik","District":"Nova Cerkev","Street":"Nova cerkev","HouseNumber":"27","PostalCode":"3203","AdditionalData":[{"value":"Slovenija","key":"CountryName"},{"value":"Celje","key":"CountyName"}]},"MapReference":{"ReferenceId":"710582388","Spot":0.62,"SideOfStreet":"left","CountryId":"20633685","CountyId":"20635092","CityId":"22689843","DistrictId":"22690009","AddressId":"406933512","RoadLinkId":"115714194"}}}]}]}}