{"Response":{"MetaInfo":{"Timestamp":"2020-03-28T10:42:57.620+0000","NextPageInformation":"2"},"View":[{"_type":"SearchResultsViewType","ViewId":0,"Result":[{"Relevance":1.0,"Distance":0.0,"Direction":0.0,"MatchLevel":"district","MatchQuality":{"Country":1.0,"State":1.0,"County":1.0,"City":1.0,"District":1.0,"PostalCode":1.0},"Location":{"LocationId":"NT_wlINCOKDavlZ06P78LFn9C","LocationType":"point","DisplayPosition":{"Latitude":46.3680982,"Longitude":17.7670047},"MapView":{"TopLeft":{"Latitude":46.3849,"Longitude":17.75412},"BottomRight":{"Latitude":46.33459,"Longitude":17.84644}},"Address":{"Label":"Kaposvár, Somogy, Magyarország","Country":"HUN","State":"Somogy","County":"Kaposvári Járás","City":"Kaposvár","District":"Kaposvár","PostalCode":"7400","AdditionalData":[{"value":"Magyarország","key":"CountryName"},{"value":"Somogy","key":"StateName"},{"value":"Kaposvári Járás","key":"CountyName"}]},"MapReference":{"ReferenceId":"724987897","SideOfStreet":"neither","CountryId":"20613038","StateId":"20619639","CountyId":"26680543","CityId":"20619961","DistrictId":"26681830"}}},{"Relevance":1.0,"Distance":3.6,"MatchLevel":"houseNumber","MatchQuality":{"Country":1.0,"State":1.0,"County":1.0,"City":1.0,"District":1.0,"Street":[1.0],"HouseNumber":1.0,"PostalCode":1.0},"MatchType":"interpolated","Location":{"LocationId":"NT_REfmpt8bXbxAjF6mxnCYxC_xUD","LocationType":"point","DisplayPosition":{"Latitude":46.36818,"Longitude":17.76684},"MapView":{"TopLeft":{"Latitude":46.3693042,"Longitude":17.7652108},"BottomRight":{"Latitude":46.3670558,"Longitude":17.7684692}},"Address":{"Label":"Hajnóczy József utca 15, Kaposvár 7400, Magyarország","Country":"HUN","State":"Somogy","County":"Kaposvári Járás","City":"Kaposvár","District":"Kaposvár","Street":"Hajnóczy József utca","HouseNumber":"15","PostalCode":"7400","AdditionalData":[{"value":"Magyarország","key":"CountryName"},{"value":"Somogy","key":"StateName"},{"value":"Kaposvári Járás","key":"CountyName"}]},"MapReference":{"ReferenceId":"598322141","Spot":0.13,"SideOfStreet":"right","CountryId":"20613038","StateId":"20619639","CountyId":"26680543","CityId":"20619961","DistrictId":"26681830","AddressId":"357265491","RoadLinkId":"60632339"}}},{"Relevance":1.0,"Distance":17.6,"MatchLevel":"street","MatchQuality":{"Country":1.0,"State":1.0,"County":1.0,"City":1.0,"District":1.0,"Street":[1.0],"PostalCode":1.0},"Location":{"LocationId":"NT_x9IaS8hYlOLx.PhQBmBdjD_l_598322142_R","LocationType":"point","DisplayPosition":{"Latitude":46.36813,"Longitude":17.76678},"MapView":{"TopLeft":{"Latitude":46.36837,"Longitude":17.76662},"BottomRight":{"Latitude":46.36813,"Longitude":17.76678}},"Address":{"Label":"Frankel Leó utca, Kaposvár 7400, Magyarország","Country":"HUN","State":"Somogy","County":"Kaposvári Járás","City":"Kaposvár","District":"Kaposvár","Street":"Frankel Leó utca","PostalCode":"7400","AdditionalData":[{"value":"Magyarország","key":"CountryName"},{"value":"Somogy","key":"StateName"},{"value":"Kaposvári Járás","key":"CountyName"}]},"MapReference":{"ReferenceId":"598322142","Spot":0.0,"SideOfStreet":"right","CountryId":"20613038","StateId":"20619639","CountyId":"26680543","CityId":"20619961","DistrictId":"26681830"}}},{"Relevance":1.0,"Distance":19.2,"MatchLevel":"houseNumber","MatchQuality":{"Country":1.0,"State":1.0,"County":1.0,"City":1.0,"District":1.0,"Street":[1.0],"HouseNumber":1.0,"PostalCode":1.0},"MatchType":"interpolated","Location":{"LocationId":"NT_REfmpt8bXbxAjF6mxnCYxC_xcD","LocationType":"point","DisplayPosition":{"Latitude":46.36804,"Longitude":17.76669},"MapView":{"TopLeft":{"Latitude":46.3691642,"Longitude":17.7650608},"BottomRight":{"Latitude":46.3669158,"Longitude":17.7683192}},"Address":{"Label":"Hajnóczy József utca 17, Kaposvár 7400, Magyarország","Country":"HUN","State":"Somogy","County":"Kaposvári Járás","City":"Kaposvár","District":"Kaposvár","Street":"Hajnóczy József utca","HouseNumber":"17","PostalCode":"7400","AdditionalData":[{"value":"Magyarország","key":"CountryName"},{"value":"Somogy","key":"StateName"},{"value":"Kaposvári Járás","key":"CountyName"}]},"MapReference":{"ReferenceId":"1077833722","Spot":0.33,"SideOfStreet":"right","CountryId":"20613038","StateId":"20619639","CountyId":"26680543","CityId":"20619961","DistrictId":"26681830","AddressId":"356008605","RoadLinkId":"396952758"}}},{"Relevance":1.0,"Distance":39.0,"MatchLevel":"houseNumber","MatchQuality":{"Country":1.0,"State":1.0,"County":1.0,"City":1.0,"District":1.0,"Street":[1.0],"HouseNumber":1.0,"PostalCode":1.0},"MatchType":"interpolated","Location":{"LocationId":"NT_REfmpt8bXbxAjF6mxnCYxC_xkD","LocationType":"point","DisplayPosition":{"Latitude":46.3679,"Longitude":17.76653},"MapView":{"TopLeft":{"Latitude":46.3690242,"Longitude":17.7649009},"BottomRight":{"Latitude":46.3667758,"Longitude":17.7681591}},"Address":{"Label":"Hajnóczy József utca 19, Kaposvár 7400, Magyarország","Country":"HUN","State":"Somogy","County":"Kaposvári Járás","City":"Kaposvár","District":"Kaposvár","Street":"Hajnóczy József utca","HouseNumber":"19","PostalCode":"7400","AdditionalData":[{"value":"Magyarország","key":"CountryName"},{"value":"Somogy","key":"StateName"},{"value":"Kaposvári Járás","key":"CountyName"}]},"MapReference":{"ReferenceId":"1077833721","Spot":0.91,"SideOfStreet":"right","CountryId":"20613038","StateId":"20619639","CountyId":"26680543","CityId":"20619961","DistrictId":"26681830","AddressId":"356008603","RoadLinkId":"396952757"}}},{"Relevance":1.0,"Distance":45.0,"MatchLevel":"houseNumber","MatchQuality":{"Country":1.0,"State":1.0,"County":1.0,"City":1.0,"District":1.0,"Street":[1.0],"HouseNumber":1.0,"PostalCode":1.0},"MatchType":"interpolated","Location":{"LocationId":"NT_REfmpt8bXbxAjF6mxnCYxC_xQD","LocationType":"point","DisplayPosition":{"Latitude":46.36848,"Longitude":17.7672},"MapView":{"TopLeft":{"Latitude":46.3696042,"Longitude":17.7655708},"BottomRight":{"Latitude":46.3673558,"Longitude":17.7688292}},"Address":{"Label":"Hajnóczy József utca 14, Kaposvár 7400, Magyarország","Country":"HUN","State":"Somogy","County":"Kaposvári Járás","City":"Kaposvár","District":"Kaposvár","Street":"Hajnóczy József utca","HouseNumber":"14","PostalCode":"7400","AdditionalData":[{"value":"Magyarország","key":"CountryName"},{"value":"Somogy","key":"StateName"},{"value":"Kaposvári Járás","key":"CountyName"}]},"MapReference":{"ReferenceId":"598322115","Spot":0.88,"SideOfStreet":"left","CountryId":"20613038","StateId":"20619639","CountyId":"26680543","CityId":"20619961","DistrictId":"26681830","AddressId":"355080478","RoadLinkId":"60329836"}}},{"Relevance":1.0,"Distance":45.8,"MatchLevel":"houseNumber","MatchQuality":{"Country":1.0,"State":1.0,"County":1.0,"City":1.0,"District":1.0,"Street":[1.0],"HouseNumber":1.0,"PostalCode":1.0},"MatchType":"interpolated","Location":{"LocationId":"NT_REfmpt8bXbxAjF6mxnCYxC_xED","LocationType":"point","DisplayPosition":{"Latitude":46.3685,"Longitude":17.76732},"MapView":{"TopLeft":{"Latitude":46.3696242,"Longitude":17.7656908},"BottomRight":{"Latitude":46.3673758,"Longitude":17.7689492}},"Address":{"Label":"Hajnóczy József utca 11, Kaposvár 7400, Magyarország","Country":"HUN","State":"Somogy","County":"Kaposvári Járás","City":"Kaposvár","District":"Kaposvár","Street":"Hajnóczy József utca","HouseNumber":"11","PostalCode":"7400","AdditionalData":[{"value":"Magyarország","key":"CountryName"},{"value":"Somogy","key":"StateName"},{"value":"Kaposvári Járás","key":"CountyName"}]},"MapReference":{"ReferenceId":"598322111","Spot":0.07,"SideOfStreet":"right","CountryId":"20613038","StateId":"20619639","CountyId":"26680543","CityId":"20619961","DistrictId":"26681830","AddressId":"356023393","RoadLinkId":"60320158"}}},{"Relevance":1.0,"Distance":54.4,"MatchLevel":"landmark","MatchQuality":{"Country":1.0,"State":1.0,"County":1.0,"City":1.0,"District":1.0,"PostalCode":1.0,"Name":1.0},"Location":{"LocationId":"NT_ej3CIC2ukEB2LBbcHIs9dB","LocationType":"cemetery","Name":"Nyugati temető","DisplayPosition":{"Latitude":46.36678,"Longitude":17.77},"MapView":{"TopLeft":{"Latitude":46.36863,"Longitude":17.76732},"BottomRight":{"Latitude":46.36493,"Longitude":17.77382}},"Address":{"Label":"Kaposvár 7400, Magyarország","Country":"HUN","State":"Somogy","County":"Kaposvári Járás","City":"Kaposvár","District":"Kaposvár","PostalCode":"7400","AdditionalData":[{"value":"Magyarország","key":"CountryName"},{"value":"Somogy","key":"StateName"},{"value":"Kaposvári Járás","key":"CountyName"}]},"MapReference":{"CountryId":"20613038","StateId":"20619639","CountyId":"26680543","CityId":"20619961","DistrictId":"26681830","PlaceId":"1402352467"}}},{"Relevance":1.0,"Distance":61.8,"MatchLevel":"houseNumber","MatchQuality":{"Country":1.0,"State":1.0,"County":1.0,"City":1.0,"District":1.0,"Street":[1.0],"HouseNumber":1.0,"PostalCode":1.0},"MatchType":"interpolated","Location":{"LocationId":"NT_x9IaS8hYlOLx.PhQBmBdjD_yA","LocationType":"point","DisplayPosition":{"Latitude":46.36856,"Longitude":17.76651},"MapView":{"TopLeft":{"Latitude":46.3696842,"Longitude":17.7648808},"BottomRight":{"Latitude":46.3674358,"Longitude":17.7681392}},"Address":{"Label":"Frankel Leó utca 2, Kaposvár 7400, Magyarország","Country":"HUN","State":"Somogy","County":"Kaposvári Járás","City":"Kaposvár","District":"Kaposvár","Street":"Frankel Leó utca","HouseNumber":"2","PostalCode":"7400","AdditionalData":[{"value":"Magyarország","key":"CountryName"},{"value":"Somogy","key":"StateName"},{"value":"Kaposvári Járás","key":"CountyName"}]},"MapReference":{"ReferenceId":"598322116","Spot":0.11,"SideOfStreet":"right","CountryId":"20613038","StateId":"20619639","CountyId":"26680543","CityId":"20619961","DistrictId":"26681830","AddressId":"355221396","RoadLinkId":"60369941"}}},{"Relevance":1.0,"Distance":93.8,"MatchLevel":"houseNumber","MatchQuality":{"Country":1.0,"State":1.0,"County":1.0,"City":1.0,"District":1.0,"Street":[1.0],"HouseNumber":1.0,"PostalCode":1.0},"MatchType":"interpolated","Location":{"LocationId":"NT_1mAPVZ0QfO5IBWj-UzPgJD_xA","LocationType":"point","DisplayPosition":{"Latitude":46.36892,"Longitude":17.76773},"MapView":{"TopLeft":{"Latitude":46.3700442,"Longitude":17.7661008},"BottomRight":{"Latitude":46.3677958,"Longitude":17.7693592}},"Address":{"Label":"Stromfeld Aurél utca 1, Kaposvár 7400, Magyarország","Country":"HUN","State":"Somogy","County":"Kaposvári Járás","City":"Kaposvár","District":"Kaposvár","Street":"Stromfeld Aurél utca","HouseNumber":"1","PostalCode":"7400","AdditionalData":[{"value":"Magyarország","key":"CountryName"},{"value":"Somogy","key":"StateName"},{"value":"Kaposvári Járás","key":"CountyName"}]},"MapReference":{"ReferenceId":"598322090","Spot":0.12,"SideOfStreet":"left","CountryId":"20613038","StateId":"20619639","CountyId":"26680543","CityId":"20619961","DistrictId":"26681830","AddressId":"356123009","RoadLinkId":"60549783"}}}]}]}}