{"Response":{"MetaInfo":{"Timestamp":"2020-03-31T17:05:46.330+0000","NextPageInformation":"2"},"View":[{"_type":"SearchResultsViewType","ViewId":0,"Result":[{"Relevance":1.0,"Distance":0.0,"Direction":0.0,"MatchLevel":"city","MatchQuality":{"Country":1.0,"County":1.0,"City":1.0,"PostalCode":1.0},"Location":{"LocationId":"NT_rOVa7pC3DuboblDtvojL3D","LocationType":"point","DisplayPosition":{"Latitude":46.3303,"Longitude":15.9369},"MapView":{"TopLeft":{"Latitude":46.40056,"Longitude":15.79075},"BottomRight":{"Latitude":46.28536,"Longitude":15.972}},"Address":{"Label":"Videm, Slovenija","Country":"SVN","County":"Ptuj","City":"Videm","PostalCode":"2284","AdditionalData":[{"value":"Slovenija","key":"CountryName"},{"value":"Ptuj","key":"CountyName"}]},"MapReference":{"ReferenceId":"1145562951","SideOfStreet":"neither","CountryId":"20633685","CountyId":"20638877","CityId":"22689827"}}},{"Relevance":1.0,"Distance":58.4,"MatchLevel":"houseNumber","MatchQuality":{"Country":1.0,"County":1.0,"City":1.0,"District":1.0,"Street":[1.0],"HouseNumber":1.0,"PostalCode":1.0},"MatchType":"interpolated","Location":{"LocationId":"NT_f8F3Rg5fhZyIqAhtc6nBfB_1IE","LocationType":"point","DisplayPosition":{"Latitude":46.33032,"Longitude":15.93614},"MapView":{"TopLeft":{"Latitude":46.3314442,"Longitude":15.934512},"BottomRight":{"Latitude":46.3291958,"Longitude":15.937768}},"Address":{"Label":"690 5B, SI- 2285 Videm, Slovenija","Country":"SVN","County":"Ptuj","City":"Videm","District":"Zgornji Leskovec","Street":"690","HouseNumber":"5B","PostalCode":"2285","AdditionalData":[{"value":"Slovenija","key":"CountryName"},{"value":"Ptuj","key":"CountyName"}]},"MapReference":{"ReferenceId":"710691160","Spot":0.12,"SideOfStreet":"left","CountryId":"20633685","CountyId":"20638877","CityId":"22689827","DistrictId":"22690792","AddressId":"406859205","RoadLinkId":"115867689"}}},{"Relevance":1.0,"Distance":58.4,"MatchLevel":"street","MatchQuality":{"Country":1.0,"County":1.0,"City":1.0,"District":1.0,"Street":[1.0],"PostalCode":1.0},"Location":{"LocationId":"NT_oWHnD6K1DGk4BDmxAlxe5A_l_1171855715_R","LocationType":"point","DisplayPosition":{"Latitude":46.3301538,"Longitude":15.9361692},"MapView":{"TopLeft":{"Latitude":46.3302,"Longitude":15.93616},"BottomRight":{"Latitude":46.33015,"Longitude":15.93617}},"Address":{"Label":"690, SI- 2285 Videm, Slovenija","Country":"SVN","County":"Ptuj","City":"Videm","District":"Zgornji Leskovec","Street":"690","PostalCode":"2285","AdditionalData":[{"value":"Slovenija","key":"CountryName"},{"value":"Ptuj","key":"CountyName"}]},"MapReference":{"ReferenceId":"1171855715","Spot":0.08,"SideOfStreet":"right","CountryId":"20633685","CountyId":"20638877","CityId":"22689827","DistrictId":"22690792"}}},{"Relevance":1.0,"Distance":58.5,"MatchLevel":"street","MatchQuality":{"Country":1.0,"County":1.0,"City":1.0,"District":1.0,"Street":[1.0],"PostalCode":1.0},"Location":{"LocationId":"NT_f8F3Rg5fhZyIqAhtc6nBfB_l_1171855714_R","LocationType":"point","DisplayPosition":{"Latitude":46.33015,"Longitude":15.93617},"MapView":{"TopLeft":{"Latitude":46.33015,"Longitude":15.93617},"BottomRight":{"Latitude":46.3301,"Longitude":15.93617}},"Address":{"Label":"690, SI- 2285 Videm, Slovenija","Country":"SVN","County":"Ptuj","City":"Videm","District":"Zgornji Leskovec","Street":"690","PostalCode":"2285","AdditionalData":[{"value":"Slovenija","key":"CountryName"},{"value":"Ptuj","key":"CountyName"}]},"MapReference":{"ReferenceId":"1171855714","Spot":1.0,"SideOfStreet":"right","CountryId":"20633685","CountyId":"20638877","CityId":"22689827","DistrictId":"22690792"}}},{"Relevance":1.0,"Distance":58.6,"MatchLevel":"houseNumber","MatchQuality":{"Country":1.0,"County":1.0,"City":1.0,"District":1.0,"Street":[1.0],"HouseNumber":1.0,"PostalCode":1.0},"MatchType":"interpolated","Location":{"LocationId":"NT_RxVQwSQJ1w-PGdeP72tQhD_zA","LocationType":"point","DisplayPosition":{"Latitude":46.32987,"Longitude":15.93766},"MapView":{"TopLeft":{"Latitude":46.3309942,"Longitude":15.936032},"BottomRight":{"Latitude":46.3287458,"Longitude":15.939288}},"Address":{"Label":"Zgornji Leskovec 3, SI- 2285 Videm, Slovenija","Country":"SVN","County":"Ptuj","City":"Videm","District":"Zgornji Leskovec","Street":"Zgornji Leskovec","HouseNumber":"3","PostalCode":"2285","AdditionalData":[{"value":"Slovenija","key":"CountryName"},{"value":"Ptuj","key":"CountyName"}]},"MapReference":{"ReferenceId":"710677086","Spot":0.88,"SideOfStreet":"left","CountryId":"20633685","CountyId":"20638877","CityId":"22689827","DistrictId":"22690792","AddressId":"406550218","RoadLinkId":"115808427"}}},{"Relevance":1.0,"Distance":60.3,"MatchLevel":"street","MatchQuality":{"Country":1.0,"County":1.0,"City":1.0,"District":1.0,"Street":[1.0],"PostalCode":1.0},"Location":{"LocationId":"NT_oWHnD6K1DGk4BDmxAlxe5A_l_710642080_R","LocationType":"point","DisplayPosition":{"Latitude":46.3301,"Longitude":15.93617},"MapView":{"TopLeft":{"Latitude":46.3301,"Longitude":15.93617},"BottomRight":{"Latitude":46.32991,"Longitude":15.93617}},"Address":{"Label":"690, SI- 2285 Videm, Slovenija","Country":"SVN","County":"Ptuj","City":"Videm","District":"Zgornji Leskovec","Street":"690","PostalCode":"2285","AdditionalData":[{"value":"Slovenija","key":"CountryName"},{"value":"Ptuj","key":"CountyName"}]},"MapReference":{"ReferenceId":"710642080","Spot":1.0,"SideOfStreet":"right","CountryId":"20633685","CountyId":"20638877","CityId":"22689827","DistrictId":"22690792"}}},{"Relevance":1.0,"Distance":70.9,"MatchLevel":"street","MatchQuality":{"Country":1.0,"County":1.0,"City":1.0,"District":1.0,"Street":[1.0],"PostalCode":1.0},"Location":{"LocationId":"NT_f8F3Rg5fhZyIqAhtc6nBfB_l_1171855711_R","LocationType":"point","DisplayPosition":{"Latitude":46.32991,"Longitude":15.93617},"MapView":{"TopLeft":{"Latitude":46.32991,"Longitude":15.93616},"BottomRight":{"Latitude":46.32979,"Longitude":15.93617}},"Address":{"Label":"690, SI- 2285 Videm, Slovenija","Country":"SVN","County":"Ptuj","City":"Videm","District":"Zgornji Leskovec","Street":"690","PostalCode":"2285","AdditionalData":[{"value":"Slovenija","key":"CountryName"},{"value":"Ptuj","key":"CountyName"}]},"MapReference":{"ReferenceId":"1171855711","Spot":1.0,"SideOfStreet":"right","CountryId":"20633685","CountyId":"20638877","CityId":"22689827","DistrictId":"22690792"}}},{"Relevance":1.0,"Distance":74.7,"MatchLevel":"street","MatchQuality":{"Country":1.0,"County":1.0,"City":1.0,"District":1.0,"Street":[1.0],"PostalCode":1.0},"Location":{"LocationId":"NT_RxVQwSQJ1w-PGdeP72tQhD_l_710695691_L","LocationType":"point","DisplayPosition":{"Latitude":46.32995,"Longitude":15.93773},"MapView":{"TopLeft":{"Latitude":46.33022,"Longitude":15.93773},"BottomRight":{"Latitude":46.32995,"Longitude":15.93877}},"Address":{"Label":"Zgornji Leskovec, SI- 2285 Videm, Slovenija","Country":"SVN","County":"Ptuj","City":"Videm","District":"Zgornji Leskovec","Street":"Zgornji Leskovec","PostalCode":"2285","AdditionalData":[{"value":"Slovenija","key":"CountryName"},{"value":"Ptuj","key":"CountyName"}]},"MapReference":{"ReferenceId":"710695691","Spot":0.0,"SideOfStreet":"left","CountryId":"20633685","CountyId":"20638877","CityId":"22689827","DistrictId":"22690792"}}},{"Relevance":1.0,"Distance":86.1,"MatchLevel":"houseNumber","MatchQuality":{"Country":1.0,"County":1.0,"City":1.0,"District":1.0,"Street":[1.0],"HouseNumber":1.0,"PostalCode":1.0},"MatchType":"interpolated","Location":{"LocationId":"NT_f8F3Rg5fhZyIqAhtc6nBfB_xA","LocationType":"point","DisplayPosition":{"Latitude":46.32962,"Longitude":15.93614},"MapView":{"TopLeft":{"Latitude":46.3307442,"Longitude":15.934512},"BottomRight":{"Latitude":46.3284958,"Longitude":15.937768}},"Address":{"Label":"690 1, SI- 2285 Videm, Slovenija","Country":"SVN","County":"Ptuj","City":"Videm","District":"Zgornji Leskovec","Street":"690","HouseNumber":"1","PostalCode":"2285","AdditionalData":[{"value":"Slovenija","key":"CountryName"},{"value":"Ptuj","key":"CountyName"}]},"MapReference":{"ReferenceId":"1171855710","Spot":0.05,"SideOfStreet":"right","CountryId":"20633685","CountyId":"20638877","CityId":"22689827","DistrictId":"22690792","AddressId":"406754411","RoadLinkId":"478968367"}}},{"Relevance":1.0,"Distance":96.4,"MatchLevel":"street","MatchQuality":{"Country":1.0,"County":1.0,"City":1.0,"District":1.0,"Street":[1.0],"PostalCode":1.0},"Location":{"LocationId":"NT_f8F3Rg5fhZyIqAhtc6nBfB_l_979273273_R","LocationType":"point","DisplayPosition":{"Latitude":46.32961,"Longitude":15.93614},"MapView":{"TopLeft":{"Latitude":46.32961,"Longitude":15.93612},"BottomRight":{"Latitude":46.3295,"Longitude":15.93614}},"Address":{"Label":"690, SI- 2285 Videm, Slovenija","Country":"SVN","County":"Ptuj","City":"Videm","District":"Zgornji Leskovec","Street":"690","PostalCode":"2285","AdditionalData":[{"value":"Slovenija","key":"CountryName"},{"value":"Ptuj","key":"CountyName"}]},"MapReference":{"ReferenceId":"979273273","Spot":1.0,"SideOfStreet":"right","CountryId":"20633685","CountyId":"20638877","CityId":"22689827","DistrictId":"22690792"}}}]}]}}