{"Response":{"MetaInfo":{"Timestamp":"2020-03-28T09:49:48.631+0000","NextPageInformation":"2"},"View":[{"_type":"SearchResultsViewType","ViewId":0,"Result":[{"Relevance":1.0,"Distance":0.0,"Direction":0.0,"MatchLevel":"city","MatchQuality":{"Country":1.0,"State":1.0,"County":1.0,"City":1.0,"PostalCode":1.0},"Location":{"LocationId":"NT_QCRSTCF5jJyLlnPiiKn-oB","LocationType":"point","DisplayPosition":{"Latitude":46.3888865,"Longitude":-0.4199124},"MapView":{"TopLeft":{"Latitude":46.4277,"Longitude":-0.4847},"BottomRight":{"Latitude":46.35493,"Longitude":-0.3801}},"Address":{"Label":"Échiré, Nouvelle-Aquitaine, France","Country":"FRA","State":"Nouvelle-Aquitaine","County":"Deux-Sèvres","City":"Échiré","PostalCode":"79410","AdditionalData":[{"value":"France","key":"CountryName"},{"value":"Nouvelle-Aquitaine","key":"StateName"},{"value":"Deux-Sèvres","key":"CountyName"}]},"MapReference":{"ReferenceId":"568429391","SideOfStreet":"neither","CountryId":"20000001","StateId":"20000383","CountyId":"20080046","CityId":"20080342"}}},{"Relevance":1.0,"Distance":94.0,"MatchLevel":"street","MatchQuality":{"Country":1.0,"State":1.0,"County":1.0,"City":1.0,"Street":[1.0],"PostalCode":1.0},"Location":{"LocationId":"NT_MtshX6pg5CS.qZssQAd-OA_l_568429598_L","LocationType":"point","DisplayPosition":{"Latitude":46.38858,"Longitude":-0.41877},"MapView":{"TopLeft":{"Latitude":46.38858,"Longitude":-0.41878},"BottomRight":{"Latitude":46.38852,"Longitude":-0.41877}},"Address":{"Label":"Chemin de la Couture, 79410 Échiré, France","Country":"FRA","State":"Nouvelle-Aquitaine","County":"Deux-Sèvres","City":"Échiré","Street":"Chemin de la Couture","PostalCode":"79410","AdditionalData":[{"value":"France","key":"CountryName"},{"value":"Nouvelle-Aquitaine","key":"StateName"},{"value":"Deux-Sèvres","key":"CountyName"}]},"MapReference":{"ReferenceId":"568429598","Spot":1.0,"SideOfStreet":"left","CountryId":"20000001","StateId":"20000383","CountyId":"20080046","CityId":"20080342"}}},{"Relevance":1.0,"Distance":110.2,"MatchLevel":"houseNumber","MatchQuality":{"Country":1.0,"State":1.0,"County":1.0,"City":1.0,"Street":[1.0],"HouseNumber":1.0,"PostalCode":1.0},"MatchType":"interpolated","Location":{"LocationId":"NT_MtshX6pg5CS.qZssQAd-OA_1AD","LocationType":"point","DisplayPosition":{"Latitude":46.38943,"Longitude":-0.41868},"MapView":{"TopLeft":{"Latitude":46.3905542,"Longitude":-0.4203098},"BottomRight":{"Latitude":46.3883058,"Longitude":-0.4170502}},"Address":{"Label":"50 Chemin de la Couture, 79410 Échiré, France","Country":"FRA","State":"Nouvelle-Aquitaine","County":"Deux-Sèvres","City":"Échiré","Street":"Chemin de la Couture","HouseNumber":"50","PostalCode":"79410","AdditionalData":[{"value":"France","key":"CountryName"},{"value":"Nouvelle-Aquitaine","key":"StateName"},{"value":"Deux-Sèvres","key":"CountyName"}]},"MapReference":{"ReferenceId":"568429576","Spot":0.62,"SideOfStreet":"left","CountryId":"20000001","StateId":"20000383","CountyId":"20080046","CityId":"20080342","AddressId":"318109809","RoadLinkId":"47350854"}}},{"Relevance":1.0,"Distance":123.2,"MatchLevel":"houseNumber","MatchQuality":{"Country":1.0,"State":1.0,"County":1.0,"City":1.0,"Street":[1.0],"HouseNumber":1.0,"PostalCode":1.0},"MatchType":"interpolated","Location":{"LocationId":"NT_uFfaF1r6jbzB.TdRd06axC_yADM","LocationType":"point","DisplayPosition":{"Latitude":46.38859,"Longitude":-0.42146},"MapView":{"TopLeft":{"Latitude":46.3897142,"Longitude":-0.4230898},"BottomRight":{"Latitude":46.3874658,"Longitude":-0.4198302}},"Address":{"Label":"200 Rue Léo Desaivre, 79410 Échiré, France","Country":"FRA","State":"Nouvelle-Aquitaine","County":"Deux-Sèvres","City":"Échiré","Street":"Rue Léo Desaivre","HouseNumber":"200","PostalCode":"79410","AdditionalData":[{"value":"France","key":"CountryName"},{"value":"Nouvelle-Aquitaine","key":"StateName"},{"value":"Deux-Sèvres","key":"CountyName"}]},"MapReference":{"ReferenceId":"863256944","Spot":0.59,"SideOfStreet":"right","CountryId":"20000001","StateId":"20000383","CountyId":"20080046","CityId":"20080342","AddressId":"317855276","RoadLinkId":"237116895"}}},{"Relevance":1.0,"Distance":124.9,"MatchLevel":"houseNumber","MatchQuality":{"Country":1.0,"State":1.0,"County":1.0,"City":1.0,"Street":[1.0],"HouseNumber":1.0,"PostalCode":1.0},"MatchType":"interpolated","Location":{"LocationId":"NT_LAmdITSG2RWOVH3l0GlECA_xMjM","LocationType":"point","DisplayPosition":{"Latitude":46.38847,"Longitude":-0.4184},"MapView":{"TopLeft":{"Latitude":46.3895942,"Longitude":-0.4200298},"BottomRight":{"Latitude":46.3873458,"Longitude":-0.4167702}},"Address":{"Label":"132 Avenue Ernest Perrochon, 79410 Échiré, France","Country":"FRA","State":"Nouvelle-Aquitaine","County":"Deux-Sèvres","City":"Échiré","Street":"Avenue Ernest Perrochon","HouseNumber":"132","PostalCode":"79410","AdditionalData":[{"value":"France","key":"CountryName"},{"value":"Nouvelle-Aquitaine","key":"StateName"},{"value":"Deux-Sèvres","key":"CountyName"}]},"MapReference":{"ReferenceId":"568429629","Spot":0.64,"SideOfStreet":"right","CountryId":"20000001","StateId":"20000383","CountyId":"20080046","CityId":"20080342","AddressId":"318045679","RoadLinkId":"47230839"}}},{"Relevance":1.0,"Distance":131.5,"MatchLevel":"houseNumber","MatchQuality":{"Country":1.0,"State":1.0,"County":1.0,"City":1.0,"Street":[1.0],"HouseNumber":1.0,"PostalCode":1.0},"MatchType":"interpolated","Location":{"LocationId":"NT_LAmdITSG2RWOVH3l0GlECA_xITM","LocationType":"point","DisplayPosition":{"Latitude":46.38842,"Longitude":-0.41835},"MapView":{"TopLeft":{"Latitude":46.3895442,"Longitude":-0.4199798},"BottomRight":{"Latitude":46.3872958,"Longitude":-0.4167202}},"Address":{"Label":"121 Avenue Ernest Perrochon, 79410 Échiré, France","Country":"FRA","State":"Nouvelle-Aquitaine","County":"Deux-Sèvres","City":"Échiré","Street":"Avenue Ernest Perrochon","HouseNumber":"121","PostalCode":"79410","AdditionalData":[{"value":"France","key":"CountryName"},{"value":"Nouvelle-Aquitaine","key":"StateName"},{"value":"Deux-Sèvres","key":"CountyName"}]},"MapReference":{"ReferenceId":"568429631","Spot":0.6,"SideOfStreet":"left","CountryId":"20000001","StateId":"20000383","CountyId":"20080046","CityId":"20080342","AddressId":"318128988","RoadLinkId":"46920660"}}},{"Relevance":1.0,"Distance":146.8,"MatchLevel":"houseNumber","MatchQuality":{"Country":1.0,"State":1.0,"County":1.0,"City":1.0,"Street":[1.0],"HouseNumber":1.0,"PostalCode":1.0},"MatchType":"interpolated","Location":{"LocationId":"NT_oeX5HV7Rl3w1EzJiLr2ThB_zMTO","LocationType":"point","DisplayPosition":{"Latitude":46.39012,"Longitude":-0.42074},"MapView":{"TopLeft":{"Latitude":46.3912442,"Longitude":-0.4223698},"BottomRight":{"Latitude":46.3889958,"Longitude":-0.4191102}},"Address":{"Label":"339 Rue des Écoles, 79410 Échiré, France","Country":"FRA","State":"Nouvelle-Aquitaine","County":"Deux-Sèvres","City":"Échiré","Street":"Rue des Écoles","HouseNumber":"339","PostalCode":"79410","AdditionalData":[{"value":"France","key":"CountryName"},{"value":"Nouvelle-Aquitaine","key":"StateName"},{"value":"Deux-Sèvres","key":"CountyName"}]},"MapReference":{"ReferenceId":"901383695","Spot":0.92,"SideOfStreet":"left","CountryId":"20000001","StateId":"20000383","CountyId":"20080046","CityId":"20080342","AddressId":"317828124","RoadLinkId":"262960499"}}},{"Relevance":1.0,"Distance":154.6,"MatchLevel":"houseNumber","MatchQuality":{"Country":1.0,"State":1.0,"County":1.0,"City":1.0,"Street":[1.0],"HouseNumber":1.0,"PostalCode":1.0},"MatchType":"interpolated","Location":{"LocationId":"NT_oeX5HV7Rl3w1EzJiLr2ThB_zQTM","LocationType":"point","DisplayPosition":{"Latitude":46.39005,"Longitude":-0.42108},"MapView":{"TopLeft":{"Latitude":46.3911742,"Longitude":-0.4227098},"BottomRight":{"Latitude":46.3889258,"Longitude":-0.4194502}},"Address":{"Label":"341 Rue des Écoles, 79410 Échiré, France","Country":"FRA","State":"Nouvelle-Aquitaine","County":"Deux-Sèvres","City":"Échiré","Street":"Rue des Écoles","HouseNumber":"341","PostalCode":"79410","AdditionalData":[{"value":"France","key":"CountryName"},{"value":"Nouvelle-Aquitaine","key":"StateName"},{"value":"Deux-Sèvres","key":"CountyName"}]},"MapReference":{"ReferenceId":"901383696","Spot":0.62,"SideOfStreet":"right","CountryId":"20000001","StateId":"20000383","CountyId":"20080046","CityId":"20080342","AddressId":"317846819","RoadLinkId":"262960500"}}},{"Relevance":1.0,"Distance":165.6,"MatchLevel":"street","MatchQuality":{"Country":1.0,"State":1.0,"County":1.0,"City":1.0,"Street":[1.0],"PostalCode":1.0},"Location":{"LocationId":"NT_oeX5HV7Rl3w1EzJiLr2ThB_l_909370544_R","LocationType":"point","DisplayPosition":{"Latitude":46.39001,"Longitude":-0.42133},"MapView":{"TopLeft":{"Latitude":46.39001,"Longitude":-0.42159},"BottomRight":{"Latitude":46.38995,"Longitude":-0.42133}},"Address":{"Label":"Rue des Écoles, 79410 Échiré, France","Country":"FRA","State":"Nouvelle-Aquitaine","County":"Deux-Sèvres","City":"Échiré","Street":"Rue des Écoles","PostalCode":"79410","AdditionalData":[{"value":"France","key":"CountryName"},{"value":"Nouvelle-Aquitaine","key":"StateName"},{"value":"Deux-Sèvres","key":"CountyName"}]},"MapReference":{"ReferenceId":"909370544","Spot":1.0,"SideOfStreet":"right","CountryId":"20000001","StateId":"20000383","CountyId":"20080046","CityId":"20080342"}}},{"Relevance":1.0,"Distance":184.8,"MatchLevel":"houseNumber","MatchQuality":{"Country":1.0,"State":1.0,"County":1.0,"City":1.0,"Street":[1.0],"HouseNumber":1.0,"PostalCode":1.0},"MatchType":"interpolated","Location":{"LocationId":"NT_f1GSf5jMojhJ9XtD-1RlzA_1UD","LocationType":"point","DisplayPosition":{"Latitude":46.39021,"Longitude":-0.42141},"MapView":{"TopLeft":{"Latitude":46.3913342,"Longitude":-0.4230398},"BottomRight":{"Latitude":46.3890858,"Longitude":-0.4197802}},"Address":{"Label":"55 Rue M. Ferdinand Dufay, 79410 Échiré, France","Country":"FRA","State":"Nouvelle-Aquitaine","County":"Deux-Sèvres","City":"Échiré","Street":"Rue M. Ferdinand Dufay","HouseNumber":"55","PostalCode":"79410","AdditionalData":[{"value":"France","key":"CountryName"},{"value":"Nouvelle-Aquitaine","key":"StateName"},{"value":"Deux-Sèvres","key":"CountyName"}]},"MapReference":{"ReferenceId":"568429535","Spot":0.24,"SideOfStreet":"right","CountryId":"20000001","StateId":"20000383","CountyId":"20080046","CityId":"20080342","AddressId":"682717960","RoadLinkId":"47488496"}}}]}]}}