{"Response":{"MetaInfo":{"Timestamp":"2020-03-28T11:52:08.930+0000","NextPageInformation":"2"},"View":[{"_type":"SearchResultsViewType","ViewId":0,"Result":[{"Relevance":1.0,"Distance":-166.7,"MatchLevel":"landmark","MatchQuality":{"Country":1.0,"Name":1.0},"Location":{"LocationId":"NT_UEHlkrgRpTpsmMsnDKvKHC","LocationType":"park","Name":"P.N.R. du Marais Poitevin","DisplayPosition":{"Latitude":46.35512,"Longitude":-1.0068},"MapView":{"TopLeft":{"Latitude":46.55846,"Longitude":-1.54334},"BottomRight":{"Latitude":46.15178,"Longitude":-0.38042}},"Address":{"Label":"France","Country":"FRA","AdditionalData":[{"value":"France","key":"CountryName"}]},"MapReference":{"CountryId":"20000001","PlaceId":"1629380700"}}},{"Relevance":1.0,"Distance":0.0,"Direction":0.0,"MatchLevel":"city","MatchQuality":{"Country":1.0,"State":1.0,"County":1.0,"City":1.0,"PostalCode":1.0},"Location":{"LocationId":"NT_eNvo-5yELajJapnPhWE1uD","LocationType":"point","DisplayPosition":{"Latitude":46.342628,"Longitude":-1.437639},"MapView":{"TopLeft":{"Latitude":46.37721,"Longitude":-1.4824},"BottomRight":{"Latitude":46.33851,"Longitude":-1.34716}},"Address":{"Label":"La Tranche-sur-Mer, Pays de la Loire, France","Country":"FRA","State":"Pays de la Loire","County":"Vendée","City":"La Tranche-sur-Mer","PostalCode":"85360","AdditionalData":[{"value":"France","key":"CountryName"},{"value":"Pays de la Loire","key":"StateName"},{"value":"Vendée","key":"CountyName"}]},"MapReference":{"ReferenceId":"807530990","SideOfStreet":"neither","CountryId":"20000001","StateId":"20068992","CountyId":"20080973","CityId":"20081788"}}},{"Relevance":1.0,"Distance":8.6,"MatchLevel":"houseNumber","MatchQuality":{"Country":1.0,"State":1.0,"County":1.0,"City":1.0,"Street":[1.0],"HouseNumber":1.0,"PostalCode":1.0},"MatchType":"interpolated","Location":{"LocationId":"NT_bO83yXnmJA2Cgv2ZqAfHmA_0A","LocationType":"point","DisplayPosition":{"Latitude":46.34269,"Longitude":-1.43771},"MapView":{"TopLeft":{"Latitude":46.3438142,"Longitude":-1.4393384},"BottomRight":{"Latitude":46.3415658,"Longitude":-1.4360816}},"Address":{"Label":"4 Rue de l'Hôtel de Ville, 85360 La Tranche-sur-Mer, France","Country":"FRA","State":"Pays de la Loire","County":"Vendée","City":"La Tranche-sur-Mer","Street":"Rue de l'Hôtel de Ville","HouseNumber":"4","PostalCode":"85360","AdditionalData":[{"value":"France","key":"CountryName"},{"value":"Pays de la Loire","key":"StateName"},{"value":"Vendée","key":"CountyName"}]},"MapReference":{"ReferenceId":"561913626","Spot":0.37,"SideOfStreet":"right","CountryId":"20000001","StateId":"20068992","CountyId":"20080973","CityId":"20081788","AddressId":"381443641","RoadLinkId":"46742053"}}},{"Relevance":1.0,"Distance":23.2,"MatchLevel":"houseNumber","MatchQuality":{"Country":1.0,"State":1.0,"County":1.0,"City":1.0,"Street":[1.0],"HouseNumber":1.0,"PostalCode":1.0},"MatchType":"interpolated","Location":{"LocationId":"NT_K2Jadq6DHUdpgxHFBI6M-A_zcjQ","LocationType":"point","DisplayPosition":{"Latitude":46.34242,"Longitude":-1.43762},"MapView":{"TopLeft":{"Latitude":46.3435442,"Longitude":-1.4392484},"BottomRight":{"Latitude":46.3412958,"Longitude":-1.4359916}},"Address":{"Label":"37B Avenue Maurice Samson, 85360 La Tranche-sur-Mer, France","Country":"FRA","State":"Pays de la Loire","County":"Vendée","City":"La Tranche-sur-Mer","Street":"Avenue Maurice Samson","HouseNumber":"37B","PostalCode":"85360","AdditionalData":[{"value":"France","key":"CountryName"},{"value":"Pays de la Loire","key":"StateName"},{"value":"Vendée","key":"CountyName"}]},"MapReference":{"ReferenceId":"1190284797","Spot":0.06,"SideOfStreet":"right","CountryId":"20000001","StateId":"20068992","CountyId":"20080973","CityId":"20081788","AddressId":"323885846","RoadLinkId":"499614005"}}},{"Relevance":1.0,"Distance":24.2,"MatchLevel":"houseNumber","MatchQuality":{"Country":1.0,"State":1.0,"County":1.0,"City":1.0,"Street":[1.0],"HouseNumber":1.0,"PostalCode":1.0},"MatchType":"interpolated","Location":{"LocationId":"NT_K2Jadq6DHUdpgxHFBI6M-A_zkD","LocationType":"point","DisplayPosition":{"Latitude":46.34242,"Longitude":-1.43773},"MapView":{"TopLeft":{"Latitude":46.3435442,"Longitude":-1.4393584},"BottomRight":{"Latitude":46.3412958,"Longitude":-1.4361016}},"Address":{"Label":"39 Avenue Maurice Samson, 85360 La Tranche-sur-Mer, France","Country":"FRA","State":"Pays de la Loire","County":"Vendée","City":"La Tranche-sur-Mer","Street":"Avenue Maurice Samson","HouseNumber":"39","PostalCode":"85360","AdditionalData":[{"value":"France","key":"CountryName"},{"value":"Pays de la Loire","key":"StateName"},{"value":"Vendée","key":"CountyName"}]},"MapReference":{"ReferenceId":"561913577","Spot":0.79,"SideOfStreet":"right","CountryId":"20000001","StateId":"20068992","CountyId":"20080973","CityId":"20081788","AddressId":"323446371","RoadLinkId":"46396017"}}},{"Relevance":1.0,"Distance":37.0,"MatchLevel":"houseNumber","MatchQuality":{"Country":1.0,"State":1.0,"County":1.0,"City":1.0,"Street":[1.0],"HouseNumber":1.0,"PostalCode":1.0},"MatchType":"interpolated","Location":{"LocationId":"NT_v.4QLhgF7TE.5QHMEyx5HA_yYjQ","LocationType":"point","DisplayPosition":{"Latitude":46.34258,"Longitude":-1.43701},"MapView":{"TopLeft":{"Latitude":46.3437042,"Longitude":-1.4386384},"BottomRight":{"Latitude":46.3414558,"Longitude":-1.4353816}},"Address":{"Label":"26B Rue Anatole France, 85360 La Tranche-sur-Mer, France","Country":"FRA","State":"Pays de la Loire","County":"Vendée","City":"La Tranche-sur-Mer","Street":"Rue Anatole France","HouseNumber":"26B","PostalCode":"85360","AdditionalData":[{"value":"France","key":"CountryName"},{"value":"Pays de la Loire","key":"StateName"},{"value":"Vendée","key":"CountyName"}]},"MapReference":{"ReferenceId":"561913802","Spot":0.25,"SideOfStreet":"left","CountryId":"20000001","StateId":"20068992","CountyId":"20080973","CityId":"20081788","AddressId":"590765958","RoadLinkId":"48005425"}}},{"Relevance":1.0,"Distance":37.2,"MatchLevel":"houseNumber","MatchQuality":{"Country":1.0,"State":1.0,"County":1.0,"City":1.0,"Street":[1.0],"HouseNumber":1.0,"PostalCode":1.0},"MatchType":"interpolated","Location":{"LocationId":"NT_K2Jadq6DHUdpgxHFBI6M-A_zUD","LocationType":"point","DisplayPosition":{"Latitude":46.34242,"Longitude":-1.43726},"MapView":{"TopLeft":{"Latitude":46.3435442,"Longitude":-1.4388884},"BottomRight":{"Latitude":46.3412958,"Longitude":-1.4356316}},"Address":{"Label":"35 Avenue Maurice Samson, 85360 La Tranche-sur-Mer, France","Country":"FRA","State":"Pays de la Loire","County":"Vendée","City":"La Tranche-sur-Mer","Street":"Avenue Maurice Samson","HouseNumber":"35","PostalCode":"85360","AdditionalData":[{"value":"France","key":"CountryName"},{"value":"Pays de la Loire","key":"StateName"},{"value":"Vendée","key":"CountyName"}]},"MapReference":{"ReferenceId":"1190284798","Spot":0.66,"SideOfStreet":"right","CountryId":"20000001","StateId":"20068992","CountyId":"20080973","CityId":"20081788","AddressId":"323885844","RoadLinkId":"499614006"}}},{"Relevance":1.0,"Distance":44.2,"MatchLevel":"street","MatchQuality":{"Country":1.0,"State":1.0,"County":1.0,"City":1.0,"Street":[1.0],"PostalCode":1.0},"Location":{"LocationId":"NT_K2Jadq6DHUdpgxHFBI6M-A_l_561913576_L","LocationType":"point","DisplayPosition":{"Latitude":46.3424,"Longitude":-1.43811},"MapView":{"TopLeft":{"Latitude":46.3424,"Longitude":-1.43842},"BottomRight":{"Latitude":46.34239,"Longitude":-1.43811}},"Address":{"Label":"Avenue Maurice Samson, 85360 La Tranche-sur-Mer, France","Country":"FRA","State":"Pays de la Loire","County":"Vendée","City":"La Tranche-sur-Mer","Street":"Avenue Maurice Samson","PostalCode":"85360","AdditionalData":[{"value":"France","key":"CountryName"},{"value":"Pays de la Loire","key":"StateName"},{"value":"Vendée","key":"CountyName"}]},"MapReference":{"ReferenceId":"561913576","Spot":1.0,"SideOfStreet":"left","CountryId":"20000001","StateId":"20068992","CountyId":"20080973","CityId":"20081788"}}},{"Relevance":1.0,"Distance":47.4,"MatchLevel":"houseNumber","MatchQuality":{"Country":1.0,"State":1.0,"County":1.0,"City":1.0,"Street":[1.0],"HouseNumber":1.0,"PostalCode":1.0},"MatchType":"interpolated","Location":{"LocationId":"NT_K2Jadq6DHUdpgxHFBI6M-A_yYjQ","LocationType":"point","DisplayPosition":{"Latitude":46.34241,"Longitude":-1.43707},"MapView":{"TopLeft":{"Latitude":46.3435342,"Longitude":-1.4386984},"BottomRight":{"Latitude":46.3412858,"Longitude":-1.4354416}},"Address":{"Label":"26B Avenue Maurice Samson, 85360 La Tranche-sur-Mer, France","Country":"FRA","State":"Pays de la Loire","County":"Vendée","City":"La Tranche-sur-Mer","Street":"Avenue Maurice Samson","HouseNumber":"26B","PostalCode":"85360","AdditionalData":[{"value":"France","key":"CountryName"},{"value":"Pays de la Loire","key":"StateName"},{"value":"Vendée","key":"CountyName"}]},"MapReference":{"ReferenceId":"1190282702","Spot":0.11,"SideOfStreet":"right","CountryId":"20000001","StateId":"20068992","CountyId":"20080973","CityId":"20081788","AddressId":"323885845","RoadLinkId":"499611536"}}},{"Relevance":1.0,"Distance":50.6,"MatchLevel":"street","MatchQuality":{"Country":1.0,"State":1.0,"County":1.0,"City":1.0,"Street":[1.0],"PostalCode":1.0},"Location":{"LocationId":"NT_v.4QLhgF7TE.5QHMEyx5HA_l_1190284796_L","LocationType":"point","DisplayPosition":{"Latitude":46.34241,"Longitude":-1.43706},"MapView":{"TopLeft":{"Latitude":46.34241,"Longitude":-1.43712},"BottomRight":{"Latitude":46.34219,"Longitude":-1.43706}},"Address":{"Label":"Rue Anatole France, 85360 La Tranche-sur-Mer, France","Country":"FRA","State":"Pays de la Loire","County":"Vendée","City":"La Tranche-sur-Mer","Street":"Rue Anatole France","PostalCode":"85360","AdditionalData":[{"value":"France","key":"CountryName"},{"value":"Pays de la Loire","key":"StateName"},{"value":"Vendée","key":"CountyName"}]},"MapReference":{"ReferenceId":"1190284796","Spot":1.0,"SideOfStreet":"left","CountryId":"20000001","StateId":"20068992","CountyId":"20080973","CityId":"20081788"}}}]}]}}