{"Response":{"MetaInfo":{"Timestamp":"2020-03-28T11:36:46.050+0000","NextPageInformation":"2"},"View":[{"_type":"SearchResultsViewType","ViewId":0,"Result":[{"Relevance":1.0,"Distance":0.0,"Direction":0.0,"MatchLevel":"district","MatchQuality":{"Country":1.0,"County":1.0,"City":1.0,"District":1.0,"PostalCode":1.0},"Location":{"LocationId":"NT_4z99dmrFT2oymsIXLGCH2B","LocationType":"point","DisplayPosition":{"Latitude":46.4562998,"Longitude":15.6267712},"MapView":{"TopLeft":{"Latitude":46.46245,"Longitude":15.61486},"BottomRight":{"Latitude":46.44618,"Longitude":15.65895}},"Address":{"Label":"Fram, Rače-Fram, Slovenija","Country":"SVN","County":"Maribor","City":"Rače-Fram","District":"Fram","PostalCode":"2313","AdditionalData":[{"value":"Slovenija","key":"CountryName"},{"value":"Maribor","key":"CountyName"}]},"MapReference":{"ReferenceId":"1219869929","SideOfStreet":"neither","CountryId":"20633685","CountyId":"20637788","CityId":"22689837","DistrictId":"22691228"}}},{"Relevance":1.0,"Distance":21.8,"MatchLevel":"houseNumber","MatchQuality":{"Country":1.0,"County":1.0,"City":1.0,"District":1.0,"Street":[1.0],"HouseNumber":1.0,"PostalCode":1.0},"MatchType":"interpolated","Location":{"LocationId":"NT_loV1CELdr7BB2i4CvLTkYC_xA","LocationType":"point","DisplayPosition":{"Latitude":46.45642,"Longitude":15.62711},"MapView":{"TopLeft":{"Latitude":46.4575442,"Longitude":15.6254782},"BottomRight":{"Latitude":46.4552958,"Longitude":15.6287418}},"Address":{"Label":"Cafova ulica 1, SI- 2313 Rače-Fram, Slovenija","Country":"SVN","County":"Maribor","City":"Rače-Fram","District":"Fram","Street":"Cafova ulica","HouseNumber":"1","PostalCode":"2313","AdditionalData":[{"value":"Slovenija","key":"CountryName"},{"value":"Maribor","key":"CountyName"}]},"MapReference":{"ReferenceId":"1219869760","Spot":0.04,"SideOfStreet":"left","CountryId":"20633685","CountyId":"20637788","CityId":"22689837","DistrictId":"22691228","AddressId":"406972401","RoadLinkId":"536883310"}}},{"Relevance":1.0,"Distance":24.1,"MatchLevel":"houseNumber","MatchQuality":{"Country":1.0,"County":1.0,"City":1.0,"District":1.0,"Street":[1.0],"HouseNumber":1.0,"PostalCode":1.0},"MatchType":"interpolated","Location":{"LocationId":"NT_loV1CELdr7BB2i4CvLTkYC_xIDM","LocationType":"point","DisplayPosition":{"Latitude":46.4562,"Longitude":15.62705},"MapView":{"TopLeft":{"Latitude":46.4573242,"Longitude":15.6254182},"BottomRight":{"Latitude":46.4550758,"Longitude":15.6286818}},"Address":{"Label":"Cafova ulica 120, SI- 2313 Rače-Fram, Slovenija","Country":"SVN","County":"Maribor","City":"Rače-Fram","District":"Fram","Street":"Cafova ulica","HouseNumber":"120","PostalCode":"2313","AdditionalData":[{"value":"Slovenija","key":"CountryName"},{"value":"Maribor","key":"CountyName"}]},"MapReference":{"ReferenceId":"956789544","Spot":0.36,"SideOfStreet":"right","CountryId":"20633685","CountyId":"20637788","CityId":"22689837","DistrictId":"22691228","AddressId":"406512014","RoadLinkId":"299727064"}}},{"Relevance":1.0,"Distance":24.5,"MatchLevel":"houseNumber","MatchQuality":{"Country":1.0,"County":1.0,"City":1.0,"District":1.0,"Street":[1.0],"HouseNumber":1.0,"PostalCode":1.0},"MatchType":"interpolated","Location":{"LocationId":"NT_AdCzw9yYORMjVc688-gUEC_xITN","LocationType":"point","DisplayPosition":{"Latitude":46.45609,"Longitude":15.62687},"MapView":{"TopLeft":{"Latitude":46.4572142,"Longitude":15.6252382},"BottomRight":{"Latitude":46.4549658,"Longitude":15.6285018}},"Address":{"Label":"Turnerjeva ulica 125, SI- 2313 Rače-Fram, Slovenija","Country":"SVN","County":"Maribor","City":"Rače-Fram","District":"Fram","Street":"Turnerjeva ulica","HouseNumber":"125","PostalCode":"2313","AdditionalData":[{"value":"Slovenija","key":"CountryName"},{"value":"Maribor","key":"CountyName"}]},"MapReference":{"ReferenceId":"956786291","Spot":0.42,"SideOfStreet":"left","CountryId":"20633685","CountyId":"20637788","CityId":"22689837","DistrictId":"22691228","AddressId":"406749570","RoadLinkId":"299723256"}}},{"Relevance":1.0,"Distance":26.4,"MatchLevel":"houseNumber","MatchQuality":{"Country":1.0,"County":1.0,"City":1.0,"District":1.0,"Street":[1.0],"HouseNumber":1.0,"PostalCode":1.0},"MatchType":"interpolated","Location":{"LocationId":"NT_AdCzw9yYORMjVc688-gUEC_xIzN","LocationType":"point","DisplayPosition":{"Latitude":46.45609,"Longitude":15.62661},"MapView":{"TopLeft":{"Latitude":46.4572142,"Longitude":15.6249782},"BottomRight":{"Latitude":46.4549658,"Longitude":15.6282418}},"Address":{"Label":"Turnerjeva ulica 127, SI- 2313 Rače-Fram, Slovenija","Country":"SVN","County":"Maribor","City":"Rače-Fram","District":"Fram","Street":"Turnerjeva ulica","HouseNumber":"127","PostalCode":"2313","AdditionalData":[{"value":"Slovenija","key":"CountryName"},{"value":"Maribor","key":"CountyName"}]},"MapReference":{"ReferenceId":"956786290","Spot":0.92,"SideOfStreet":"right","CountryId":"20633685","CountyId":"20637788","CityId":"22689837","DistrictId":"22691228","AddressId":"406514803","RoadLinkId":"299723255"}}},{"Relevance":1.0,"Distance":31.6,"MatchLevel":"houseNumber","MatchQuality":{"Country":1.0,"County":1.0,"City":1.0,"District":1.0,"Street":[1.0],"HouseNumber":1.0,"PostalCode":1.0},"MatchType":"interpolated","Location":{"LocationId":"NT_AdCzw9yYORMjVc688-gUEC_xIDM","LocationType":"point","DisplayPosition":{"Latitude":46.45607,"Longitude":15.62711},"MapView":{"TopLeft":{"Latitude":46.4571942,"Longitude":15.6254782},"BottomRight":{"Latitude":46.4549458,"Longitude":15.6287418}},"Address":{"Label":"Turnerjeva ulica 120, SI- 2313 Rače-Fram, Slovenija","Country":"SVN","County":"Maribor","City":"Rače-Fram","District":"Fram","Street":"Turnerjeva ulica","HouseNumber":"120","PostalCode":"2313","AdditionalData":[{"value":"Slovenija","key":"CountryName"},{"value":"Maribor","key":"CountyName"}]},"MapReference":{"ReferenceId":"956786283","Spot":0.79,"SideOfStreet":"right","CountryId":"20633685","CountyId":"20637788","CityId":"22689837","DistrictId":"22691228","AddressId":"742783888","RoadLinkId":"299723241"}}},{"Relevance":1.0,"Distance":48.1,"MatchLevel":"houseNumber","MatchQuality":{"Country":1.0,"County":1.0,"City":1.0,"District":1.0,"Street":[1.0],"HouseNumber":1.0,"PostalCode":1.0},"MatchType":"interpolated","Location":{"LocationId":"NT_loV1CELdr7BB2i4CvLTkYC_0A","LocationType":"point","DisplayPosition":{"Latitude":46.45664,"Longitude":15.62716},"MapView":{"TopLeft":{"Latitude":46.4577642,"Longitude":15.6255282},"BottomRight":{"Latitude":46.4555158,"Longitude":15.6287918}},"Address":{"Label":"Cafova ulica 4, SI- 2313 Rače-Fram, Slovenija","Country":"SVN","County":"Maribor","City":"Rače-Fram","District":"Fram","Street":"Cafova ulica","HouseNumber":"4","PostalCode":"2313","AdditionalData":[{"value":"Slovenija","key":"CountryName"},{"value":"Maribor","key":"CountyName"}]},"MapReference":{"ReferenceId":"1219869761","Spot":0.0,"SideOfStreet":"right","CountryId":"20633685","CountyId":"20637788","CityId":"22689837","DistrictId":"22691228","AddressId":"406972400","RoadLinkId":"536883311"}}},{"Relevance":1.0,"Distance":51.7,"MatchLevel":"houseNumber","MatchQuality":{"Country":1.0,"County":1.0,"City":1.0,"District":1.0,"Street":[1.0],"HouseNumber":1.0,"PostalCode":1.0},"MatchType":"interpolated","Location":{"LocationId":"NT_loV1CELdr7BB2i4CvLTkYC_zA","LocationType":"point","DisplayPosition":{"Latitude":46.45692,"Longitude":15.62698},"MapView":{"TopLeft":{"Latitude":46.4580442,"Longitude":15.6253482},"BottomRight":{"Latitude":46.4557958,"Longitude":15.6286118}},"Address":{"Label":"Cafova ulica 3, SI- 2313 Rače-Fram, Slovenija","Country":"SVN","County":"Maribor","City":"Rače-Fram","District":"Fram","Street":"Cafova ulica","HouseNumber":"3","PostalCode":"2313","AdditionalData":[{"value":"Slovenija","key":"CountryName"},{"value":"Maribor","key":"CountyName"}]},"MapReference":{"ReferenceId":"1219870107","Spot":0.33,"SideOfStreet":"left","CountryId":"20633685","CountyId":"20637788","CityId":"22689837","DistrictId":"22691228","AddressId":"406965931","RoadLinkId":"536883642"}}},{"Relevance":1.0,"Distance":54.0,"MatchLevel":"houseNumber","MatchQuality":{"Country":1.0,"County":1.0,"City":1.0,"District":1.0,"Street":[1.0],"HouseNumber":1.0,"PostalCode":1.0},"MatchType":"interpolated","Location":{"LocationId":"NT_iMNYwumpr0Zh8yK7h5IF8A_yA","LocationType":"point","DisplayPosition":{"Latitude":46.45609,"Longitude":15.62606},"MapView":{"TopLeft":{"Latitude":46.4572142,"Longitude":15.6244282},"BottomRight":{"Latitude":46.4549658,"Longitude":15.6276918}},"Address":{"Label":"Pohorska cesta 2, SI- 2313 Rače-Fram, Slovenija","Country":"SVN","County":"Maribor","City":"Rače-Fram","District":"Fram","Street":"Pohorska cesta","HouseNumber":"2","PostalCode":"2313","AdditionalData":[{"value":"Slovenija","key":"CountryName"},{"value":"Maribor","key":"CountyName"}]},"MapReference":{"ReferenceId":"956786289","Spot":0.36,"SideOfStreet":"right","CountryId":"20633685","CountyId":"20637788","CityId":"22689837","DistrictId":"22691228","AddressId":"406806414","RoadLinkId":"299723253"}}},{"Relevance":1.0,"Distance":65.5,"MatchLevel":"houseNumber","MatchQuality":{"Country":1.0,"County":1.0,"City":1.0,"District":1.0,"Street":[1.0],"HouseNumber":1.0,"PostalCode":1.0},"MatchType":"interpolated","Location":{"LocationId":"NT_loV1CELdr7BB2i4CvLTkYC_1gD","LocationType":"point","DisplayPosition":{"Latitude":46.45703,"Longitude":15.62669},"MapView":{"TopLeft":{"Latitude":46.4581542,"Longitude":15.6250582},"BottomRight":{"Latitude":46.4559058,"Longitude":15.6283218}},"Address":{"Label":"Cafova ulica 58, SI- 2313 Rače-Fram, Slovenija","Country":"SVN","County":"Maribor","City":"Rače-Fram","District":"Fram","Street":"Cafova ulica","HouseNumber":"58","PostalCode":"2313","AdditionalData":[{"value":"Slovenija","key":"CountryName"},{"value":"Maribor","key":"CountyName"}]},"MapReference":{"ReferenceId":"980029458","Spot":0.0,"SideOfStreet":"left","CountryId":"20633685","CountyId":"20637788","CityId":"22689837","DistrictId":"22691228","AddressId":"406678132","RoadLinkId":"312925761"}}}]}]}}