{"Response":{"MetaInfo":{"Timestamp":"2020-03-28T11:34:41.384+0000","NextPageInformation":"2"},"View":[{"_type":"SearchResultsViewType","ViewId":0,"Result":[{"Relevance":1.0,"Distance":0.0,"Direction":0.0,"MatchLevel":"district","MatchQuality":{"Country":1.0,"County":1.0,"City":1.0,"District":1.0,"PostalCode":1.0},"Location":{"LocationId":"NT_AP.ccPqEmHP5N76W4euRFC","LocationType":"point","DisplayPosition":{"Latitude":46.4760113,"Longitude":22.4722552},"MapView":{"TopLeft":{"Latitude":46.48448,"Longitude":22.46707},"BottomRight":{"Latitude":46.46779,"Longitude":22.487}},"Address":{"Label":"Vașcău, România","Country":"ROU","County":"Bihor","City":"Vașcău","District":"Vașcău","PostalCode":"415800","AdditionalData":[{"value":"România","key":"CountryName"},{"value":"Bihor","key":"CountyName"}]},"MapReference":{"ReferenceId":"588527755","SideOfStreet":"neither","CountryId":"20656215","CountyId":"20657269","CityId":"23756291","DistrictId":"23756535"}}},{"Relevance":1.0,"Distance":15.0,"MatchLevel":"houseNumber","MatchQuality":{"Country":1.0,"County":1.0,"City":1.0,"District":1.0,"Street":[1.0],"HouseNumber":1.0,"PostalCode":1.0},"MatchType":"interpolated","Location":{"LocationId":"NT_f9zJVTKaUBg-6cF4PoaH8C_zA","LocationType":"point","DisplayPosition":{"Latitude":46.47588,"Longitude":22.4723},"MapView":{"TopLeft":{"Latitude":46.4770042,"Longitude":22.4706676},"BottomRight":{"Latitude":46.4747558,"Longitude":22.4739324}},"Address":{"Label":"Strada Iuliu Gavrilete 3, 415800 Vașcău, România","Country":"ROU","County":"Bihor","City":"Vașcău","District":"Vașcău","Street":"Strada Iuliu Gavrilete","HouseNumber":"3","PostalCode":"415800","AdditionalData":[{"value":"România","key":"CountryName"},{"value":"Bihor","key":"CountyName"}]},"MapReference":{"ReferenceId":"833390212","Spot":0.89,"SideOfStreet":"left","CountryId":"20656215","CountyId":"20657269","CityId":"23756291","DistrictId":"23756535","AddressId":"709617406","RoadLinkId":"216693785"}}},{"Relevance":1.0,"Distance":17.5,"MatchLevel":"houseNumber","MatchQuality":{"Country":1.0,"County":1.0,"City":1.0,"District":1.0,"Street":[1.0],"HouseNumber":1.0,"PostalCode":1.0},"MatchType":"interpolated","Location":{"LocationId":"NT_f9zJVTKaUBg-6cF4PoaH8C_1A","LocationType":"point","DisplayPosition":{"Latitude":46.47589,"Longitude":22.47211},"MapView":{"TopLeft":{"Latitude":46.4770142,"Longitude":22.4704776},"BottomRight":{"Latitude":46.4747658,"Longitude":22.4737424}},"Address":{"Label":"Strada Iuliu Gavrilete 5, 415800 Vașcău, România","Country":"ROU","County":"Bihor","City":"Vașcău","District":"Vașcău","Street":"Strada Iuliu Gavrilete","HouseNumber":"5","PostalCode":"415800","AdditionalData":[{"value":"România","key":"CountryName"},{"value":"Bihor","key":"CountyName"}]},"MapReference":{"ReferenceId":"1157059122","Spot":0.93,"SideOfStreet":"right","CountryId":"20656215","CountyId":"20657269","CityId":"23756291","DistrictId":"23756535","AddressId":"709617484","RoadLinkId":"463380434"}}},{"Relevance":1.0,"Distance":71.3,"MatchLevel":"houseNumber","MatchQuality":{"Country":1.0,"County":1.0,"City":1.0,"District":1.0,"Street":[1.0],"HouseNumber":1.0,"PostalCode":1.0},"MatchType":"interpolated","Location":{"LocationId":"NT_zjM1juE5tXkgONRXTr97cC_3A","LocationType":"point","DisplayPosition":{"Latitude":46.47663,"Longitude":22.47201},"MapView":{"TopLeft":{"Latitude":46.4777542,"Longitude":22.4703776},"BottomRight":{"Latitude":46.4755058,"Longitude":22.4736424}},"Address":{"Label":"Strada Boiului 7, 415800 Vașcău, România","Country":"ROU","County":"Bihor","City":"Vașcău","District":"Vașcău","Street":"Strada Boiului","HouseNumber":"7","PostalCode":"415800","AdditionalData":[{"value":"România","key":"CountryName"},{"value":"Bihor","key":"CountyName"}]},"MapReference":{"ReferenceId":"1157056064","Spot":0.52,"SideOfStreet":"left","CountryId":"20656215","CountyId":"20657269","CityId":"23756291","DistrictId":"23756535","AddressId":"709622830","RoadLinkId":"463377095"}}},{"Relevance":1.0,"Distance":73.1,"MatchLevel":"houseNumber","MatchQuality":{"Country":1.0,"County":1.0,"City":1.0,"District":1.0,"Street":[1.0],"HouseNumber":1.0,"PostalCode":1.0},"MatchType":"interpolated","Location":{"LocationId":"NT_CtCyqaXFgSnTo.DgeaYWxB_5A","LocationType":"point","DisplayPosition":{"Latitude":46.47625,"Longitude":22.47327},"MapView":{"TopLeft":{"Latitude":46.4773742,"Longitude":22.4716376},"BottomRight":{"Latitude":46.4751258,"Longitude":22.4749024}},"Address":{"Label":"Strada Unirii 9, 415800 Vașcău, România","Country":"ROU","County":"Bihor","City":"Vașcău","District":"Vașcău","Street":"Strada Unirii","HouseNumber":"9","PostalCode":"415800","AdditionalData":[{"value":"România","key":"CountryName"},{"value":"Bihor","key":"CountyName"}]},"MapReference":{"ReferenceId":"833390211","Spot":0.3,"SideOfStreet":"left","CountryId":"20656215","CountyId":"20657269","CityId":"23756291","DistrictId":"23756535","AddressId":"709622189","RoadLinkId":"216693784"}}},{"Relevance":1.0,"Distance":78.0,"MatchLevel":"houseNumber","MatchQuality":{"Country":1.0,"County":1.0,"City":1.0,"District":1.0,"Street":[1.0],"HouseNumber":1.0,"PostalCode":1.0},"MatchType":"interpolated","Location":{"LocationId":"NT_CtCyqaXFgSnTo.DgeaYWxB_xUD","LocationType":"point","DisplayPosition":{"Latitude":46.47575,"Longitude":22.47331},"MapView":{"TopLeft":{"Latitude":46.4768742,"Longitude":22.4716776},"BottomRight":{"Latitude":46.4746258,"Longitude":22.4749424}},"Address":{"Label":"Strada Unirii 15, 415800 Vașcău, România","Country":"ROU","County":"Bihor","City":"Vașcău","District":"Vașcău","Street":"Strada Unirii","HouseNumber":"15","PostalCode":"415800","AdditionalData":[{"value":"România","key":"CountryName"},{"value":"Bihor","key":"CountyName"}]},"MapReference":{"ReferenceId":"901420026","Spot":1.0,"SideOfStreet":"left","CountryId":"20656215","CountyId":"20657269","CityId":"23756291","DistrictId":"23756535","AddressId":"709624992","RoadLinkId":"262990387"}}},{"Relevance":1.0,"Distance":82.7,"MatchLevel":"street","MatchQuality":{"Country":1.0,"County":1.0,"City":1.0,"District":1.0,"PostalCode":1.0},"Location":{"LocationId":"NT_F13fdP6FyAPND-go6mrtSA_l_1157060624_R","LocationType":"point","DisplayPosition":{"Latitude":46.4758,"Longitude":22.47122},"MapView":{"TopLeft":{"Latitude":46.47582,"Longitude":22.47114},"BottomRight":{"Latitude":46.4758,"Longitude":22.47122}},"Address":{"Label":"415800 Vașcău, România","Country":"ROU","County":"Bihor","City":"Vașcău","District":"Vașcău","PostalCode":"415800","AdditionalData":[{"value":"România","key":"CountryName"},{"value":"Bihor","key":"CountyName"}]},"MapReference":{"ReferenceId":"1157060624","Spot":0.0,"SideOfStreet":"right","CountryId":"20656215","CountyId":"20657269","CityId":"23756291","DistrictId":"23756535"}}},{"Relevance":1.0,"Distance":85.8,"MatchLevel":"houseNumber","MatchQuality":{"Country":1.0,"County":1.0,"City":1.0,"District":1.0,"Street":[1.0],"HouseNumber":1.0,"PostalCode":1.0},"MatchType":"interpolated","Location":{"LocationId":"NT_CtCyqaXFgSnTo.DgeaYWxB_xQD","LocationType":"point","DisplayPosition":{"Latitude":46.47575,"Longitude":22.47331},"MapView":{"TopLeft":{"Latitude":46.4768742,"Longitude":22.4716776},"BottomRight":{"Latitude":46.4746258,"Longitude":22.4749424}},"Address":{"Label":"Strada Unirii 14, 415800 Vașcău, România","Country":"ROU","County":"Bihor","City":"Vașcău","District":"Vașcău","Street":"Strada Unirii","HouseNumber":"14","PostalCode":"415800","AdditionalData":[{"value":"România","key":"CountryName"},{"value":"Bihor","key":"CountyName"}]},"MapReference":{"ReferenceId":"901420027","Spot":0.0,"SideOfStreet":"right","CountryId":"20656215","CountyId":"20657269","CityId":"23756291","DistrictId":"23756535","AddressId":"709618049","RoadLinkId":"262990388"}}},{"Relevance":1.0,"Distance":88.0,"MatchLevel":"street","MatchQuality":{"Country":1.0,"County":1.0,"City":1.0,"District":1.0,"PostalCode":1.0},"Location":{"LocationId":"NT_F13fdP6FyAPND-go6mrtSA_l_1157059121_R","LocationType":"point","DisplayPosition":{"Latitude":46.47582,"Longitude":22.47114},"MapView":{"TopLeft":{"Latitude":46.47589,"Longitude":22.47091},"BottomRight":{"Latitude":46.47582,"Longitude":22.47114}},"Address":{"Label":"415800 Vașcău, România","Country":"ROU","County":"Bihor","City":"Vașcău","District":"Vașcău","PostalCode":"415800","AdditionalData":[{"value":"România","key":"CountryName"},{"value":"Bihor","key":"CountyName"}]},"MapReference":{"ReferenceId":"1157059121","Spot":0.0,"SideOfStreet":"right","CountryId":"20656215","CountyId":"20657269","CityId":"23756291","DistrictId":"23756535"}}},{"Relevance":1.0,"Distance":111.5,"MatchLevel":"houseNumber","MatchQuality":{"Country":1.0,"County":1.0,"City":1.0,"District":1.0,"Street":[1.0],"HouseNumber":1.0,"PostalCode":1.0},"MatchType":"interpolated","Location":{"LocationId":"NT_CtCyqaXFgSnTo.DgeaYWxB_xkjQ","LocationType":"point","DisplayPosition":{"Latitude":46.47507,"Longitude":22.47335},"MapView":{"TopLeft":{"Latitude":46.4761942,"Longitude":22.4717176},"BottomRight":{"Latitude":46.4739458,"Longitude":22.4749824}},"Address":{"Label":"Strada Unirii 19B, 415800 Vașcău, România","Country":"ROU","County":"Bihor","City":"Vașcău","District":"Vașcău","Street":"Strada Unirii","HouseNumber":"19B","PostalCode":"415800","AdditionalData":[{"value":"România","key":"CountryName"},{"value":"Bihor","key":"CountyName"}]},"MapReference":{"ReferenceId":"833390209","Spot":0.77,"SideOfStreet":"left","CountryId":"20656215","CountyId":"20657269","CityId":"23756291","DistrictId":"23756535","AddressId":"832748834","RoadLinkId":"216693782"}}}]}]}}