{"Response":{"MetaInfo":{"Timestamp":"2020-03-28T11:53:37.770+0000","NextPageInformation":"2"},"View":[{"_type":"SearchResultsViewType","ViewId":0,"Result":[{"Relevance":1.0,"Distance":0.0,"Direction":0.0,"MatchLevel":"city","MatchQuality":{"Country":1.0,"State":1.0,"County":1.0,"City":1.0,"PostalCode":1.0},"Location":{"LocationId":"NT_UVCXhVADWPkMBnt8nsAboB","LocationType":"point","DisplayPosition":{"Latitude":46.4822543,"Longitude":-0.5989449},"MapView":{"TopLeft":{"Latitude":46.50992,"Longitude":-0.63439},"BottomRight":{"Latitude":46.44493,"Longitude":-0.57049}},"Address":{"Label":"Coulonges-sur-l'Autize, Nouvelle-Aquitaine, France","Country":"FRA","State":"Nouvelle-Aquitaine","County":"Deux-Sèvres","City":"Coulonges-sur-l'Autize","PostalCode":"79160","AdditionalData":[{"value":"France","key":"CountryName"},{"value":"Nouvelle-Aquitaine","key":"StateName"},{"value":"Deux-Sèvres","key":"CountyName"}]},"MapReference":{"ReferenceId":"568352919","SideOfStreet":"neither","CountryId":"20000001","StateId":"20000383","CountyId":"20080046","CityId":"20080318"}}},{"Relevance":1.0,"Distance":4.2,"MatchLevel":"houseNumber","MatchQuality":{"Country":1.0,"State":1.0,"County":1.0,"City":1.0,"Street":[1.0],"HouseNumber":1.0,"PostalCode":1.0},"MatchType":"interpolated","Location":{"LocationId":"NT_qmcjB1vBiw5YPblXZRBhiA_xA","LocationType":"point","DisplayPosition":{"Latitude":46.48225,"Longitude":-0.59889},"MapView":{"TopLeft":{"Latitude":46.4833742,"Longitude":-0.6005226},"BottomRight":{"Latitude":46.4811258,"Longitude":-0.5972574}},"Address":{"Label":"1 Rue du Minage, 79160 Coulonges-sur-l'Autize, France","Country":"FRA","State":"Nouvelle-Aquitaine","County":"Deux-Sèvres","City":"Coulonges-sur-l'Autize","Street":"Rue du Minage","HouseNumber":"1","PostalCode":"79160","AdditionalData":[{"value":"France","key":"CountryName"},{"value":"Nouvelle-Aquitaine","key":"StateName"},{"value":"Deux-Sèvres","key":"CountyName"}]},"MapReference":{"ReferenceId":"568352897","Spot":0.86,"SideOfStreet":"right","CountryId":"20000001","StateId":"20000383","CountyId":"20080046","CityId":"20080318","AddressId":"590912366","RoadLinkId":"47993236"}}},{"Relevance":1.0,"Distance":13.4,"MatchLevel":"houseNumber","MatchQuality":{"Country":1.0,"State":1.0,"County":1.0,"City":1.0,"Street":[1.0],"HouseNumber":1.0,"PostalCode":1.0},"MatchType":"interpolated","Location":{"LocationId":"NT_iYAc2lqjpwBh9cRKrvnDtD_0A","LocationType":"point","DisplayPosition":{"Latitude":46.48236,"Longitude":-0.59886},"MapView":{"TopLeft":{"Latitude":46.4834842,"Longitude":-0.6004926},"BottomRight":{"Latitude":46.4812358,"Longitude":-0.5972274}},"Address":{"Label":"4 Rue du Château, 79160 Coulonges-sur-l'Autize, France","Country":"FRA","State":"Nouvelle-Aquitaine","County":"Deux-Sèvres","City":"Coulonges-sur-l'Autize","Street":"Rue du Château","HouseNumber":"4","PostalCode":"79160","AdditionalData":[{"value":"France","key":"CountryName"},{"value":"Nouvelle-Aquitaine","key":"StateName"},{"value":"Deux-Sèvres","key":"CountyName"}]},"MapReference":{"ReferenceId":"568352998","Spot":0.21,"SideOfStreet":"right","CountryId":"20000001","StateId":"20000383","CountyId":"20080046","CityId":"20080318","AddressId":"381522817","RoadLinkId":"47648914"}}},{"Relevance":1.0,"Distance":28.5,"MatchLevel":"houseNumber","MatchQuality":{"Country":1.0,"State":1.0,"County":1.0,"City":1.0,"Street":[1.0],"HouseNumber":1.0,"PostalCode":1.0},"MatchType":"interpolated","Location":{"LocationId":"NT_qmcjB1vBiw5YPblXZRBhiA_xID","LocationType":"point","DisplayPosition":{"Latitude":46.48249,"Longitude":-0.59909},"MapView":{"TopLeft":{"Latitude":46.4836142,"Longitude":-0.6007226},"BottomRight":{"Latitude":46.4813658,"Longitude":-0.5974574}},"Address":{"Label":"12 Rue du Minage, 79160 Coulonges-sur-l'Autize, France","Country":"FRA","State":"Nouvelle-Aquitaine","County":"Deux-Sèvres","City":"Coulonges-sur-l'Autize","Street":"Rue du Minage","HouseNumber":"12","PostalCode":"79160","AdditionalData":[{"value":"France","key":"CountryName"},{"value":"Nouvelle-Aquitaine","key":"StateName"},{"value":"Deux-Sèvres","key":"CountyName"}]},"MapReference":{"ReferenceId":"568352894","Spot":0.42,"SideOfStreet":"left","CountryId":"20000001","StateId":"20000383","CountyId":"20080046","CityId":"20080318","AddressId":"605761948","RoadLinkId":"47459394"}}},{"Relevance":1.0,"Distance":30.3,"MatchLevel":"houseNumber","MatchQuality":{"Country":1.0,"State":1.0,"County":1.0,"City":1.0,"Street":[1.0],"HouseNumber":1.0,"PostalCode":1.0},"MatchType":"interpolated","Location":{"LocationId":"NT_iYAc2lqjpwBh9cRKrvnDtD_yA","LocationType":"point","DisplayPosition":{"Latitude":46.48216,"Longitude":-0.59925},"MapView":{"TopLeft":{"Latitude":46.4832842,"Longitude":-0.6008826},"BottomRight":{"Latitude":46.4810358,"Longitude":-0.5976174}},"Address":{"Label":"2 Rue du Château, 79160 Coulonges-sur-l'Autize, France","Country":"FRA","State":"Nouvelle-Aquitaine","County":"Deux-Sèvres","City":"Coulonges-sur-l'Autize","Street":"Rue du Château","HouseNumber":"2","PostalCode":"79160","AdditionalData":[{"value":"France","key":"CountryName"},{"value":"Nouvelle-Aquitaine","key":"StateName"},{"value":"Deux-Sèvres","key":"CountyName"}]},"MapReference":{"ReferenceId":"568352895","Spot":0.46,"SideOfStreet":"right","CountryId":"20000001","StateId":"20000383","CountyId":"20080046","CityId":"20080318","AddressId":"388673816","RoadLinkId":"318762252"}}},{"Relevance":1.0,"Distance":36.5,"MatchLevel":"houseNumber","MatchQuality":{"Country":1.0,"State":1.0,"County":1.0,"City":1.0,"Street":[1.0],"HouseNumber":1.0,"PostalCode":1.0},"MatchType":"interpolated","Location":{"LocationId":"NT_nYlAfrJWHI1WzeXsU-XbiB_xED","LocationType":"point","DisplayPosition":{"Latitude":46.48218,"Longitude":-0.59953},"MapView":{"TopLeft":{"Latitude":46.4833042,"Longitude":-0.6011626},"BottomRight":{"Latitude":46.4810558,"Longitude":-0.5978974}},"Address":{"Label":"11 Place du Château, 79160 Coulonges-sur-l'Autize, France","Country":"FRA","State":"Nouvelle-Aquitaine","County":"Deux-Sèvres","City":"Coulonges-sur-l'Autize","Street":"Place du Château","HouseNumber":"11","PostalCode":"79160","AdditionalData":[{"value":"France","key":"CountryName"},{"value":"Nouvelle-Aquitaine","key":"StateName"},{"value":"Deux-Sèvres","key":"CountyName"}]},"MapReference":{"ReferenceId":"568352866","Spot":0.02,"SideOfStreet":"right","CountryId":"20000001","StateId":"20000383","CountyId":"20080046","CityId":"20080318","AddressId":"381560358","RoadLinkId":"46478905"}}},{"Relevance":1.0,"Distance":46.1,"MatchLevel":"houseNumber","MatchQuality":{"Country":1.0,"State":1.0,"County":1.0,"City":1.0,"Street":[1.0],"HouseNumber":1.0,"PostalCode":1.0},"MatchType":"interpolated","Location":{"LocationId":"NT_WRvqWSynGeq40yJsyf-neD_2A","LocationType":"point","DisplayPosition":{"Latitude":46.48252,"Longitude":-0.59842},"MapView":{"TopLeft":{"Latitude":46.4836442,"Longitude":-0.6000526},"BottomRight":{"Latitude":46.4813958,"Longitude":-0.5967874}},"Address":{"Label":"6 Rue du Commerce, 79160 Coulonges-sur-l'Autize, France","Country":"FRA","State":"Nouvelle-Aquitaine","County":"Deux-Sèvres","City":"Coulonges-sur-l'Autize","Street":"Rue du Commerce","HouseNumber":"6","PostalCode":"79160","AdditionalData":[{"value":"France","key":"CountryName"},{"value":"Nouvelle-Aquitaine","key":"StateName"},{"value":"Deux-Sèvres","key":"CountyName"}]},"MapReference":{"ReferenceId":"568352923","Spot":0.72,"SideOfStreet":"left","CountryId":"20000001","StateId":"20000383","CountyId":"20080046","CityId":"20080318","AddressId":"381539247","RoadLinkId":"47629729"}}},{"Relevance":1.0,"Distance":49.3,"MatchLevel":"houseNumber","MatchQuality":{"Country":1.0,"State":1.0,"County":1.0,"City":1.0,"Street":[1.0],"HouseNumber":1.0,"PostalCode":1.0},"MatchType":"interpolated","Location":{"LocationId":"NT_D-qsO423BbdDnZSvl3fYOB_1A","LocationType":"point","DisplayPosition":{"Latitude":46.48202,"Longitude":-0.59838},"MapView":{"TopLeft":{"Latitude":46.4831442,"Longitude":-0.6000126},"BottomRight":{"Latitude":46.4808958,"Longitude":-0.5967474}},"Address":{"Label":"5 Place Saint-Antoine, 79160 Coulonges-sur-l'Autize, France","Country":"FRA","State":"Nouvelle-Aquitaine","County":"Deux-Sèvres","City":"Coulonges-sur-l'Autize","Street":"Place Saint-Antoine","HouseNumber":"5","PostalCode":"79160","AdditionalData":[{"value":"France","key":"CountryName"},{"value":"Nouvelle-Aquitaine","key":"StateName"},{"value":"Deux-Sèvres","key":"CountyName"}]},"MapReference":{"ReferenceId":"568352896","Spot":0.37,"SideOfStreet":"left","CountryId":"20000001","StateId":"20000383","CountyId":"20080046","CityId":"20080318","AddressId":"381549598","RoadLinkId":"46658146"}}},{"Relevance":1.0,"Distance":49.7,"MatchLevel":"houseNumber","MatchQuality":{"Country":1.0,"State":1.0,"County":1.0,"City":1.0,"Street":[1.0],"HouseNumber":1.0,"PostalCode":1.0},"MatchType":"interpolated","Location":{"LocationId":"NT_D-qsO423BbdDnZSvl3fYOB_yA","LocationType":"point","DisplayPosition":{"Latitude":46.48191,"Longitude":-0.59852},"MapView":{"TopLeft":{"Latitude":46.4830342,"Longitude":-0.6001526},"BottomRight":{"Latitude":46.4807858,"Longitude":-0.5968874}},"Address":{"Label":"2 Place Saint-Antoine, 79160 Coulonges-sur-l'Autize, France","Country":"FRA","State":"Nouvelle-Aquitaine","County":"Deux-Sèvres","City":"Coulonges-sur-l'Autize","Street":"Place Saint-Antoine","HouseNumber":"2","PostalCode":"79160","AdditionalData":[{"value":"France","key":"CountryName"},{"value":"Nouvelle-Aquitaine","key":"StateName"},{"value":"Deux-Sèvres","key":"CountyName"}]},"MapReference":{"ReferenceId":"568352898","Spot":0.97,"SideOfStreet":"left","CountryId":"20000001","StateId":"20000383","CountyId":"20080046","CityId":"20080318","AddressId":"388680593","RoadLinkId":"47569941"}}},{"Relevance":1.0,"Distance":50.4,"MatchLevel":"houseNumber","MatchQuality":{"Country":1.0,"State":1.0,"County":1.0,"City":1.0,"Street":[1.0],"HouseNumber":1.0,"PostalCode":1.0},"MatchType":"interpolated","Location":{"LocationId":"NT_WRvqWSynGeq40yJsyf-neD_xcD","LocationType":"point","DisplayPosition":{"Latitude":46.48268,"Longitude":-0.59872},"MapView":{"TopLeft":{"Latitude":46.4838042,"Longitude":-0.6003526},"BottomRight":{"Latitude":46.4815558,"Longitude":-0.5970874}},"Address":{"Label":"17 Rue du Commerce, 79160 Coulonges-sur-l'Autize, France","Country":"FRA","State":"Nouvelle-Aquitaine","County":"Deux-Sèvres","City":"Coulonges-sur-l'Autize","Street":"Rue du Commerce","HouseNumber":"17","PostalCode":"79160","AdditionalData":[{"value":"France","key":"CountryName"},{"value":"Nouvelle-Aquitaine","key":"StateName"},{"value":"Deux-Sèvres","key":"CountyName"}]},"MapReference":{"ReferenceId":"568352917","Spot":0.36,"SideOfStreet":"right","CountryId":"20000001","StateId":"20000383","CountyId":"20080046","CityId":"20080318","AddressId":"381549232","RoadLinkId":"46277930"}}}]}]}}