{"Response":{"MetaInfo":{"Timestamp":"2020-03-28T11:36:40.625+0000","NextPageInformation":"2"},"View":[{"_type":"SearchResultsViewType","ViewId":0,"Result":[{"Relevance":1.0,"Distance":0.0,"Direction":0.0,"MatchLevel":"district","MatchQuality":{"Country":1.0,"County":1.0,"City":1.0,"District":1.0,"PostalCode":1.0},"Location":{"LocationId":"NT_pWDFr2vuq9K7jacovnJ.jA","LocationType":"point","DisplayPosition":{"Latitude":46.4279247,"Longitude":15.875755},"MapView":{"TopLeft":{"Latitude":46.45399,"Longitude":15.83778},"BottomRight":{"Latitude":46.3871,"Longitude":15.90595}},"Address":{"Label":"Ptuj, Slovenija","Country":"SVN","County":"Ptuj","City":"Ptuj","District":"Ptuj","PostalCode":"2250","AdditionalData":[{"value":"Slovenija","key":"CountryName"},{"value":"Ptuj","key":"CountyName"}]},"MapReference":{"ReferenceId":"1120331193","SideOfStreet":"neither","CountryId":"20633685","CountyId":"20638877","CityId":"20639026","DistrictId":"22690392"}}},{"Relevance":1.0,"Distance":16.8,"MatchLevel":"street","MatchQuality":{"Country":1.0,"County":1.0,"City":1.0,"District":1.0,"Street":[1.0],"PostalCode":1.0},"Location":{"LocationId":"NT_IEYOaTxkwr9UZbofp60sVC_l_1121619373_R","LocationType":"point","DisplayPosition":{"Latitude":46.4280757,"Longitude":15.8757507},"MapView":{"TopLeft":{"Latitude":46.42809,"Longitude":15.87555},"BottomRight":{"Latitude":46.42807,"Longitude":15.87626}},"Address":{"Label":"Ulica 5. prekomorske, SI- 2250 Ptuj, Slovenija","Country":"SVN","County":"Ptuj","City":"Ptuj","District":"Ptuj","Street":"Ulica 5. prekomorske","PostalCode":"2250","AdditionalData":[{"value":"Slovenija","key":"CountryName"},{"value":"Ptuj","key":"CountyName"}]},"MapReference":{"ReferenceId":"1121619373","Spot":0.28,"SideOfStreet":"right","CountryId":"20633685","CountyId":"20638877","CityId":"20639026","DistrictId":"22690392"}}},{"Relevance":1.0,"Distance":42.8,"MatchLevel":"street","MatchQuality":{"Country":1.0,"County":1.0,"City":1.0,"District":1.0,"Street":[1.0],"PostalCode":1.0},"Location":{"LocationId":"NT_IEYOaTxkwr9UZbofp60sVC_l_1121619374_R","LocationType":"point","DisplayPosition":{"Latitude":46.42809,"Longitude":15.87626},"MapView":{"TopLeft":{"Latitude":46.42814,"Longitude":15.87626},"BottomRight":{"Latitude":46.42809,"Longitude":15.87717}},"Address":{"Label":"Ulica 5. prekomorske, SI- 2250 Ptuj, Slovenija","Country":"SVN","County":"Ptuj","City":"Ptuj","District":"Ptuj","Street":"Ulica 5. prekomorske","PostalCode":"2250","AdditionalData":[{"value":"Slovenija","key":"CountryName"},{"value":"Ptuj","key":"CountyName"}]},"MapReference":{"ReferenceId":"1121619374","Spot":0.0,"SideOfStreet":"right","CountryId":"20633685","CountyId":"20638877","CityId":"20639026","DistrictId":"22690392"}}},{"Relevance":1.0,"Distance":51.3,"MatchLevel":"houseNumber","MatchQuality":{"Country":1.0,"County":1.0,"City":1.0,"District":1.0,"Street":[1.0],"HouseNumber":1.0,"PostalCode":1.0},"MatchType":"interpolated","Location":{"LocationId":"NT_IEYOaTxkwr9UZbofp60sVC_xA","LocationType":"point","DisplayPosition":{"Latitude":46.42809,"Longitude":15.87513},"MapView":{"TopLeft":{"Latitude":46.4292142,"Longitude":15.8734991},"BottomRight":{"Latitude":46.4269658,"Longitude":15.8767609}},"Address":{"Label":"Ulica 5. prekomorske 1, SI- 2250 Ptuj, Slovenija","Country":"SVN","County":"Ptuj","City":"Ptuj","District":"Ptuj","Street":"Ulica 5. prekomorske","HouseNumber":"1","PostalCode":"2250","AdditionalData":[{"value":"Slovenija","key":"CountryName"},{"value":"Ptuj","key":"CountyName"}]},"MapReference":{"ReferenceId":"1121619372","Spot":0.34,"SideOfStreet":"left","CountryId":"20633685","CountyId":"20638877","CityId":"20639026","DistrictId":"22690392","AddressId":"406511670","RoadLinkId":"431805010"}}},{"Relevance":1.0,"Distance":104.4,"MatchLevel":"houseNumber","MatchQuality":{"Country":1.0,"County":1.0,"City":1.0,"District":1.0,"Street":[1.0],"HouseNumber":1.0,"PostalCode":1.0},"MatchType":"interpolated","Location":{"LocationId":"NT_5pDMR-BU2Nbn4BiXWInMRA_yID","LocationType":"point","DisplayPosition":{"Latitude":46.42863,"Longitude":15.8745},"MapView":{"TopLeft":{"Latitude":46.4297542,"Longitude":15.872869},"BottomRight":{"Latitude":46.4275058,"Longitude":15.876131}},"Address":{"Label":"Kraigherjeva ulica 22, SI- 2250 Ptuj, Slovenija","Country":"SVN","County":"Ptuj","City":"Ptuj","District":"Ptuj","Street":"Kraigherjeva ulica","HouseNumber":"22","PostalCode":"2250","AdditionalData":[{"value":"Slovenija","key":"CountryName"},{"value":"Ptuj","key":"CountyName"}]},"MapReference":{"ReferenceId":"1121614678","Spot":0.38,"SideOfStreet":"right","CountryId":"20633685","CountyId":"20638877","CityId":"20639026","DistrictId":"22690392","AddressId":"406659015","RoadLinkId":"431799734"}}},{"Relevance":1.0,"Distance":111.1,"MatchLevel":"street","MatchQuality":{"Country":1.0,"County":1.0,"City":1.0,"District":1.0,"Street":[1.0],"PostalCode":1.0},"Location":{"LocationId":"NT_z39C32MTt1UFvdqE7qf4WA_l_1083797860_L","LocationType":"point","DisplayPosition":{"Latitude":46.42814,"Longitude":15.87717},"MapView":{"TopLeft":{"Latitude":46.42814,"Longitude":15.87717},"BottomRight":{"Latitude":46.42778,"Longitude":15.87727}},"Address":{"Label":"Župančičeva ulica, SI- 2250 Ptuj, Slovenija","Country":"SVN","County":"Ptuj","City":"Ptuj","District":"Ptuj","Street":"Župančičeva ulica","PostalCode":"2250","AdditionalData":[{"value":"Slovenija","key":"CountryName"},{"value":"Ptuj","key":"CountyName"}]},"MapReference":{"ReferenceId":"1083797860","Spot":1.0,"SideOfStreet":"left","CountryId":"20633685","CountyId":"20638877","CityId":"20639026","DistrictId":"22690392"}}},{"Relevance":1.0,"Distance":111.1,"MatchLevel":"street","MatchQuality":{"Country":1.0,"County":1.0,"City":1.0,"District":1.0,"Street":[1.0],"PostalCode":1.0},"Location":{"LocationId":"NT_z39C32MTt1UFvdqE7qf4WA_l_1206077590_L","LocationType":"point","DisplayPosition":{"Latitude":46.42814,"Longitude":15.87717},"MapView":{"TopLeft":{"Latitude":46.42825,"Longitude":15.87716},"BottomRight":{"Latitude":46.42814,"Longitude":15.87717}},"Address":{"Label":"Župančičeva ulica, SI- 2250 Ptuj, Slovenija","Country":"SVN","County":"Ptuj","City":"Ptuj","District":"Ptuj","Street":"Župančičeva ulica","PostalCode":"2250","AdditionalData":[{"value":"Slovenija","key":"CountryName"},{"value":"Ptuj","key":"CountyName"}]},"MapReference":{"ReferenceId":"1206077590","Spot":0.0,"SideOfStreet":"left","CountryId":"20633685","CountyId":"20638877","CityId":"20639026","DistrictId":"22690392"}}},{"Relevance":1.0,"Distance":111.1,"MatchLevel":"houseNumber","MatchQuality":{"Country":1.0,"County":1.0,"City":1.0,"District":1.0,"Street":[1.0],"HouseNumber":1.0,"PostalCode":1.0},"MatchType":"interpolated","Location":{"LocationId":"NT_5pDMR-BU2Nbn4BiXWInMRA_yAD","LocationType":"point","DisplayPosition":{"Latitude":46.42774,"Longitude":15.87407},"MapView":{"TopLeft":{"Latitude":46.4288642,"Longitude":15.8724391},"BottomRight":{"Latitude":46.4266158,"Longitude":15.8757009}},"Address":{"Label":"Kraigherjeva ulica 20, SI- 2250 Ptuj, Slovenija","Country":"SVN","County":"Ptuj","City":"Ptuj","District":"Ptuj","Street":"Kraigherjeva ulica","HouseNumber":"20","PostalCode":"2250","AdditionalData":[{"value":"Slovenija","key":"CountryName"},{"value":"Ptuj","key":"CountyName"}]},"MapReference":{"ReferenceId":"710613108","Spot":0.42,"SideOfStreet":"right","CountryId":"20633685","CountyId":"20638877","CityId":"20639026","DistrictId":"22690392","AddressId":"406578565","RoadLinkId":"115847960"}}},{"Relevance":1.0,"Distance":117.2,"MatchLevel":"street","MatchQuality":{"Country":1.0,"County":1.0,"City":1.0,"District":1.0,"Street":[1.0],"PostalCode":1.0},"Location":{"LocationId":"NT_z39C32MTt1UFvdqE7qf4WA_l_1206077585_L","LocationType":"point","DisplayPosition":{"Latitude":46.42778,"Longitude":15.87727},"MapView":{"TopLeft":{"Latitude":46.42794,"Longitude":15.87727},"BottomRight":{"Latitude":46.42778,"Longitude":15.87763}},"Address":{"Label":"Župančičeva ulica, SI- 2250 Ptuj, Slovenija","Country":"SVN","County":"Ptuj","City":"Ptuj","District":"Ptuj","Street":"Župančičeva ulica","PostalCode":"2250","AdditionalData":[{"value":"Slovenija","key":"CountryName"},{"value":"Ptuj","key":"CountyName"}]},"MapReference":{"ReferenceId":"1206077585","Spot":0.0,"SideOfStreet":"left","CountryId":"20633685","CountyId":"20638877","CityId":"20639026","DistrictId":"22690392"}}},{"Relevance":1.0,"Distance":125.7,"MatchLevel":"houseNumber","MatchQuality":{"Country":1.0,"County":1.0,"City":1.0,"District":1.0,"Street":[1.0],"HouseNumber":1.0,"PostalCode":1.0},"MatchType":"interpolated","Location":{"LocationId":"NT_z39C32MTt1UFvdqE7qf4WA_xAD","LocationType":"point","DisplayPosition":{"Latitude":46.42846,"Longitude":15.8772},"MapView":{"TopLeft":{"Latitude":46.4295842,"Longitude":15.875569},"BottomRight":{"Latitude":46.4273358,"Longitude":15.878831}},"Address":{"Label":"Župančičeva ulica 10, SI- 2250 Ptuj, Slovenija","Country":"SVN","County":"Ptuj","City":"Ptuj","District":"Ptuj","Street":"Župančičeva ulica","HouseNumber":"10","PostalCode":"2250","AdditionalData":[{"value":"Slovenija","key":"CountryName"},{"value":"Ptuj","key":"CountyName"}]},"MapReference":{"ReferenceId":"1206077591","Spot":1.0,"SideOfStreet":"right","CountryId":"20633685","CountyId":"20638877","CityId":"20639026","DistrictId":"22690392","AddressId":"712471994","RoadLinkId":"519924332"}}}]}]}}