{"Response":{"MetaInfo":{"Timestamp":"2020-03-28T11:36:46.536+0000","NextPageInformation":"2"},"View":[{"_type":"SearchResultsViewType","ViewId":0,"Result":[{"Relevance":1.0,"Distance":0.0,"Direction":0.0,"MatchLevel":"district","MatchQuality":{"Country":1.0,"County":1.0,"City":1.0,"District":1.0,"PostalCode":1.0},"Location":{"LocationId":"NT_dvCwHaO7ghH2XaSF439DzB","LocationType":"point","DisplayPosition":{"Latitude":46.4402939,"Longitude":14.0449418},"MapView":{"TopLeft":{"Latitude":46.44507,"Longitude":14.02451},"BottomRight":{"Latitude":46.42433,"Longitude":14.0779}},"Address":{"Label":"Jesenice, Slovenija","Country":"SVN","County":"Jesenice","City":"Jesenice","District":"Jesenice","PostalCode":"4270","AdditionalData":[{"value":"Slovenija","key":"CountryName"},{"value":"Jesenice","key":"CountyName"}]},"MapReference":{"ReferenceId":"873134798","SideOfStreet":"neither","CountryId":"20633685","CountyId":"20636228","CityId":"20636229","DistrictId":"22695757"}}},{"Relevance":1.0,"Distance":25.9,"MatchLevel":"houseNumber","MatchQuality":{"Country":1.0,"County":1.0,"City":1.0,"District":1.0,"Street":[1.0],"HouseNumber":1.0,"PostalCode":1.0},"MatchType":"interpolated","Location":{"LocationId":"NT_g-azhxxVRWGKfZ1mc0SalA_3YTQ","LocationType":"point","DisplayPosition":{"Latitude":46.44011,"Longitude":14.04515},"MapView":{"TopLeft":{"Latitude":46.4412342,"Longitude":14.0435187},"BottomRight":{"Latitude":46.4389858,"Longitude":14.0467813}},"Address":{"Label":"Cesta maršala Tita 76A, SI- 4270 Jesenice, Slovenija","Country":"SVN","County":"Jesenice","City":"Jesenice","District":"Jesenice","Street":"Cesta maršala Tita","HouseNumber":"76A","PostalCode":"4270","AdditionalData":[{"value":"Slovenija","key":"CountryName"},{"value":"Jesenice","key":"CountyName"}]},"MapReference":{"ReferenceId":"710414899","Spot":0.14,"SideOfStreet":"right","CountryId":"20633685","CountyId":"20636228","CityId":"20636229","DistrictId":"22695757","AddressId":"406627762","RoadLinkId":"115652178"}}},{"Relevance":1.0,"Distance":39.9,"MatchLevel":"street","MatchQuality":{"Country":1.0,"County":1.0,"City":1.0,"District":1.0,"Street":[1.0],"PostalCode":1.0},"Location":{"LocationId":"NT_g-azhxxVRWGKfZ1mc0SalA_l_710437131_L","LocationType":"point","DisplayPosition":{"Latitude":46.43995,"Longitude":14.04509},"MapView":{"TopLeft":{"Latitude":46.43995,"Longitude":14.04495},"BottomRight":{"Latitude":46.43961,"Longitude":14.04509}},"Address":{"Label":"Cesta maršala Tita, SI- 4270 Jesenice, Slovenija","Country":"SVN","County":"Jesenice","City":"Jesenice","District":"Jesenice","Street":"Cesta maršala Tita","PostalCode":"4270","AdditionalData":[{"value":"Slovenija","key":"CountryName"},{"value":"Jesenice","key":"CountyName"}]},"MapReference":{"ReferenceId":"710437131","Spot":1.0,"SideOfStreet":"left","CountryId":"20633685","CountyId":"20636228","CityId":"20636229","DistrictId":"22695757"}}},{"Relevance":1.0,"Distance":41.3,"MatchLevel":"street","MatchQuality":{"Country":1.0,"County":1.0,"City":1.0,"District":1.0,"Street":[1.0],"PostalCode":1.0},"Location":{"LocationId":"NT_g-azhxxVRWGKfZ1mc0SalA_l_710473159_R","LocationType":"point","DisplayPosition":{"Latitude":46.4405321,"Longitude":14.0445282},"MapView":{"TopLeft":{"Latitude":46.44057,"Longitude":14.04382},"BottomRight":{"Latitude":46.4402,"Longitude":14.04455}},"Address":{"Label":"Cesta maršala Tita, SI- 4270 Jesenice, Slovenija","Country":"SVN","County":"Jesenice","City":"Jesenice","District":"Jesenice","Street":"Cesta maršala Tita","PostalCode":"4270","AdditionalData":[{"value":"Slovenija","key":"CountryName"},{"value":"Jesenice","key":"CountyName"}]},"MapReference":{"ReferenceId":"710473159","Spot":0.95,"SideOfStreet":"right","CountryId":"20633685","CountyId":"20636228","CityId":"20636229","DistrictId":"22695757"}}},{"Relevance":1.0,"Distance":41.4,"MatchLevel":"houseNumber","MatchQuality":{"Country":1.0,"County":1.0,"City":1.0,"District":1.0,"Street":[1.0],"HouseNumber":1.0,"PostalCode":1.0},"MatchType":"interpolated","Location":{"LocationId":"NT_g-azhxxVRWGKfZ1mc0SalA_3gD","LocationType":"point","DisplayPosition":{"Latitude":46.43975,"Longitude":14.04445},"MapView":{"TopLeft":{"Latitude":46.4408742,"Longitude":14.0428187},"BottomRight":{"Latitude":46.4386258,"Longitude":14.0460813}},"Address":{"Label":"Cesta maršala Tita 78, SI- 4270 Jesenice, Slovenija","Country":"SVN","County":"Jesenice","City":"Jesenice","District":"Jesenice","Street":"Cesta maršala Tita","HouseNumber":"78","PostalCode":"4270","AdditionalData":[{"value":"Slovenija","key":"CountryName"},{"value":"Jesenice","key":"CountyName"}]},"MapReference":{"ReferenceId":"710460356","Spot":0.38,"SideOfStreet":"right","CountryId":"20633685","CountyId":"20636228","CityId":"20636229","DistrictId":"22695757","AddressId":"406652299","RoadLinkId":"115617963"}}},{"Relevance":1.0,"Distance":43.5,"MatchLevel":"houseNumber","MatchQuality":{"Country":1.0,"County":1.0,"City":1.0,"District":1.0,"Street":[1.0],"HouseNumber":1.0,"PostalCode":1.0},"MatchType":"interpolated","Location":{"LocationId":"NT_g-azhxxVRWGKfZ1mc0SalA_3gTQ","LocationType":"point","DisplayPosition":{"Latitude":46.44057,"Longitude":14.04454},"MapView":{"TopLeft":{"Latitude":46.4416942,"Longitude":14.0429087},"BottomRight":{"Latitude":46.4394458,"Longitude":14.0461713}},"Address":{"Label":"Cesta maršala Tita 78A, SI- 4270 Jesenice, Slovenija","Country":"SVN","County":"Jesenice","City":"Jesenice","District":"Jesenice","Street":"Cesta maršala Tita","HouseNumber":"78A","PostalCode":"4270","AdditionalData":[{"value":"Slovenija","key":"CountryName"},{"value":"Jesenice","key":"CountyName"}]},"MapReference":{"ReferenceId":"710493335","Spot":0.02,"SideOfStreet":"right","CountryId":"20633685","CountyId":"20636228","CityId":"20636229","DistrictId":"22695757","AddressId":"406737114","RoadLinkId":"115670684"}}},{"Relevance":1.0,"Distance":70.4,"MatchLevel":"houseNumber","MatchQuality":{"Country":1.0,"County":1.0,"City":1.0,"District":1.0,"Street":[1.0],"HouseNumber":1.0,"PostalCode":1.0},"MatchType":"interpolated","Location":{"LocationId":"NT_g-azhxxVRWGKfZ1mc0SalA_3YD","LocationType":"point","DisplayPosition":{"Latitude":46.43954,"Longitude":14.04522},"MapView":{"TopLeft":{"Latitude":46.4406642,"Longitude":14.0435887},"BottomRight":{"Latitude":46.4384158,"Longitude":14.0468513}},"Address":{"Label":"Cesta maršala Tita 76, SI- 4270 Jesenice, Slovenija","Country":"SVN","County":"Jesenice","City":"Jesenice","District":"Jesenice","Street":"Cesta maršala Tita","HouseNumber":"76","PostalCode":"4270","AdditionalData":[{"value":"Slovenija","key":"CountryName"},{"value":"Jesenice","key":"CountyName"}]},"MapReference":{"ReferenceId":"1169829732","Spot":0.54,"SideOfStreet":"right","CountryId":"20633685","CountyId":"20636228","CityId":"20636229","DistrictId":"22695757","AddressId":"406731353","RoadLinkId":"476635042"}}},{"Relevance":1.0,"Distance":76.4,"MatchLevel":"street","MatchQuality":{"Country":1.0,"County":1.0,"City":1.0,"District":1.0,"Street":[1.0],"PostalCode":1.0},"Location":{"LocationId":"NT_g-azhxxVRWGKfZ1mc0SalA_l_1205474700_R","LocationType":"point","DisplayPosition":{"Latitude":46.43984,"Longitude":14.04569},"MapView":{"TopLeft":{"Latitude":46.43984,"Longitude":14.04569},"BottomRight":{"Latitude":46.43933,"Longitude":14.04599}},"Address":{"Label":"Cesta maršala Tita, SI- 4270 Jesenice, Slovenija","Country":"SVN","County":"Jesenice","City":"Jesenice","District":"Jesenice","Street":"Cesta maršala Tita","PostalCode":"4270","AdditionalData":[{"value":"Slovenija","key":"CountryName"},{"value":"Jesenice","key":"CountyName"}]},"MapReference":{"ReferenceId":"1205474700","Spot":1.0,"SideOfStreet":"right","CountryId":"20633685","CountyId":"20636228","CityId":"20636229","DistrictId":"22695757"}}},{"Relevance":1.0,"Distance":83.8,"MatchLevel":"street","MatchQuality":{"Country":1.0,"County":1.0,"City":1.0,"District":1.0,"Street":[1.0],"PostalCode":1.0},"Location":{"LocationId":"NT_iaO8akVblK5RSFIGwABtfB_l_1205491318_R","LocationType":"point","DisplayPosition":{"Latitude":46.44096,"Longitude":14.04443},"MapView":{"TopLeft":{"Latitude":46.44096,"Longitude":14.04407},"BottomRight":{"Latitude":46.44088,"Longitude":14.04443}},"Address":{"Label":"Murova, SI- 4270 Jesenice, Slovenija","Country":"SVN","County":"Jesenice","City":"Jesenice","District":"Jesenice","Street":"Murova","PostalCode":"4270","AdditionalData":[{"value":"Slovenija","key":"CountryName"},{"value":"Jesenice","key":"CountyName"}]},"MapReference":{"ReferenceId":"1205491318","Spot":1.0,"SideOfStreet":"right","CountryId":"20633685","CountyId":"20636228","CityId":"20636229","DistrictId":"22695757"}}},{"Relevance":1.0,"Distance":84.3,"MatchLevel":"houseNumber","MatchQuality":{"Country":1.0,"County":1.0,"City":1.0,"District":1.0,"Street":[1.0],"HouseNumber":1.0,"PostalCode":1.0},"MatchType":"interpolated","Location":{"LocationId":"NT_wQawRssJCbLoe.8A3H.XGB_0A","LocationType":"point","DisplayPosition":{"Latitude":46.44065,"Longitude":14.04397},"MapView":{"TopLeft":{"Latitude":46.4417742,"Longitude":14.0423387},"BottomRight":{"Latitude":46.4395258,"Longitude":14.0456013}},"Address":{"Label":"Cesta na Golico 4, SI- 4270 Jesenice, Slovenija","Country":"SVN","County":"Jesenice","City":"Jesenice","District":"Jesenice","Street":"Cesta na Golico","HouseNumber":"4","PostalCode":"4270","AdditionalData":[{"value":"Slovenija","key":"CountryName"},{"value":"Jesenice","key":"CountyName"}]},"MapReference":{"ReferenceId":"710434040","Spot":0.82,"SideOfStreet":"left","CountryId":"20633685","CountyId":"20636228","CityId":"20636229","DistrictId":"22695757","AddressId":"406800371","RoadLinkId":"115661252"}}}]}]}}