{"Response":{"MetaInfo":{"Timestamp":"2020-03-28T11:09:33.352+0000","NextPageInformation":"2"},"View":[{"_type":"SearchResultsViewType","ViewId":0,"Result":[{"Relevance":1.0,"Distance":0.0,"Direction":0.0,"MatchLevel":"city","MatchQuality":{"Country":1.0,"State":1.0,"County":1.0,"City":1.0,"PostalCode":1.0},"Location":{"LocationId":"NT_P-F8-R7oxt88Th-q1Bm9NA","LocationType":"point","DisplayPosition":{"Latitude":46.4315342,"Longitude":4.2815296},"MapView":{"TopLeft":{"Latitude":46.48068,"Longitude":4.23791},"BottomRight":{"Latitude":46.42107,"Longitude":4.30958}},"Address":{"Label":"Charolles, Bourgogne-Franche-Comté, France","Country":"FRA","State":"Bourgogne-Franche-Comté","County":"Saône-et-Loire","City":"Charolles","PostalCode":"71120","AdditionalData":[{"value":"France","key":"CountryName"},{"value":"Bourgogne-Franche-Comté","key":"StateName"},{"value":"Saône-et-Loire","key":"CountyName"}]},"MapReference":{"ReferenceId":"580571106","SideOfStreet":"neither","CountryId":"20000001","StateId":"20013306","CountyId":"20037146","CityId":"20037465"}}},{"Relevance":1.0,"Distance":33.7,"MatchLevel":"houseNumber","MatchQuality":{"Country":1.0,"State":1.0,"County":1.0,"City":1.0,"Street":[1.0],"HouseNumber":1.0,"PostalCode":1.0},"MatchType":"interpolated","Location":{"LocationId":"NT_RMAa.LCL6nJyeqkBTJ5o.D_zcD","LocationType":"point","DisplayPosition":{"Latitude":46.43133,"Longitude":4.28115},"MapView":{"TopLeft":{"Latitude":46.4324542,"Longitude":4.279519},"BottomRight":{"Latitude":46.4302058,"Longitude":4.282781}},"Address":{"Label":"37 Rue Condé, 71120 Charolles, France","Country":"FRA","State":"Bourgogne-Franche-Comté","County":"Saône-et-Loire","City":"Charolles","Street":"Rue Condé","HouseNumber":"37","PostalCode":"71120","AdditionalData":[{"value":"France","key":"CountryName"},{"value":"Bourgogne-Franche-Comté","key":"StateName"},{"value":"Saône-et-Loire","key":"CountyName"}]},"MapReference":{"ReferenceId":"580570971","Spot":0.98,"SideOfStreet":"left","CountryId":"20000001","StateId":"20013306","CountyId":"20037146","CityId":"20037465","AddressId":"570326637","RoadLinkId":"52730069"}}},{"Relevance":1.0,"Distance":73.9,"MatchLevel":"street","MatchQuality":{"Country":1.0,"State":1.0,"County":1.0,"City":1.0,"Street":[1.0],"PostalCode":1.0},"Location":{"LocationId":"NT_bvtWtUfM.oTEAGcSrueFSC_l_986032493_R","LocationType":"point","DisplayPosition":{"Latitude":46.43196,"Longitude":4.28079},"MapView":{"TopLeft":{"Latitude":46.4321,"Longitude":4.2793},"BottomRight":{"Latitude":46.43185,"Longitude":4.28079}},"Address":{"Label":"Rue du Prieuré, 71120 Charolles, France","Country":"FRA","State":"Bourgogne-Franche-Comté","County":"Saône-et-Loire","City":"Charolles","Street":"Rue du Prieuré","PostalCode":"71120","AdditionalData":[{"value":"France","key":"CountryName"},{"value":"Bourgogne-Franche-Comté","key":"StateName"},{"value":"Saône-et-Loire","key":"CountyName"}]},"MapReference":{"ReferenceId":"986032493","Spot":1.0,"SideOfStreet":"right","CountryId":"20000001","StateId":"20013306","CountyId":"20037146","CityId":"20037465"}}},{"Relevance":1.0,"Distance":97.4,"MatchLevel":"houseNumber","MatchQuality":{"Country":1.0,"State":1.0,"County":1.0,"City":1.0,"Street":[1.0],"HouseNumber":1.0,"PostalCode":1.0},"MatchType":"interpolated","Location":{"LocationId":"NT_RMAa.LCL6nJyeqkBTJ5o.D_zkD","LocationType":"point","DisplayPosition":{"Latitude":46.43066,"Longitude":4.28089},"MapView":{"TopLeft":{"Latitude":46.4317842,"Longitude":4.279259},"BottomRight":{"Latitude":46.4295358,"Longitude":4.282521}},"Address":{"Label":"39 Rue Condé, 71120 Charolles, France","Country":"FRA","State":"Bourgogne-Franche-Comté","County":"Saône-et-Loire","City":"Charolles","Street":"Rue Condé","HouseNumber":"39","PostalCode":"71120","AdditionalData":[{"value":"France","key":"CountryName"},{"value":"Bourgogne-Franche-Comté","key":"StateName"},{"value":"Saône-et-Loire","key":"CountyName"}]},"MapReference":{"ReferenceId":"580570970","Spot":0.0,"SideOfStreet":"right","CountryId":"20000001","StateId":"20013306","CountyId":"20037146","CityId":"20037465","AddressId":"379213266","RoadLinkId":"53626247"}}},{"Relevance":1.0,"Distance":108.9,"MatchLevel":"street","MatchQuality":{"Country":1.0,"State":1.0,"County":1.0,"City":1.0,"Street":[1.0],"PostalCode":1.0},"Location":{"LocationId":"NT_RMAa.LCL6nJyeqkBTJ5o.D_l_984758747_R","LocationType":"point","DisplayPosition":{"Latitude":46.43066,"Longitude":4.28089},"MapView":{"TopLeft":{"Latitude":46.43066,"Longitude":4.28089},"BottomRight":{"Latitude":46.42837,"Longitude":4.28163}},"Address":{"Label":"Rue Condé, 71120 Charolles, France","Country":"FRA","State":"Bourgogne-Franche-Comté","County":"Saône-et-Loire","City":"Charolles","Street":"Rue Condé","PostalCode":"71120","AdditionalData":[{"value":"France","key":"CountryName"},{"value":"Bourgogne-Franche-Comté","key":"StateName"},{"value":"Saône-et-Loire","key":"CountyName"}]},"MapReference":{"ReferenceId":"984758747","Spot":1.0,"SideOfStreet":"right","CountryId":"20000001","StateId":"20013306","CountyId":"20037146","CityId":"20037465"}}},{"Relevance":1.0,"Distance":119.8,"MatchLevel":"houseNumber","MatchQuality":{"Country":1.0,"State":1.0,"County":1.0,"City":1.0,"Street":[1.0],"HouseNumber":1.0,"PostalCode":1.0},"MatchType":"interpolated","Location":{"LocationId":"NT_RMAa.LCL6nJyeqkBTJ5o.D_zED","LocationType":"point","DisplayPosition":{"Latitude":46.43136,"Longitude":4.27993},"MapView":{"TopLeft":{"Latitude":46.4324842,"Longitude":4.278299},"BottomRight":{"Latitude":46.4302358,"Longitude":4.281561}},"Address":{"Label":"31 Rue Condé, 71120 Charolles, France","Country":"FRA","State":"Bourgogne-Franche-Comté","County":"Saône-et-Loire","City":"Charolles","Street":"Rue Condé","HouseNumber":"31","PostalCode":"71120","AdditionalData":[{"value":"France","key":"CountryName"},{"value":"Bourgogne-Franche-Comté","key":"StateName"},{"value":"Saône-et-Loire","key":"CountyName"}]},"MapReference":{"ReferenceId":"580570969","Spot":0.47,"SideOfStreet":"right","CountryId":"20000001","StateId":"20013306","CountyId":"20037146","CityId":"20037465","AddressId":"570312942","RoadLinkId":"52928747"}}},{"Relevance":1.0,"Distance":168.3,"MatchLevel":"houseNumber","MatchQuality":{"Country":1.0,"State":1.0,"County":1.0,"City":1.0,"Street":[1.0],"HouseNumber":1.0,"PostalCode":1.0},"MatchType":"interpolated","Location":{"LocationId":"NT_bvtWtUfM.oTEAGcSrueFSC_yA","LocationType":"point","DisplayPosition":{"Latitude":46.43201,"Longitude":4.2793},"MapView":{"TopLeft":{"Latitude":46.4331342,"Longitude":4.2776689},"BottomRight":{"Latitude":46.4308858,"Longitude":4.2809311}},"Address":{"Label":"2 Rue du Prieuré, 71120 Charolles, France","Country":"FRA","State":"Bourgogne-Franche-Comté","County":"Saône-et-Loire","City":"Charolles","Street":"Rue du Prieuré","HouseNumber":"2","PostalCode":"71120","AdditionalData":[{"value":"France","key":"CountryName"},{"value":"Bourgogne-Franche-Comté","key":"StateName"},{"value":"Saône-et-Loire","key":"CountyName"}]},"MapReference":{"ReferenceId":"986032492","Spot":0.15,"SideOfStreet":"right","CountryId":"20000001","StateId":"20013306","CountyId":"20037146","CityId":"20037465","AddressId":"320137831","RoadLinkId":"316738696"}}},{"Relevance":1.0,"Distance":170.9,"MatchLevel":"street","MatchQuality":{"Country":1.0,"State":1.0,"County":1.0,"City":1.0,"Street":[1.0],"PostalCode":1.0},"Location":{"LocationId":"NT_CLt-r4LWWFhWViCfTNhLhA_l_986032491_R","LocationType":"point","DisplayPosition":{"Latitude":46.43174,"Longitude":4.27932},"MapView":{"TopLeft":{"Latitude":46.43186,"Longitude":4.2793},"BottomRight":{"Latitude":46.43174,"Longitude":4.27932}},"Address":{"Label":"Rue du Prieuré, 71120 Charolles, France","Country":"FRA","State":"Bourgogne-Franche-Comté","County":"Saône-et-Loire","City":"Charolles","Street":"Rue du Prieuré","PostalCode":"71120","AdditionalData":[{"value":"France","key":"CountryName"},{"value":"Bourgogne-Franche-Comté","key":"StateName"},{"value":"Saône-et-Loire","key":"CountyName"}]},"MapReference":{"ReferenceId":"986032491","Spot":0.0,"SideOfStreet":"right","CountryId":"20000001","StateId":"20013306","CountyId":"20037146","CityId":"20037465"}}},{"Relevance":1.0,"Distance":191.3,"MatchLevel":"houseNumber","MatchQuality":{"Country":1.0,"State":1.0,"County":1.0,"City":1.0,"Street":[1.0],"HouseNumber":1.0,"PostalCode":1.0},"MatchType":"interpolated","Location":{"LocationId":"NT_RMAa.LCL6nJyeqkBTJ5o.D_ykD","LocationType":"point","DisplayPosition":{"Latitude":46.43179,"Longitude":4.27906},"MapView":{"TopLeft":{"Latitude":46.4329142,"Longitude":4.2774289},"BottomRight":{"Latitude":46.4306658,"Longitude":4.2806911}},"Address":{"Label":"29 Rue Condé, 71120 Charolles, France","Country":"FRA","State":"Bourgogne-Franche-Comté","County":"Saône-et-Loire","City":"Charolles","Street":"Rue Condé","HouseNumber":"29","PostalCode":"71120","AdditionalData":[{"value":"France","key":"CountryName"},{"value":"Bourgogne-Franche-Comté","key":"StateName"},{"value":"Saône-et-Loire","key":"CountyName"}]},"MapReference":{"ReferenceId":"546557622","Spot":0.14,"SideOfStreet":"right","CountryId":"20000001","StateId":"20013306","CountyId":"20037146","CityId":"20037465","AddressId":"379186451","RoadLinkId":"53325241"}}},{"Relevance":1.0,"Distance":205.3,"MatchLevel":"houseNumber","MatchQuality":{"Country":1.0,"State":1.0,"County":1.0,"City":1.0,"Street":[1.0],"HouseNumber":1.0,"PostalCode":1.0},"MatchType":"interpolated","Location":{"LocationId":"NT_CALYYncN6ViVTPol2GfK1D_xgjQ","LocationType":"point","DisplayPosition":{"Latitude":46.43312,"Longitude":4.28316},"MapView":{"TopLeft":{"Latitude":46.4342442,"Longitude":4.2815289},"BottomRight":{"Latitude":46.4319958,"Longitude":4.2847911}},"Address":{"Label":"18B Rue de la Condemine, 71120 Charolles, France","Country":"FRA","State":"Bourgogne-Franche-Comté","County":"Saône-et-Loire","City":"Charolles","Street":"Rue de la Condemine","HouseNumber":"18B","PostalCode":"71120","AdditionalData":[{"value":"France","key":"CountryName"},{"value":"Bourgogne-Franche-Comté","key":"StateName"},{"value":"Saône-et-Loire","key":"CountyName"}]},"MapReference":{"ReferenceId":"580571742","Spot":0.88,"SideOfStreet":"left","CountryId":"20000001","StateId":"20013306","CountyId":"20037146","CityId":"20037465","AddressId":"320133027","RoadLinkId":"52970201"}}}]}]}}