{"Response":{"MetaInfo":{"Timestamp":"2020-03-31T17:06:38.316+0000","NextPageInformation":"2"},"View":[{"_type":"SearchResultsViewType","ViewId":0,"Result":[{"Relevance":1.0,"Distance":0.0,"Direction":0.0,"MatchLevel":"district","MatchQuality":{"Country":1.0,"County":1.0,"City":1.0,"District":1.0,"PostalCode":1.0},"Location":{"LocationId":"NT_8SfmhoibH-gSU7oRwZXksB","LocationType":"point","DisplayPosition":{"Latitude":46.4047,"Longitude":14.14},"MapView":{"TopLeft":{"Latitude":46.4074,"Longitude":14.13328},"BottomRight":{"Latitude":46.39861,"Longitude":14.14145}},"Address":{"Label":"Žirovnica, Slovenija","Country":"SVN","County":"Jesenice","City":"Žirovnica","District":"Žirovnica","PostalCode":"4274","AdditionalData":[{"value":"Slovenija","key":"CountryName"},{"value":"Jesenice","key":"CountyName"}]},"MapReference":{"ReferenceId":"1091614997","SideOfStreet":"neither","CountryId":"20633685","CountyId":"20636228","CityId":"22689849","DistrictId":"22694846"}}},{"Relevance":1.0,"Distance":72.5,"MatchLevel":"houseNumber","MatchQuality":{"Country":1.0,"County":1.0,"City":1.0,"District":1.0,"Street":[1.0],"HouseNumber":1.0,"PostalCode":1.0},"MatchType":"interpolated","Location":{"LocationId":"NT_Xuo8Fn1bHw0qvvRW2sfCFD_0ITQ","LocationType":"point","DisplayPosition":{"Latitude":46.40404,"Longitude":14.13945},"MapView":{"TopLeft":{"Latitude":46.4051642,"Longitude":14.1378198},"BottomRight":{"Latitude":46.4029158,"Longitude":14.1410802}},"Address":{"Label":"Žirovnica 42A, SI- 4274 Žirovnica, Slovenija","Country":"SVN","County":"Jesenice","City":"Žirovnica","District":"Žirovnica","Street":"Žirovnica","HouseNumber":"42A","PostalCode":"4274","AdditionalData":[{"value":"Slovenija","key":"CountryName"},{"value":"Jesenice","key":"CountyName"}]},"MapReference":{"ReferenceId":"1255043385","Spot":0.89,"SideOfStreet":"right","CountryId":"20633685","CountyId":"20636228","CityId":"22689849","DistrictId":"22694846","AddressId":"406706902","RoadLinkId":"578408464"}}},{"Relevance":1.0,"Distance":81.1,"MatchLevel":"houseNumber","MatchQuality":{"Country":1.0,"County":1.0,"City":1.0,"District":1.0,"Street":[1.0],"HouseNumber":1.0,"PostalCode":1.0},"MatchType":"interpolated","Location":{"LocationId":"NT_Xuo8Fn1bHw0qvvRW2sfCFD_0ID","LocationType":"point","DisplayPosition":{"Latitude":46.40425,"Longitude":14.139},"MapView":{"TopLeft":{"Latitude":46.4053742,"Longitude":14.1373698},"BottomRight":{"Latitude":46.4031258,"Longitude":14.1406302}},"Address":{"Label":"Žirovnica 42, SI- 4274 Žirovnica, Slovenija","Country":"SVN","County":"Jesenice","City":"Žirovnica","District":"Žirovnica","Street":"Žirovnica","HouseNumber":"42","PostalCode":"4274","AdditionalData":[{"value":"Slovenija","key":"CountryName"},{"value":"Jesenice","key":"CountyName"}]},"MapReference":{"ReferenceId":"1255043386","Spot":0.47,"SideOfStreet":"right","CountryId":"20633685","CountyId":"20636228","CityId":"22689849","DistrictId":"22694846","AddressId":"406706907","RoadLinkId":"578408465"}}},{"Relevance":1.0,"Distance":94.6,"MatchLevel":"street","MatchQuality":{"Country":1.0,"County":1.0,"City":1.0,"District":1.0,"PostalCode":1.0},"Location":{"LocationId":"NT_4229VlbIwJY6f0ufgRD0AD_l_1197487377_R","LocationType":"point","DisplayPosition":{"Latitude":46.40385,"Longitude":14.13995},"MapView":{"TopLeft":{"Latitude":46.40385,"Longitude":14.13995},"BottomRight":{"Latitude":46.40377,"Longitude":14.14018}},"Address":{"Label":"SI- 4274 Žirovnica, Slovenija","Country":"SVN","County":"Jesenice","City":"Žirovnica","District":"Žirovnica","PostalCode":"4274","AdditionalData":[{"value":"Slovenija","key":"CountryName"},{"value":"Jesenice","key":"CountyName"}]},"MapReference":{"ReferenceId":"1197487377","Spot":1.0,"SideOfStreet":"right","CountryId":"20633685","CountyId":"20636228","CityId":"22689849","DistrictId":"22694846"}}},{"Relevance":1.0,"Distance":104.3,"MatchLevel":"street","MatchQuality":{"Country":1.0,"County":1.0,"City":1.0,"District":1.0,"PostalCode":1.0},"Location":{"LocationId":"NT_4229VlbIwJY6f0ufgRD0AD_l_1197487376_R","LocationType":"point","DisplayPosition":{"Latitude":46.40377,"Longitude":14.14018},"MapView":{"TopLeft":{"Latitude":46.40377,"Longitude":14.14018},"BottomRight":{"Latitude":46.40331,"Longitude":14.14132}},"Address":{"Label":"SI- 4274 Žirovnica, Slovenija","Country":"SVN","County":"Jesenice","City":"Žirovnica","District":"Žirovnica","PostalCode":"4274","AdditionalData":[{"value":"Slovenija","key":"CountryName"},{"value":"Jesenice","key":"CountyName"}]},"MapReference":{"ReferenceId":"1197487376","Spot":1.0,"SideOfStreet":"right","CountryId":"20633685","CountyId":"20636228","CityId":"22689849","DistrictId":"22694846"}}},{"Relevance":1.0,"Distance":105.2,"MatchLevel":"houseNumber","MatchQuality":{"Country":1.0,"County":1.0,"City":1.0,"District":1.0,"Street":[1.0],"HouseNumber":1.0,"PostalCode":1.0},"MatchType":"interpolated","Location":{"LocationId":"NT_Xuo8Fn1bHw0qvvRW2sfCFD_l_1255043383_R_zcD","LocationType":"point","DisplayPosition":{"Latitude":46.4045901,"Longitude":14.1384899},"MapView":{"TopLeft":{"Latitude":46.4057143,"Longitude":14.1368597},"BottomRight":{"Latitude":46.403466,"Longitude":14.1401201}},"Address":{"Label":"Žirovnica 37, SI- 4274 Žirovnica, Slovenija","Country":"SVN","County":"Jesenice","City":"Žirovnica","District":"Žirovnica","Street":"Žirovnica","HouseNumber":"37","PostalCode":"4274","AdditionalData":[{"value":"Slovenija","key":"CountryName"},{"value":"Jesenice","key":"CountyName"}]},"MapReference":{"ReferenceId":"1255043383","Spot":0.13,"SideOfStreet":"right","CountryId":"20633685","CountyId":"20636228","CityId":"22689849","DistrictId":"22694846"}}},{"Relevance":1.0,"Distance":111.9,"MatchLevel":"houseNumber","MatchQuality":{"Country":1.0,"County":1.0,"City":1.0,"District":1.0,"Street":[1.0],"HouseNumber":1.0,"PostalCode":1.0},"MatchType":"interpolated","Location":{"LocationId":"NT_Xuo8Fn1bHw0qvvRW2sfCFD_0UD","LocationType":"point","DisplayPosition":{"Latitude":46.40409,"Longitude":14.13884},"MapView":{"TopLeft":{"Latitude":46.4052142,"Longitude":14.1372098},"BottomRight":{"Latitude":46.4029658,"Longitude":14.1404702}},"Address":{"Label":"Žirovnica 45, SI- 4274 Žirovnica, Slovenija","Country":"SVN","County":"Jesenice","City":"Žirovnica","District":"Žirovnica","Street":"Žirovnica","HouseNumber":"45","PostalCode":"4274","AdditionalData":[{"value":"Slovenija","key":"CountryName"},{"value":"Jesenice","key":"CountyName"}]},"MapReference":{"ReferenceId":"1254653565","Spot":1.0,"SideOfStreet":"left","CountryId":"20633685","CountyId":"20636228","CityId":"22689849","DistrictId":"22694846","AddressId":"406578048","RoadLinkId":"577954159"}}},{"Relevance":1.0,"Distance":123.8,"MatchLevel":"houseNumber","MatchQuality":{"Country":1.0,"County":1.0,"City":1.0,"District":1.0,"Street":[1.0],"HouseNumber":1.0,"PostalCode":1.0},"MatchType":"interpolated","Location":{"LocationId":"NT_Xuo8Fn1bHw0qvvRW2sfCFD_0YD","LocationType":"point","DisplayPosition":{"Latitude":46.40379,"Longitude":14.13897},"MapView":{"TopLeft":{"Latitude":46.4049142,"Longitude":14.1373398},"BottomRight":{"Latitude":46.4026658,"Longitude":14.1406002}},"Address":{"Label":"Žirovnica 46, SI- 4274 Žirovnica, Slovenija","Country":"SVN","County":"Jesenice","City":"Žirovnica","District":"Žirovnica","Street":"Žirovnica","HouseNumber":"46","PostalCode":"4274","AdditionalData":[{"value":"Slovenija","key":"CountryName"},{"value":"Jesenice","key":"CountyName"}]},"MapReference":{"ReferenceId":"1254653564","Spot":0.73,"SideOfStreet":"right","CountryId":"20633685","CountyId":"20636228","CityId":"22689849","DistrictId":"22694846","AddressId":"406578045","RoadLinkId":"577954158"}}},{"Relevance":1.0,"Distance":154.9,"MatchLevel":"houseNumber","MatchQuality":{"Country":1.0,"County":1.0,"City":1.0,"District":1.0,"Street":[1.0],"HouseNumber":1.0,"PostalCode":1.0},"MatchType":"interpolated","Location":{"LocationId":"NT_Xuo8Fn1bHw0qvvRW2sfCFD_1ED","LocationType":"point","DisplayPosition":{"Latitude":46.40377,"Longitude":14.13843},"MapView":{"TopLeft":{"Latitude":46.4048942,"Longitude":14.1367998},"BottomRight":{"Latitude":46.4026458,"Longitude":14.1400602}},"Address":{"Label":"Žirovnica 51, SI- 4274 Žirovnica, Slovenija","Country":"SVN","County":"Jesenice","City":"Žirovnica","District":"Žirovnica","Street":"Žirovnica","HouseNumber":"51","PostalCode":"4274","AdditionalData":[{"value":"Slovenija","key":"CountryName"},{"value":"Jesenice","key":"CountyName"}]},"MapReference":{"ReferenceId":"710425781","Spot":0.51,"SideOfStreet":"right","CountryId":"20633685","CountyId":"20636228","CityId":"22689849","DistrictId":"22694846","AddressId":"406502772","RoadLinkId":"115625079"}}},{"Relevance":1.0,"Distance":161.9,"MatchLevel":"houseNumber","MatchQuality":{"Country":1.0,"County":1.0,"City":1.0,"District":1.0,"Street":[1.0],"HouseNumber":1.0,"PostalCode":1.0},"MatchType":"interpolated","Location":{"LocationId":"NT_Xuo8Fn1bHw0qvvRW2sfCFD_1ID","LocationType":"point","DisplayPosition":{"Latitude":46.40404,"Longitude":14.13798},"MapView":{"TopLeft":{"Latitude":46.4051642,"Longitude":14.1363498},"BottomRight":{"Latitude":46.4029158,"Longitude":14.1396102}},"Address":{"Label":"Žirovnica 52, SI- 4274 Žirovnica, Slovenija","Country":"SVN","County":"Jesenice","City":"Žirovnica","District":"Žirovnica","Street":"Žirovnica","HouseNumber":"52","PostalCode":"4274","AdditionalData":[{"value":"Slovenija","key":"CountryName"},{"value":"Jesenice","key":"CountyName"}]},"MapReference":{"ReferenceId":"710473678","Spot":0.0,"SideOfStreet":"right","CountryId":"20633685","CountyId":"20636228","CityId":"22689849","DistrictId":"22694846","AddressId":"406744452","RoadLinkId":"115682533"}}}]}]}}