{"Response":{"MetaInfo":{"Timestamp":"2020-03-28T11:22:19.151+0000","NextPageInformation":"2"},"View":[{"_type":"SearchResultsViewType","ViewId":0,"Result":[{"Relevance":1.0,"Distance":-47.0,"MatchLevel":"landmark","MatchQuality":{"Country":1.0,"State":1.0,"County":1.0,"City":1.0,"District":1.0,"Street":[1.0],"PostalCode":1.0,"Name":1.0},"Location":{"LocationId":"NT_p6WEPIjgQpSnWnmQd9k3WC_p_kClxi8xC.1Sqe.Gr1PQJgC","LocationType":"hospital","Name":"Kiskunhalasi Semmelweis Kórház","DisplayPosition":{"Latitude":46.43305,"Longitude":19.47268},"MapView":{"TopLeft":{"Latitude":46.43526,"Longitude":19.47065},"BottomRight":{"Latitude":46.43191,"Longitude":19.47581}},"Address":{"Label":"Dr. Monszpart László utca, Kiskunhalas 6400, Magyarország","Country":"HUN","State":"Bács-Kiskun","County":"Kiskunhalasi Járás","City":"Kiskunhalas","District":"Kiskunhalas","Street":"Dr. Monszpart László utca","PostalCode":"6400","AdditionalData":[{"value":"Magyarország","key":"CountryName"},{"value":"Bács-Kiskun","key":"StateName"},{"value":"Kiskunhalasi Járás","key":"CountyName"}]},"MapReference":{"CountryId":"20613038","StateId":"20613573","CountyId":"26677990","CityId":"22639845","DistrictId":"26678198","PlaceId":"1017158572"}}},{"Relevance":1.0,"Distance":0.0,"Direction":0.0,"MatchLevel":"district","MatchQuality":{"Country":1.0,"State":1.0,"County":1.0,"City":1.0,"District":1.0,"PostalCode":1.0},"Location":{"LocationId":"NT_K-UtdpBMjF5KTfiqxyWuHD","LocationType":"point","DisplayPosition":{"Latitude":46.4327513,"Longitude":19.4726907},"MapView":{"TopLeft":{"Latitude":46.46048,"Longitude":19.44855},"BottomRight":{"Latitude":46.41515,"Longitude":19.51016}},"Address":{"Label":"Kiskunhalas, Bács-Kiskun, Magyarország","Country":"HUN","State":"Bács-Kiskun","County":"Kiskunhalasi Járás","City":"Kiskunhalas","District":"Kiskunhalas","PostalCode":"6400","AdditionalData":[{"value":"Magyarország","key":"CountryName"},{"value":"Bács-Kiskun","key":"StateName"},{"value":"Kiskunhalasi Járás","key":"CountyName"}]},"MapReference":{"ReferenceId":"847719744","SideOfStreet":"neither","CountryId":"20613038","StateId":"20613573","CountyId":"26677990","CityId":"22639845","DistrictId":"26678198"}}},{"Relevance":1.0,"Distance":19.8,"MatchLevel":"street","MatchQuality":{"Country":1.0,"State":1.0,"County":1.0,"City":1.0,"District":1.0,"Street":[1.0],"PostalCode":1.0},"Location":{"LocationId":"NT_3O..a0BoLJDBInm.s.XxrC_l_800040346_R","LocationType":"point","DisplayPosition":{"Latitude":46.4329263,"Longitude":19.4726457},"MapView":{"TopLeft":{"Latitude":46.43311,"Longitude":19.47231},"BottomRight":{"Latitude":46.43284,"Longitude":19.4727}},"Address":{"Label":"Dr. Monszpart László utca, Kiskunhalas 6400, Magyarország","Country":"HUN","State":"Bács-Kiskun","County":"Kiskunhalasi Járás","City":"Kiskunhalas","District":"Kiskunhalas","Street":"Dr. Monszpart László utca","PostalCode":"6400","AdditionalData":[{"value":"Magyarország","key":"CountryName"},{"value":"Bács-Kiskun","key":"StateName"},{"value":"Kiskunhalasi Járás","key":"CountyName"}]},"MapReference":{"ReferenceId":"800040346","Spot":0.55,"SideOfStreet":"right","CountryId":"20613038","StateId":"20613573","CountyId":"26677990","CityId":"22639845","DistrictId":"26678198"}}},{"Relevance":1.0,"Distance":30.8,"MatchLevel":"street","MatchQuality":{"Country":1.0,"State":1.0,"County":1.0,"City":1.0,"District":1.0,"PostalCode":1.0},"Location":{"LocationId":"NT_quPlUZv8pffzxP5wW0kDoD_l_800040343_R","LocationType":"point","DisplayPosition":{"Latitude":46.43284,"Longitude":19.47231},"MapView":{"TopLeft":{"Latitude":46.43284,"Longitude":19.47184},"BottomRight":{"Latitude":46.43271,"Longitude":19.47231}},"Address":{"Label":"Kiskunhalas 6400, Magyarország","Country":"HUN","State":"Bács-Kiskun","County":"Kiskunhalasi Járás","City":"Kiskunhalas","District":"Kiskunhalas","PostalCode":"6400","AdditionalData":[{"value":"Magyarország","key":"CountryName"},{"value":"Bács-Kiskun","key":"StateName"},{"value":"Kiskunhalasi Járás","key":"CountyName"}]},"MapReference":{"ReferenceId":"800040343","Spot":1.0,"SideOfStreet":"right","CountryId":"20613038","StateId":"20613573","CountyId":"26677990","CityId":"22639845","DistrictId":"26678198"}}},{"Relevance":1.0,"Distance":30.8,"MatchLevel":"street","MatchQuality":{"Country":1.0,"State":1.0,"County":1.0,"City":1.0,"District":1.0,"PostalCode":1.0},"Location":{"LocationId":"NT_quPlUZv8pffzxP5wW0kDoD_l_800040345_R","LocationType":"point","DisplayPosition":{"Latitude":46.43284,"Longitude":19.47231},"MapView":{"TopLeft":{"Latitude":46.43301,"Longitude":19.4722},"BottomRight":{"Latitude":46.43284,"Longitude":19.47231}},"Address":{"Label":"Kiskunhalas 6400, Magyarország","Country":"HUN","State":"Bács-Kiskun","County":"Kiskunhalasi Járás","City":"Kiskunhalas","District":"Kiskunhalas","PostalCode":"6400","AdditionalData":[{"value":"Magyarország","key":"CountryName"},{"value":"Bács-Kiskun","key":"StateName"},{"value":"Kiskunhalasi Járás","key":"CountyName"}]},"MapReference":{"ReferenceId":"800040345","Spot":0.0,"SideOfStreet":"right","CountryId":"20613038","StateId":"20613573","CountyId":"26677990","CityId":"22639845","DistrictId":"26678198"}}},{"Relevance":1.0,"Distance":31.3,"MatchLevel":"houseNumber","MatchQuality":{"Country":1.0,"State":1.0,"County":1.0,"City":1.0,"District":1.0,"Street":[1.0],"HouseNumber":1.0,"PostalCode":1.0},"MatchType":"interpolated","Location":{"LocationId":"NT_3O..a0BoLJDBInm.s.XxrC_xA","LocationType":"point","DisplayPosition":{"Latitude":46.43251,"Longitude":19.4722},"MapView":{"TopLeft":{"Latitude":46.4336342,"Longitude":19.4705689},"BottomRight":{"Latitude":46.4313858,"Longitude":19.4738311}},"Address":{"Label":"Dr. Monszpart László utca 1, Kiskunhalas 6400, Magyarország","Country":"HUN","State":"Bács-Kiskun","County":"Kiskunhalasi Járás","City":"Kiskunhalas","District":"Kiskunhalas","Street":"Dr. Monszpart László utca","HouseNumber":"1","PostalCode":"6400","AdditionalData":[{"value":"Magyarország","key":"CountryName"},{"value":"Bács-Kiskun","key":"StateName"},{"value":"Kiskunhalasi Járás","key":"CountyName"}]},"MapReference":{"ReferenceId":"800040361","Spot":0.83,"SideOfStreet":"right","CountryId":"20613038","StateId":"20613573","CountyId":"26677990","CityId":"22639845","DistrictId":"26678198","AddressId":"356607308","RoadLinkId":"190874368"}}},{"Relevance":1.0,"Distance":40.8,"MatchLevel":"street","MatchQuality":{"Country":1.0,"State":1.0,"County":1.0,"City":1.0,"District":1.0,"PostalCode":1.0},"Location":{"LocationId":"NT_quPlUZv8pffzxP5wW0kDoD_l_800040347_R","LocationType":"point","DisplayPosition":{"Latitude":46.43311,"Longitude":19.47258},"MapView":{"TopLeft":{"Latitude":46.43311,"Longitude":19.4722},"BottomRight":{"Latitude":46.43301,"Longitude":19.47258}},"Address":{"Label":"Kiskunhalas 6400, Magyarország","Country":"HUN","State":"Bács-Kiskun","County":"Kiskunhalasi Járás","City":"Kiskunhalas","District":"Kiskunhalas","PostalCode":"6400","AdditionalData":[{"value":"Magyarország","key":"CountryName"},{"value":"Bács-Kiskun","key":"StateName"},{"value":"Kiskunhalasi Járás","key":"CountyName"}]},"MapReference":{"ReferenceId":"800040347","Spot":1.0,"SideOfStreet":"right","CountryId":"20613038","StateId":"20613573","CountyId":"26677990","CityId":"22639845","DistrictId":"26678198"}}},{"Relevance":1.0,"Distance":47.3,"MatchLevel":"street","MatchQuality":{"Country":1.0,"State":1.0,"County":1.0,"City":1.0,"District":1.0,"PostalCode":1.0},"Location":{"LocationId":"NT_quPlUZv8pffzxP5wW0kDoD_l_800040344_R","LocationType":"point","DisplayPosition":{"Latitude":46.43301,"Longitude":19.4722},"MapView":{"TopLeft":{"Latitude":46.43301,"Longitude":19.4716},"BottomRight":{"Latitude":46.43286,"Longitude":19.4722}},"Address":{"Label":"Kiskunhalas 6400, Magyarország","Country":"HUN","State":"Bács-Kiskun","County":"Kiskunhalasi Járás","City":"Kiskunhalas","District":"Kiskunhalas","PostalCode":"6400","AdditionalData":[{"value":"Magyarország","key":"CountryName"},{"value":"Bács-Kiskun","key":"StateName"},{"value":"Kiskunhalasi Járás","key":"CountyName"}]},"MapReference":{"ReferenceId":"800040344","Spot":1.0,"SideOfStreet":"right","CountryId":"20613038","StateId":"20613573","CountyId":"26677990","CityId":"22639845","DistrictId":"26678198"}}},{"Relevance":1.0,"Distance":56.1,"MatchLevel":"street","MatchQuality":{"Country":1.0,"State":1.0,"County":1.0,"City":1.0,"District":1.0,"Street":[1.0],"PostalCode":1.0},"Location":{"LocationId":"NT_3O..a0BoLJDBInm.s.XxrC_l_800040357_R","LocationType":"point","DisplayPosition":{"Latitude":46.43263,"Longitude":19.47198},"MapView":{"TopLeft":{"Latitude":46.43271,"Longitude":19.47184},"BottomRight":{"Latitude":46.43263,"Longitude":19.47198}},"Address":{"Label":"Dr. Monszpart László utca, Kiskunhalas 6400, Magyarország","Country":"HUN","State":"Bács-Kiskun","County":"Kiskunhalasi Járás","City":"Kiskunhalas","District":"Kiskunhalas","Street":"Dr. Monszpart László utca","PostalCode":"6400","AdditionalData":[{"value":"Magyarország","key":"CountryName"},{"value":"Bács-Kiskun","key":"StateName"},{"value":"Kiskunhalasi Járás","key":"CountyName"}]},"MapReference":{"ReferenceId":"800040357","Spot":0.0,"SideOfStreet":"right","CountryId":"20613038","StateId":"20613573","CountyId":"26677990","CityId":"22639845","DistrictId":"26678198"}}},{"Relevance":1.0,"Distance":56.1,"MatchLevel":"street","MatchQuality":{"Country":1.0,"State":1.0,"County":1.0,"City":1.0,"District":1.0,"PostalCode":1.0},"Location":{"LocationId":"NT_quPlUZv8pffzxP5wW0kDoD_l_800040358_R","LocationType":"point","DisplayPosition":{"Latitude":46.43263,"Longitude":19.47198},"MapView":{"TopLeft":{"Latitude":46.43263,"Longitude":19.47136},"BottomRight":{"Latitude":46.43234,"Longitude":19.47198}},"Address":{"Label":"Kiskunhalas 6400, Magyarország","Country":"HUN","State":"Bács-Kiskun","County":"Kiskunhalasi Járás","City":"Kiskunhalas","District":"Kiskunhalas","PostalCode":"6400","AdditionalData":[{"value":"Magyarország","key":"CountryName"},{"value":"Bács-Kiskun","key":"StateName"},{"value":"Kiskunhalasi Járás","key":"CountyName"}]},"MapReference":{"ReferenceId":"800040358","Spot":1.0,"SideOfStreet":"right","CountryId":"20613038","StateId":"20613573","CountyId":"26677990","CityId":"22639845","DistrictId":"26678198"}}}]}]}}