{"Response":{"MetaInfo":{"Timestamp":"2020-03-28T10:50:48.623+0000","NextPageInformation":"2"},"View":[{"_type":"SearchResultsViewType","ViewId":0,"Result":[{"Relevance":1.0,"Distance":0.0,"Direction":0.0,"MatchLevel":"district","MatchQuality":{"Country":1.0,"County":1.0,"City":1.0,"District":1.0,"PostalCode":1.0},"Location":{"LocationId":"NT_xbgrENNMaKKsivISgs6IwD","LocationType":"point","DisplayPosition":{"Latitude":46.4270827,"Longitude":15.610972},"MapView":{"TopLeft":{"Latitude":46.43303,"Longitude":15.59587},"BottomRight":{"Latitude":46.41568,"Longitude":15.62829}},"Address":{"Label":"Zgornja Polskava, Slovenska Bistrica, Slovenija","Country":"SVN","County":"Slovenska Bistrica","City":"Slovenska Bistrica","District":"Zgornja Polskava","PostalCode":"2314","AdditionalData":[{"value":"Slovenija","key":"CountryName"},{"value":"Slovenska Bistrica","key":"CountyName"}]},"MapReference":{"ReferenceId":"710741361","SideOfStreet":"neither","CountryId":"20633685","CountyId":"20640102","CityId":"20640125","DistrictId":"22695579"}}},{"Relevance":1.0,"Distance":15.6,"MatchLevel":"houseNumber","MatchQuality":{"Country":1.0,"County":1.0,"City":1.0,"District":1.0,"Street":[1.0],"HouseNumber":1.0,"PostalCode":1.0},"MatchType":"interpolated","Location":{"LocationId":"NT_amVAAdDEnmT1Lc87EXwXrB_xID","LocationType":"point","DisplayPosition":{"Latitude":46.42698,"Longitude":15.61074},"MapView":{"TopLeft":{"Latitude":46.4281042,"Longitude":15.6091091},"BottomRight":{"Latitude":46.4258558,"Longitude":15.6123709}},"Address":{"Label":"Mladinska ulica 12, SI- 2314 Slovenska Bistrica, Slovenija","Country":"SVN","County":"Slovenska Bistrica","City":"Slovenska Bistrica","District":"Zgornja Polskava","Street":"Mladinska ulica","HouseNumber":"12","PostalCode":"2314","AdditionalData":[{"value":"Slovenija","key":"CountryName"},{"value":"Slovenska Bistrica","key":"CountyName"}]},"MapReference":{"ReferenceId":"931081745","Spot":0.31,"SideOfStreet":"right","CountryId":"20633685","CountyId":"20640102","CityId":"20640125","DistrictId":"22695579","AddressId":"406820467","RoadLinkId":"285146261"}}},{"Relevance":1.0,"Distance":23.0,"MatchLevel":"houseNumber","MatchQuality":{"Country":1.0,"County":1.0,"City":1.0,"District":1.0,"Street":[1.0],"HouseNumber":1.0,"PostalCode":1.0},"MatchType":"interpolated","Location":{"LocationId":"NT_amVAAdDEnmT1Lc87EXwXrB_xAD","LocationType":"point","DisplayPosition":{"Latitude":46.42683,"Longitude":15.61096},"MapView":{"TopLeft":{"Latitude":46.4279542,"Longitude":15.6093291},"BottomRight":{"Latitude":46.4257058,"Longitude":15.6125909}},"Address":{"Label":"Mladinska ulica 10, SI- 2314 Slovenska Bistrica, Slovenija","Country":"SVN","County":"Slovenska Bistrica","City":"Slovenska Bistrica","District":"Zgornja Polskava","Street":"Mladinska ulica","HouseNumber":"10","PostalCode":"2314","AdditionalData":[{"value":"Slovenija","key":"CountryName"},{"value":"Slovenska Bistrica","key":"CountyName"}]},"MapReference":{"ReferenceId":"931081748","Spot":0.88,"SideOfStreet":"right","CountryId":"20633685","CountyId":"20640102","CityId":"20640125","DistrictId":"22695579","AddressId":"406609040","RoadLinkId":"285146264"}}},{"Relevance":1.0,"Distance":40.7,"MatchLevel":"houseNumber","MatchQuality":{"Country":1.0,"County":1.0,"City":1.0,"District":1.0,"Street":[1.0],"HouseNumber":1.0,"PostalCode":1.0},"MatchType":"interpolated","Location":{"LocationId":"NT_amVAAdDEnmT1Lc87EXwXrB_4A","LocationType":"point","DisplayPosition":{"Latitude":46.42716,"Longitude":15.61154},"MapView":{"TopLeft":{"Latitude":46.4282842,"Longitude":15.6099091},"BottomRight":{"Latitude":46.4260358,"Longitude":15.6131709}},"Address":{"Label":"Mladinska ulica 8, SI- 2314 Slovenska Bistrica, Slovenija","Country":"SVN","County":"Slovenska Bistrica","City":"Slovenska Bistrica","District":"Zgornja Polskava","Street":"Mladinska ulica","HouseNumber":"8","PostalCode":"2314","AdditionalData":[{"value":"Slovenija","key":"CountryName"},{"value":"Slovenska Bistrica","key":"CountyName"}]},"MapReference":{"ReferenceId":"931081749","Spot":0.57,"SideOfStreet":"left","CountryId":"20633685","CountyId":"20640102","CityId":"20640125","DistrictId":"22695579","AddressId":"406609039","RoadLinkId":"285146265"}}},{"Relevance":1.0,"Distance":46.4,"MatchLevel":"houseNumber","MatchQuality":{"Country":1.0,"County":1.0,"City":1.0,"District":1.0,"Street":[1.0],"HouseNumber":1.0,"PostalCode":1.0},"MatchType":"interpolated","Location":{"LocationId":"NT_91Uzm9XDutuCjeul7fDwYC_0A","LocationType":"point","DisplayPosition":{"Latitude":46.42754,"Longitude":15.61074},"MapView":{"TopLeft":{"Latitude":46.4286642,"Longitude":15.6091091},"BottomRight":{"Latitude":46.4264158,"Longitude":15.6123709}},"Address":{"Label":"Ingoličeva ulica 4, SI- 2314 Slovenska Bistrica, Slovenija","Country":"SVN","County":"Slovenska Bistrica","City":"Slovenska Bistrica","District":"Zgornja Polskava","Street":"Ingoličeva ulica","HouseNumber":"4","PostalCode":"2314","AdditionalData":[{"value":"Slovenija","key":"CountryName"},{"value":"Slovenska Bistrica","key":"CountyName"}]},"MapReference":{"ReferenceId":"710736771","Spot":0.55,"SideOfStreet":"right","CountryId":"20633685","CountyId":"20640102","CityId":"20640125","DistrictId":"22695579","AddressId":"406649946","RoadLinkId":"115916706"}}},{"Relevance":1.0,"Distance":49.3,"MatchLevel":"houseNumber","MatchQuality":{"Country":1.0,"County":1.0,"City":1.0,"District":1.0,"Street":[1.0],"HouseNumber":1.0,"PostalCode":1.0},"MatchType":"interpolated","Location":{"LocationId":"NT_amVAAdDEnmT1Lc87EXwXrB_xA","LocationType":"point","DisplayPosition":{"Latitude":46.42676,"Longitude":15.61053},"MapView":{"TopLeft":{"Latitude":46.4278842,"Longitude":15.6088991},"BottomRight":{"Latitude":46.4256358,"Longitude":15.6121609}},"Address":{"Label":"Mladinska ulica 1, SI- 2314 Slovenska Bistrica, Slovenija","Country":"SVN","County":"Slovenska Bistrica","City":"Slovenska Bistrica","District":"Zgornja Polskava","Street":"Mladinska ulica","HouseNumber":"1","PostalCode":"2314","AdditionalData":[{"value":"Slovenija","key":"CountryName"},{"value":"Slovenska Bistrica","key":"CountyName"}]},"MapReference":{"ReferenceId":"931081746","Spot":0.35,"SideOfStreet":"left","CountryId":"20633685","CountyId":"20640102","CityId":"20640125","DistrictId":"22695579","AddressId":"709623165","RoadLinkId":"285146262"}}},{"Relevance":1.0,"Distance":55.3,"MatchLevel":"houseNumber","MatchQuality":{"Country":1.0,"County":1.0,"City":1.0,"District":1.0,"Street":[1.0],"HouseNumber":1.0,"PostalCode":1.0},"MatchType":"interpolated","Location":{"LocationId":"NT_amVAAdDEnmT1Lc87EXwXrB_2A","LocationType":"point","DisplayPosition":{"Latitude":46.42663,"Longitude":15.61127},"MapView":{"TopLeft":{"Latitude":46.4277542,"Longitude":15.6096391},"BottomRight":{"Latitude":46.4255058,"Longitude":15.6129009}},"Address":{"Label":"Mladinska ulica 6, SI- 2314 Slovenska Bistrica, Slovenija","Country":"SVN","County":"Slovenska Bistrica","City":"Slovenska Bistrica","District":"Zgornja Polskava","Street":"Mladinska ulica","HouseNumber":"6","PostalCode":"2314","AdditionalData":[{"value":"Slovenija","key":"CountryName"},{"value":"Slovenska Bistrica","key":"CountyName"}]},"MapReference":{"ReferenceId":"931081747","Spot":1.0,"SideOfStreet":"right","CountryId":"20633685","CountyId":"20640102","CityId":"20640125","DistrictId":"22695579","AddressId":"406893515","RoadLinkId":"285146263"}}},{"Relevance":1.0,"Distance":60.3,"MatchLevel":"houseNumber","MatchQuality":{"Country":1.0,"County":1.0,"City":1.0,"District":1.0,"Street":[1.0],"HouseNumber":1.0,"PostalCode":1.0},"MatchType":"interpolated","Location":{"LocationId":"NT_SoVFf4.mK2grnOJ3.LMH4B_ygD","LocationType":"point","DisplayPosition":{"Latitude":46.42657,"Longitude":15.61123},"MapView":{"TopLeft":{"Latitude":46.4276942,"Longitude":15.6095991},"BottomRight":{"Latitude":46.4254458,"Longitude":15.6128609}},"Address":{"Label":"Mariborska ulica 28, SI- 2314 Slovenska Bistrica, Slovenija","Country":"SVN","County":"Slovenska Bistrica","City":"Slovenska Bistrica","District":"Zgornja Polskava","Street":"Mariborska ulica","HouseNumber":"28","PostalCode":"2314","AdditionalData":[{"value":"Slovenija","key":"CountryName"},{"value":"Slovenska Bistrica","key":"CountyName"}]},"MapReference":{"ReferenceId":"710741361","Spot":0.7,"SideOfStreet":"right","CountryId":"20633685","CountyId":"20640102","CityId":"20640125","DistrictId":"22695579","AddressId":"406927555","RoadLinkId":"396216609"}}},{"Relevance":1.0,"Distance":60.4,"MatchLevel":"houseNumber","MatchQuality":{"Country":1.0,"County":1.0,"City":1.0,"District":1.0,"Street":[1.0],"HouseNumber":1.0,"PostalCode":1.0},"MatchType":"interpolated","Location":{"LocationId":"NT_SoVFf4.mK2grnOJ3.LMH4B_zED","LocationType":"point","DisplayPosition":{"Latitude":46.42643,"Longitude":15.61087},"MapView":{"TopLeft":{"Latitude":46.4275542,"Longitude":15.6092391},"BottomRight":{"Latitude":46.4253058,"Longitude":15.6125009}},"Address":{"Label":"Mariborska ulica 31, SI- 2314 Slovenska Bistrica, Slovenija","Country":"SVN","County":"Slovenska Bistrica","City":"Slovenska Bistrica","District":"Zgornja Polskava","Street":"Mariborska ulica","HouseNumber":"31","PostalCode":"2314","AdditionalData":[{"value":"Slovenija","key":"CountryName"},{"value":"Slovenska Bistrica","key":"CountyName"}]},"MapReference":{"ReferenceId":"1241581672","Spot":0.91,"SideOfStreet":"left","CountryId":"20633685","CountyId":"20640102","CityId":"20640125","DistrictId":"22695579","AddressId":"709622021","RoadLinkId":"562663623"}}},{"Relevance":1.0,"Distance":65.0,"MatchLevel":"houseNumber","MatchQuality":{"Country":1.0,"County":1.0,"City":1.0,"District":1.0,"Street":[1.0],"HouseNumber":1.0,"PostalCode":1.0},"MatchType":"interpolated","Location":{"LocationId":"NT_SoVFf4.mK2grnOJ3.LMH4B_zQD","LocationType":"point","DisplayPosition":{"Latitude":46.42669,"Longitude":15.6116},"MapView":{"TopLeft":{"Latitude":46.4278142,"Longitude":15.6099691},"BottomRight":{"Latitude":46.4255658,"Longitude":15.6132309}},"Address":{"Label":"Mariborska ulica 34, SI- 2314 Slovenska Bistrica, Slovenija","Country":"SVN","County":"Slovenska Bistrica","City":"Slovenska Bistrica","District":"Zgornja Polskava","Street":"Mariborska ulica","HouseNumber":"34","PostalCode":"2314","AdditionalData":[{"value":"Slovenija","key":"CountryName"},{"value":"Slovenska Bistrica","key":"CountyName"}]},"MapReference":{"ReferenceId":"931081729","Spot":0.34,"SideOfStreet":"right","CountryId":"20633685","CountyId":"20640102","CityId":"20640125","DistrictId":"22695579","AddressId":"406927556","RoadLinkId":"396216614"}}}]}]}}