{"Response":{"MetaInfo":{"Timestamp":"2020-03-28T11:51:48.331+0000","NextPageInformation":"2"},"View":[{"_type":"SearchResultsViewType","ViewId":0,"Result":[{"Relevance":1.0,"Distance":-1718.0,"MatchLevel":"landmark","MatchQuality":{"Country":1.0,"State":1.0,"Name":1.0},"Location":{"LocationId":"NT_Pt6Fe2ksnh1gGA1NS0.Z8A","LocationType":"park","Name":"P.N.R. du Haut-Jura","DisplayPosition":{"Latitude":46.53703,"Longitude":5.97237},"MapView":{"TopLeft":{"Latitude":46.81318,"Longitude":5.62746},"BottomRight":{"Latitude":46.26087,"Longitude":6.45836}},"Address":{"Label":"France","Country":"FRA","State":"Bourgogne-Franche-Comté","AdditionalData":[{"value":"France","key":"CountryName"},{"value":"Bourgogne-Franche-Comté","key":"StateName"}]},"MapReference":{"CountryId":"20000001","StateId":"20013306","PlaceId":"1509974223"}}},{"Relevance":1.0,"Distance":0.0,"Direction":0.0,"MatchLevel":"city","MatchQuality":{"Country":1.0,"State":1.0,"County":1.0,"City":1.0,"PostalCode":1.0},"Location":{"LocationId":"NT_XoHvT71HdBHJvLcVz5EZeC","LocationType":"point","DisplayPosition":{"Latitude":46.4383343,"Longitude":5.7223532},"MapView":{"TopLeft":{"Latitude":46.47726,"Longitude":5.67862},"BottomRight":{"Latitude":46.40633,"Longitude":5.7916}},"Address":{"Label":"Moirans-en-Montagne, Bourgogne-Franche-Comté, France","Country":"FRA","State":"Bourgogne-Franche-Comté","County":"Jura","City":"Moirans-en-Montagne","PostalCode":"39260","AdditionalData":[{"value":"France","key":"CountryName"},{"value":"Bourgogne-Franche-Comté","key":"StateName"},{"value":"Jura","key":"CountyName"}]},"MapReference":{"ReferenceId":"765874130","SideOfStreet":"neither","CountryId":"20000001","StateId":"20013306","CountyId":"20015084","CityId":"20016018"}}},{"Relevance":1.0,"Distance":23.7,"MatchLevel":"houseNumber","MatchQuality":{"Country":1.0,"State":1.0,"County":1.0,"City":1.0,"Street":[1.0],"HouseNumber":1.0,"PostalCode":1.0},"MatchType":"interpolated","Location":{"LocationId":"NT_T7JfxQsfnyDJ2w-.kaIRND_xID","LocationType":"point","DisplayPosition":{"Latitude":46.43853,"Longitude":5.72223},"MapView":{"TopLeft":{"Latitude":46.4396542,"Longitude":5.7205987},"BottomRight":{"Latitude":46.4374058,"Longitude":5.7238613}},"Address":{"Label":"12 Avenue de Franche-Comté, 39260 Moirans-en-Montagne, France","Country":"FRA","State":"Bourgogne-Franche-Comté","County":"Jura","City":"Moirans-en-Montagne","Street":"Avenue de Franche-Comté","HouseNumber":"12","PostalCode":"39260","AdditionalData":[{"value":"France","key":"CountryName"},{"value":"Bourgogne-Franche-Comté","key":"StateName"},{"value":"Jura","key":"CountyName"}]},"MapReference":{"ReferenceId":"1061856815","Spot":0.62,"SideOfStreet":"right","CountryId":"20000001","StateId":"20013306","CountyId":"20015084","CityId":"20016018","AddressId":"682650343","RoadLinkId":"383969141"}}},{"Relevance":1.0,"Distance":25.8,"MatchLevel":"street","MatchQuality":{"Country":1.0,"State":1.0,"County":1.0,"City":1.0,"Street":[1.0],"PostalCode":1.0},"Location":{"LocationId":"NT_YtuAzLMhN-nAh1Eh7HKqlD_l_1061856813_L","LocationType":"point","DisplayPosition":{"Latitude":46.4385358,"Longitude":5.7225211},"MapView":{"TopLeft":{"Latitude":46.43969,"Longitude":5.72109},"BottomRight":{"Latitude":46.43827,"Longitude":5.72273}},"Address":{"Label":"Chemin de Chazier, 39260 Moirans-en-Montagne, France","Country":"FRA","State":"Bourgogne-Franche-Comté","County":"Jura","City":"Moirans-en-Montagne","Street":"Chemin de Chazier","PostalCode":"39260","AdditionalData":[{"value":"France","key":"CountryName"},{"value":"Bourgogne-Franche-Comté","key":"StateName"},{"value":"Jura","key":"CountyName"}]},"MapReference":{"ReferenceId":"1061856813","Spot":0.16,"SideOfStreet":"left","CountryId":"20000001","StateId":"20013306","CountyId":"20015084","CityId":"20016018"}}},{"Relevance":1.0,"Distance":29.7,"MatchLevel":"street","MatchQuality":{"Country":1.0,"State":1.0,"County":1.0,"City":1.0,"Street":[1.0],"PostalCode":1.0},"Location":{"LocationId":"NT_NyICO2WGLZY8h1a-W7KpdC_l_1061856814_L","LocationType":"point","DisplayPosition":{"Latitude":46.43827,"Longitude":5.72273},"MapView":{"TopLeft":{"Latitude":46.43827,"Longitude":5.72273},"BottomRight":{"Latitude":46.43816,"Longitude":5.72292}},"Address":{"Label":"Avenue de Franche-Comté, 39260 Moirans-en-Montagne, France","Country":"FRA","State":"Bourgogne-Franche-Comté","County":"Jura","City":"Moirans-en-Montagne","Street":"Avenue de Franche-Comté","PostalCode":"39260","AdditionalData":[{"value":"France","key":"CountryName"},{"value":"Bourgogne-Franche-Comté","key":"StateName"},{"value":"Jura","key":"CountyName"}]},"MapReference":{"ReferenceId":"1061856814","Spot":1.0,"SideOfStreet":"left","CountryId":"20000001","StateId":"20013306","CountyId":"20015084","CityId":"20016018"}}},{"Relevance":1.0,"Distance":38.7,"MatchLevel":"houseNumber","MatchQuality":{"Country":1.0,"State":1.0,"County":1.0,"City":1.0,"Street":[1.0],"HouseNumber":1.0,"PostalCode":1.0},"MatchType":"interpolated","Location":{"LocationId":"NT_u6xDUzxuklMX3alb3p09bB_yA","LocationType":"point","DisplayPosition":{"Latitude":46.43804,"Longitude":5.72274},"MapView":{"TopLeft":{"Latitude":46.4391642,"Longitude":5.7211088},"BottomRight":{"Latitude":46.4369158,"Longitude":5.7243712}},"Address":{"Label":"2 Rue de Tyr, 39260 Moirans-en-Montagne, France","Country":"FRA","State":"Bourgogne-Franche-Comté","County":"Jura","City":"Moirans-en-Montagne","Street":"Rue de Tyr","HouseNumber":"2","PostalCode":"39260","AdditionalData":[{"value":"France","key":"CountryName"},{"value":"Bourgogne-Franche-Comté","key":"StateName"},{"value":"Jura","key":"CountyName"}]},"MapReference":{"ReferenceId":"583412218","Spot":0.84,"SideOfStreet":"left","CountryId":"20000001","StateId":"20013306","CountyId":"20015084","CityId":"20016018","AddressId":"317275642","RoadLinkId":"44718996"}}},{"Relevance":1.0,"Distance":51.8,"MatchLevel":"houseNumber","MatchQuality":{"Country":1.0,"State":1.0,"County":1.0,"City":1.0,"Street":[1.0],"HouseNumber":1.0,"PostalCode":1.0},"MatchType":"interpolated","Location":{"LocationId":"NT_T7JfxQsfnyDJ2w-.kaIRND_3A","LocationType":"point","DisplayPosition":{"Latitude":46.43813,"Longitude":5.72296},"MapView":{"TopLeft":{"Latitude":46.4392542,"Longitude":5.7213288},"BottomRight":{"Latitude":46.4370058,"Longitude":5.7245912}},"Address":{"Label":"7 Avenue de Franche-Comté, 39260 Moirans-en-Montagne, France","Country":"FRA","State":"Bourgogne-Franche-Comté","County":"Jura","City":"Moirans-en-Montagne","Street":"Avenue de Franche-Comté","HouseNumber":"7","PostalCode":"39260","AdditionalData":[{"value":"France","key":"CountryName"},{"value":"Bourgogne-Franche-Comté","key":"StateName"},{"value":"Jura","key":"CountyName"}]},"MapReference":{"ReferenceId":"757023338","Spot":0.72,"SideOfStreet":"right","CountryId":"20000001","StateId":"20013306","CountyId":"20015084","CityId":"20016018","AddressId":"379253747","RoadLinkId":"152085911"}}},{"Relevance":1.0,"Distance":55.1,"MatchLevel":"houseNumber","MatchQuality":{"Country":1.0,"State":1.0,"County":1.0,"City":1.0,"Street":[1.0],"HouseNumber":1.0,"PostalCode":1.0},"MatchType":"interpolated","Location":{"LocationId":"NT_T7JfxQsfnyDJ2w-.kaIRND_5A","LocationType":"point","DisplayPosition":{"Latitude":46.4387,"Longitude":5.72188},"MapView":{"TopLeft":{"Latitude":46.4398242,"Longitude":5.7202487},"BottomRight":{"Latitude":46.4375758,"Longitude":5.7235113}},"Address":{"Label":"9 Avenue de Franche-Comté, 39260 Moirans-en-Montagne, France","Country":"FRA","State":"Bourgogne-Franche-Comté","County":"Jura","City":"Moirans-en-Montagne","Street":"Avenue de Franche-Comté","HouseNumber":"9","PostalCode":"39260","AdditionalData":[{"value":"France","key":"CountryName"},{"value":"Bourgogne-Franche-Comté","key":"StateName"},{"value":"Jura","key":"CountyName"}]},"MapReference":{"ReferenceId":"583412287","Spot":0.04,"SideOfStreet":"right","CountryId":"20000001","StateId":"20013306","CountyId":"20015084","CityId":"20016018","AddressId":"388789730","RoadLinkId":"44955540"}}},{"Relevance":1.0,"Distance":61.1,"MatchLevel":"houseNumber","MatchQuality":{"Country":1.0,"State":1.0,"County":1.0,"City":1.0,"Street":[1.0],"HouseNumber":1.0,"PostalCode":1.0},"MatchType":"interpolated","Location":{"LocationId":"NT_lLhOakdTF.4TO9-13avI9C_xA","LocationType":"point","DisplayPosition":{"Latitude":46.43833,"Longitude":5.72315},"MapView":{"TopLeft":{"Latitude":46.4394542,"Longitude":5.7215187},"BottomRight":{"Latitude":46.4372058,"Longitude":5.7247813}},"Address":{"Label":"1 Montée de la Bessoule, 39260 Moirans-en-Montagne, France","Country":"FRA","State":"Bourgogne-Franche-Comté","County":"Jura","City":"Moirans-en-Montagne","Street":"Montée de la Bessoule","HouseNumber":"1","PostalCode":"39260","AdditionalData":[{"value":"France","key":"CountryName"},{"value":"Bourgogne-Franche-Comté","key":"StateName"},{"value":"Jura","key":"CountyName"}]},"MapReference":{"ReferenceId":"583412213","Spot":0.22,"SideOfStreet":"left","CountryId":"20000001","StateId":"20013306","CountyId":"20015084","CityId":"20016018","AddressId":"317268705","RoadLinkId":"45020276"}}},{"Relevance":1.0,"Distance":65.4,"MatchLevel":"houseNumber","MatchQuality":{"Country":1.0,"State":1.0,"County":1.0,"City":1.0,"Street":[1.0],"HouseNumber":1.0,"PostalCode":1.0},"MatchType":"interpolated","Location":{"LocationId":"NT_rxi9po.dfa9FxKu52Kj.oB_xUD","LocationType":"point","DisplayPosition":{"Latitude":46.43779,"Longitude":5.72273},"MapView":{"TopLeft":{"Latitude":46.4389142,"Longitude":5.7210988},"BottomRight":{"Latitude":46.4366658,"Longitude":5.7243612}},"Address":{"Label":"15 Rue du Collège, 39260 Moirans-en-Montagne, France","Country":"FRA","State":"Bourgogne-Franche-Comté","County":"Jura","City":"Moirans-en-Montagne","Street":"Rue du Collège","HouseNumber":"15","PostalCode":"39260","AdditionalData":[{"value":"France","key":"CountryName"},{"value":"Bourgogne-Franche-Comté","key":"StateName"},{"value":"Jura","key":"CountyName"}]},"MapReference":{"ReferenceId":"759229760","Spot":0.47,"SideOfStreet":"left","CountryId":"20000001","StateId":"20013306","CountyId":"20015084","CityId":"20016018","AddressId":"317402451","RoadLinkId":"153782184"}}}]}]}}