{"Response":{"MetaInfo":{"Timestamp":"2020-03-28T10:29:09.380+0000","NextPageInformation":"2"},"View":[{"_type":"SearchResultsViewType","ViewId":0,"Result":[{"Relevance":1.0,"Distance":0.0,"Direction":0.0,"MatchLevel":"city","MatchQuality":{"Country":1.0,"State":1.0,"County":1.0,"City":1.0,"PostalCode":1.0},"Location":{"LocationId":"NT_0SKBl66-NVnM2Exd1uHhuD","LocationType":"point","DisplayPosition":{"Latitude":46.579281,"Longitude":1.986838},"MapView":{"TopLeft":{"Latitude":46.58901,"Longitude":1.97156},"BottomRight":{"Latitude":46.55251,"Longitude":2.01394}},"Address":{"Label":"La Châtre, Centre-Val de Loire, France","Country":"FRA","State":"Centre-Val de Loire","County":"Indre","City":"La Châtre","PostalCode":"36400","AdditionalData":[{"value":"France","key":"CountryName"},{"value":"Centre-Val de Loire","key":"StateName"},{"value":"Indre","key":"CountyName"}]},"MapReference":{"ReferenceId":"57125649","SideOfStreet":"neither","CountryId":"20000001","StateId":"20002113","CountyId":"20066515","CityId":"20066652"}}},{"Relevance":1.0,"Distance":8.9,"MatchLevel":"houseNumber","MatchQuality":{"Country":1.0,"State":1.0,"County":1.0,"City":1.0,"Street":[1.0],"HouseNumber":1.0,"PostalCode":1.0},"MatchType":"interpolated","Location":{"LocationId":"NT_TBY2z6wmo1JxhVljY8fTNA_xgD","LocationType":"point","DisplayPosition":{"Latitude":46.57939,"Longitude":1.98676},"MapView":{"TopLeft":{"Latitude":46.5805142,"Longitude":1.9851245},"BottomRight":{"Latitude":46.5782658,"Longitude":1.9883955}},"Address":{"Label":"18 Rue du Capitaine Duguet, 36400 La Châtre, France","Country":"FRA","State":"Centre-Val de Loire","County":"Indre","City":"La Châtre","Street":"Rue du Capitaine Duguet","HouseNumber":"18","PostalCode":"36400","AdditionalData":[{"value":"France","key":"CountryName"},{"value":"Centre-Val de Loire","key":"StateName"},{"value":"Indre","key":"CountyName"}]},"MapReference":{"ReferenceId":"774145388","Spot":0.37,"SideOfStreet":"left","CountryId":"20000001","StateId":"20002113","CountyId":"20066515","CityId":"20066652","AddressId":"318630567","RoadLinkId":"167771079"}}},{"Relevance":1.0,"Distance":12.7,"MatchLevel":"street","MatchQuality":{"Country":1.0,"State":1.0,"County":1.0,"City":1.0,"Street":[1.0],"PostalCode":1.0},"Location":{"LocationId":"NT_IiQ11pA0YczualtWxVwbHD_l_579366568_L","LocationType":"point","DisplayPosition":{"Latitude":46.57934,"Longitude":1.98698},"MapView":{"TopLeft":{"Latitude":46.5796,"Longitude":1.98698},"BottomRight":{"Latitude":46.57934,"Longitude":1.98715}},"Address":{"Label":"Place Guy Bonjour, 36400 La Châtre, France","Country":"FRA","State":"Centre-Val de Loire","County":"Indre","City":"La Châtre","Street":"Place Guy Bonjour","PostalCode":"36400","AdditionalData":[{"value":"France","key":"CountryName"},{"value":"Centre-Val de Loire","key":"StateName"},{"value":"Indre","key":"CountyName"}]},"MapReference":{"ReferenceId":"579366568","Spot":0.0,"SideOfStreet":"left","CountryId":"20000001","StateId":"20002113","CountyId":"20066515","CityId":"20066652"}}},{"Relevance":1.0,"Distance":26.3,"MatchLevel":"houseNumber","MatchQuality":{"Country":1.0,"State":1.0,"County":1.0,"City":1.0,"Street":[1.0],"HouseNumber":1.0,"PostalCode":1.0},"MatchType":"interpolated","Location":{"LocationId":"NT_AO-ZOlFXVc7oeQtChaB2.D_yA","LocationType":"point","DisplayPosition":{"Latitude":46.57905,"Longitude":1.98691},"MapView":{"TopLeft":{"Latitude":46.5801742,"Longitude":1.9852745},"BottomRight":{"Latitude":46.5779258,"Longitude":1.9885455}},"Address":{"Label":"2 Place du Général de Gaulle, 36400 La Châtre, France","Country":"FRA","State":"Centre-Val de Loire","County":"Indre","City":"La Châtre","Street":"Place du Général de Gaulle","HouseNumber":"2","PostalCode":"36400","AdditionalData":[{"value":"France","key":"CountryName"},{"value":"Centre-Val de Loire","key":"StateName"},{"value":"Indre","key":"CountyName"}]},"MapReference":{"ReferenceId":"774145437","Spot":0.62,"SideOfStreet":"right","CountryId":"20000001","StateId":"20002113","CountyId":"20066515","CityId":"20066652","AddressId":"318573228","RoadLinkId":"167771138"}}},{"Relevance":1.0,"Distance":30.2,"MatchLevel":"houseNumber","MatchQuality":{"Country":1.0,"State":1.0,"County":1.0,"City":1.0,"Street":[1.0],"HouseNumber":1.0,"PostalCode":1.0},"MatchType":"interpolated","Location":{"LocationId":"NT_TBY2z6wmo1JxhVljY8fTNA_yQD","LocationType":"point","DisplayPosition":{"Latitude":46.57933,"Longitude":1.98724},"MapView":{"TopLeft":{"Latitude":46.5804542,"Longitude":1.9856045},"BottomRight":{"Latitude":46.5782058,"Longitude":1.9888755}},"Address":{"Label":"24 Rue du Capitaine Duguet, 36400 La Châtre, France","Country":"FRA","State":"Centre-Val de Loire","County":"Indre","City":"La Châtre","Street":"Rue du Capitaine Duguet","HouseNumber":"24","PostalCode":"36400","AdditionalData":[{"value":"France","key":"CountryName"},{"value":"Centre-Val de Loire","key":"StateName"},{"value":"Indre","key":"CountyName"}]},"MapReference":{"ReferenceId":"579362018","Spot":0.78,"SideOfStreet":"left","CountryId":"20000001","StateId":"20002113","CountyId":"20066515","CityId":"20066652","AddressId":"318841588","RoadLinkId":"52858697"}}},{"Relevance":1.0,"Distance":45.5,"MatchLevel":"houseNumber","MatchQuality":{"Country":1.0,"State":1.0,"County":1.0,"City":1.0,"Street":[1.0],"HouseNumber":1.0,"PostalCode":1.0},"MatchType":"interpolated","Location":{"LocationId":"NT_IsLx.7oX13oojOfRvyzWdA_xED","LocationType":"point","DisplayPosition":{"Latitude":46.57957,"Longitude":1.98726},"MapView":{"TopLeft":{"Latitude":46.5806942,"Longitude":1.9856245},"BottomRight":{"Latitude":46.5784458,"Longitude":1.9888955}},"Address":{"Label":"11 Rue Philippe Decourteix, 36400 La Châtre, France","Country":"FRA","State":"Centre-Val de Loire","County":"Indre","City":"La Châtre","Street":"Rue Philippe Decourteix","HouseNumber":"11","PostalCode":"36400","AdditionalData":[{"value":"France","key":"CountryName"},{"value":"Centre-Val de Loire","key":"StateName"},{"value":"Indre","key":"CountyName"}]},"MapReference":{"ReferenceId":"579366576","Spot":0.89,"SideOfStreet":"right","CountryId":"20000001","StateId":"20002113","CountyId":"20066515","CityId":"20066652","AddressId":"570693369","RoadLinkId":"52668617"}}},{"Relevance":1.0,"Distance":50.3,"MatchLevel":"houseNumber","MatchQuality":{"Country":1.0,"State":1.0,"County":1.0,"City":1.0,"Street":[1.0],"HouseNumber":1.0,"PostalCode":1.0},"MatchType":"interpolated","Location":{"LocationId":"NT_TBY2z6wmo1JxhVljY8fTNA_xID","LocationType":"point","DisplayPosition":{"Latitude":46.57951,"Longitude":1.98627},"MapView":{"TopLeft":{"Latitude":46.5806342,"Longitude":1.9846345},"BottomRight":{"Latitude":46.5783858,"Longitude":1.9879055}},"Address":{"Label":"12 Rue du Capitaine Duguet, 36400 La Châtre, France","Country":"FRA","State":"Centre-Val de Loire","County":"Indre","City":"La Châtre","Street":"Rue du Capitaine Duguet","HouseNumber":"12","PostalCode":"36400","AdditionalData":[{"value":"France","key":"CountryName"},{"value":"Centre-Val de Loire","key":"StateName"},{"value":"Indre","key":"CountyName"}]},"MapReference":{"ReferenceId":"774145389","Spot":0.15,"SideOfStreet":"left","CountryId":"20000001","StateId":"20002113","CountyId":"20066515","CityId":"20066652","AddressId":"318944182","RoadLinkId":"167771080"}}},{"Relevance":1.0,"Distance":53.3,"MatchLevel":"houseNumber","MatchQuality":{"Country":1.0,"State":1.0,"County":1.0,"City":1.0,"Street":[1.0],"HouseNumber":1.0,"PostalCode":1.0},"MatchType":"interpolated","Location":{"LocationId":"NT_wqqkFQgu0mAgph4NvihEtA_yA","LocationType":"point","DisplayPosition":{"Latitude":46.57971,"Longitude":1.98723},"MapView":{"TopLeft":{"Latitude":46.5808342,"Longitude":1.9855945},"BottomRight":{"Latitude":46.5785858,"Longitude":1.9888655}},"Address":{"Label":"2 Rue Maurice Sand, 36400 La Châtre, France","Country":"FRA","State":"Centre-Val de Loire","County":"Indre","City":"La Châtre","Street":"Rue Maurice Sand","HouseNumber":"2","PostalCode":"36400","AdditionalData":[{"value":"France","key":"CountryName"},{"value":"Centre-Val de Loire","key":"StateName"},{"value":"Indre","key":"CountyName"}]},"MapReference":{"ReferenceId":"579366571","Spot":0.58,"SideOfStreet":"left","CountryId":"20000001","StateId":"20002113","CountyId":"20066515","CityId":"20066652","AddressId":"318777366","RoadLinkId":"53302003"}}},{"Relevance":1.0,"Distance":54.3,"MatchLevel":"houseNumber","MatchQuality":{"Country":1.0,"State":1.0,"County":1.0,"City":1.0,"Street":[1.0],"HouseNumber":1.0,"PostalCode":1.0},"MatchType":"interpolated","Location":{"LocationId":"NT_IsLx.7oX13oojOfRvyzWdA_5A","LocationType":"point","DisplayPosition":{"Latitude":46.57975,"Longitude":1.98664},"MapView":{"TopLeft":{"Latitude":46.5808742,"Longitude":1.9850045},"BottomRight":{"Latitude":46.5786258,"Longitude":1.9882755}},"Address":{"Label":"9 Rue Philippe Decourteix, 36400 La Châtre, France","Country":"FRA","State":"Centre-Val de Loire","County":"Indre","City":"La Châtre","Street":"Rue Philippe Decourteix","HouseNumber":"9","PostalCode":"36400","AdditionalData":[{"value":"France","key":"CountryName"},{"value":"Centre-Val de Loire","key":"StateName"},{"value":"Indre","key":"CountyName"}]},"MapReference":{"ReferenceId":"774145386","Spot":0.81,"SideOfStreet":"right","CountryId":"20000001","StateId":"20002113","CountyId":"20066515","CityId":"20066652","AddressId":"318965516","RoadLinkId":"167771075"}}},{"Relevance":1.0,"Distance":58.3,"MatchLevel":"houseNumber","MatchQuality":{"Country":1.0,"State":1.0,"County":1.0,"City":1.0,"Street":[1.0],"HouseNumber":1.0,"PostalCode":1.0},"MatchType":"interpolated","Location":{"LocationId":"NT_IiF2aVfaWzyUep8LtGVLSD_xA","LocationType":"point","DisplayPosition":{"Latitude":46.57975,"Longitude":1.98744},"MapView":{"TopLeft":{"Latitude":46.5808742,"Longitude":1.9858045},"BottomRight":{"Latitude":46.5786258,"Longitude":1.9890755}},"Address":{"Label":"1 Rue Jules Sandeau, 36400 La Châtre, France","Country":"FRA","State":"Centre-Val de Loire","County":"Indre","City":"La Châtre","Street":"Rue Jules Sandeau","HouseNumber":"1","PostalCode":"36400","AdditionalData":[{"value":"France","key":"CountryName"},{"value":"Centre-Val de Loire","key":"StateName"},{"value":"Indre","key":"CountyName"}]},"MapReference":{"ReferenceId":"579366578","Spot":0.84,"SideOfStreet":"left","CountryId":"20000001","StateId":"20002113","CountyId":"20066515","CityId":"20066652","AddressId":"388746344","RoadLinkId":"53554717"}}}]}]}}