{"Response":{"MetaInfo":{"Timestamp":"2020-03-28T10:42:13.804+0000","NextPageInformation":"2"},"View":[{"_type":"SearchResultsViewType","ViewId":0,"Result":[{"Relevance":1.0,"Distance":0.0,"Direction":0.0,"MatchLevel":"district","MatchQuality":{"Country":1.0,"County":1.0,"City":1.0,"District":1.0,"PostalCode":1.0},"Location":{"LocationId":"NT_qWPAVpdryvEhMJDifmKrMC","LocationType":"point","DisplayPosition":{"Latitude":46.5254477,"Longitude":16.3636542},"MapView":{"TopLeft":{"Latitude":46.52935,"Longitude":16.35556},"BottomRight":{"Latitude":46.52156,"Longitude":16.3682}},"Address":{"Label":"Sveti Martin na Muri, Hrvatska","Country":"HRV","County":"Međimurska županija","City":"Sveti Martin na Muri","District":"Sveti Martin na Muri","PostalCode":"40313","AdditionalData":[{"value":"Hrvatska","key":"CountryName"},{"value":"Međimurska županija","key":"CountyName"}]},"MapReference":{"ReferenceId":"1192673309","SideOfStreet":"neither","CountryId":"20633739","CountyId":"20641836","CityId":"22871465","DistrictId":"22874062"}}},{"Relevance":1.0,"Distance":11.7,"MatchLevel":"houseNumber","MatchQuality":{"Country":1.0,"County":1.0,"City":1.0,"District":1.0,"Street":[1.0],"HouseNumber":1.0,"PostalCode":1.0},"MatchType":"interpolated","Location":{"LocationId":"NT_V5nDQlya15d.U2PI94Im1A_xAD","LocationType":"point","DisplayPosition":{"Latitude":46.52528,"Longitude":16.36364},"MapView":{"TopLeft":{"Latitude":46.5264042,"Longitude":16.3620061},"BottomRight":{"Latitude":46.5241558,"Longitude":16.3652739}},"Address":{"Label":"Trg svetog Martina 10, HR-40313 Sveti Martin na Muri, Hrvatska","Country":"HRV","County":"Međimurska županija","City":"Sveti Martin na Muri","District":"Sveti Martin na Muri","Street":"Trg svetog Martina","HouseNumber":"10","PostalCode":"40313","AdditionalData":[{"value":"Hrvatska","key":"CountryName"},{"value":"Međimurska županija","key":"CountyName"}]},"MapReference":{"ReferenceId":"1234423166","Spot":0.62,"SideOfStreet":"right","CountryId":"20633739","CountyId":"20641836","CityId":"22871465","DistrictId":"22874062","AddressId":"623423983","RoadLinkId":"554794676"}}},{"Relevance":1.0,"Distance":39.9,"MatchLevel":"houseNumber","MatchQuality":{"Country":1.0,"County":1.0,"City":1.0,"District":1.0,"Street":[1.0],"HouseNumber":1.0,"PostalCode":1.0},"MatchType":"interpolated","Location":{"LocationId":"NT_V5nDQlya15d.U2PI94Im1A_l_1234423167_R_5A","LocationType":"point","DisplayPosition":{"Latitude":46.5252868,"Longitude":16.3631875},"MapView":{"TopLeft":{"Latitude":46.5264109,"Longitude":16.3615536},"BottomRight":{"Latitude":46.5241626,"Longitude":16.3648213}},"Address":{"Label":"Trg svetog Martina 9, HR-40313 Sveti Martin na Muri, Hrvatska","Country":"HRV","County":"Međimurska županija","City":"Sveti Martin na Muri","District":"Sveti Martin na Muri","Street":"Trg svetog Martina","HouseNumber":"9","PostalCode":"40313","AdditionalData":[{"value":"Hrvatska","key":"CountryName"},{"value":"Međimurska županija","key":"CountyName"}]},"MapReference":{"ReferenceId":"1234423167","Spot":0.53,"SideOfStreet":"right","CountryId":"20633739","CountyId":"20641836","CityId":"22871465","DistrictId":"22874062"}}},{"Relevance":1.0,"Distance":46.6,"MatchLevel":"houseNumber","MatchQuality":{"Country":1.0,"County":1.0,"City":1.0,"District":1.0,"Street":[1.0],"HouseNumber":1.0,"PostalCode":1.0},"MatchType":"interpolated","Location":{"LocationId":"NT_weGt6bD-5b6VvwqAPE30BB_zA","LocationType":"point","DisplayPosition":{"Latitude":46.52561,"Longitude":16.36441},"MapView":{"TopLeft":{"Latitude":46.5267342,"Longitude":16.3627761},"BottomRight":{"Latitude":46.5244858,"Longitude":16.3660439}},"Address":{"Label":"Kralja Tomislava 3, HR-40313 Sveti Martin na Muri, Hrvatska","Country":"HRV","County":"Međimurska županija","City":"Sveti Martin na Muri","District":"Sveti Martin na Muri","Street":"Kralja Tomislava","HouseNumber":"3","PostalCode":"40313","AdditionalData":[{"value":"Hrvatska","key":"CountryName"},{"value":"Međimurska županija","key":"CountyName"}]},"MapReference":{"ReferenceId":"786916676","Spot":0.44,"SideOfStreet":"left","CountryId":"20633739","CountyId":"20641836","CityId":"22871465","DistrictId":"22874062","AddressId":"623423525","RoadLinkId":"179549660"}}},{"Relevance":1.0,"Distance":47.9,"MatchLevel":"houseNumber","MatchQuality":{"Country":1.0,"County":1.0,"City":1.0,"District":1.0,"Street":[1.0],"HouseNumber":1.0,"PostalCode":1.0},"MatchType":"interpolated","Location":{"LocationId":"NT_V5nDQlya15d.U2PI94Im1A_3A","LocationType":"point","DisplayPosition":{"Latitude":46.52526,"Longitude":16.36309},"MapView":{"TopLeft":{"Latitude":46.5263842,"Longitude":16.3614561},"BottomRight":{"Latitude":46.5241358,"Longitude":16.3647239}},"Address":{"Label":"Trg svetog Martina 7, HR-40313 Sveti Martin na Muri, Hrvatska","Country":"HRV","County":"Međimurska županija","City":"Sveti Martin na Muri","District":"Sveti Martin na Muri","Street":"Trg svetog Martina","HouseNumber":"7","PostalCode":"40313","AdditionalData":[{"value":"Hrvatska","key":"CountryName"},{"value":"Međimurska županija","key":"CountyName"}]},"MapReference":{"ReferenceId":"1234420800","Spot":0.32,"SideOfStreet":"left","CountryId":"20633739","CountyId":"20641836","CityId":"22871465","DistrictId":"22874062","AddressId":"623404413","RoadLinkId":"554792430"}}},{"Relevance":1.0,"Distance":50.4,"MatchLevel":"houseNumber","MatchQuality":{"Country":1.0,"County":1.0,"City":1.0,"District":1.0,"Street":[1.0],"HouseNumber":1.0,"PostalCode":1.0},"MatchType":"interpolated","Location":{"LocationId":"NT_V5nDQlya15d.U2PI94Im1A_xMD","LocationType":"point","DisplayPosition":{"Latitude":46.52515,"Longitude":16.36305},"MapView":{"TopLeft":{"Latitude":46.5262742,"Longitude":16.3614161},"BottomRight":{"Latitude":46.5240258,"Longitude":16.3646839}},"Address":{"Label":"Trg svetog Martina 13, HR-40313 Sveti Martin na Muri, Hrvatska","Country":"HRV","County":"Međimurska županija","City":"Sveti Martin na Muri","District":"Sveti Martin na Muri","Street":"Trg svetog Martina","HouseNumber":"13","PostalCode":"40313","AdditionalData":[{"value":"Hrvatska","key":"CountryName"},{"value":"Međimurska županija","key":"CountyName"}]},"MapReference":{"ReferenceId":"1234420799","Spot":0.88,"SideOfStreet":"right","CountryId":"20633739","CountyId":"20641836","CityId":"22871465","DistrictId":"22874062","AddressId":"623404412","RoadLinkId":"554792429"}}},{"Relevance":1.0,"Distance":65.4,"MatchLevel":"houseNumber","MatchQuality":{"Country":1.0,"County":1.0,"City":1.0,"District":1.0,"Street":[1.0],"HouseNumber":1.0,"PostalCode":1.0},"MatchType":"interpolated","Location":{"LocationId":"NT_V5nDQlya15d.U2PI94Im1A_xID","LocationType":"point","DisplayPosition":{"Latitude":46.52473,"Longitude":16.36355},"MapView":{"TopLeft":{"Latitude":46.5258542,"Longitude":16.3619162},"BottomRight":{"Latitude":46.5236058,"Longitude":16.3651838}},"Address":{"Label":"Trg svetog Martina 12, HR-40313 Sveti Martin na Muri, Hrvatska","Country":"HRV","County":"Međimurska županija","City":"Sveti Martin na Muri","District":"Sveti Martin na Muri","Street":"Trg svetog Martina","HouseNumber":"12","PostalCode":"40313","AdditionalData":[{"value":"Hrvatska","key":"CountryName"},{"value":"Međimurska županija","key":"CountyName"}]},"MapReference":{"ReferenceId":"1192665421","Spot":1.0,"SideOfStreet":"right","CountryId":"20633739","CountyId":"20641836","CityId":"22871465","DistrictId":"22874062","AddressId":"623404414","RoadLinkId":"502374384"}}},{"Relevance":1.0,"Distance":67.3,"MatchLevel":"street","MatchQuality":{"Country":1.0,"County":1.0,"City":1.0,"District":1.0,"Street":[1.0],"PostalCode":1.0},"Location":{"LocationId":"NT_weGt6bD-5b6VvwqAPE30BB_l_1190747887_L","LocationType":"point","DisplayPosition":{"Latitude":46.52493,"Longitude":16.36411},"MapView":{"TopLeft":{"Latitude":46.52493,"Longitude":16.36408},"BottomRight":{"Latitude":46.52459,"Longitude":16.36415}},"Address":{"Label":"Kralja Tomislava, HR-40313 Sveti Martin na Muri, Hrvatska","Country":"HRV","County":"Međimurska županija","City":"Sveti Martin na Muri","District":"Sveti Martin na Muri","Street":"Kralja Tomislava","PostalCode":"40313","AdditionalData":[{"value":"Hrvatska","key":"CountryName"},{"value":"Međimurska županija","key":"CountyName"}]},"MapReference":{"ReferenceId":"1190747887","Spot":1.0,"SideOfStreet":"left","CountryId":"20633739","CountyId":"20641836","CityId":"22871465","DistrictId":"22874062"}}},{"Relevance":1.0,"Distance":75.7,"MatchLevel":"street","MatchQuality":{"Country":1.0,"County":1.0,"City":1.0,"District":1.0,"Street":[1.0],"PostalCode":1.0},"Location":{"LocationId":"NT_49X4YEJtazNJAHyc5eXZUC_l_1159364307_R","LocationType":"point","DisplayPosition":{"Latitude":46.52482,"Longitude":16.36327},"MapView":{"TopLeft":{"Latitude":46.52493,"Longitude":16.3629},"BottomRight":{"Latitude":46.52482,"Longitude":16.36327}},"Address":{"Label":"Trg svetog Martina, HR-40313 Sveti Martin na Muri, Hrvatska","Country":"HRV","County":"Međimurska županija","City":"Sveti Martin na Muri","District":"Sveti Martin na Muri","Street":"Trg svetog Martina","PostalCode":"40313","AdditionalData":[{"value":"Hrvatska","key":"CountryName"},{"value":"Međimurska županija","key":"CountyName"}]},"MapReference":{"ReferenceId":"1159364307","Spot":0.0,"SideOfStreet":"right","CountryId":"20633739","CountyId":"20641836","CityId":"22871465","DistrictId":"22874062"}}},{"Relevance":1.0,"Distance":76.9,"MatchLevel":"houseNumber","MatchQuality":{"Country":1.0,"County":1.0,"City":1.0,"District":1.0,"Street":[1.0],"HouseNumber":1.0,"PostalCode":1.0},"MatchType":"interpolated","Location":{"LocationId":"NT_V5nDQlya15d.U2PI94Im1A_l_1192665422_L_xA","LocationType":"point","DisplayPosition":{"Latitude":46.5247781,"Longitude":16.3634003},"MapView":{"TopLeft":{"Latitude":46.5259023,"Longitude":16.3617664},"BottomRight":{"Latitude":46.523654,"Longitude":16.3650341}},"Address":{"Label":"Trg svetog Martina 1, HR-40313 Sveti Martin na Muri, Hrvatska","Country":"HRV","County":"Međimurska županija","City":"Sveti Martin na Muri","District":"Sveti Martin na Muri","Street":"Trg svetog Martina","HouseNumber":"1","PostalCode":"40313","AdditionalData":[{"value":"Hrvatska","key":"CountryName"},{"value":"Međimurska županija","key":"CountyName"}]},"MapReference":{"ReferenceId":"1192665422","Spot":0.53,"SideOfStreet":"left","CountryId":"20633739","CountyId":"20641836","CityId":"22871465","DistrictId":"22874062"}}}]}]}}