{"Response":{"MetaInfo":{"Timestamp":"2020-03-28T10:01:02.037+0000","NextPageInformation":"2"},"View":[{"_type":"SearchResultsViewType","ViewId":0,"Result":[{"Relevance":1.0,"Distance":0.0,"Direction":0.0,"MatchLevel":"district","MatchQuality":{"Country":1.0,"County":1.0,"City":1.0,"District":1.0,"PostalCode":1.0},"Location":{"LocationId":"NT_raGmnfwPXa04TxbWj6gjbD","LocationType":"point","DisplayPosition":{"Latitude":46.5540181,"Longitude":15.6579884},"MapView":{"TopLeft":{"Latitude":46.59602,"Longitude":15.59624},"BottomRight":{"Latitude":46.51518,"Longitude":15.69696}},"Address":{"Label":"Maribor, Slovenija","Country":"SVN","County":"Maribor","City":"Maribor","District":"Maribor","PostalCode":"2000","AdditionalData":[{"value":"Slovenija","key":"CountryName"},{"value":"Maribor","key":"CountyName"}]},"MapReference":{"ReferenceId":"1176595145","SideOfStreet":"neither","CountryId":"20633685","CountyId":"20637788","CityId":"20637814","DistrictId":"20637828"}}},{"Relevance":1.0,"Distance":25.1,"MatchLevel":"houseNumber","MatchQuality":{"Country":1.0,"County":1.0,"City":1.0,"District":1.0,"Street":[1.0],"HouseNumber":1.0,"PostalCode":1.0},"MatchType":"interpolated","Location":{"LocationId":"NT_9qgL7IGhunSTuEtr-vU9OC_2A","LocationType":"point","DisplayPosition":{"Latitude":46.5538,"Longitude":15.65819},"MapView":{"TopLeft":{"Latitude":46.5549242,"Longitude":15.6565553},"BottomRight":{"Latitude":46.5526758,"Longitude":15.6598247}},"Address":{"Label":"Mejna ulica 6, SI- 2000 Maribor, Slovenija","Country":"SVN","County":"Maribor","City":"Maribor","District":"Maribor","Street":"Mejna ulica","HouseNumber":"6","PostalCode":"2000","AdditionalData":[{"value":"Slovenija","key":"CountryName"},{"value":"Maribor","key":"CountyName"}]},"MapReference":{"ReferenceId":"585382852","Spot":0.86,"SideOfStreet":"left","CountryId":"20633685","CountyId":"20637788","CityId":"20637814","DistrictId":"20637828","AddressId":"406674167","RoadLinkId":"54486998"}}},{"Relevance":1.0,"Distance":29.0,"MatchLevel":"houseNumber","MatchQuality":{"Country":1.0,"County":1.0,"City":1.0,"District":1.0,"Street":[1.0],"HouseNumber":1.0,"PostalCode":1.0},"MatchType":"interpolated","Location":{"LocationId":"NT_msNund8rKLwTNcrYMgMMYA_0YD","LocationType":"point","DisplayPosition":{"Latitude":46.55436,"Longitude":15.65817},"MapView":{"TopLeft":{"Latitude":46.5554842,"Longitude":15.6565353},"BottomRight":{"Latitude":46.5532358,"Longitude":15.6598047}},"Address":{"Label":"Pobreška cesta 46, SI- 2000 Maribor, Slovenija","Country":"SVN","County":"Maribor","City":"Maribor","District":"Maribor","Street":"Pobreška cesta","HouseNumber":"46","PostalCode":"2000","AdditionalData":[{"value":"Slovenija","key":"CountryName"},{"value":"Maribor","key":"CountyName"}]},"MapReference":{"ReferenceId":"973047498","Spot":0.49,"SideOfStreet":"left","CountryId":"20633685","CountyId":"20637788","CityId":"20637814","DistrictId":"20637828","AddressId":"406929031","RoadLinkId":"309454683"}}},{"Relevance":1.0,"Distance":39.0,"MatchLevel":"street","MatchQuality":{"Country":1.0,"County":1.0,"City":1.0,"District":1.0,"Street":[1.0],"PostalCode":1.0},"Location":{"LocationId":"NT_BHMxkWM8lT7p-1Jc5RW9AD_l_971879616_L","LocationType":"point","DisplayPosition":{"Latitude":46.55429,"Longitude":15.65831},"MapView":{"TopLeft":{"Latitude":46.55433,"Longitude":15.65831},"BottomRight":{"Latitude":46.55429,"Longitude":15.65838}},"Address":{"Label":"Cesta XIV. divizije, SI- 2000 Maribor, Slovenija","Country":"SVN","County":"Maribor","City":"Maribor","District":"Maribor","Street":"Cesta XIV. divizije","PostalCode":"2000","AdditionalData":[{"value":"Slovenija","key":"CountryName"},{"value":"Maribor","key":"CountyName"}]},"MapReference":{"ReferenceId":"971879616","Spot":0.0,"SideOfStreet":"left","CountryId":"20633685","CountyId":"20637788","CityId":"20637814","DistrictId":"20637828"}}},{"Relevance":1.0,"Distance":42.6,"MatchLevel":"street","MatchQuality":{"Country":1.0,"County":1.0,"City":1.0,"District":1.0,"Street":[1.0],"PostalCode":1.0},"Location":{"LocationId":"NT_msNund8rKLwTNcrYMgMMYA_l_1034227470_L","LocationType":"point","DisplayPosition":{"Latitude":46.5544,"Longitude":15.65795},"MapView":{"TopLeft":{"Latitude":46.55457,"Longitude":15.6573},"BottomRight":{"Latitude":46.5544,"Longitude":15.65795}},"Address":{"Label":"Pobreška cesta, SI- 2000 Maribor, Slovenija","Country":"SVN","County":"Maribor","City":"Maribor","District":"Maribor","Street":"Pobreška cesta","PostalCode":"2000","AdditionalData":[{"value":"Slovenija","key":"CountryName"},{"value":"Maribor","key":"CountyName"}]},"MapReference":{"ReferenceId":"1034227470","Spot":0.0,"SideOfStreet":"left","CountryId":"20633685","CountyId":"20637788","CityId":"20637814","DistrictId":"20637828"}}},{"Relevance":1.0,"Distance":54.1,"MatchLevel":"street","MatchQuality":{"Country":1.0,"County":1.0,"City":1.0,"District":1.0,"Street":[1.0],"PostalCode":1.0},"Location":{"LocationId":"NT_M-rzz1DrGKYDeLGYKDiJCC_l_842359345_R","LocationType":"point","DisplayPosition":{"Latitude":46.5540534,"Longitude":15.6572822},"MapView":{"TopLeft":{"Latitude":46.55457,"Longitude":15.65728},"BottomRight":{"Latitude":46.55401,"Longitude":15.6573}},"Address":{"Label":"Nasipna ulica, SI- 2000 Maribor, Slovenija","Country":"SVN","County":"Maribor","City":"Maribor","District":"Maribor","Street":"Nasipna ulica","PostalCode":"2000","AdditionalData":[{"value":"Slovenija","key":"CountryName"},{"value":"Maribor","key":"CountyName"}]},"MapReference":{"ReferenceId":"842359345","Spot":0.08,"SideOfStreet":"right","CountryId":"20633685","CountyId":"20637788","CityId":"20637814","DistrictId":"20637828"}}},{"Relevance":1.0,"Distance":54.2,"MatchLevel":"street","MatchQuality":{"Country":1.0,"County":1.0,"City":1.0,"District":1.0,"Street":[1.0],"PostalCode":1.0},"Location":{"LocationId":"NT_M-rzz1DrGKYDeLGYKDiJCC_l_842359344_R","LocationType":"point","DisplayPosition":{"Latitude":46.55401,"Longitude":15.65728},"MapView":{"TopLeft":{"Latitude":46.55401,"Longitude":15.65645},"BottomRight":{"Latitude":46.55096,"Longitude":15.65728}},"Address":{"Label":"Nasipna ulica, SI- 2000 Maribor, Slovenija","Country":"SVN","County":"Maribor","City":"Maribor","District":"Maribor","Street":"Nasipna ulica","PostalCode":"2000","AdditionalData":[{"value":"Slovenija","key":"CountryName"},{"value":"Maribor","key":"CountyName"}]},"MapReference":{"ReferenceId":"842359344","Spot":1.0,"SideOfStreet":"right","CountryId":"20633685","CountyId":"20637788","CityId":"20637814","DistrictId":"20637828"}}},{"Relevance":1.0,"Distance":59.2,"MatchLevel":"street","MatchQuality":{"Country":1.0,"County":1.0,"City":1.0,"District":1.0,"Street":[1.0],"PostalCode":1.0},"Location":{"LocationId":"NT_msNund8rKLwTNcrYMgMMYA_l_971584562_L","LocationType":"point","DisplayPosition":{"Latitude":46.55455,"Longitude":15.658},"MapView":{"TopLeft":{"Latitude":46.55457,"Longitude":15.6573},"BottomRight":{"Latitude":46.55455,"Longitude":15.65855}},"Address":{"Label":"Pobreška cesta, SI- 2000 Maribor, Slovenija","Country":"SVN","County":"Maribor","City":"Maribor","District":"Maribor","Street":"Pobreška cesta","PostalCode":"2000","AdditionalData":[{"value":"Slovenija","key":"CountryName"},{"value":"Maribor","key":"CountyName"}]},"MapReference":{"ReferenceId":"971584562","Spot":0.44,"SideOfStreet":"left","CountryId":"20633685","CountyId":"20637788","CityId":"20637814","DistrictId":"20637828"}}},{"Relevance":1.0,"Distance":60.7,"MatchLevel":"houseNumber","MatchQuality":{"Country":1.0,"County":1.0,"City":1.0,"District":1.0,"Street":[1.0],"HouseNumber":1.0,"PostalCode":1.0},"MatchType":"interpolated","Location":{"LocationId":"NT_BHMxkWM8lT7p-1Jc5RW9AD_yEE","LocationType":"point","DisplayPosition":{"Latitude":46.55426,"Longitude":15.65893},"MapView":{"TopLeft":{"Latitude":46.5553842,"Longitude":15.6572953},"BottomRight":{"Latitude":46.5531358,"Longitude":15.6605647}},"Address":{"Label":"Cesta XIV. divizije 2A, SI- 2000 Maribor, Slovenija","Country":"SVN","County":"Maribor","City":"Maribor","District":"Maribor","Street":"Cesta XIV. divizije","HouseNumber":"2A","PostalCode":"2000","AdditionalData":[{"value":"Slovenija","key":"CountryName"},{"value":"Maribor","key":"CountyName"}]},"MapReference":{"ReferenceId":"971879615","Spot":0.39,"SideOfStreet":"left","CountryId":"20633685","CountyId":"20637788","CityId":"20637814","DistrictId":"20637828","AddressId":"742799995","RoadLinkId":"308272557"}}},{"Relevance":1.0,"Distance":62.9,"MatchLevel":"houseNumber","MatchQuality":{"Country":1.0,"County":1.0,"City":1.0,"District":1.0,"Street":[1.0],"HouseNumber":1.0,"PostalCode":1.0},"MatchType":"interpolated","Location":{"LocationId":"NT_cHBTh.2WQlDt60WwxXSYLA_0A","LocationType":"point","DisplayPosition":{"Latitude":46.55371,"Longitude":15.65904},"MapView":{"TopLeft":{"Latitude":46.5548342,"Longitude":15.6574053},"BottomRight":{"Latitude":46.5525858,"Longitude":15.6606747}},"Address":{"Label":"Geršakova ulica 4, SI- 2000 Maribor, Slovenija","Country":"SVN","County":"Maribor","City":"Maribor","District":"Maribor","Street":"Geršakova ulica","HouseNumber":"4","PostalCode":"2000","AdditionalData":[{"value":"Slovenija","key":"CountryName"},{"value":"Maribor","key":"CountyName"}]},"MapReference":{"ReferenceId":"971637214","Spot":0.93,"SideOfStreet":"left","CountryId":"20633685","CountyId":"20637788","CityId":"20637814","DistrictId":"20637828","AddressId":"406537834","RoadLinkId":"308027182"}}}]}]}}