{"Response":{"MetaInfo":{"Timestamp":"2020-03-28T10:50:26.144+0000","NextPageInformation":"2"},"View":[{"_type":"SearchResultsViewType","ViewId":0,"Result":[{"Relevance":1.0,"Distance":-7125.1,"MatchLevel":"landmark","MatchQuality":{"Country":1.0,"County":1.0,"City":1.0,"District":1.0,"Street":[1.0],"PostalCode":1.0,"Name":1.0},"Location":{"LocationId":"NT_e4spnBJPtFl20fe253V4AD_p_4ENsJ.OojxfcwtwSQtUgwB","LocationType":"park","Name":"Parcul Natural Apuseni","DisplayPosition":{"Latitude":46.46094,"Longitude":22.8269},"MapView":{"TopLeft":{"Latitude":46.76393,"Longitude":22.5353},"BottomRight":{"Latitude":46.44807,"Longitude":23.08397}},"Address":{"Label":"DJ750, 517310 Gârda de Sus, România","Country":"ROU","County":"Alba","City":"Gârda de Sus","District":"Gârda de Sus","Street":"DJ750","PostalCode":"517310","AdditionalData":[{"value":"România","key":"CountryName"},{"value":"Alba","key":"CountyName"}]},"MapReference":{"CountryId":"20656215","CountyId":"20656485","CityId":"23754002","DistrictId":"23754598","PlaceId":"1159535265"}}},{"Relevance":1.0,"Distance":0.0,"Direction":0.0,"MatchLevel":"city","MatchQuality":{"Country":1.0,"County":1.0,"City":1.0,"PostalCode":1.0},"Location":{"LocationId":"NT_Agu2VGZpxqWQ39gojy68-B","LocationType":"point","DisplayPosition":{"Latitude":46.5777705,"Longitude":22.7044829},"MapView":{"TopLeft":{"Latitude":46.66708,"Longitude":22.50203},"BottomRight":{"Latitude":46.51851,"Longitude":22.7554}},"Address":{"Label":"Pietroasa, România","Country":"ROU","County":"Bihor","City":"Pietroasa","PostalCode":"417365","AdditionalData":[{"value":"România","key":"CountryName"},{"value":"Bihor","key":"CountyName"}]},"MapReference":{"ReferenceId":"833451194","SideOfStreet":"neither","CountryId":"20656215","CountyId":"20657269","CityId":"23756237"}}},{"Relevance":1.0,"Distance":36.8,"MatchLevel":"street","MatchQuality":{"Country":1.0,"County":1.0,"City":1.0,"PostalCode":1.0},"Location":{"LocationId":"NT_BOZjUpvyo8bScgOXWdBHmA_l_1042108896_R","LocationType":"point","DisplayPosition":{"Latitude":46.57786,"Longitude":22.70402},"MapView":{"TopLeft":{"Latitude":46.58677,"Longitude":22.69564},"BottomRight":{"Latitude":46.57489,"Longitude":22.70402}},"Address":{"Label":"417365 Pietroasa, România","Country":"ROU","County":"Bihor","City":"Pietroasa","PostalCode":"417365","AdditionalData":[{"value":"România","key":"CountryName"},{"value":"Bihor","key":"CountyName"}]},"MapReference":{"ReferenceId":"1042108896","Spot":0.2,"SideOfStreet":"right","CountryId":"20656215","CountyId":"20657269","CityId":"23756237"}}},{"Relevance":1.0,"Distance":352.1,"MatchLevel":"street","MatchQuality":{"Country":1.0,"County":1.0,"City":1.0,"PostalCode":1.0},"Location":{"LocationId":"NT_BOZjUpvyo8bScgOXWdBHmA_l_1188701998_R","LocationType":"point","DisplayPosition":{"Latitude":46.57489,"Longitude":22.70257},"MapView":{"TopLeft":{"Latitude":46.57489,"Longitude":22.70257},"BottomRight":{"Latitude":46.56303,"Longitude":22.71018}},"Address":{"Label":"417365 Pietroasa, România","Country":"ROU","County":"Bihor","City":"Pietroasa","PostalCode":"417365","AdditionalData":[{"value":"România","key":"CountryName"},{"value":"Bihor","key":"CountyName"}]},"MapReference":{"ReferenceId":"1188701998","Spot":1.0,"SideOfStreet":"right","CountryId":"20656215","CountyId":"20657269","CityId":"23756237"}}},{"Relevance":1.0,"Distance":1207.5,"MatchLevel":"street","MatchQuality":{"Country":1.0,"County":1.0,"City":1.0,"PostalCode":1.0},"Location":{"LocationId":"NT_BOZjUpvyo8bScgOXWdBHmA_l_1042108893_L","LocationType":"point","DisplayPosition":{"Latitude":46.58677,"Longitude":22.69564},"MapView":{"TopLeft":{"Latitude":46.59242,"Longitude":22.68351},"BottomRight":{"Latitude":46.58675,"Longitude":22.69564}},"Address":{"Label":"417365 Pietroasa, România","Country":"ROU","County":"Bihor","City":"Pietroasa","PostalCode":"417365","AdditionalData":[{"value":"România","key":"CountryName"},{"value":"Bihor","key":"CountyName"}]},"MapReference":{"ReferenceId":"1042108893","Spot":0.0,"SideOfStreet":"left","CountryId":"20656215","CountyId":"20657269","CityId":"23756237"}}},{"Relevance":1.0,"Distance":1568.9,"MatchLevel":"street","MatchQuality":{"Country":1.0,"County":1.0,"City":1.0,"Street":[1.0],"PostalCode":1.0},"Location":{"LocationId":"NT_eRkie44T8ASUh2p-yWrqWA_l_1189686013_R","LocationType":"point","DisplayPosition":{"Latitude":46.59171,"Longitude":22.70131},"MapView":{"TopLeft":{"Latitude":46.59268,"Longitude":22.69272},"BottomRight":{"Latitude":46.59047,"Longitude":22.70327}},"Address":{"Label":"DC265, 417365 Pietroasa, România","Country":"ROU","County":"Bihor","City":"Pietroasa","Street":"DC265","PostalCode":"417365","AdditionalData":[{"value":"România","key":"CountryName"},{"value":"Bihor","key":"CountyName"}]},"MapReference":{"ReferenceId":"1189686013","Spot":0.83,"SideOfStreet":"right","CountryId":"20656215","CountyId":"20657269","CityId":"23756237"}}},{"Relevance":1.0,"Distance":1643.8,"MatchLevel":"street","MatchQuality":{"Country":1.0,"County":1.0,"City":1.0,"Street":[1.0],"PostalCode":1.0},"Location":{"LocationId":"NT_jeA89DgJBB6cvgGfGZm88B_l_1204526253_R","LocationType":"point","DisplayPosition":{"Latitude":46.59253,"Longitude":22.70327},"MapView":{"TopLeft":{"Latitude":46.60111,"Longitude":22.70327},"BottomRight":{"Latitude":46.59253,"Longitude":22.70997}},"Address":{"Label":"DC265, 417100 Budureasa, România","Country":"ROU","County":"Bihor","City":"Budureasa","Street":"DC265","PostalCode":"417100","AdditionalData":[{"value":"România","key":"CountryName"},{"value":"Bihor","key":"CountyName"}]},"MapReference":{"ReferenceId":"1204526253","Spot":0.0,"SideOfStreet":"right","CountryId":"20656215","CountyId":"20657269","CityId":"23756272"}}},{"Relevance":1.0,"Distance":1695.9,"MatchLevel":"street","MatchQuality":{"Country":1.0,"County":1.0,"City":1.0,"PostalCode":1.0},"Location":{"LocationId":"NT_BOZjUpvyo8bScgOXWdBHmA_l_1042108897_L","LocationType":"point","DisplayPosition":{"Latitude":46.56303,"Longitude":22.71018},"MapView":{"TopLeft":{"Latitude":46.56303,"Longitude":22.71018},"BottomRight":{"Latitude":46.55554,"Longitude":22.73796}},"Address":{"Label":"417365 Pietroasa, România","Country":"ROU","County":"Bihor","City":"Pietroasa","PostalCode":"417365","AdditionalData":[{"value":"România","key":"CountryName"},{"value":"Bihor","key":"CountyName"}]},"MapReference":{"ReferenceId":"1042108897","Spot":1.0,"SideOfStreet":"left","CountryId":"20656215","CountyId":"20657269","CityId":"23756237"}}},{"Relevance":1.0,"Distance":1726.8,"MatchLevel":"street","MatchQuality":{"Country":1.0,"County":1.0,"City":1.0,"Street":[1.0],"PostalCode":1.0},"Location":{"LocationId":"NT_eRkie44T8ASUh2p-yWrqWA_l_878063575_L","LocationType":"point","DisplayPosition":{"Latitude":46.59103,"Longitude":22.69272},"MapView":{"TopLeft":{"Latitude":46.59242,"Longitude":22.69077},"BottomRight":{"Latitude":46.59103,"Longitude":22.69272}},"Address":{"Label":"DC265, 417365 Pietroasa, România","Country":"ROU","County":"Bihor","City":"Pietroasa","Street":"DC265","PostalCode":"417365","AdditionalData":[{"value":"România","key":"CountryName"},{"value":"Bihor","key":"CountyName"}]},"MapReference":{"ReferenceId":"878063575","Spot":0.0,"SideOfStreet":"left","CountryId":"20656215","CountyId":"20657269","CityId":"23756237"}}},{"Relevance":1.0,"Distance":1936.9,"MatchLevel":"street","MatchQuality":{"Country":1.0,"County":1.0,"City":1.0,"Street":[1.0],"PostalCode":1.0},"Location":{"LocationId":"NT_eRkie44T8ASUh2p-yWrqWA_l_878063576_R","LocationType":"point","DisplayPosition":{"Latitude":46.59242,"Longitude":22.69077},"MapView":{"TopLeft":{"Latitude":46.59463,"Longitude":22.6901},"BottomRight":{"Latitude":46.59242,"Longitude":22.69077}},"Address":{"Label":"DC265, 417365 Pietroasa, România","Country":"ROU","County":"Bihor","City":"Pietroasa","Street":"DC265","PostalCode":"417365","AdditionalData":[{"value":"România","key":"CountryName"},{"value":"Bihor","key":"CountyName"}]},"MapReference":{"ReferenceId":"878063576","Spot":0.0,"SideOfStreet":"right","CountryId":"20656215","CountyId":"20657269","CityId":"23756237"}}}]}]}}