{"Response":{"MetaInfo":{"Timestamp":"2020-03-28T10:50:43.063+0000","NextPageInformation":"2"},"View":[{"_type":"SearchResultsViewType","ViewId":0,"Result":[{"Relevance":1.0,"Distance":0.0,"Direction":0.0,"MatchLevel":"district","MatchQuality":{"Country":1.0,"County":1.0,"City":1.0,"District":1.0,"PostalCode":1.0},"Location":{"LocationId":"NT_cAPhraVUX.3NaxsmA9Ce7D","LocationType":"point","DisplayPosition":{"Latitude":46.5897394,"Longitude":15.0243633},"MapView":{"TopLeft":{"Latitude":46.59785,"Longitude":15.01069},"BottomRight":{"Latitude":46.58066,"Longitude":15.03848}},"Address":{"Label":"Dravograd, Slovenija","Country":"SVN","County":"Dravograd","City":"Dravograd","District":"Dravograd","PostalCode":"2370","AdditionalData":[{"value":"Slovenija","key":"CountryName"},{"value":"Dravograd","key":"CountyName"}]},"MapReference":{"ReferenceId":"1198406153","SideOfStreet":"neither","CountryId":"20633685","CountyId":"20635699","CityId":"20635700","DistrictId":"22691571"}}},{"Relevance":1.0,"Distance":26.0,"MatchLevel":"houseNumber","MatchQuality":{"Country":1.0,"County":1.0,"City":1.0,"District":1.0,"Street":[1.0],"HouseNumber":1.0,"PostalCode":1.0},"MatchType":"interpolated","Location":{"LocationId":"NT_ie3U4NgqMB6gMZEPfniQpD_2A","LocationType":"point","DisplayPosition":{"Latitude":46.59007,"Longitude":15.02428},"MapView":{"TopLeft":{"Latitude":46.5911942,"Longitude":15.0226442},"BottomRight":{"Latitude":46.5889458,"Longitude":15.0259158}},"Address":{"Label":"Pod gradom 6, SI- 2370 Dravograd, Slovenija","Country":"SVN","County":"Dravograd","City":"Dravograd","District":"Dravograd","Street":"Pod gradom","HouseNumber":"6","PostalCode":"2370","AdditionalData":[{"value":"Slovenija","key":"CountryName"},{"value":"Dravograd","key":"CountyName"}]},"MapReference":{"ReferenceId":"1176736322","Spot":0.21,"SideOfStreet":"left","CountryId":"20633685","CountyId":"20635699","CityId":"20635700","DistrictId":"22691571","AddressId":"406899267","RoadLinkId":"484420393"}}},{"Relevance":1.0,"Distance":43.8,"MatchLevel":"houseNumber","MatchQuality":{"Country":1.0,"County":1.0,"City":1.0,"District":1.0,"Street":[1.0],"HouseNumber":1.0,"PostalCode":1.0},"MatchType":"interpolated","Location":{"LocationId":"NT_a.Z2e6YP3c1R8ZzRTGBlBC_zA","LocationType":"point","DisplayPosition":{"Latitude":46.58946,"Longitude":15.02396},"MapView":{"TopLeft":{"Latitude":46.5905842,"Longitude":15.0223242},"BottomRight":{"Latitude":46.5883358,"Longitude":15.0255958}},"Address":{"Label":"Trg 4. julija 3, SI- 2370 Dravograd, Slovenija","Country":"SVN","County":"Dravograd","City":"Dravograd","District":"Dravograd","Street":"Trg 4. julija","HouseNumber":"3","PostalCode":"2370","AdditionalData":[{"value":"Slovenija","key":"CountryName"},{"value":"Dravograd","key":"CountyName"}]},"MapReference":{"ReferenceId":"1198407088","Spot":0.75,"SideOfStreet":"left","CountryId":"20633685","CountyId":"20635699","CityId":"20635700","DistrictId":"22691571","AddressId":"406570507","RoadLinkId":"509649972"}}},{"Relevance":1.0,"Distance":43.9,"MatchLevel":"houseNumber","MatchQuality":{"Country":1.0,"County":1.0,"City":1.0,"District":1.0,"Street":[1.0],"HouseNumber":1.0,"PostalCode":1.0},"MatchType":"interpolated","Location":{"LocationId":"NT_a.Z2e6YP3c1R8ZzRTGBlBC_2ED","LocationType":"point","DisplayPosition":{"Latitude":46.58949,"Longitude":15.02376},"MapView":{"TopLeft":{"Latitude":46.5906142,"Longitude":15.0221242},"BottomRight":{"Latitude":46.5883658,"Longitude":15.0253958}},"Address":{"Label":"Trg 4. julija 61, SI- 2370 Dravograd, Slovenija","Country":"SVN","County":"Dravograd","City":"Dravograd","District":"Dravograd","Street":"Trg 4. julija","HouseNumber":"61","PostalCode":"2370","AdditionalData":[{"value":"Slovenija","key":"CountryName"},{"value":"Dravograd","key":"CountyName"}]},"MapReference":{"ReferenceId":"710514251","Spot":0.87,"SideOfStreet":"left","CountryId":"20633685","CountyId":"20635699","CityId":"20635700","DistrictId":"22691571","AddressId":"406852285","RoadLinkId":"115747059"}}},{"Relevance":1.0,"Distance":48.8,"MatchLevel":"houseNumber","MatchQuality":{"Country":1.0,"County":1.0,"City":1.0,"District":1.0,"Street":[1.0],"HouseNumber":1.0,"PostalCode":1.0},"MatchType":"interpolated","Location":{"LocationId":"NT_ie3U4NgqMB6gMZEPfniQpD_4A","LocationType":"point","DisplayPosition":{"Latitude":46.58977,"Longitude":15.025},"MapView":{"TopLeft":{"Latitude":46.5908942,"Longitude":15.0233642},"BottomRight":{"Latitude":46.5886458,"Longitude":15.0266358}},"Address":{"Label":"Pod gradom 8, SI- 2370 Dravograd, Slovenija","Country":"SVN","County":"Dravograd","City":"Dravograd","District":"Dravograd","Street":"Pod gradom","HouseNumber":"8","PostalCode":"2370","AdditionalData":[{"value":"Slovenija","key":"CountryName"},{"value":"Dravograd","key":"CountyName"}]},"MapReference":{"ReferenceId":"710586453","Spot":0.55,"SideOfStreet":"right","CountryId":"20633685","CountyId":"20635699","CityId":"20635700","DistrictId":"22691571","AddressId":"406899269","RoadLinkId":"115754341"}}},{"Relevance":1.0,"Distance":58.1,"MatchLevel":"houseNumber","MatchQuality":{"Country":1.0,"County":1.0,"City":1.0,"District":1.0,"Street":[1.0],"HouseNumber":1.0,"PostalCode":1.0},"MatchType":"interpolated","Location":{"LocationId":"NT_a.Z2e6YP3c1R8ZzRTGBlBC_yA","LocationType":"point","DisplayPosition":{"Latitude":46.58925,"Longitude":15.02463},"MapView":{"TopLeft":{"Latitude":46.5903742,"Longitude":15.0229942},"BottomRight":{"Latitude":46.5881258,"Longitude":15.0262658}},"Address":{"Label":"Trg 4. julija 2, SI- 2370 Dravograd, Slovenija","Country":"SVN","County":"Dravograd","City":"Dravograd","District":"Dravograd","Street":"Trg 4. julija","HouseNumber":"2","PostalCode":"2370","AdditionalData":[{"value":"Slovenija","key":"CountryName"},{"value":"Dravograd","key":"CountyName"}]},"MapReference":{"ReferenceId":"1198407087","Spot":0.0,"SideOfStreet":"right","CountryId":"20633685","CountyId":"20635699","CityId":"20635700","DistrictId":"22691571","AddressId":"406570506","RoadLinkId":"509649971"}}},{"Relevance":1.0,"Distance":58.1,"MatchLevel":"street","MatchQuality":{"Country":1.0,"County":1.0,"City":1.0,"District":1.0,"Street":[1.0],"PostalCode":1.0},"Location":{"LocationId":"NT_QVW4vnrs3o-jWB2Wg7E0ID_l_710585644_L","LocationType":"point","DisplayPosition":{"Latitude":46.58925,"Longitude":15.02463},"MapView":{"TopLeft":{"Latitude":46.58925,"Longitude":15.02444},"BottomRight":{"Latitude":46.58896,"Longitude":15.02463}},"Address":{"Label":"Mariborska cesta, SI- 2370 Dravograd, Slovenija","Country":"SVN","County":"Dravograd","City":"Dravograd","District":"Dravograd","Street":"Mariborska cesta","PostalCode":"2370","AdditionalData":[{"value":"Slovenija","key":"CountryName"},{"value":"Dravograd","key":"CountyName"}]},"MapReference":{"ReferenceId":"710585644","Spot":1.0,"SideOfStreet":"left","CountryId":"20633685","CountyId":"20635699","CityId":"20635700","DistrictId":"22691571"}}},{"Relevance":1.0,"Distance":61.4,"MatchLevel":"houseNumber","MatchQuality":{"Country":1.0,"County":1.0,"City":1.0,"District":1.0,"Street":[1.0],"HouseNumber":1.0,"PostalCode":1.0},"MatchType":"interpolated","Location":{"LocationId":"NT_ie3U4NgqMB6gMZEPfniQpD_xAD","LocationType":"point","DisplayPosition":{"Latitude":46.59039,"Longitude":15.02434},"MapView":{"TopLeft":{"Latitude":46.5915142,"Longitude":15.0227042},"BottomRight":{"Latitude":46.5892658,"Longitude":15.0259758}},"Address":{"Label":"Pod gradom 10, SI- 2370 Dravograd, Slovenija","Country":"SVN","County":"Dravograd","City":"Dravograd","District":"Dravograd","Street":"Pod gradom","HouseNumber":"10","PostalCode":"2370","AdditionalData":[{"value":"Slovenija","key":"CountryName"},{"value":"Dravograd","key":"CountyName"}]},"MapReference":{"ReferenceId":"1176736324","Spot":0.61,"SideOfStreet":"right","CountryId":"20633685","CountyId":"20635699","CityId":"20635700","DistrictId":"22691571","AddressId":"406481404","RoadLinkId":"484420392"}}},{"Relevance":1.0,"Distance":61.8,"MatchLevel":"houseNumber","MatchQuality":{"Country":1.0,"County":1.0,"City":1.0,"District":1.0,"Street":[1.0],"HouseNumber":1.0,"PostalCode":1.0},"MatchType":"interpolated","Location":{"LocationId":"NT_a.Z2e6YP3c1R8ZzRTGBlBC_xA","LocationType":"point","DisplayPosition":{"Latitude":46.58909,"Longitude":15.02394},"MapView":{"TopLeft":{"Latitude":46.5902142,"Longitude":15.0223042},"BottomRight":{"Latitude":46.5879658,"Longitude":15.0255758}},"Address":{"Label":"Trg 4. julija 1, SI- 2370 Dravograd, Slovenija","Country":"SVN","County":"Dravograd","City":"Dravograd","District":"Dravograd","Street":"Trg 4. julija","HouseNumber":"1","PostalCode":"2370","AdditionalData":[{"value":"Slovenija","key":"CountryName"},{"value":"Dravograd","key":"CountyName"}]},"MapReference":{"ReferenceId":"1195818687","Spot":0.3,"SideOfStreet":"right","CountryId":"20633685","CountyId":"20635699","CityId":"20635700","DistrictId":"22691571","AddressId":"406481998","RoadLinkId":"506159002"}}},{"Relevance":1.0,"Distance":63.2,"MatchLevel":"houseNumber","MatchQuality":{"Country":1.0,"County":1.0,"City":1.0,"District":1.0,"Street":[1.0],"HouseNumber":1.0,"PostalCode":1.0},"MatchType":"interpolated","Location":{"LocationId":"NT_EVRtOXfueZUBdWUVrPGFHD_yA","LocationType":"point","DisplayPosition":{"Latitude":46.58923,"Longitude":15.02473},"MapView":{"TopLeft":{"Latitude":46.5903542,"Longitude":15.0230942},"BottomRight":{"Latitude":46.5881058,"Longitude":15.0263658}},"Address":{"Label":"Mariborska cesta 2, SI- 2370 Dravograd, Slovenija","Country":"SVN","County":"Dravograd","City":"Dravograd","District":"Dravograd","Street":"Mariborska cesta","HouseNumber":"2","PostalCode":"2370","AdditionalData":[{"value":"Slovenija","key":"CountryName"},{"value":"Dravograd","key":"CountyName"}]},"MapReference":{"ReferenceId":"1198406152","Spot":0.78,"SideOfStreet":"left","CountryId":"20633685","CountyId":"20635699","CityId":"20635700","DistrictId":"22691571","AddressId":"406743933","RoadLinkId":"509646964"}}}]}]}}