{"Response":{"MetaInfo":{"Timestamp":"2020-03-31T17:05:52.032+0000","NextPageInformation":"2"},"View":[{"_type":"SearchResultsViewType","ViewId":0,"Result":[{"Relevance":1.0,"Distance":0.0,"Direction":0.0,"MatchLevel":"district","MatchQuality":{"Country":1.0,"County":1.0,"City":1.0,"District":1.0,"PostalCode":1.0},"Location":{"LocationId":"NT_Ybux.ryY5jB4pHio1yQdhA","LocationType":"point","DisplayPosition":{"Latitude":46.5536,"Longitude":15.5836},"MapView":{"TopLeft":{"Latitude":46.56084,"Longitude":15.57413},"BottomRight":{"Latitude":46.54888,"Longitude":15.58996}},"Address":{"Label":"Limbuš, Maribor, Slovenija","Country":"SVN","County":"Maribor","City":"Maribor","District":"Limbuš","PostalCode":"2341","AdditionalData":[{"value":"Slovenija","key":"CountryName"},{"value":"Maribor","key":"CountyName"}]},"MapReference":{"ReferenceId":"956672571","SideOfStreet":"neither","CountryId":"20633685","CountyId":"20637788","CityId":"20637814","DistrictId":"20637826"}}},{"Relevance":1.0,"Distance":24.8,"MatchLevel":"houseNumber","MatchQuality":{"Country":1.0,"County":1.0,"City":1.0,"District":1.0,"Street":[1.0],"HouseNumber":1.0,"PostalCode":1.0},"MatchType":"interpolated","Location":{"LocationId":"NT_aGdNK-iD07-HvEAMTIGGFD_yUDO","LocationType":"point","DisplayPosition":{"Latitude":46.55331,"Longitude":15.58321},"MapView":{"TopLeft":{"Latitude":46.5544342,"Longitude":15.5815753},"BottomRight":{"Latitude":46.5521858,"Longitude":15.5848447}},"Address":{"Label":"Lackova cesta 258, SI- 2341 Maribor, Slovenija","Country":"SVN","County":"Maribor","City":"Maribor","District":"Limbuš","Street":"Lackova cesta","HouseNumber":"258","PostalCode":"2341","AdditionalData":[{"value":"Slovenija","key":"CountryName"},{"value":"Maribor","key":"CountyName"}]},"MapReference":{"ReferenceId":"956645696","Spot":0.58,"SideOfStreet":"right","CountryId":"20633685","CountyId":"20637788","CityId":"20637814","DistrictId":"20637826","AddressId":"406836043","RoadLinkId":"299579504"}}},{"Relevance":1.0,"Distance":28.0,"MatchLevel":"houseNumber","MatchQuality":{"Country":1.0,"County":1.0,"City":1.0,"District":1.0,"Street":[1.0],"HouseNumber":1.0,"PostalCode":1.0},"MatchType":"interpolated","Location":{"LocationId":"NT_aGdNK-iD07-HvEAMTIGGFD_yYjM","LocationType":"point","DisplayPosition":{"Latitude":46.55394,"Longitude":15.58333},"MapView":{"TopLeft":{"Latitude":46.5550642,"Longitude":15.5816953},"BottomRight":{"Latitude":46.5528158,"Longitude":15.5849647}},"Address":{"Label":"Lackova cesta 262, SI- 2341 Maribor, Slovenija","Country":"SVN","County":"Maribor","City":"Maribor","District":"Limbuš","Street":"Lackova cesta","HouseNumber":"262","PostalCode":"2341","AdditionalData":[{"value":"Slovenija","key":"CountryName"},{"value":"Maribor","key":"CountyName"}]},"MapReference":{"ReferenceId":"1129559139","Spot":0.21,"SideOfStreet":"right","CountryId":"20633685","CountyId":"20637788","CityId":"20637814","DistrictId":"20637826","AddressId":"406619116","RoadLinkId":"439537427"}}},{"Relevance":1.0,"Distance":33.4,"MatchLevel":"houseNumber","MatchQuality":{"Country":1.0,"County":1.0,"City":1.0,"District":1.0,"Street":[1.0],"HouseNumber":1.0,"PostalCode":1.0},"MatchType":"interpolated","Location":{"LocationId":"NT_VphOPaW182TuEyRYC3Za0D_xA","LocationType":"point","DisplayPosition":{"Latitude":46.55322,"Longitude":15.58371},"MapView":{"TopLeft":{"Latitude":46.5543442,"Longitude":15.5820753},"BottomRight":{"Latitude":46.5520958,"Longitude":15.5853447}},"Address":{"Label":"Ulica Lackovega odreda 1, SI- 2341 Maribor, Slovenija","Country":"SVN","County":"Maribor","City":"Maribor","District":"Limbuš","Street":"Ulica Lackovega odreda","HouseNumber":"1","PostalCode":"2341","AdditionalData":[{"value":"Slovenija","key":"CountryName"},{"value":"Maribor","key":"CountyName"}]},"MapReference":{"ReferenceId":"585388591","Spot":0.12,"SideOfStreet":"left","CountryId":"20633685","CountyId":"20637788","CityId":"20637814","DistrictId":"20637826","AddressId":"406602591","RoadLinkId":"54494705"}}},{"Relevance":1.0,"Distance":45.9,"MatchLevel":"houseNumber","MatchQuality":{"Country":1.0,"County":1.0,"City":1.0,"District":1.0,"Street":[1.0],"HouseNumber":1.0,"PostalCode":1.0},"MatchType":"interpolated","Location":{"LocationId":"NT_aGdNK-iD07-HvEAMTIGGFD_yYDM","LocationType":"point","DisplayPosition":{"Latitude":46.55352,"Longitude":15.58288},"MapView":{"TopLeft":{"Latitude":46.5546442,"Longitude":15.5812453},"BottomRight":{"Latitude":46.5523958,"Longitude":15.5845147}},"Address":{"Label":"Lackova cesta 260, SI- 2341 Maribor, Slovenija","Country":"SVN","County":"Maribor","City":"Maribor","District":"Limbuš","Street":"Lackova cesta","HouseNumber":"260","PostalCode":"2341","AdditionalData":[{"value":"Slovenija","key":"CountryName"},{"value":"Maribor","key":"CountyName"}]},"MapReference":{"ReferenceId":"956645697","Spot":0.42,"SideOfStreet":"right","CountryId":"20633685","CountyId":"20637788","CityId":"20637814","DistrictId":"20637826","AddressId":"406745402","RoadLinkId":"299579505"}}},{"Relevance":1.0,"Distance":46.7,"MatchLevel":"street","MatchQuality":{"Country":1.0,"County":1.0,"City":1.0,"District":1.0,"Street":[1.0],"PostalCode":1.0},"Location":{"LocationId":"NT_aGdNK-iD07-HvEAMTIGGFD_l_585388592_R","LocationType":"point","DisplayPosition":{"Latitude":46.55322,"Longitude":15.58334},"MapView":{"TopLeft":{"Latitude":46.55328,"Longitude":15.58325},"BottomRight":{"Latitude":46.55309,"Longitude":15.58353}},"Address":{"Label":"Lackova cesta, SI- 2341 Maribor, Slovenija","Country":"SVN","County":"Maribor","City":"Maribor","District":"Limbuš","Street":"Lackova cesta","PostalCode":"2341","AdditionalData":[{"value":"Slovenija","key":"CountryName"},{"value":"Maribor","key":"CountyName"}]},"MapReference":{"ReferenceId":"585388592","Spot":0.68,"SideOfStreet":"right","CountryId":"20633685","CountyId":"20637788","CityId":"20637814","DistrictId":"20637826"}}},{"Relevance":1.0,"Distance":53.0,"MatchLevel":"street","MatchQuality":{"Country":1.0,"County":1.0,"City":1.0,"District":1.0,"Street":[1.0],"PostalCode":1.0},"Location":{"LocationId":"NT_aGdNK-iD07-HvEAMTIGGFD_l_1129559138_R","LocationType":"point","DisplayPosition":{"Latitude":46.55393,"Longitude":15.5831},"MapView":{"TopLeft":{"Latitude":46.55393,"Longitude":15.58261},"BottomRight":{"Latitude":46.55392,"Longitude":15.5831}},"Address":{"Label":"Lackova cesta, SI- 2341 Maribor, Slovenija","Country":"SVN","County":"Maribor","City":"Maribor","District":"Limbuš","Street":"Lackova cesta","PostalCode":"2341","AdditionalData":[{"value":"Slovenija","key":"CountryName"},{"value":"Maribor","key":"CountyName"}]},"MapReference":{"ReferenceId":"1129559138","Spot":1.0,"SideOfStreet":"right","CountryId":"20633685","CountyId":"20637788","CityId":"20637814","DistrictId":"20637826"}}},{"Relevance":1.0,"Distance":83.6,"MatchLevel":"street","MatchQuality":{"Country":1.0,"County":1.0,"City":1.0,"District":1.0,"Street":[1.0],"PostalCode":1.0},"Location":{"LocationId":"NT_aGdNK-iD07-HvEAMTIGGFD_l_865339508_R","LocationType":"point","DisplayPosition":{"Latitude":46.55392,"Longitude":15.58261},"MapView":{"TopLeft":{"Latitude":46.55392,"Longitude":15.58246},"BottomRight":{"Latitude":46.55379,"Longitude":15.58261}},"Address":{"Label":"Lackova cesta, SI- 2341 Maribor, Slovenija","Country":"SVN","County":"Maribor","City":"Maribor","District":"Limbuš","Street":"Lackova cesta","PostalCode":"2341","AdditionalData":[{"value":"Slovenija","key":"CountryName"},{"value":"Maribor","key":"CountyName"}]},"MapReference":{"ReferenceId":"865339508","Spot":1.0,"SideOfStreet":"right","CountryId":"20633685","CountyId":"20637788","CityId":"20637814","DistrictId":"20637826"}}},{"Relevance":1.0,"Distance":87.3,"MatchLevel":"street","MatchQuality":{"Country":1.0,"County":1.0,"City":1.0,"District":1.0,"PostalCode":1.0},"Location":{"LocationId":"NT_gy5.OBiIXXG.P7109pYs1D_l_1215142317_R","LocationType":"point","DisplayPosition":{"Latitude":46.55428,"Longitude":15.58417},"MapView":{"TopLeft":{"Latitude":46.55433,"Longitude":15.58417},"BottomRight":{"Latitude":46.55428,"Longitude":15.58479}},"Address":{"Label":"SI- 2341 Maribor, Slovenija","Country":"SVN","County":"Maribor","City":"Maribor","District":"Limbuš","PostalCode":"2341","AdditionalData":[{"value":"Slovenija","key":"CountryName"},{"value":"Maribor","key":"CountyName"}]},"MapReference":{"ReferenceId":"1215142317","Spot":0.0,"SideOfStreet":"right","CountryId":"20633685","CountyId":"20637788","CityId":"20637814","DistrictId":"20637826"}}},{"Relevance":1.0,"Distance":88.7,"MatchLevel":"houseNumber","MatchQuality":{"Country":1.0,"County":1.0,"City":1.0,"District":1.0,"Street":[1.0],"HouseNumber":1.0,"PostalCode":1.0},"MatchType":"interpolated","Location":{"LocationId":"NT_aGdNK-iD07-HvEAMTIGGFD_yUjM","LocationType":"point","DisplayPosition":{"Latitude":46.55278,"Longitude":15.58394},"MapView":{"TopLeft":{"Latitude":46.5539042,"Longitude":15.5823053},"BottomRight":{"Latitude":46.5516558,"Longitude":15.5855747}},"Address":{"Label":"Lackova cesta 252, SI- 2341 Maribor, Slovenija","Country":"SVN","County":"Maribor","City":"Maribor","District":"Limbuš","Street":"Lackova cesta","HouseNumber":"252","PostalCode":"2341","AdditionalData":[{"value":"Slovenija","key":"CountryName"},{"value":"Maribor","key":"CountyName"}]},"MapReference":{"ReferenceId":"585388602","Spot":0.51,"SideOfStreet":"right","CountryId":"20633685","CountyId":"20637788","CityId":"20637814","DistrictId":"20637826","AddressId":"406984821","RoadLinkId":"54488078"}}}]}]}}