{"Response":{"MetaInfo":{"Timestamp":"2020-03-31T17:05:40.447+0000","NextPageInformation":"2"},"View":[{"_type":"SearchResultsViewType","ViewId":0,"Result":[{"Relevance":1.0,"Distance":0.0,"Direction":0.0,"MatchLevel":"district","MatchQuality":{"Country":1.0,"County":1.0,"City":1.0,"District":1.0,"PostalCode":1.0},"Location":{"LocationId":"NT_cGu.a5PCN2CTNOR7LzuycD","LocationType":"point","DisplayPosition":{"Latitude":46.5706,"Longitude":15.9436},"MapView":{"TopLeft":{"Latitude":46.57434,"Longitude":15.94189},"BottomRight":{"Latitude":46.56928,"Longitude":15.94467}},"Address":{"Label":"Cenkova, Cerkvenjak, Slovenija","Country":"SVN","County":"Lenart","City":"Cerkvenjak","District":"Cenkova","PostalCode":"2236","AdditionalData":[{"value":"Slovenija","key":"CountryName"},{"value":"Lenart","key":"CountyName"}]},"MapReference":{"ReferenceId":"711583184","SideOfStreet":"neither","CountryId":"20633685","CountyId":"20637086","CityId":"22689867","DistrictId":"22692015"}}},{"Relevance":1.0,"Distance":10.9,"MatchLevel":"houseNumber","MatchQuality":{"Country":1.0,"County":1.0,"City":1.0,"District":1.0,"Street":[1.0],"HouseNumber":1.0,"PostalCode":1.0},"MatchType":"interpolated","Location":{"LocationId":"NT_hIz7Ghubc.Ag-.Usa1lglA_2A","LocationType":"point","DisplayPosition":{"Latitude":46.57053,"Longitude":15.94331},"MapView":{"TopLeft":{"Latitude":46.5716542,"Longitude":15.9416748},"BottomRight":{"Latitude":46.5694058,"Longitude":15.9449452}},"Address":{"Label":"Cogetinci 6, SI- 2236 Cerkvenjak, Slovenija","Country":"SVN","County":"Lenart","City":"Cerkvenjak","District":"Cenkova","Street":"Cogetinci","HouseNumber":"6","PostalCode":"2236","AdditionalData":[{"value":"Slovenija","key":"CountryName"},{"value":"Lenart","key":"CountyName"}]},"MapReference":{"ReferenceId":"925824142","Spot":0.61,"SideOfStreet":"right","CountryId":"20633685","CountyId":"20637086","CityId":"22689867","DistrictId":"22692015","AddressId":"406558255","RoadLinkId":"281332832"}}},{"Relevance":1.0,"Distance":90.2,"MatchLevel":"houseNumber","MatchQuality":{"Country":1.0,"County":1.0,"City":1.0,"District":1.0,"Street":[1.0],"HouseNumber":1.0,"PostalCode":1.0},"MatchType":"interpolated","Location":{"LocationId":"NT_HFkpHlT7U5shzUFpMHlFQD_xYD","LocationType":"point","DisplayPosition":{"Latitude":46.57085,"Longitude":15.9422},"MapView":{"TopLeft":{"Latitude":46.5719742,"Longitude":15.9405648},"BottomRight":{"Latitude":46.5697258,"Longitude":15.9438352}},"Address":{"Label":"Cenkova 16, SI- 2236 Cerkvenjak, Slovenija","Country":"SVN","County":"Lenart","City":"Cerkvenjak","District":"Cenkova","Street":"Cenkova","HouseNumber":"16","PostalCode":"2236","AdditionalData":[{"value":"Slovenija","key":"CountryName"},{"value":"Lenart","key":"CountyName"}]},"MapReference":{"ReferenceId":"925824144","Spot":0.74,"SideOfStreet":"right","CountryId":"20633685","CountyId":"20637086","CityId":"22689867","DistrictId":"22692015","AddressId":"406650726","RoadLinkId":"308553997"}}},{"Relevance":1.0,"Distance":116.8,"MatchLevel":"houseNumber","MatchQuality":{"Country":1.0,"County":1.0,"City":1.0,"District":1.0,"Street":[1.0],"HouseNumber":1.0,"PostalCode":1.0},"MatchType":"interpolated","Location":{"LocationId":"NT_hIz7Ghubc.Ag-.Usa1lglA_5A","LocationType":"point","DisplayPosition":{"Latitude":46.57164,"Longitude":15.94329},"MapView":{"TopLeft":{"Latitude":46.5727642,"Longitude":15.9416547},"BottomRight":{"Latitude":46.5705158,"Longitude":15.9449253}},"Address":{"Label":"Cogetinci 9, SI- 2236 Cerkvenjak, Slovenija","Country":"SVN","County":"Lenart","City":"Cerkvenjak","District":"Cenkova","Street":"Cogetinci","HouseNumber":"9","PostalCode":"2236","AdditionalData":[{"value":"Slovenija","key":"CountryName"},{"value":"Lenart","key":"CountyName"}]},"MapReference":{"ReferenceId":"1111886030","Spot":0.31,"SideOfStreet":"right","CountryId":"20633685","CountyId":"20637086","CityId":"22689867","DistrictId":"22692015","AddressId":"406655326","RoadLinkId":"422010743"}}},{"Relevance":1.0,"Distance":118.4,"MatchLevel":"street","MatchQuality":{"Country":1.0,"County":1.0,"City":1.0,"District":1.0,"Street":[1.0],"PostalCode":1.0},"Location":{"LocationId":"NT_hIz7Ghubc.Ag-.Usa1lglA_l_711583181_R","LocationType":"point","DisplayPosition":{"Latitude":46.56956,"Longitude":15.94327},"MapView":{"TopLeft":{"Latitude":46.56956,"Longitude":15.94327},"BottomRight":{"Latitude":46.56914,"Longitude":15.94349}},"Address":{"Label":"Cogetinci, SI- 2236 Cerkvenjak, Slovenija","Country":"SVN","County":"Lenart","City":"Cerkvenjak","District":"Cogetinci","Street":"Cogetinci","PostalCode":"2236","AdditionalData":[{"value":"Slovenija","key":"CountryName"},{"value":"Lenart","key":"CountyName"}]},"MapReference":{"ReferenceId":"711583181","Spot":1.0,"SideOfStreet":"right","CountryId":"20633685","CountyId":"20637086","CityId":"22689867","DistrictId":"22695013"}}},{"Relevance":1.0,"Distance":154.9,"MatchLevel":"houseNumber","MatchQuality":{"Country":1.0,"County":1.0,"City":1.0,"District":1.0,"Street":[1.0],"HouseNumber":1.0,"PostalCode":1.0},"MatchType":"interpolated","Location":{"LocationId":"NT_SRQ94hQZ3vZMnaHBtxPKND_xgD","LocationType":"point","DisplayPosition":{"Latitude":46.56914,"Longitude":15.94349},"MapView":{"TopLeft":{"Latitude":46.5702642,"Longitude":15.9418548},"BottomRight":{"Latitude":46.5680158,"Longitude":15.9451252}},"Address":{"Label":"Cerkvenjak 18, SI- 2236 Cerkvenjak, Slovenija","Country":"SVN","County":"Lenart","City":"Cerkvenjak","District":"Cerkvenjak","Street":"Cerkvenjak","HouseNumber":"18","PostalCode":"2236","AdditionalData":[{"value":"Slovenija","key":"CountryName"},{"value":"Lenart","key":"CountyName"}]},"MapReference":{"ReferenceId":"838759629","Spot":1.0,"SideOfStreet":"left","CountryId":"20633685","CountyId":"20637086","CityId":"22689867","DistrictId":"22693430","AddressId":"406508604","RoadLinkId":"221276792"}}},{"Relevance":1.0,"Distance":226.4,"MatchLevel":"houseNumber","MatchQuality":{"Country":1.0,"County":1.0,"City":1.0,"District":1.0,"Street":[1.0],"HouseNumber":1.0,"PostalCode":1.0},"MatchType":"interpolated","Location":{"LocationId":"NT_SRQ94hQZ3vZMnaHBtxPKND_xUTQ","LocationType":"point","DisplayPosition":{"Latitude":46.56857,"Longitude":15.94383},"MapView":{"TopLeft":{"Latitude":46.5696942,"Longitude":15.9421948},"BottomRight":{"Latitude":46.5674458,"Longitude":15.9454652}},"Address":{"Label":"Cerkvenjak 15A, SI- 2236 Cerkvenjak, Slovenija","Country":"SVN","County":"Lenart","City":"Cerkvenjak","District":"Cerkvenjak","Street":"Cerkvenjak","HouseNumber":"15A","PostalCode":"2236","AdditionalData":[{"value":"Slovenija","key":"CountryName"},{"value":"Lenart","key":"CountyName"}]},"MapReference":{"ReferenceId":"838759628","Spot":0.71,"SideOfStreet":"right","CountryId":"20633685","CountyId":"20637086","CityId":"22689867","DistrictId":"22693430","AddressId":"406674578","RoadLinkId":"221276791"}}},{"Relevance":1.0,"Distance":229.8,"MatchLevel":"houseNumber","MatchQuality":{"Country":1.0,"County":1.0,"City":1.0,"District":1.0,"Street":[1.0],"HouseNumber":1.0,"PostalCode":1.0},"MatchType":"interpolated","Location":{"LocationId":"NT_b2O4ijbps-GAfVfPryNJcD_zA","LocationType":"point","DisplayPosition":{"Latitude":46.56856,"Longitude":15.9454},"MapView":{"TopLeft":{"Latitude":46.5696842,"Longitude":15.9437648},"BottomRight":{"Latitude":46.5674358,"Longitude":15.9470352}},"Address":{"Label":"439 3, SI- 2236 Cerkvenjak, Slovenija","Country":"SVN","County":"Lenart","City":"Cerkvenjak","District":"Cogetinci","Street":"439","HouseNumber":"3","PostalCode":"2236","AdditionalData":[{"value":"Slovenija","key":"CountryName"},{"value":"Lenart","key":"CountyName"}]},"MapReference":{"ReferenceId":"1203411921","Spot":0.13,"SideOfStreet":"left","CountryId":"20633685","CountyId":"20637086","CityId":"22689867","DistrictId":"22695013","AddressId":"406930203","RoadLinkId":"516433070"}}},{"Relevance":1.0,"Distance":233.2,"MatchLevel":"houseNumber","MatchQuality":{"Country":1.0,"County":1.0,"City":1.0,"District":1.0,"Street":[1.0],"HouseNumber":1.0,"PostalCode":1.0},"MatchType":"interpolated","Location":{"LocationId":"NT_C6KoMudEdZxi32z0tZKyLA_0A","LocationType":"point","DisplayPosition":{"Latitude":46.56857,"Longitude":15.94477},"MapView":{"TopLeft":{"Latitude":46.5696942,"Longitude":15.9431348},"BottomRight":{"Latitude":46.5674458,"Longitude":15.9464052}},"Address":{"Label":"Cogetinci 4, SI- 2236 Cerkvenjak, Slovenija","Country":"SVN","County":"Lenart","City":"Cerkvenjak","District":"Cerkvenjak","Street":"Cogetinci","HouseNumber":"4","PostalCode":"2236","AdditionalData":[{"value":"Slovenija","key":"CountryName"},{"value":"Lenart","key":"CountyName"}]},"MapReference":{"ReferenceId":"1203411922","Spot":1.0,"SideOfStreet":"right","CountryId":"20633685","CountyId":"20637086","CityId":"22689867","DistrictId":"22693430","AddressId":"406930204","RoadLinkId":"516433073"}}},{"Relevance":1.0,"Distance":261.7,"MatchLevel":"houseNumber","MatchQuality":{"Country":1.0,"County":1.0,"City":1.0,"District":1.0,"Street":[1.0],"HouseNumber":1.0,"PostalCode":1.0},"MatchType":"interpolated","Location":{"LocationId":"NT_hIz7Ghubc.Ag-.Usa1lglA_xED","LocationType":"point","DisplayPosition":{"Latitude":46.57293,"Longitude":15.94322},"MapView":{"TopLeft":{"Latitude":46.5740542,"Longitude":15.9415847},"BottomRight":{"Latitude":46.5718058,"Longitude":15.9448553}},"Address":{"Label":"Cogetinci 11, SI- 2236 Cerkvenjak, Slovenija","Country":"SVN","County":"Lenart","City":"Cerkvenjak","District":"Cenkova","Street":"Cogetinci","HouseNumber":"11","PostalCode":"2236","AdditionalData":[{"value":"Slovenija","key":"CountryName"},{"value":"Lenart","key":"CountyName"}]},"MapReference":{"ReferenceId":"1111886031","Spot":0.22,"SideOfStreet":"right","CountryId":"20633685","CountyId":"20637086","CityId":"22689867","DistrictId":"22692015","AddressId":"406655328","RoadLinkId":"422010744"}}}]}]}}