{"Response":{"MetaInfo":{"Timestamp":"2020-03-28T12:04:10.185+0000","NextPageInformation":"2"},"View":[{"_type":"SearchResultsViewType","ViewId":0,"Result":[{"Relevance":1.0,"Distance":0.0,"Direction":0.0,"MatchLevel":"city","MatchQuality":{"Country":1.0,"State":1.0,"County":1.0,"City":1.0,"PostalCode":1.0},"Location":{"LocationId":"NT_uHAoN2d159UhqAUCPn8Q4A","LocationType":"point","DisplayPosition":{"Latitude":46.505509,"Longitude":13.5758414},"MapView":{"TopLeft":{"Latitude":46.55418,"Longitude":13.47961},"BottomRight":{"Latitude":46.38322,"Longitude":13.71761}},"Address":{"Label":"Tarvisio, Friuli-Venezia Giulia, Italia","Country":"ITA","State":"Friuli-Venezia Giulia","County":"UD","City":"Tarvisio","PostalCode":"33018","AdditionalData":[{"value":"Italia","key":"CountryName"},{"value":"Friuli-Venezia Giulia","key":"StateName"},{"value":"Udine","key":"CountyName"}]},"MapReference":{"ReferenceId":"565182871","SideOfStreet":"neither","CountryId":"20110484","StateId":"20122842","CountyId":"20122843","CityId":"20123316"}}},{"Relevance":1.0,"Distance":20.2,"MatchLevel":"houseNumber","MatchQuality":{"Country":1.0,"State":1.0,"County":1.0,"City":1.0,"Street":[1.0],"HouseNumber":1.0,"PostalCode":1.0},"MatchType":"interpolated","Location":{"LocationId":"NT_nPMTxAhwudiR8EuBBIxasB_yID","LocationType":"point","DisplayPosition":{"Latitude":46.50569,"Longitude":13.57581},"MapView":{"TopLeft":{"Latitude":46.5068142,"Longitude":13.5741767},"BottomRight":{"Latitude":46.5045658,"Longitude":13.5774433}},"Address":{"Label":"Via Romana, 22, 33018 Tarvisio UD, Italia","Country":"ITA","State":"Friuli-Venezia Giulia","County":"UD","City":"Tarvisio","Street":"Via Romana","HouseNumber":"22","PostalCode":"33018","AdditionalData":[{"value":"Italia","key":"CountryName"},{"value":"Friuli-Venezia Giulia","key":"StateName"},{"value":"Udine","key":"CountyName"}]},"MapReference":{"ReferenceId":"584471131","Spot":0.67,"SideOfStreet":"right","CountryId":"20110484","StateId":"20122842","CountyId":"20122843","CityId":"20123316","AddressId":"385227157","RoadLinkId":"58884754"}}},{"Relevance":1.0,"Distance":36.7,"MatchLevel":"houseNumber","MatchQuality":{"Country":1.0,"State":1.0,"County":1.0,"City":1.0,"Street":[1.0],"HouseNumber":1.0,"PostalCode":1.0},"MatchType":"interpolated","Location":{"LocationId":"NT_MGZv74JkZWNjN6V52NCsgC_yYD","LocationType":"point","DisplayPosition":{"Latitude":46.50516,"Longitude":13.5758},"MapView":{"TopLeft":{"Latitude":46.5062842,"Longitude":13.5741667},"BottomRight":{"Latitude":46.5040358,"Longitude":13.5774333}},"Address":{"Label":"Via Roma, 26, 33018 Tarvisio UD, Italia","Country":"ITA","State":"Friuli-Venezia Giulia","County":"UD","City":"Tarvisio","Street":"Via Roma","HouseNumber":"26","PostalCode":"33018","AdditionalData":[{"value":"Italia","key":"CountryName"},{"value":"Friuli-Venezia Giulia","key":"StateName"},{"value":"Udine","key":"CountyName"}]},"MapReference":{"ReferenceId":"584471819","Spot":0.46,"SideOfStreet":"left","CountryId":"20110484","StateId":"20122842","CountyId":"20122843","CityId":"20123316","AddressId":"385271367","RoadLinkId":"58428859"}}},{"Relevance":1.0,"Distance":49.2,"MatchLevel":"houseNumber","MatchQuality":{"Country":1.0,"State":1.0,"County":1.0,"City":1.0,"Street":[1.0],"HouseNumber":1.0,"PostalCode":1.0},"MatchType":"interpolated","Location":{"LocationId":"NT_7qh55jXtS.MQFR.5YWpyvB_zA","LocationType":"point","DisplayPosition":{"Latitude":46.5057,"Longitude":13.57642},"MapView":{"TopLeft":{"Latitude":46.5068242,"Longitude":13.5747867},"BottomRight":{"Latitude":46.5045758,"Longitude":13.5780533}},"Address":{"Label":"Via Julius Kugi, 3, 33018 Tarvisio UD, Italia","Country":"ITA","State":"Friuli-Venezia Giulia","County":"UD","City":"Tarvisio","Street":"Via Julius Kugi","HouseNumber":"3","PostalCode":"33018","AdditionalData":[{"value":"Italia","key":"CountryName"},{"value":"Friuli-Venezia Giulia","key":"StateName"},{"value":"Udine","key":"CountyName"}]},"MapReference":{"ReferenceId":"582478422","Spot":0.65,"SideOfStreet":"left","CountryId":"20110484","StateId":"20122842","CountyId":"20122843","CityId":"20123316","AddressId":"746970315","RoadLinkId":"58869559"}}},{"Relevance":1.0,"Distance":78.6,"MatchLevel":"street","MatchQuality":{"Country":1.0,"State":1.0,"County":1.0,"City":1.0,"PostalCode":1.0},"Location":{"LocationId":"NT_Otrq6IOwIbwwUdX-4NdF6C_l_832781450_R","LocationType":"point","DisplayPosition":{"Latitude":46.5048039,"Longitude":13.5757754},"MapView":{"TopLeft":{"Latitude":46.50685,"Longitude":13.5703},"BottomRight":{"Latitude":46.50436,"Longitude":13.59138}},"Address":{"Label":"33018 Tarvisio UD, Italia","Country":"ITA","State":"Friuli-Venezia Giulia","County":"UD","City":"Tarvisio","PostalCode":"33018","AdditionalData":[{"value":"Italia","key":"CountryName"},{"value":"Friuli-Venezia Giulia","key":"StateName"},{"value":"Udine","key":"CountyName"}]},"MapReference":{"ReferenceId":"832781450","Spot":0.73,"SideOfStreet":"right","CountryId":"20110484","StateId":"20122842","CountyId":"20122843","CityId":"20123316"}}},{"Relevance":1.0,"Distance":83.0,"MatchLevel":"houseNumber","MatchQuality":{"Country":1.0,"State":1.0,"County":1.0,"City":1.0,"Street":[1.0],"HouseNumber":1.0,"PostalCode":1.0},"MatchType":"interpolated","Location":{"LocationId":"NT_nPMTxAhwudiR8EuBBIxasB_zQD","LocationType":"point","DisplayPosition":{"Latitude":46.50599,"Longitude":13.57667},"MapView":{"TopLeft":{"Latitude":46.5071142,"Longitude":13.5750367},"BottomRight":{"Latitude":46.5048658,"Longitude":13.5783033}},"Address":{"Label":"Via Romana, 34, 33018 Tarvisio UD, Italia","Country":"ITA","State":"Friuli-Venezia Giulia","County":"UD","City":"Tarvisio","Street":"Via Romana","HouseNumber":"34","PostalCode":"33018","AdditionalData":[{"value":"Italia","key":"CountryName"},{"value":"Friuli-Venezia Giulia","key":"StateName"},{"value":"Udine","key":"CountyName"}]},"MapReference":{"ReferenceId":"584471132","Spot":0.07,"SideOfStreet":"right","CountryId":"20110484","StateId":"20122842","CountyId":"20122843","CityId":"20123316","AddressId":"385309827","RoadLinkId":"58557871"}}},{"Relevance":1.0,"Distance":86.1,"MatchLevel":"street","MatchQuality":{"Country":1.0,"State":1.0,"County":1.0,"City":1.0,"Street":[1.0],"PostalCode":1.0},"Location":{"LocationId":"NT_nPMTxAhwudiR8EuBBIxasB_l_584471820_R","LocationType":"point","DisplayPosition":{"Latitude":46.50517,"Longitude":13.57483},"MapView":{"TopLeft":{"Latitude":46.50517,"Longitude":13.57467},"BottomRight":{"Latitude":46.50472,"Longitude":13.57483}},"Address":{"Label":"Via Romana, 33018 Tarvisio UD, Italia","Country":"ITA","State":"Friuli-Venezia Giulia","County":"UD","City":"Tarvisio","Street":"Via Romana","PostalCode":"33018","AdditionalData":[{"value":"Italia","key":"CountryName"},{"value":"Friuli-Venezia Giulia","key":"StateName"},{"value":"Udine","key":"CountyName"}]},"MapReference":{"ReferenceId":"584471820","Spot":1.0,"SideOfStreet":"right","CountryId":"20110484","StateId":"20122842","CountyId":"20122843","CityId":"20123316"}}},{"Relevance":1.0,"Distance":86.9,"MatchLevel":"houseNumber","MatchQuality":{"Country":1.0,"State":1.0,"County":1.0,"City":1.0,"Street":[1.0],"HouseNumber":1.0,"PostalCode":1.0},"MatchType":"interpolated","Location":{"LocationId":"NT_MGZv74JkZWNjN6V52NCsgC_zgD","LocationType":"point","DisplayPosition":{"Latitude":46.50519,"Longitude":13.57474},"MapView":{"TopLeft":{"Latitude":46.5063142,"Longitude":13.5731067},"BottomRight":{"Latitude":46.5040658,"Longitude":13.5763733}},"Address":{"Label":"Via Roma, 38, 33018 Tarvisio UD, Italia","Country":"ITA","State":"Friuli-Venezia Giulia","County":"UD","City":"Tarvisio","Street":"Via Roma","HouseNumber":"38","PostalCode":"33018","AdditionalData":[{"value":"Italia","key":"CountryName"},{"value":"Friuli-Venezia Giulia","key":"StateName"},{"value":"Udine","key":"CountyName"}]},"MapReference":{"ReferenceId":"849989554","Spot":0.08,"SideOfStreet":"right","CountryId":"20110484","StateId":"20122842","CountyId":"20122843","CityId":"20123316","AddressId":"385273827","RoadLinkId":"229668298"}}},{"Relevance":1.0,"Distance":94.2,"MatchLevel":"houseNumber","MatchQuality":{"Country":1.0,"State":1.0,"County":1.0,"City":1.0,"Street":[1.0],"HouseNumber":1.0,"PostalCode":1.0},"MatchType":"interpolated","Location":{"LocationId":"NT_MGZv74JkZWNjN6V52NCsgC_zED","LocationType":"point","DisplayPosition":{"Latitude":46.50529,"Longitude":13.57703},"MapView":{"TopLeft":{"Latitude":46.5064142,"Longitude":13.5753967},"BottomRight":{"Latitude":46.5041658,"Longitude":13.5786633}},"Address":{"Label":"Via Roma, 31, 33018 Tarvisio UD, Italia","Country":"ITA","State":"Friuli-Venezia Giulia","County":"UD","City":"Tarvisio","Street":"Via Roma","HouseNumber":"31","PostalCode":"33018","AdditionalData":[{"value":"Italia","key":"CountryName"},{"value":"Friuli-Venezia Giulia","key":"StateName"},{"value":"Udine","key":"CountyName"}]},"MapReference":{"ReferenceId":"1179836316","Spot":0.33,"SideOfStreet":"right","CountryId":"20110484","StateId":"20122842","CountyId":"20122843","CityId":"20123316","AddressId":"385257033","RoadLinkId":"487675131"}}},{"Relevance":1.0,"Distance":95.9,"MatchLevel":"houseNumber","MatchQuality":{"Country":1.0,"State":1.0,"County":1.0,"City":1.0,"Street":[1.0],"HouseNumber":1.0,"PostalCode":1.0},"MatchType":"interpolated","Location":{"LocationId":"NT_8OQA4mOlWlYsUTaTR0pq5C_xA","LocationType":"point","DisplayPosition":{"Latitude":46.50612,"Longitude":13.5768},"MapView":{"TopLeft":{"Latitude":46.5072442,"Longitude":13.5751667},"BottomRight":{"Latitude":46.5049958,"Longitude":13.5784333}},"Address":{"Label":"Via Pinete, 1, 33018 Tarvisio UD, Italia","Country":"ITA","State":"Friuli-Venezia Giulia","County":"UD","City":"Tarvisio","Street":"Via Pinete","HouseNumber":"1","PostalCode":"33018","AdditionalData":[{"value":"Italia","key":"CountryName"},{"value":"Friuli-Venezia Giulia","key":"StateName"},{"value":"Udine","key":"CountyName"}]},"MapReference":{"ReferenceId":"582478421","Spot":0.02,"SideOfStreet":"left","CountryId":"20110484","StateId":"20122842","CountyId":"20122843","CityId":"20123316","AddressId":"583203744","RoadLinkId":"59497268"}}}]}]}}