{"Response":{"MetaInfo":{"Timestamp":"2020-03-28T11:34:34.329+0000","NextPageInformation":"2"},"View":[{"_type":"SearchResultsViewType","ViewId":0,"Result":[{"Relevance":1.0,"Distance":0.0,"Direction":0.0,"MatchLevel":"district","MatchQuality":{"Country":1.0,"County":1.0,"City":1.0,"District":1.0,"PostalCode":1.0},"Location":{"LocationId":"NT_mGuWOQlXCsxag.K6nGItrA","LocationType":"point","DisplayPosition":{"Latitude":46.5417803,"Longitude":24.5603316},"MapView":{"TopLeft":{"Latitude":46.58104,"Longitude":24.49418},"BottomRight":{"Latitude":46.50733,"Longitude":24.61216}},"Address":{"Label":"Târgu Mureș, România","Country":"ROU","County":"Mureș","City":"Târgu Mureș","District":"Târgu Mureș","PostalCode":"540052","AdditionalData":[{"value":"România","key":"CountryName"},{"value":"Mureș","key":"CountyName"}]},"MapReference":{"ReferenceId":"588548629","SideOfStreet":"neither","CountryId":"20656215","CountyId":"20661093","CityId":"20661292","DistrictId":"20661295"}}},{"Relevance":1.0,"Distance":10.1,"MatchLevel":"street","MatchQuality":{"Country":1.0,"County":1.0,"City":1.0,"District":1.0,"Street":[1.0],"PostalCode":1.0},"Location":{"LocationId":"NT_yHMDZVY5ateR3i6gjpDbzC_l_588375139_R","LocationType":"point","DisplayPosition":{"Latitude":46.5418635,"Longitude":24.5602796},"MapView":{"TopLeft":{"Latitude":46.54187,"Longitude":24.56021},"BottomRight":{"Latitude":46.54182,"Longitude":24.56029}},"Address":{"Label":"Strada Samuel Koteles, 540052 Târgu Mureș, România","Country":"ROU","County":"Mureș","City":"Târgu Mureș","District":"Târgu Mureș","Street":"Strada Samuel Koteles","PostalCode":"540052","AdditionalData":[{"value":"România","key":"CountryName"},{"value":"Mureș","key":"CountyName"}]},"MapReference":{"ReferenceId":"588375139","Spot":0.87,"SideOfStreet":"right","CountryId":"20656215","CountyId":"20661093","CityId":"20661292","DistrictId":"20661295"}}},{"Relevance":1.0,"Distance":13.4,"MatchLevel":"houseNumber","MatchQuality":{"Country":1.0,"County":1.0,"City":1.0,"District":1.0,"Street":[1.0],"HouseNumber":1.0,"PostalCode":1.0},"MatchType":"interpolated","Location":{"LocationId":"NT_IsiDuPlW6wTqrDcZH6Zd7B_zETQ","LocationType":"point","DisplayPosition":{"Latitude":46.54176,"Longitude":24.56012},"MapView":{"TopLeft":{"Latitude":46.5428842,"Longitude":24.5584856},"BottomRight":{"Latitude":46.5406358,"Longitude":24.5617544}},"Address":{"Label":"Strada Samuel Koteles 31A, 540057 Târgu Mureș, România","Country":"ROU","County":"Mureș","City":"Târgu Mureș","District":"Târgu Mureș","Street":"Strada Samuel Koteles","HouseNumber":"31A","PostalCode":"540057","AdditionalData":[{"value":"România","key":"CountryName"},{"value":"Mureș","key":"CountyName"}]},"MapReference":{"ReferenceId":"588522694","Spot":0.81,"SideOfStreet":"right","CountryId":"20656215","CountyId":"20661093","CityId":"20661292","DistrictId":"20661295","AddressId":"686871861","RoadLinkId":"325733618"}}},{"Relevance":1.0,"Distance":29.9,"MatchLevel":"houseNumber","MatchQuality":{"Country":1.0,"County":1.0,"City":1.0,"District":1.0,"Street":[1.0],"HouseNumber":1.0,"PostalCode":1.0},"MatchType":"interpolated","Location":{"LocationId":"NT_qNiDIDFJj05SwQQqIuAhvC_3A","LocationType":"point","DisplayPosition":{"Latitude":46.54202,"Longitude":24.56018},"MapView":{"TopLeft":{"Latitude":46.5431442,"Longitude":24.5585456},"BottomRight":{"Latitude":46.5408958,"Longitude":24.5618144}},"Address":{"Label":"Strada Artei 7, 540056 Târgu Mureș, România","Country":"ROU","County":"Mureș","City":"Târgu Mureș","District":"Târgu Mureș","Street":"Strada Artei","HouseNumber":"7","PostalCode":"540056","AdditionalData":[{"value":"România","key":"CountryName"},{"value":"Mureș","key":"CountyName"}]},"MapReference":{"ReferenceId":"1104068305","Spot":0.24,"SideOfStreet":"right","CountryId":"20656215","CountyId":"20661093","CityId":"20661292","DistrictId":"20661295","AddressId":"686884775","RoadLinkId":"415974188"}}},{"Relevance":1.0,"Distance":55.9,"MatchLevel":"houseNumber","MatchQuality":{"Country":1.0,"County":1.0,"City":1.0,"District":1.0,"Street":[1.0],"HouseNumber":1.0,"PostalCode":1.0},"MatchType":"interpolated","Location":{"LocationId":"NT_ALaCBqZMx.EH0eTsWAZ5.C_4A","LocationType":"point","DisplayPosition":{"Latitude":46.54154,"Longitude":24.55969},"MapView":{"TopLeft":{"Latitude":46.5426642,"Longitude":24.5580557},"BottomRight":{"Latitude":46.5404158,"Longitude":24.5613243}},"Address":{"Label":"Piața Unirii 8, 540057 Târgu Mureș, România","Country":"ROU","County":"Mureș","City":"Târgu Mureș","District":"Târgu Mureș","Street":"Piața Unirii","HouseNumber":"8","PostalCode":"540057","AdditionalData":[{"value":"România","key":"CountryName"},{"value":"Mureș","key":"CountyName"}]},"MapReference":{"ReferenceId":"588522695","Spot":0.09,"SideOfStreet":"left","CountryId":"20656215","CountyId":"20661093","CityId":"20661292","DistrictId":"20661295","AddressId":"686871857","RoadLinkId":"77440360"}}},{"Relevance":1.0,"Distance":59.9,"MatchLevel":"houseNumber","MatchQuality":{"Country":1.0,"County":1.0,"City":1.0,"District":1.0,"Street":[1.0],"HouseNumber":1.0,"PostalCode":1.0},"MatchType":"interpolated","Location":{"LocationId":"NT_Q5juCscYsqsPVsezKwYFnD_yA","LocationType":"point","DisplayPosition":{"Latitude":46.54137,"Longitude":24.56084},"MapView":{"TopLeft":{"Latitude":46.5424942,"Longitude":24.5592057},"BottomRight":{"Latitude":46.5402458,"Longitude":24.5624743}},"Address":{"Label":"Strada Sportivilor 2, 540058 Târgu Mureș, România","Country":"ROU","County":"Mureș","City":"Târgu Mureș","District":"Târgu Mureș","Street":"Strada Sportivilor","HouseNumber":"2","PostalCode":"540058","AdditionalData":[{"value":"România","key":"CountryName"},{"value":"Mureș","key":"CountyName"}]},"MapReference":{"ReferenceId":"588375227","Spot":0.27,"SideOfStreet":"right","CountryId":"20656215","CountyId":"20661093","CityId":"20661292","DistrictId":"20661295","AddressId":"686869391","RoadLinkId":"77484491"}}},{"Relevance":1.0,"Distance":69.7,"MatchLevel":"houseNumber","MatchQuality":{"Country":1.0,"County":1.0,"City":1.0,"District":1.0,"Street":[1.0],"HouseNumber":1.0,"PostalCode":1.0},"MatchType":"interpolated","Location":{"LocationId":"NT_yHMDZVY5ateR3i6gjpDbzC_zMD","LocationType":"point","DisplayPosition":{"Latitude":46.54136,"Longitude":24.55963},"MapView":{"TopLeft":{"Latitude":46.5424842,"Longitude":24.5579957},"BottomRight":{"Latitude":46.5402358,"Longitude":24.5612643}},"Address":{"Label":"Strada Samuel Koteles 33, 540052 Târgu Mureș, România","Country":"ROU","County":"Mureș","City":"Târgu Mureș","District":"Târgu Mureș","Street":"Strada Samuel Koteles","HouseNumber":"33","PostalCode":"540052","AdditionalData":[{"value":"România","key":"CountryName"},{"value":"Mureș","key":"CountyName"}]},"MapReference":{"ReferenceId":"999488369","Spot":0.69,"SideOfStreet":"right","CountryId":"20656215","CountyId":"20661093","CityId":"20661292","DistrictId":"20661295","AddressId":"701614809","RoadLinkId":"325733616"}}},{"Relevance":1.0,"Distance":72.0,"MatchLevel":"houseNumber","MatchQuality":{"Country":1.0,"County":1.0,"City":1.0,"District":1.0,"Street":[1.0],"HouseNumber":1.0,"PostalCode":1.0},"MatchType":"interpolated","Location":{"LocationId":"NT_ALaCBqZMx.EH0eTsWAZ5.C_xA","LocationType":"point","DisplayPosition":{"Latitude":46.54217,"Longitude":24.55958},"MapView":{"TopLeft":{"Latitude":46.5432942,"Longitude":24.5579456},"BottomRight":{"Latitude":46.5410458,"Longitude":24.5612144}},"Address":{"Label":"Piața Unirii 1, 540057 Târgu Mureș, România","Country":"ROU","County":"Mureș","City":"Târgu Mureș","District":"Târgu Mureș","Street":"Piața Unirii","HouseNumber":"1","PostalCode":"540057","AdditionalData":[{"value":"România","key":"CountryName"},{"value":"Mureș","key":"CountyName"}]},"MapReference":{"ReferenceId":"588375140","Spot":0.62,"SideOfStreet":"right","CountryId":"20656215","CountyId":"20661093","CityId":"20661292","DistrictId":"20661295","AddressId":"686870117","RoadLinkId":"77271909"}}},{"Relevance":1.0,"Distance":86.9,"MatchLevel":"houseNumber","MatchQuality":{"Country":1.0,"County":1.0,"City":1.0,"District":1.0,"Street":[1.0],"HouseNumber":1.0,"PostalCode":1.0},"MatchType":"interpolated","Location":{"LocationId":"NT_T3fNHZ92Wgv7GnptGeXKXA_yYD","LocationType":"point","DisplayPosition":{"Latitude":46.54132,"Longitude":24.56133},"MapView":{"TopLeft":{"Latitude":46.5424442,"Longitude":24.5596957},"BottomRight":{"Latitude":46.5401958,"Longitude":24.5629643}},"Address":{"Label":"Strada Aron Marton 26, 540058 Târgu Mureș, România","Country":"ROU","County":"Mureș","City":"Târgu Mureș","District":"Târgu Mureș","Street":"Strada Aron Marton","HouseNumber":"26","PostalCode":"540058","AdditionalData":[{"value":"România","key":"CountryName"},{"value":"Mureș","key":"CountyName"}]},"MapReference":{"ReferenceId":"588375226","Spot":0.17,"SideOfStreet":"left","CountryId":"20656215","CountyId":"20661093","CityId":"20661292","DistrictId":"20661295","AddressId":"686869376","RoadLinkId":"77501487"}}},{"Relevance":1.0,"Distance":89.4,"MatchLevel":"houseNumber","MatchQuality":{"Country":1.0,"County":1.0,"City":1.0,"District":1.0,"Street":[1.0],"HouseNumber":1.0,"PostalCode":1.0},"MatchType":"interpolated","Location":{"LocationId":"NT_T3fNHZ92Wgv7GnptGeXKXA_ycD","LocationType":"point","DisplayPosition":{"Latitude":46.54102,"Longitude":24.56071},"MapView":{"TopLeft":{"Latitude":46.5421442,"Longitude":24.5590757},"BottomRight":{"Latitude":46.5398958,"Longitude":24.5623443}},"Address":{"Label":"Strada Aron Marton 27, 540058 Târgu Mureș, România","Country":"ROU","County":"Mureș","City":"Târgu Mureș","District":"Târgu Mureș","Street":"Strada Aron Marton","HouseNumber":"27","PostalCode":"540058","AdditionalData":[{"value":"România","key":"CountryName"},{"value":"Mureș","key":"CountyName"}]},"MapReference":{"ReferenceId":"588375278","Spot":0.56,"SideOfStreet":"right","CountryId":"20656215","CountyId":"20661093","CityId":"20661292","DistrictId":"20661295","AddressId":"686869451","RoadLinkId":"77384807"}}}]}]}}