{"Response":{"MetaInfo":{"Timestamp":"2020-03-28T11:34:31.202+0000","NextPageInformation":"2"},"View":[{"_type":"SearchResultsViewType","ViewId":0,"Result":[{"Relevance":1.0,"Distance":0.0,"Direction":0.0,"MatchLevel":"district","MatchQuality":{"Country":1.0,"County":1.0,"City":1.0,"District":1.0,"PostalCode":1.0},"Location":{"LocationId":"NT_mGuWOQlXCsxag.K6nGItrA","LocationType":"point","DisplayPosition":{"Latitude":46.5306407,"Longitude":24.5492883},"MapView":{"TopLeft":{"Latitude":46.58104,"Longitude":24.49418},"BottomRight":{"Latitude":46.50733,"Longitude":24.61216}},"Address":{"Label":"Târgu Mureș, România","Country":"ROU","County":"Mureș","City":"Târgu Mureș","District":"Târgu Mureș","PostalCode":"540052","AdditionalData":[{"value":"România","key":"CountryName"},{"value":"Mureș","key":"CountyName"}]},"MapReference":{"ReferenceId":"588548629","SideOfStreet":"neither","CountryId":"20656215","CountyId":"20661093","CityId":"20661292","DistrictId":"20661295"}}},{"Relevance":1.0,"Distance":11.7,"MatchLevel":"houseNumber","MatchQuality":{"Country":1.0,"County":1.0,"City":1.0,"District":1.0,"Street":[1.0],"HouseNumber":1.0,"PostalCode":1.0},"MatchType":"interpolated","Location":{"LocationId":"NT_OGL8yAOvkaOMr-yQpFbMYD_l_997264114_R_4kD","LocationType":"point","DisplayPosition":{"Latitude":46.5308406,"Longitude":24.5493028},"MapView":{"TopLeft":{"Latitude":46.5319647,"Longitude":24.5476688},"BottomRight":{"Latitude":46.5297164,"Longitude":24.5509368}},"Address":{"Label":"Strada Gheorghe Doja 89, 540052 Târgu Mureș, România","Country":"ROU","County":"Mureș","City":"Târgu Mureș","District":"Târgu Mureș","Street":"Strada Gheorghe Doja","HouseNumber":"89","PostalCode":"540052","AdditionalData":[{"value":"România","key":"CountryName"},{"value":"Mureș","key":"CountyName"}]},"MapReference":{"ReferenceId":"997264114","Spot":0.51,"SideOfStreet":"right","CountryId":"20656215","CountyId":"20661093","CityId":"20661292","DistrictId":"20661295"}}},{"Relevance":1.0,"Distance":14.4,"MatchLevel":"street","MatchQuality":{"Country":1.0,"County":1.0,"City":1.0,"District":1.0,"Street":[1.0],"PostalCode":1.0},"Location":{"LocationId":"NT_E9SA7ykVLsqGpF0-guhU7C_l_1202853374_R","LocationType":"point","DisplayPosition":{"Latitude":46.53071,"Longitude":24.54913},"MapView":{"TopLeft":{"Latitude":46.53071,"Longitude":24.54891},"BottomRight":{"Latitude":46.53055,"Longitude":24.54913}},"Address":{"Label":"Strada Gheorghe Doja, 540394 Târgu Mureș, România","Country":"ROU","County":"Mureș","City":"Târgu Mureș","District":"Târgu Mureș","Street":"Strada Gheorghe Doja","PostalCode":"540394","AdditionalData":[{"value":"România","key":"CountryName"},{"value":"Mureș","key":"CountyName"}]},"MapReference":{"ReferenceId":"1202853374","Spot":1.0,"SideOfStreet":"right","CountryId":"20656215","CountyId":"20661093","CityId":"20661292","DistrictId":"20661295"}}},{"Relevance":1.0,"Distance":18.5,"MatchLevel":"houseNumber","MatchQuality":{"Country":1.0,"County":1.0,"City":1.0,"District":1.0,"Street":[1.0],"HouseNumber":1.0,"PostalCode":1.0},"MatchType":"interpolated","Location":{"LocationId":"NT_LSl4XuNcnO2iBtZiW2faJB_xA","LocationType":"point","DisplayPosition":{"Latitude":46.53049,"Longitude":24.54939},"MapView":{"TopLeft":{"Latitude":46.5316142,"Longitude":24.547756},"BottomRight":{"Latitude":46.5293658,"Longitude":24.551024}},"Address":{"Label":"Strada Ciocanului 1, 540394 Târgu Mureș, România","Country":"ROU","County":"Mureș","City":"Târgu Mureș","District":"Târgu Mureș","Street":"Strada Ciocanului","HouseNumber":"1","PostalCode":"540394","AdditionalData":[{"value":"România","key":"CountryName"},{"value":"Mureș","key":"CountyName"}]},"MapReference":{"ReferenceId":"588376520","Spot":0.71,"SideOfStreet":"right","CountryId":"20656215","CountyId":"20661093","CityId":"20661292","DistrictId":"20661295","AddressId":"686868832","RoadLinkId":"77353878"}}},{"Relevance":1.0,"Distance":31.5,"MatchLevel":"houseNumber","MatchQuality":{"Country":1.0,"County":1.0,"City":1.0,"District":1.0,"Street":[1.0],"HouseNumber":1.0,"PostalCode":1.0},"MatchType":"interpolated","Location":{"LocationId":"NT_hQuWO8KFDy.Oo6qHOp0zlB_5MD","LocationType":"point","DisplayPosition":{"Latitude":46.53052,"Longitude":24.54887},"MapView":{"TopLeft":{"Latitude":46.5316442,"Longitude":24.547236},"BottomRight":{"Latitude":46.5293958,"Longitude":24.550504}},"Address":{"Label":"Strada Gheorghe Doja 93, 540394 Târgu Mureș, România","Country":"ROU","County":"Mureș","City":"Târgu Mureș","District":"Târgu Mureș","Street":"Strada Gheorghe Doja","HouseNumber":"93","PostalCode":"540394","AdditionalData":[{"value":"România","key":"CountryName"},{"value":"Mureș","key":"CountyName"}]},"MapReference":{"ReferenceId":"1202853373","Spot":0.86,"SideOfStreet":"right","CountryId":"20656215","CountyId":"20661093","CityId":"20661292","DistrictId":"20661295","AddressId":"686878851","RoadLinkId":"515765874"}}},{"Relevance":1.0,"Distance":52.2,"MatchLevel":"houseNumber","MatchQuality":{"Country":1.0,"County":1.0,"City":1.0,"District":1.0,"Street":[1.0],"HouseNumber":1.0,"PostalCode":1.0},"MatchType":"interpolated","Location":{"LocationId":"NT_txeuMqcjVLrGUjkXNVL95D_2ID","LocationType":"point","DisplayPosition":{"Latitude":46.53111,"Longitude":24.54935},"MapView":{"TopLeft":{"Latitude":46.5322342,"Longitude":24.547716},"BottomRight":{"Latitude":46.5299858,"Longitude":24.550984}},"Address":{"Label":"Strada Gheorghe Doja 62, 540052 Târgu Mureș, România","Country":"ROU","County":"Mureș","City":"Târgu Mureș","District":"Târgu Mureș","Street":"Strada Gheorghe Doja","HouseNumber":"62","PostalCode":"540052","AdditionalData":[{"value":"România","key":"CountryName"},{"value":"Mureș","key":"CountyName"}]},"MapReference":{"ReferenceId":"997264116","Spot":0.82,"SideOfStreet":"left","CountryId":"20656215","CountyId":"20661093","CityId":"20661292","DistrictId":"20661295","AddressId":"722164860","RoadLinkId":"443033847"}}},{"Relevance":1.0,"Distance":53.1,"MatchLevel":"houseNumber","MatchQuality":{"Country":1.0,"County":1.0,"City":1.0,"District":1.0,"Street":[1.0],"HouseNumber":1.0,"PostalCode":1.0},"MatchType":"interpolated","Location":{"LocationId":"NT_OGL8yAOvkaOMr-yQpFbMYD_l_997264115_L_2ID","LocationType":"point","DisplayPosition":{"Latitude":46.5310702,"Longitude":24.5495912},"MapView":{"TopLeft":{"Latitude":46.5321943,"Longitude":24.5479572},"BottomRight":{"Latitude":46.529946,"Longitude":24.5512253}},"Address":{"Label":"Strada Gheorghe Doja 62, 540052 Târgu Mureș, România","Country":"ROU","County":"Mureș","City":"Târgu Mureș","District":"Târgu Mureș","Street":"Strada Gheorghe Doja","HouseNumber":"62","PostalCode":"540052","AdditionalData":[{"value":"România","key":"CountryName"},{"value":"Mureș","key":"CountyName"}]},"MapReference":{"ReferenceId":"997264115","Spot":0.53,"SideOfStreet":"left","CountryId":"20656215","CountyId":"20661093","CityId":"20661292","DistrictId":"20661295"}}},{"Relevance":1.0,"Distance":56.8,"MatchLevel":"street","MatchQuality":{"Country":1.0,"County":1.0,"City":1.0,"District":1.0,"Street":[1.0],"PostalCode":1.0},"Location":{"LocationId":"NT_txeuMqcjVLrGUjkXNVL95D_l_997264117_R","LocationType":"point","DisplayPosition":{"Latitude":46.53115,"Longitude":24.54934},"MapView":{"TopLeft":{"Latitude":46.53131,"Longitude":24.54934},"BottomRight":{"Latitude":46.53115,"Longitude":24.54985}},"Address":{"Label":"Strada Gheorghe Doja, 540052 Târgu Mureș, România","Country":"ROU","County":"Mureș","City":"Târgu Mureș","District":"Târgu Mureș","Street":"Strada Gheorghe Doja","PostalCode":"540052","AdditionalData":[{"value":"România","key":"CountryName"},{"value":"Mureș","key":"CountyName"}]},"MapReference":{"ReferenceId":"997264117","Spot":0.0,"SideOfStreet":"right","CountryId":"20656215","CountyId":"20661093","CityId":"20661292","DistrictId":"20661295"}}},{"Relevance":1.0,"Distance":60.4,"MatchLevel":"street","MatchQuality":{"Country":1.0,"County":1.0,"City":1.0,"District":1.0,"PostalCode":1.0},"Location":{"LocationId":"NT_H.5oxwG-eRqj-Sk4RxuKJB_l_1222516739_R","LocationType":"point","DisplayPosition":{"Latitude":46.53034,"Longitude":24.54863},"MapView":{"TopLeft":{"Latitude":46.53062,"Longitude":24.54828},"BottomRight":{"Latitude":46.53034,"Longitude":24.54863}},"Address":{"Label":"540052 Târgu Mureș, România","Country":"ROU","County":"Mureș","City":"Târgu Mureș","District":"Târgu Mureș","PostalCode":"540052","AdditionalData":[{"value":"România","key":"CountryName"},{"value":"Mureș","key":"CountyName"}]},"MapReference":{"ReferenceId":"1222516739","Spot":0.0,"SideOfStreet":"right","CountryId":"20656215","CountyId":"20661093","CityId":"20661292","DistrictId":"20661295"}}},{"Relevance":1.0,"Distance":65.8,"MatchLevel":"street","MatchQuality":{"Country":1.0,"County":1.0,"City":1.0,"District":1.0,"Street":[1.0],"PostalCode":1.0},"Location":{"LocationId":"NT_OGL8yAOvkaOMr-yQpFbMYD_l_997264110_R","LocationType":"point","DisplayPosition":{"Latitude":46.53116,"Longitude":24.5497},"MapView":{"TopLeft":{"Latitude":46.53128,"Longitude":24.5497},"BottomRight":{"Latitude":46.53116,"Longitude":24.54985}},"Address":{"Label":"Bulevardul Gheorghe Doja, 540052 Târgu Mureș, România","Country":"ROU","County":"Mureș","City":"Târgu Mureș","District":"Târgu Mureș","Street":"Bulevardul Gheorghe Doja","PostalCode":"540052","AdditionalData":[{"value":"România","key":"CountryName"},{"value":"Mureș","key":"CountyName"}]},"MapReference":{"ReferenceId":"997264110","Spot":0.0,"SideOfStreet":"right","CountryId":"20656215","CountyId":"20661093","CityId":"20661292","DistrictId":"20661295"}}}]}]}}