{"Response":{"MetaInfo":{"Timestamp":"2020-03-28T10:06:37.809+0000","NextPageInformation":"2"},"View":[{"_type":"SearchResultsViewType","ViewId":0,"Result":[{"Relevance":1.0,"Distance":0.0,"Direction":0.0,"MatchLevel":"city","MatchQuality":{"Country":1.0,"State":1.0,"County":1.0,"City":1.0,"PostalCode":1.0},"Location":{"LocationId":"NT_RxNeEKhuDUe2QODcHYKEVD","LocationType":"point","DisplayPosition":{"Latitude":46.6758556,"Longitude":5.550261},"MapView":{"TopLeft":{"Latitude":46.69497,"Longitude":5.53242},"BottomRight":{"Latitude":46.65654,"Longitude":5.58244}},"Address":{"Label":"Lons-le-Saunier, Bourgogne-Franche-Comté, France","Country":"FRA","State":"Bourgogne-Franche-Comté","County":"Jura","City":"Lons-le-Saunier","PostalCode":"39000","AdditionalData":[{"value":"France","key":"CountryName"},{"value":"Bourgogne-Franche-Comté","key":"StateName"},{"value":"Jura","key":"CountyName"}]},"MapReference":{"ReferenceId":"68080383","SideOfStreet":"neither","CountryId":"20000001","StateId":"20013306","CountyId":"20015084","CityId":"20015925"}}},{"Relevance":1.0,"Distance":3.6,"MatchLevel":"landmark","MatchQuality":{"Country":1.0,"State":1.0,"County":1.0,"City":1.0,"PostalCode":1.0,"Name":1.0},"Location":{"LocationId":"NT_14Ik8fls1CAV6S9q9DfMHA_p_WsOHaDoqq7IpsGT2tH7anB","LocationType":"hospital","Name":"CH de Lons-le-Saunier","DisplayPosition":{"Latitude":46.67679,"Longitude":5.55228},"MapView":{"TopLeft":{"Latitude":46.67793,"Longitude":5.54965},"BottomRight":{"Latitude":46.67544,"Longitude":5.55303}},"Address":{"Label":"39000 Lons-le-Saunier, France","Country":"FRA","State":"Bourgogne-Franche-Comté","County":"Jura","City":"Lons-le-Saunier","PostalCode":"39000","AdditionalData":[{"value":"France","key":"CountryName"},{"value":"Bourgogne-Franche-Comté","key":"StateName"},{"value":"Jura","key":"CountyName"}]},"MapReference":{"CountryId":"20000001","StateId":"20013306","CountyId":"20015084","CityId":"20015925","PlaceId":"51474978"}}},{"Relevance":1.0,"Distance":3.6,"MatchLevel":"street","MatchQuality":{"Country":1.0,"State":1.0,"County":1.0,"City":1.0,"PostalCode":1.0},"Location":{"LocationId":"NT_ttD-q0toLQhT2FBhVyyP8C_l_1073247282_L","LocationType":"point","DisplayPosition":{"Latitude":46.6758807,"Longitude":5.5502911},"MapView":{"TopLeft":{"Latitude":46.67593,"Longitude":5.55025},"BottomRight":{"Latitude":46.67557,"Longitude":5.55055}},"Address":{"Label":"39000 Lons-le-Saunier, France","Country":"FRA","State":"Bourgogne-Franche-Comté","County":"Jura","City":"Lons-le-Saunier","PostalCode":"39000","AdditionalData":[{"value":"France","key":"CountryName"},{"value":"Bourgogne-Franche-Comté","key":"StateName"},{"value":"Jura","key":"CountyName"}]},"MapReference":{"ReferenceId":"1073247282","Spot":0.86,"SideOfStreet":"left","CountryId":"20000001","StateId":"20013306","CountyId":"20015084","CityId":"20015925"}}},{"Relevance":1.0,"Distance":7.9,"MatchLevel":"street","MatchQuality":{"Country":1.0,"State":1.0,"County":1.0,"City":1.0,"PostalCode":1.0},"Location":{"LocationId":"NT_ttD-q0toLQhT2FBhVyyP8C_l_1073248841_L","LocationType":"point","DisplayPosition":{"Latitude":46.6759266,"Longitude":5.550272},"MapView":{"TopLeft":{"Latitude":46.67593,"Longitude":5.55025},"BottomRight":{"Latitude":46.67584,"Longitude":5.55083}},"Address":{"Label":"39000 Lons-le-Saunier, France","Country":"FRA","State":"Bourgogne-Franche-Comté","County":"Jura","City":"Lons-le-Saunier","PostalCode":"39000","AdditionalData":[{"value":"France","key":"CountryName"},{"value":"Bourgogne-Franche-Comté","key":"StateName"},{"value":"Jura","key":"CountyName"}]},"MapReference":{"ReferenceId":"1073248841","Spot":0.96,"SideOfStreet":"left","CountryId":"20000001","StateId":"20013306","CountyId":"20015084","CityId":"20015925"}}},{"Relevance":1.0,"Distance":8.3,"MatchLevel":"street","MatchQuality":{"Country":1.0,"State":1.0,"County":1.0,"City":1.0,"PostalCode":1.0},"Location":{"LocationId":"NT_ttD-q0toLQhT2FBhVyyP8C_l_1073245947_R","LocationType":"point","DisplayPosition":{"Latitude":46.67593,"Longitude":5.55025},"MapView":{"TopLeft":{"Latitude":46.67593,"Longitude":5.54972},"BottomRight":{"Latitude":46.67587,"Longitude":5.55025}},"Address":{"Label":"39000 Lons-le-Saunier, France","Country":"FRA","State":"Bourgogne-Franche-Comté","County":"Jura","City":"Lons-le-Saunier","PostalCode":"39000","AdditionalData":[{"value":"France","key":"CountryName"},{"value":"Bourgogne-Franche-Comté","key":"StateName"},{"value":"Jura","key":"CountyName"}]},"MapReference":{"ReferenceId":"1073245947","Spot":1.0,"SideOfStreet":"right","CountryId":"20000001","StateId":"20013306","CountyId":"20015084","CityId":"20015925"}}},{"Relevance":1.0,"Distance":38.7,"MatchLevel":"street","MatchQuality":{"Country":1.0,"State":1.0,"County":1.0,"City":1.0,"PostalCode":1.0},"Location":{"LocationId":"NT_ttD-q0toLQhT2FBhVyyP8C_l_1073247281_L","LocationType":"point","DisplayPosition":{"Latitude":46.67557,"Longitude":5.55055},"MapView":{"TopLeft":{"Latitude":46.67557,"Longitude":5.55055},"BottomRight":{"Latitude":46.67544,"Longitude":5.55063}},"Address":{"Label":"39000 Lons-le-Saunier, France","Country":"FRA","State":"Bourgogne-Franche-Comté","County":"Jura","City":"Lons-le-Saunier","PostalCode":"39000","AdditionalData":[{"value":"France","key":"CountryName"},{"value":"Bourgogne-Franche-Comté","key":"StateName"},{"value":"Jura","key":"CountyName"}]},"MapReference":{"ReferenceId":"1073247281","Spot":1.0,"SideOfStreet":"left","CountryId":"20000001","StateId":"20013306","CountyId":"20015084","CityId":"20015925"}}},{"Relevance":1.0,"Distance":40.0,"MatchLevel":"houseNumber","MatchQuality":{"Country":1.0,"State":1.0,"County":1.0,"City":1.0,"Street":[1.0],"HouseNumber":1.0,"PostalCode":1.0},"MatchType":"interpolated","Location":{"LocationId":"NT_eNHAYbOHgdaUsA5GerI.xD_l_709647574_L_xUDO","LocationType":"point","DisplayPosition":{"Latitude":46.6754401,"Longitude":5.5506303},"MapView":{"TopLeft":{"Latitude":46.6765643,"Longitude":5.5489919},"BottomRight":{"Latitude":46.674316,"Longitude":5.5522687}},"Address":{"Label":"158 Rue Regard, 39000 Lons-le-Saunier, France","Country":"FRA","State":"Bourgogne-Franche-Comté","County":"Jura","City":"Lons-le-Saunier","Street":"Rue Regard","HouseNumber":"158","PostalCode":"39000","AdditionalData":[{"value":"France","key":"CountryName"},{"value":"Bourgogne-Franche-Comté","key":"StateName"},{"value":"Jura","key":"CountyName"}]},"MapReference":{"ReferenceId":"709647574","Spot":0.0,"SideOfStreet":"left","CountryId":"20000001","StateId":"20013306","CountyId":"20015084","CityId":"20015925"}}},{"Relevance":1.0,"Distance":43.4,"MatchLevel":"street","MatchQuality":{"Country":1.0,"State":1.0,"County":1.0,"City":1.0,"PostalCode":1.0},"Location":{"LocationId":"NT_ttD-q0toLQhT2FBhVyyP8C_l_1073249053_L","LocationType":"point","DisplayPosition":{"Latitude":46.67584,"Longitude":5.55083},"MapView":{"TopLeft":{"Latitude":46.67584,"Longitude":5.55083},"BottomRight":{"Latitude":46.67573,"Longitude":5.55092}},"Address":{"Label":"39000 Lons-le-Saunier, France","Country":"FRA","State":"Bourgogne-Franche-Comté","County":"Jura","City":"Lons-le-Saunier","PostalCode":"39000","AdditionalData":[{"value":"France","key":"CountryName"},{"value":"Bourgogne-Franche-Comté","key":"StateName"},{"value":"Jura","key":"CountyName"}]},"MapReference":{"ReferenceId":"1073249053","Spot":1.0,"SideOfStreet":"left","CountryId":"20000001","StateId":"20013306","CountyId":"20015084","CityId":"20015925"}}},{"Relevance":1.0,"Distance":43.4,"MatchLevel":"street","MatchQuality":{"Country":1.0,"State":1.0,"County":1.0,"City":1.0,"PostalCode":1.0},"Location":{"LocationId":"NT_ttD-q0toLQhT2FBhVyyP8C_l_1073248840_L","LocationType":"point","DisplayPosition":{"Latitude":46.67584,"Longitude":5.55083},"MapView":{"TopLeft":{"Latitude":46.67592,"Longitude":5.55083},"BottomRight":{"Latitude":46.67584,"Longitude":5.55146}},"Address":{"Label":"39000 Lons-le-Saunier, France","Country":"FRA","State":"Bourgogne-Franche-Comté","County":"Jura","City":"Lons-le-Saunier","PostalCode":"39000","AdditionalData":[{"value":"France","key":"CountryName"},{"value":"Bourgogne-Franche-Comté","key":"StateName"},{"value":"Jura","key":"CountyName"}]},"MapReference":{"ReferenceId":"1073248840","Spot":0.0,"SideOfStreet":"left","CountryId":"20000001","StateId":"20013306","CountyId":"20015084","CityId":"20015925"}}},{"Relevance":1.0,"Distance":48.8,"MatchLevel":"street","MatchQuality":{"Country":1.0,"State":1.0,"County":1.0,"City":1.0,"PostalCode":1.0},"Location":{"LocationId":"NT_ttD-q0toLQhT2FBhVyyP8C_l_1073248842_L","LocationType":"point","DisplayPosition":{"Latitude":46.67553,"Longitude":5.55069},"MapView":{"TopLeft":{"Latitude":46.67565,"Longitude":5.55063},"BottomRight":{"Latitude":46.67544,"Longitude":5.55098}},"Address":{"Label":"39000 Lons-le-Saunier, France","Country":"FRA","State":"Bourgogne-Franche-Comté","County":"Jura","City":"Lons-le-Saunier","PostalCode":"39000","AdditionalData":[{"value":"France","key":"CountryName"},{"value":"Bourgogne-Franche-Comté","key":"StateName"},{"value":"Jura","key":"CountyName"}]},"MapReference":{"ReferenceId":"1073248842","Spot":0.26,"SideOfStreet":"left","CountryId":"20000001","StateId":"20013306","CountyId":"20015084","CityId":"20015925"}}}]}]}}