{"Response":{"MetaInfo":{"Timestamp":"2020-03-31T17:07:24.191+0000","NextPageInformation":"2"},"View":[{"_type":"SearchResultsViewType","ViewId":0,"Result":[{"Relevance":1.0,"Distance":0.0,"Direction":0.0,"MatchLevel":"city","MatchQuality":{"Country":1.0,"County":1.0,"City":1.0,"PostalCode":1.0},"Location":{"LocationId":"NT_7Ks7HZQlpfrQDlRt-Iu0mC","LocationType":"point","DisplayPosition":{"Latitude":46.6278,"Longitude":16.3203},"MapView":{"TopLeft":{"Latitude":46.64714,"Longitude":16.26301},"BottomRight":{"Latitude":46.58272,"Longitude":16.37014}},"Address":{"Label":"Turnišče, Slovenija","Country":"SVN","County":"Lendava","City":"Turnišče","PostalCode":"9224","AdditionalData":[{"value":"Slovenija","key":"CountryName"},{"value":"Lendava","key":"CountyName"}]},"MapReference":{"ReferenceId":"1112002176","SideOfStreet":"neither","CountryId":"20633685","CountyId":"20637171","CityId":"22689910"}}},{"Relevance":1.0,"Distance":66.9,"MatchLevel":"houseNumber","MatchQuality":{"Country":1.0,"County":1.0,"City":1.0,"District":1.0,"Street":[1.0],"HouseNumber":1.0,"PostalCode":1.0},"MatchType":"interpolated","Location":{"LocationId":"NT_iYYHW-VndLkVYFWJYrPrGA_yID","LocationType":"point","DisplayPosition":{"Latitude":46.62742,"Longitude":16.31962},"MapView":{"TopLeft":{"Latitude":46.6285442,"Longitude":16.3179831},"BottomRight":{"Latitude":46.6262958,"Longitude":16.3212569}},"Address":{"Label":"Travniška ulica 22, SI- 9224 Turnišče, Slovenija","Country":"SVN","County":"Lendava","City":"Turnišče","District":"Turnišče","Street":"Travniška ulica","HouseNumber":"22","PostalCode":"9224","AdditionalData":[{"value":"Slovenija","key":"CountryName"},{"value":"Lendava","key":"CountyName"}]},"MapReference":{"ReferenceId":"980018658","Spot":0.38,"SideOfStreet":"left","CountryId":"20633685","CountyId":"20637171","CityId":"22689910","DistrictId":"22691606","AddressId":"406647452","RoadLinkId":"312919999"}}},{"Relevance":1.0,"Distance":140.0,"MatchLevel":"street","MatchQuality":{"Country":1.0,"County":1.0,"City":1.0,"District":1.0,"PostalCode":1.0},"Location":{"LocationId":"NT_qzf0jjbeAmRiRhxbQJ0NzB_l_1176223680_L","LocationType":"point","DisplayPosition":{"Latitude":46.6289341,"Longitude":16.3210953},"MapView":{"TopLeft":{"Latitude":46.63033,"Longitude":16.31897},"BottomRight":{"Latitude":46.62438,"Longitude":16.32753}},"Address":{"Label":"SI- 9224 Turnišče, Slovenija","Country":"SVN","County":"Lendava","City":"Turnišče","District":"Turnišče","PostalCode":"9224","AdditionalData":[{"value":"Slovenija","key":"CountryName"},{"value":"Lendava","key":"CountyName"}]},"MapReference":{"ReferenceId":"1176223680","Spot":0.76,"SideOfStreet":"left","CountryId":"20633685","CountyId":"20637171","CityId":"22689910","DistrictId":"22691606"}}},{"Relevance":1.0,"Distance":154.4,"MatchLevel":"street","MatchQuality":{"Country":1.0,"County":1.0,"City":1.0,"District":1.0,"Street":[1.0],"PostalCode":1.0},"Location":{"LocationId":"NT_iYYHW-VndLkVYFWJYrPrGA_l_980018659_R","LocationType":"point","DisplayPosition":{"Latitude":46.62656,"Longitude":16.31939},"MapView":{"TopLeft":{"Latitude":46.62656,"Longitude":16.31893},"BottomRight":{"Latitude":46.62569,"Longitude":16.31939}},"Address":{"Label":"Travniška ulica, SI- 9224 Turnišče, Slovenija","Country":"SVN","County":"Lendava","City":"Turnišče","District":"Turnišče","Street":"Travniška ulica","PostalCode":"9224","AdditionalData":[{"value":"Slovenija","key":"CountryName"},{"value":"Lendava","key":"CountyName"}]},"MapReference":{"ReferenceId":"980018659","Spot":1.0,"SideOfStreet":"right","CountryId":"20633685","CountyId":"20637171","CityId":"22689910","DistrictId":"22691606"}}},{"Relevance":1.0,"Distance":223.9,"MatchLevel":"houseNumber","MatchQuality":{"Country":1.0,"County":1.0,"City":1.0,"District":1.0,"Street":[1.0],"HouseNumber":1.0,"PostalCode":1.0},"MatchType":"interpolated","Location":{"LocationId":"NT_iYYHW-VndLkVYFWJYrPrGA_xID","LocationType":"point","DisplayPosition":{"Latitude":46.62848,"Longitude":16.31754},"MapView":{"TopLeft":{"Latitude":46.6296042,"Longitude":16.315903},"BottomRight":{"Latitude":46.6273558,"Longitude":16.319177}},"Address":{"Label":"Travniška ulica 12, SI- 9224 Turnišče, Slovenija","Country":"SVN","County":"Lendava","City":"Turnišče","District":"Turnišče","Street":"Travniška ulica","HouseNumber":"12","PostalCode":"9224","AdditionalData":[{"value":"Slovenija","key":"CountryName"},{"value":"Lendava","key":"CountyName"}]},"MapReference":{"ReferenceId":"1058725699","Spot":0.63,"SideOfStreet":"left","CountryId":"20633685","CountyId":"20637171","CityId":"22689910","DistrictId":"22691606","AddressId":"406930934","RoadLinkId":"381576705"}}},{"Relevance":1.0,"Distance":248.1,"MatchLevel":"houseNumber","MatchQuality":{"Country":1.0,"County":1.0,"City":1.0,"District":1.0,"Street":[1.0],"HouseNumber":1.0,"PostalCode":1.0},"MatchType":"interpolated","Location":{"LocationId":"NT_-3hsGrVr2XNGvG3UZEQaBC_ycD","LocationType":"point","DisplayPosition":{"Latitude":46.62572,"Longitude":16.31868},"MapView":{"TopLeft":{"Latitude":46.6268442,"Longitude":16.3170431},"BottomRight":{"Latitude":46.6245958,"Longitude":16.3203169}},"Address":{"Label":"Mladinska ulica 27, SI- 9224 Turnišče, Slovenija","Country":"SVN","County":"Lendava","City":"Turnišče","District":"Turnišče","Street":"Mladinska ulica","HouseNumber":"27","PostalCode":"9224","AdditionalData":[{"value":"Slovenija","key":"CountryName"},{"value":"Lendava","key":"CountyName"}]},"MapReference":{"ReferenceId":"1076144684","Spot":0.07,"SideOfStreet":"right","CountryId":"20633685","CountyId":"20637171","CityId":"22689910","DistrictId":"22691606","AddressId":"406497692","RoadLinkId":"396239793"}}},{"Relevance":1.0,"Distance":251.0,"MatchLevel":"street","MatchQuality":{"Country":1.0,"County":1.0,"City":1.0,"District":1.0,"Street":[1.0],"PostalCode":1.0},"Location":{"LocationId":"NT_-3hsGrVr2XNGvG3UZEQaBC_l_1058723076_R","LocationType":"point","DisplayPosition":{"Latitude":46.62557,"Longitude":16.31979},"MapView":{"TopLeft":{"Latitude":46.62568,"Longitude":16.31904},"BottomRight":{"Latitude":46.62547,"Longitude":16.32014}},"Address":{"Label":"Mladinska ulica, SI- 9224 Turnišče, Slovenija","Country":"SVN","County":"Lendava","City":"Turnišče","District":"Turnišče","Street":"Mladinska ulica","PostalCode":"9224","AdditionalData":[{"value":"Slovenija","key":"CountryName"},{"value":"Lendava","key":"CountyName"}]},"MapReference":{"ReferenceId":"1058723076","Spot":0.32,"SideOfStreet":"right","CountryId":"20633685","CountyId":"20637171","CityId":"22689910","DistrictId":"22691606"}}},{"Relevance":1.0,"Distance":252.1,"MatchLevel":"houseNumber","MatchQuality":{"Country":1.0,"County":1.0,"City":1.0,"District":1.0,"Street":[1.0],"HouseNumber":1.0,"PostalCode":1.0},"MatchType":"interpolated","Location":{"LocationId":"NT_iYYHW-VndLkVYFWJYrPrGA_xAD","LocationType":"point","DisplayPosition":{"Latitude":46.62856,"Longitude":16.31719},"MapView":{"TopLeft":{"Latitude":46.6296842,"Longitude":16.315553},"BottomRight":{"Latitude":46.6274358,"Longitude":16.318827}},"Address":{"Label":"Travniška ulica 10, SI- 9224 Turnišče, Slovenija","Country":"SVN","County":"Lendava","City":"Turnišče","District":"Turnišče","Street":"Travniška ulica","HouseNumber":"10","PostalCode":"9224","AdditionalData":[{"value":"Slovenija","key":"CountryName"},{"value":"Lendava","key":"CountyName"}]},"MapReference":{"ReferenceId":"1058725700","Spot":0.04,"SideOfStreet":"left","CountryId":"20633685","CountyId":"20637171","CityId":"22689910","DistrictId":"22691606","AddressId":"406930933","RoadLinkId":"381576706"}}},{"Relevance":1.0,"Distance":254.6,"MatchLevel":"street","MatchQuality":{"Country":1.0,"County":1.0,"City":1.0,"District":1.0,"Street":[1.0],"PostalCode":1.0},"Location":{"LocationId":"NT_-3hsGrVr2XNGvG3UZEQaBC_l_1076144683_R","LocationType":"point","DisplayPosition":{"Latitude":46.62568,"Longitude":16.31904},"MapView":{"TopLeft":{"Latitude":46.62569,"Longitude":16.31893},"BottomRight":{"Latitude":46.62568,"Longitude":16.31904}},"Address":{"Label":"Mladinska ulica, SI- 9224 Turnišče, Slovenija","Country":"SVN","County":"Lendava","City":"Turnišče","District":"Turnišče","Street":"Mladinska ulica","PostalCode":"9224","AdditionalData":[{"value":"Slovenija","key":"CountryName"},{"value":"Lendava","key":"CountyName"}]},"MapReference":{"ReferenceId":"1076144683","Spot":0.0,"SideOfStreet":"right","CountryId":"20633685","CountyId":"20637171","CityId":"22689910","DistrictId":"22691606"}}},{"Relevance":1.0,"Distance":259.4,"MatchLevel":"street","MatchQuality":{"Country":1.0,"County":1.0,"City":1.0,"District":1.0,"Street":[1.0],"PostalCode":1.0},"Location":{"LocationId":"NT_z1stM...q9ebDqhoS0kUzC_l_1058723075_R","LocationType":"point","DisplayPosition":{"Latitude":46.62547,"Longitude":16.32014},"MapView":{"TopLeft":{"Latitude":46.62547,"Longitude":16.32014},"BottomRight":{"Latitude":46.62512,"Longitude":16.32101}},"Address":{"Label":"Ulica Štefana Raja, SI- 9224 Turnišče, Slovenija","Country":"SVN","County":"Lendava","City":"Turnišče","District":"Turnišče","Street":"Ulica Štefana Raja","PostalCode":"9224","AdditionalData":[{"value":"Slovenija","key":"CountryName"},{"value":"Lendava","key":"CountyName"}]},"MapReference":{"ReferenceId":"1058723075","Spot":1.0,"SideOfStreet":"right","CountryId":"20633685","CountyId":"20637171","CityId":"22689910","DistrictId":"22691606"}}}]}]}}