{"Response":{"MetaInfo":{"Timestamp":"2020-03-28T11:07:28.850+0000","NextPageInformation":"2"},"View":[{"_type":"SearchResultsViewType","ViewId":0,"Result":[{"Relevance":1.0,"Distance":0.0,"Direction":0.0,"MatchLevel":"district","MatchQuality":{"Country":1.0,"State":1.0,"County":1.0,"City":1.0,"District":1.0,"PostalCode":1.0},"Location":{"LocationId":"NT_4HbPKh7JxXkFsIA99TPOVA","LocationType":"point","DisplayPosition":{"Latitude":46.6444648,"Longitude":-1.4260234},"MapView":{"TopLeft":{"Latitude":46.65832,"Longitude":-1.44516},"BottomRight":{"Latitude":46.63134,"Longitude":-1.40586}},"Address":{"Label":"La Grimaudière, La Roche-sur-Yon, Pays de la Loire, France","Country":"FRA","State":"Pays de la Loire","County":"Vendée","City":"La Roche-sur-Yon","District":"La Grimaudière","PostalCode":"85000","AdditionalData":[{"value":"France","key":"CountryName"},{"value":"Pays de la Loire","key":"StateName"},{"value":"Vendée","key":"CountyName"}]},"MapReference":{"ReferenceId":"545523313","SideOfStreet":"neither","CountryId":"20000001","StateId":"20068992","CountyId":"20080973","CityId":"20081515"}}},{"Relevance":1.0,"Distance":9.4,"MatchLevel":"street","MatchQuality":{"Country":1.0,"State":1.0,"County":1.0,"City":1.0,"Street":[1.0],"PostalCode":1.0},"Location":{"LocationId":"NT_WWORjMm7a.pxLM1ayrt0gC_l_557998409_L","LocationType":"point","DisplayPosition":{"Latitude":46.64438,"Longitude":-1.42603},"MapView":{"TopLeft":{"Latitude":46.64438,"Longitude":-1.42681},"BottomRight":{"Latitude":46.64396,"Longitude":-1.42603}},"Address":{"Label":"Chemin des Alisiers, 85000 La Roche-sur-Yon, France","Country":"FRA","State":"Pays de la Loire","County":"Vendée","City":"La Roche-sur-Yon","Street":"Chemin des Alisiers","PostalCode":"85000","AdditionalData":[{"value":"France","key":"CountryName"},{"value":"Pays de la Loire","key":"StateName"},{"value":"Vendée","key":"CountyName"}]},"MapReference":{"ReferenceId":"557998409","Spot":1.0,"SideOfStreet":"left","CountryId":"20000001","StateId":"20068992","CountyId":"20080973","CityId":"20081515"}}},{"Relevance":1.0,"Distance":10.1,"MatchLevel":"houseNumber","MatchQuality":{"Country":1.0,"State":1.0,"County":1.0,"City":1.0,"Street":[1.0],"HouseNumber":1.0,"PostalCode":1.0},"MatchType":"interpolated","Location":{"LocationId":"NT_O0.FGLS6GqngAElI39F0ZD_xYTN","LocationType":"point","DisplayPosition":{"Latitude":46.64436,"Longitude":-1.42594},"MapView":{"TopLeft":{"Latitude":46.6454842,"Longitude":-1.4275775},"BottomRight":{"Latitude":46.6432358,"Longitude":-1.4243025}},"Address":{"Label":"165 Rue Georges Mazurelle, 85000 La Roche-sur-Yon, France","Country":"FRA","State":"Pays de la Loire","County":"Vendée","City":"La Roche-sur-Yon","Street":"Rue Georges Mazurelle","HouseNumber":"165","PostalCode":"85000","AdditionalData":[{"value":"France","key":"CountryName"},{"value":"Pays de la Loire","key":"StateName"},{"value":"Vendée","key":"CountyName"}]},"MapReference":{"ReferenceId":"929429397","Spot":0.65,"SideOfStreet":"right","CountryId":"20000001","StateId":"20068992","CountyId":"20080973","CityId":"20081515","AddressId":"371639885","RoadLinkId":"283658454"}}},{"Relevance":1.0,"Distance":10.6,"MatchLevel":"houseNumber","MatchQuality":{"Country":1.0,"State":1.0,"County":1.0,"City":1.0,"Street":[1.0],"HouseNumber":1.0,"PostalCode":1.0},"MatchType":"interpolated","Location":{"LocationId":"NT_O0.FGLS6GqngAElI39F0ZD_xUTN","LocationType":"point","DisplayPosition":{"Latitude":46.64439,"Longitude":-1.42611},"MapView":{"TopLeft":{"Latitude":46.6455142,"Longitude":-1.4277475},"BottomRight":{"Latitude":46.6432658,"Longitude":-1.4244725}},"Address":{"Label":"155 Rue Georges Mazurelle, 85000 La Roche-sur-Yon, France","Country":"FRA","State":"Pays de la Loire","County":"Vendée","City":"La Roche-sur-Yon","Street":"Rue Georges Mazurelle","HouseNumber":"155","PostalCode":"85000","AdditionalData":[{"value":"France","key":"CountryName"},{"value":"Pays de la Loire","key":"StateName"},{"value":"Vendée","key":"CountyName"}]},"MapReference":{"ReferenceId":"545523314","Spot":0.03,"SideOfStreet":"right","CountryId":"20000001","StateId":"20068992","CountyId":"20080973","CityId":"20081515","AddressId":"323307282","RoadLinkId":"46376516"}}},{"Relevance":1.0,"Distance":46.5,"MatchLevel":"houseNumber","MatchQuality":{"Country":1.0,"State":1.0,"County":1.0,"City":1.0,"Street":[1.0],"HouseNumber":1.0,"PostalCode":1.0},"MatchType":"interpolated","Location":{"LocationId":"NT_O0.FGLS6GqngAElI39F0ZD_xUzN","LocationType":"point","DisplayPosition":{"Latitude":46.64475,"Longitude":-1.42557},"MapView":{"TopLeft":{"Latitude":46.6458742,"Longitude":-1.4272075},"BottomRight":{"Latitude":46.6436258,"Longitude":-1.4239325}},"Address":{"Label":"157 Rue Georges Mazurelle, 85000 La Roche-sur-Yon, France","Country":"FRA","State":"Pays de la Loire","County":"Vendée","City":"La Roche-sur-Yon","Street":"Rue Georges Mazurelle","HouseNumber":"157","PostalCode":"85000","AdditionalData":[{"value":"France","key":"CountryName"},{"value":"Pays de la Loire","key":"StateName"},{"value":"Vendée","key":"CountyName"}]},"MapReference":{"ReferenceId":"545523313","Spot":0.41,"SideOfStreet":"left","CountryId":"20000001","StateId":"20068992","CountyId":"20080973","CityId":"20081515","AddressId":"572889393","RoadLinkId":"47775691"}}},{"Relevance":1.0,"Distance":49.3,"MatchLevel":"houseNumber","MatchQuality":{"Country":1.0,"State":1.0,"County":1.0,"City":1.0,"Street":[1.0],"HouseNumber":1.0,"PostalCode":1.0},"MatchType":"interpolated","Location":{"LocationId":"NT_O0.FGLS6GqngAElI39F0ZD_xczM","LocationType":"point","DisplayPosition":{"Latitude":46.64426,"Longitude":-1.42545},"MapView":{"TopLeft":{"Latitude":46.6453842,"Longitude":-1.4270874},"BottomRight":{"Latitude":46.6431358,"Longitude":-1.4238126}},"Address":{"Label":"173 Rue Georges Mazurelle, 85000 La Roche-sur-Yon, France","Country":"FRA","State":"Pays de la Loire","County":"Vendée","City":"La Roche-sur-Yon","Street":"Rue Georges Mazurelle","HouseNumber":"173","PostalCode":"85000","AdditionalData":[{"value":"France","key":"CountryName"},{"value":"Pays de la Loire","key":"StateName"},{"value":"Vendée","key":"CountyName"}]},"MapReference":{"ReferenceId":"929429396","Spot":0.71,"SideOfStreet":"right","CountryId":"20000001","StateId":"20068992","CountyId":"20080973","CityId":"20081515","AddressId":"323502751","RoadLinkId":"283658453"}}},{"Relevance":1.0,"Distance":82.2,"MatchLevel":"street","MatchQuality":{"Country":1.0,"State":1.0,"County":1.0,"City":1.0,"Street":[1.0],"PostalCode":1.0},"Location":{"LocationId":"NT_WWORjMm7a.pxLM1ayrt0gC_l_557998408_L","LocationType":"point","DisplayPosition":{"Latitude":46.64396,"Longitude":-1.42681},"MapView":{"TopLeft":{"Latitude":46.64396,"Longitude":-1.42942},"BottomRight":{"Latitude":46.64253,"Longitude":-1.42681}},"Address":{"Label":"Chemin des Alisiers, 85000 La Roche-sur-Yon, France","Country":"FRA","State":"Pays de la Loire","County":"Vendée","City":"La Roche-sur-Yon","Street":"Chemin des Alisiers","PostalCode":"85000","AdditionalData":[{"value":"France","key":"CountryName"},{"value":"Pays de la Loire","key":"StateName"},{"value":"Vendée","key":"CountyName"}]},"MapReference":{"ReferenceId":"557998408","Spot":1.0,"SideOfStreet":"left","CountryId":"20000001","StateId":"20068992","CountyId":"20080973","CityId":"20081515"}}},{"Relevance":1.0,"Distance":91.6,"MatchLevel":"houseNumber","MatchQuality":{"Country":1.0,"State":1.0,"County":1.0,"City":1.0,"Street":[1.0],"HouseNumber":1.0,"PostalCode":1.0},"MatchType":"interpolated","Location":{"LocationId":"NT_QIoSE3PJdZkuYhUqaOxHeD_1A","LocationType":"point","DisplayPosition":{"Latitude":46.64373,"Longitude":-1.42665},"MapView":{"TopLeft":{"Latitude":46.6448542,"Longitude":-1.4282874},"BottomRight":{"Latitude":46.6426058,"Longitude":-1.4250126}},"Address":{"Label":"5 Rue du Cornouiller, 85000 La Roche-sur-Yon, France","Country":"FRA","State":"Pays de la Loire","County":"Vendée","City":"La Roche-sur-Yon","Street":"Rue du Cornouiller","HouseNumber":"5","PostalCode":"85000","AdditionalData":[{"value":"France","key":"CountryName"},{"value":"Pays de la Loire","key":"StateName"},{"value":"Vendée","key":"CountyName"}]},"MapReference":{"ReferenceId":"557998410","Spot":0.62,"SideOfStreet":"right","CountryId":"20000001","StateId":"20068992","CountyId":"20080973","CityId":"20081515","AddressId":"362928859","RoadLinkId":"46836741"}}},{"Relevance":1.0,"Distance":109.9,"MatchLevel":"street","MatchQuality":{"Country":1.0,"State":1.0,"County":1.0,"City":1.0,"Street":[1.0],"PostalCode":1.0},"Location":{"LocationId":"NT_gRgBCKAeRjGsKqR.Tu4Y6C_l_545523327_L","LocationType":"point","DisplayPosition":{"Latitude":46.64411,"Longitude":-1.42468},"MapView":{"TopLeft":{"Latitude":46.64411,"Longitude":-1.42468},"BottomRight":{"Latitude":46.6428,"Longitude":-1.42439}},"Address":{"Label":"Chemin de la Pairette, 85000 La Roche-sur-Yon, France","Country":"FRA","State":"Pays de la Loire","County":"Vendée","City":"La Roche-sur-Yon","Street":"Chemin de la Pairette","PostalCode":"85000","AdditionalData":[{"value":"France","key":"CountryName"},{"value":"Pays de la Loire","key":"StateName"},{"value":"Vendée","key":"CountyName"}]},"MapReference":{"ReferenceId":"545523327","Spot":1.0,"SideOfStreet":"left","CountryId":"20000001","StateId":"20068992","CountyId":"20080973","CityId":"20081515"}}},{"Relevance":1.0,"Distance":115.0,"MatchLevel":"landmark","MatchQuality":{"Country":1.0,"State":1.0,"County":1.0,"City":1.0,"Street":[1.0],"PostalCode":1.0,"Name":1.0},"Location":{"LocationId":"NT_q7pzDESWjmI2C7bgB.uOYA_p_aLWo-tNcZwVsDqDpktUCiB","LocationType":"park","Name":"Vallée de l'Yon","DisplayPosition":{"Latitude":46.64926,"Longitude":-1.42706},"MapView":{"TopLeft":{"Latitude":46.65512,"Longitude":-1.4288},"BottomRight":{"Latitude":46.64425,"Longitude":-1.42169}},"Address":{"Label":"Promenade Michel Brosselin, 85000 La Roche-sur-Yon, France","Country":"FRA","State":"Pays de la Loire","County":"Vendée","City":"La Roche-sur-Yon","Street":"Promenade Michel Brosselin","PostalCode":"85000","AdditionalData":[{"value":"France","key":"CountryName"},{"value":"Pays de la Loire","key":"StateName"},{"value":"Vendée","key":"CountyName"}]},"MapReference":{"CountryId":"20000001","StateId":"20068992","CountyId":"20080973","CityId":"20081515","PlaceId":"75563045"}}}]}]}}