{"Response":{"MetaInfo":{"Timestamp":"2020-03-28T11:46:53.883+0000","NextPageInformation":"2"},"View":[{"_type":"SearchResultsViewType","ViewId":0,"Result":[{"Relevance":1.0,"Distance":-1637.5,"MatchLevel":"landmark","MatchQuality":{"Country":1.0,"State":1.0,"Name":1.0},"Location":{"LocationId":"NT_iQdraAqtNq44H31n2X.gCB","LocationType":"park","Name":"P.N.R. de la Brenne","DisplayPosition":{"Latitude":46.66059,"Longitude":1.18717},"MapView":{"TopLeft":{"Latitude":46.94519,"Longitude":0.86748},"BottomRight":{"Latitude":46.37598,"Longitude":1.61529}},"Address":{"Label":"France","Country":"FRA","State":"Centre-Val de Loire","AdditionalData":[{"value":"France","key":"CountryName"},{"value":"Centre-Val de Loire","key":"StateName"}]},"MapReference":{"CountryId":"20000001","StateId":"20002113","PlaceId":"1509871597"}}},{"Relevance":1.0,"Distance":0.0,"Direction":0.0,"MatchLevel":"city","MatchQuality":{"Country":1.0,"State":1.0,"County":1.0,"City":1.0,"PostalCode":1.0},"Location":{"LocationId":"NT_Q2wQs6K-hPf3eqswNTZAxD","LocationType":"point","DisplayPosition":{"Latitude":46.634681,"Longitude":1.419896},"MapView":{"TopLeft":{"Latitude":46.6695,"Longitude":1.4055},"BottomRight":{"Latitude":46.62822,"Longitude":1.45594}},"Address":{"Label":"Saint-Gaultier, Centre-Val de Loire, France","Country":"FRA","State":"Centre-Val de Loire","County":"Indre","City":"Saint-Gaultier","PostalCode":"36800","AdditionalData":[{"value":"France","key":"CountryName"},{"value":"Centre-Val de Loire","key":"StateName"},{"value":"Indre","key":"CountyName"}]},"MapReference":{"ReferenceId":"799910509","SideOfStreet":"neither","CountryId":"20000001","StateId":"20002113","CountyId":"20066515","CityId":"20067091"}}},{"Relevance":1.0,"Distance":4.3,"MatchLevel":"houseNumber","MatchQuality":{"Country":1.0,"State":1.0,"County":1.0,"City":1.0,"Street":[1.0],"HouseNumber":1.0,"PostalCode":1.0},"MatchType":"interpolated","Location":{"LocationId":"NT_S6Dti3nc1oU3P4HiGTNe4B_5kD","LocationType":"point","DisplayPosition":{"Latitude":46.63471,"Longitude":1.41982},"MapView":{"TopLeft":{"Latitude":46.6358342,"Longitude":1.4181828},"BottomRight":{"Latitude":46.6335858,"Longitude":1.4214572}},"Address":{"Label":"99 Rue Grande, 36800 Saint-Gaultier, France","Country":"FRA","State":"Centre-Val de Loire","County":"Indre","City":"Saint-Gaultier","Street":"Rue Grande","HouseNumber":"99","PostalCode":"36800","AdditionalData":[{"value":"France","key":"CountryName"},{"value":"Centre-Val de Loire","key":"StateName"},{"value":"Indre","key":"CountyName"}]},"MapReference":{"ReferenceId":"579370201","Spot":0.41,"SideOfStreet":"right","CountryId":"20000001","StateId":"20002113","CountyId":"20066515","CityId":"20067091","AddressId":"344649683","RoadLinkId":"52873215"}}},{"Relevance":1.0,"Distance":11.9,"MatchLevel":"houseNumber","MatchQuality":{"Country":1.0,"State":1.0,"County":1.0,"City":1.0,"Street":[1.0],"HouseNumber":1.0,"PostalCode":1.0},"MatchType":"interpolated","Location":{"LocationId":"NT_wJ6WV5jIJxWjtPADF68e8A_zED","LocationType":"point","DisplayPosition":{"Latitude":46.6346,"Longitude":1.41969},"MapView":{"TopLeft":{"Latitude":46.6357242,"Longitude":1.4180528},"BottomRight":{"Latitude":46.6334758,"Longitude":1.4213272}},"Address":{"Label":"31 Place du Champ de Foire, 36800 Saint-Gaultier, France","Country":"FRA","State":"Centre-Val de Loire","County":"Indre","City":"Saint-Gaultier","Street":"Place du Champ de Foire","HouseNumber":"31","PostalCode":"36800","AdditionalData":[{"value":"France","key":"CountryName"},{"value":"Centre-Val de Loire","key":"StateName"},{"value":"Indre","key":"CountyName"}]},"MapReference":{"ReferenceId":"579370203","Spot":0.87,"SideOfStreet":"right","CountryId":"20000001","StateId":"20002113","CountyId":"20066515","CityId":"20067091","AddressId":"344649950","RoadLinkId":"53576724"}}},{"Relevance":1.0,"Distance":12.7,"MatchLevel":"houseNumber","MatchQuality":{"Country":1.0,"State":1.0,"County":1.0,"City":1.0,"Street":[1.0],"HouseNumber":1.0,"PostalCode":1.0},"MatchType":"interpolated","Location":{"LocationId":"NT_LnmrtN59CLVqEK37YdiYGB_zgD","LocationType":"point","DisplayPosition":{"Latitude":46.6347,"Longitude":1.42008},"MapView":{"TopLeft":{"Latitude":46.6358242,"Longitude":1.4184428},"BottomRight":{"Latitude":46.6335758,"Longitude":1.4217172}},"Address":{"Label":"38 Rue de l'Image, 36800 Saint-Gaultier, France","Country":"FRA","State":"Centre-Val de Loire","County":"Indre","City":"Saint-Gaultier","Street":"Rue de l'Image","HouseNumber":"38","PostalCode":"36800","AdditionalData":[{"value":"France","key":"CountryName"},{"value":"Centre-Val de Loire","key":"StateName"},{"value":"Indre","key":"CountyName"}]},"MapReference":{"ReferenceId":"552777042","Spot":0.88,"SideOfStreet":"left","CountryId":"20000001","StateId":"20002113","CountyId":"20066515","CityId":"20067091","AddressId":"344648449","RoadLinkId":"52693343"}}},{"Relevance":1.0,"Distance":23.6,"MatchLevel":"houseNumber","MatchQuality":{"Country":1.0,"State":1.0,"County":1.0,"City":1.0,"Street":[1.0],"HouseNumber":1.0,"PostalCode":1.0},"MatchType":"interpolated","Location":{"LocationId":"NT_wJ6WV5jIJxWjtPADF68e8A_zAD","LocationType":"point","DisplayPosition":{"Latitude":46.63465,"Longitude":1.41959},"MapView":{"TopLeft":{"Latitude":46.6357742,"Longitude":1.4179528},"BottomRight":{"Latitude":46.6335258,"Longitude":1.4212272}},"Address":{"Label":"30 Place du Champ de Foire, 36800 Saint-Gaultier, France","Country":"FRA","State":"Centre-Val de Loire","County":"Indre","City":"Saint-Gaultier","Street":"Place du Champ de Foire","HouseNumber":"30","PostalCode":"36800","AdditionalData":[{"value":"France","key":"CountryName"},{"value":"Centre-Val de Loire","key":"StateName"},{"value":"Indre","key":"CountyName"}]},"MapReference":{"ReferenceId":"579370200","Spot":0.95,"SideOfStreet":"left","CountryId":"20000001","StateId":"20002113","CountyId":"20066515","CityId":"20067091","AddressId":"344650125","RoadLinkId":"166862393"}}},{"Relevance":1.0,"Distance":27.8,"MatchLevel":"houseNumber","MatchQuality":{"Country":1.0,"State":1.0,"County":1.0,"City":1.0,"Street":[1.0],"HouseNumber":1.0,"PostalCode":1.0},"MatchType":"interpolated","Location":{"LocationId":"NT_S6Dti3nc1oU3P4HiGTNe4B_5UD","LocationType":"point","DisplayPosition":{"Latitude":46.63481,"Longitude":1.42022},"MapView":{"TopLeft":{"Latitude":46.6359342,"Longitude":1.4185828},"BottomRight":{"Latitude":46.6336858,"Longitude":1.4218572}},"Address":{"Label":"95 Rue Grande, 36800 Saint-Gaultier, France","Country":"FRA","State":"Centre-Val de Loire","County":"Indre","City":"Saint-Gaultier","Street":"Rue Grande","HouseNumber":"95","PostalCode":"36800","AdditionalData":[{"value":"France","key":"CountryName"},{"value":"Centre-Val de Loire","key":"StateName"},{"value":"Indre","key":"CountyName"}]},"MapReference":{"ReferenceId":"579370204","Spot":0.15,"SideOfStreet":"right","CountryId":"20000001","StateId":"20002113","CountyId":"20066515","CityId":"20067091","AddressId":"344635480","RoadLinkId":"53125499"}}},{"Relevance":1.0,"Distance":39.0,"MatchLevel":"houseNumber","MatchQuality":{"Country":1.0,"State":1.0,"County":1.0,"City":1.0,"Street":[1.0],"HouseNumber":1.0,"PostalCode":1.0},"MatchType":"interpolated","Location":{"LocationId":"NT_bEkLUGXr8pWQEnBmSg7pPD_yA","LocationType":"point","DisplayPosition":{"Latitude":46.63503,"Longitude":1.41996},"MapView":{"TopLeft":{"Latitude":46.6361542,"Longitude":1.4183228},"BottomRight":{"Latitude":46.6339058,"Longitude":1.4215972}},"Address":{"Label":"2 Rue Édouard Dreuillaux, 36800 Saint-Gaultier, France","Country":"FRA","State":"Centre-Val de Loire","County":"Indre","City":"Saint-Gaultier","Street":"Rue Édouard Dreuillaux","HouseNumber":"2","PostalCode":"36800","AdditionalData":[{"value":"France","key":"CountryName"},{"value":"Centre-Val de Loire","key":"StateName"},{"value":"Indre","key":"CountyName"}]},"MapReference":{"ReferenceId":"579370441","Spot":0.6,"SideOfStreet":"left","CountryId":"20000001","StateId":"20002113","CountyId":"20066515","CityId":"20067091","AddressId":"344643372","RoadLinkId":"53142492"}}},{"Relevance":1.0,"Distance":58.8,"MatchLevel":"houseNumber","MatchQuality":{"Country":1.0,"State":1.0,"County":1.0,"City":1.0,"Street":[1.0],"HouseNumber":1.0,"PostalCode":1.0},"MatchType":"interpolated","Location":{"LocationId":"NT_bEkLUGXr8pWQEnBmSg7pPD_0A","LocationType":"point","DisplayPosition":{"Latitude":46.63521,"Longitude":1.41991},"MapView":{"TopLeft":{"Latitude":46.6363342,"Longitude":1.4182728},"BottomRight":{"Latitude":46.6340858,"Longitude":1.4215472}},"Address":{"Label":"4 Rue Édouard Dreuillaux, 36800 Saint-Gaultier, France","Country":"FRA","State":"Centre-Val de Loire","County":"Indre","City":"Saint-Gaultier","Street":"Rue Édouard Dreuillaux","HouseNumber":"4","PostalCode":"36800","AdditionalData":[{"value":"France","key":"CountryName"},{"value":"Centre-Val de Loire","key":"StateName"},{"value":"Indre","key":"CountyName"}]},"MapReference":{"ReferenceId":"579370442","Spot":0.0,"SideOfStreet":"left","CountryId":"20000001","StateId":"20002113","CountyId":"20066515","CityId":"20067091","AddressId":"344637714","RoadLinkId":"53500010"}}},{"Relevance":1.0,"Distance":60.7,"MatchLevel":"street","MatchQuality":{"Country":1.0,"State":1.0,"County":1.0,"City":1.0,"Street":[1.0],"PostalCode":1.0},"Location":{"LocationId":"NT_nnSHqVJ4ppM3zdFY95ckyB_l_579370202_L","LocationType":"point","DisplayPosition":{"Latitude":46.6341358,"Longitude":1.4199281},"MapView":{"TopLeft":{"Latitude":46.63416,"Longitude":1.41983},"BottomRight":{"Latitude":46.63413,"Longitude":1.42016}},"Address":{"Label":"Rue de Limage, 36800 Saint-Gaultier, France","Country":"FRA","State":"Centre-Val de Loire","County":"Indre","City":"Saint-Gaultier","Street":"Rue de Limage","PostalCode":"36800","AdditionalData":[{"value":"France","key":"CountryName"},{"value":"Centre-Val de Loire","key":"StateName"},{"value":"Indre","key":"CountyName"}]},"MapReference":{"ReferenceId":"579370202","Spot":0.3,"SideOfStreet":"left","CountryId":"20000001","StateId":"20002113","CountyId":"20066515","CityId":"20067091"}}}]}]}}