{"Response":{"MetaInfo":{"Timestamp":"2020-03-28T11:49:08.729+0000","NextPageInformation":"2"},"View":[{"_type":"SearchResultsViewType","ViewId":0,"Result":[{"Relevance":1.0,"Distance":0.0,"Direction":0.0,"MatchLevel":"city","MatchQuality":{"Country":1.0,"State":1.0,"County":1.0,"City":1.0,"PostalCode":1.0},"Location":{"LocationId":"NT_3sHCihtgVvFtnr3FdpmwqB","LocationType":"point","DisplayPosition":{"Latitude":46.6470973,"Longitude":-0.2517054},"MapView":{"TopLeft":{"Latitude":46.66355,"Longitude":-0.27026},"BottomRight":{"Latitude":46.62813,"Longitude":-0.19991}},"Address":{"Label":"Parthenay, Nouvelle-Aquitaine, France","Country":"FRA","State":"Nouvelle-Aquitaine","County":"Deux-Sèvres","City":"Parthenay","PostalCode":"79200","AdditionalData":[{"value":"France","key":"CountryName"},{"value":"Nouvelle-Aquitaine","key":"StateName"},{"value":"Deux-Sèvres","key":"CountyName"}]},"MapReference":{"ReferenceId":"542809476","SideOfStreet":"neither","CountryId":"20000001","StateId":"20000383","CountyId":"20080046","CityId":"20080578"}}},{"Relevance":1.0,"Distance":8.9,"MatchLevel":"houseNumber","MatchQuality":{"Country":1.0,"State":1.0,"County":1.0,"City":1.0,"Street":[1.0],"HouseNumber":1.0,"PostalCode":1.0},"MatchType":"interpolated","Location":{"LocationId":"NT_vFTDZ9af3NW1pYqxt8RolA_l_546204217_L_1A","LocationType":"point","DisplayPosition":{"Latitude":46.6471967,"Longitude":-0.2515733},"MapView":{"TopLeft":{"Latitude":46.6483208,"Longitude":-0.2532109},"BottomRight":{"Latitude":46.6460725,"Longitude":-0.2499358}},"Address":{"Label":"5 Rue des Bancs, 79200 Parthenay, France","Country":"FRA","State":"Nouvelle-Aquitaine","County":"Deux-Sèvres","City":"Parthenay","Street":"Rue des Bancs","HouseNumber":"5","PostalCode":"79200","AdditionalData":[{"value":"France","key":"CountryName"},{"value":"Nouvelle-Aquitaine","key":"StateName"},{"value":"Deux-Sèvres","key":"CountyName"}]},"MapReference":{"ReferenceId":"546204217","Spot":0.51,"SideOfStreet":"left","CountryId":"20000001","StateId":"20000383","CountyId":"20080046","CityId":"20080578"}}},{"Relevance":1.0,"Distance":9.3,"MatchLevel":"houseNumber","MatchQuality":{"Country":1.0,"State":1.0,"County":1.0,"City":1.0,"Street":[1.0],"HouseNumber":1.0,"PostalCode":1.0},"MatchType":"interpolated","Location":{"LocationId":"NT_vFTDZ9af3NW1pYqxt8RolA_zA","LocationType":"point","DisplayPosition":{"Latitude":46.64722,"Longitude":-0.25179},"MapView":{"TopLeft":{"Latitude":46.6483442,"Longitude":-0.2534275},"BottomRight":{"Latitude":46.6460958,"Longitude":-0.2501525}},"Address":{"Label":"3 Rue des Bancs, 79200 Parthenay, France","Country":"FRA","State":"Nouvelle-Aquitaine","County":"Deux-Sèvres","City":"Parthenay","Street":"Rue des Bancs","HouseNumber":"3","PostalCode":"79200","AdditionalData":[{"value":"France","key":"CountryName"},{"value":"Nouvelle-Aquitaine","key":"StateName"},{"value":"Deux-Sèvres","key":"CountyName"}]},"MapReference":{"ReferenceId":"546204216","Spot":1.0,"SideOfStreet":"right","CountryId":"20000001","StateId":"20000383","CountyId":"20080046","CityId":"20080578","AddressId":"317848385","RoadLinkId":"46496599"}}},{"Relevance":1.0,"Distance":17.2,"MatchLevel":"houseNumber","MatchQuality":{"Country":1.0,"State":1.0,"County":1.0,"City":1.0,"Street":[1.0],"HouseNumber":1.0,"PostalCode":1.0},"MatchType":"interpolated","Location":{"LocationId":"NT_t2rlmHrwcN5t3aW5LzY9zB_5AD","LocationType":"point","DisplayPosition":{"Latitude":46.64701,"Longitude":-0.25152},"MapView":{"TopLeft":{"Latitude":46.6481342,"Longitude":-0.2531575},"BottomRight":{"Latitude":46.6458858,"Longitude":-0.2498825}},"Address":{"Label":"90 Rue Jean Jaurès, 79200 Parthenay, France","Country":"FRA","State":"Nouvelle-Aquitaine","County":"Deux-Sèvres","City":"Parthenay","Street":"Rue Jean Jaurès","HouseNumber":"90","PostalCode":"79200","AdditionalData":[{"value":"France","key":"CountryName"},{"value":"Nouvelle-Aquitaine","key":"StateName"},{"value":"Deux-Sèvres","key":"CountyName"}]},"MapReference":{"ReferenceId":"545555725","Spot":0.53,"SideOfStreet":"left","CountryId":"20000001","StateId":"20000383","CountyId":"20080046","CityId":"20080578","AddressId":"381530195","RoadLinkId":"47098574"}}},{"Relevance":1.0,"Distance":23.2,"MatchLevel":"houseNumber","MatchQuality":{"Country":1.0,"State":1.0,"County":1.0,"City":1.0,"Street":[1.0],"HouseNumber":1.0,"PostalCode":1.0},"MatchType":"interpolated","Location":{"LocationId":"NT_kUwfIRO7btjxLzIS7.URfC_yA","LocationType":"point","DisplayPosition":{"Latitude":46.64685,"Longitude":-0.25177},"MapView":{"TopLeft":{"Latitude":46.6479742,"Longitude":-0.2534075},"BottomRight":{"Latitude":46.6457258,"Longitude":-0.2501325}},"Address":{"Label":"2 Rue Gaston Niquet, 79200 Parthenay, France","Country":"FRA","State":"Nouvelle-Aquitaine","County":"Deux-Sèvres","City":"Parthenay","Street":"Rue Gaston Niquet","HouseNumber":"2","PostalCode":"79200","AdditionalData":[{"value":"France","key":"CountryName"},{"value":"Nouvelle-Aquitaine","key":"StateName"},{"value":"Deux-Sèvres","key":"CountyName"}]},"MapReference":{"ReferenceId":"545555731","Spot":0.09,"SideOfStreet":"right","CountryId":"20000001","StateId":"20000383","CountyId":"20080046","CityId":"20080578","AddressId":"345355773","RoadLinkId":"47207785"}}},{"Relevance":1.0,"Distance":24.5,"MatchLevel":"houseNumber","MatchQuality":{"Country":1.0,"State":1.0,"County":1.0,"City":1.0,"Street":[1.0],"HouseNumber":1.0,"PostalCode":1.0},"MatchType":"interpolated","Location":{"LocationId":"NT_oV6HWqGM.rCZn7yWcr0iBB_2kD","LocationType":"point","DisplayPosition":{"Latitude":46.64722,"Longitude":-0.25137},"MapView":{"TopLeft":{"Latitude":46.6483442,"Longitude":-0.2530075},"BottomRight":{"Latitude":46.6460958,"Longitude":-0.2497325}},"Address":{"Label":"69 Rue Louis Aguillon, 79200 Parthenay, France","Country":"FRA","State":"Nouvelle-Aquitaine","County":"Deux-Sèvres","City":"Parthenay","Street":"Rue Louis Aguillon","HouseNumber":"69","PostalCode":"79200","AdditionalData":[{"value":"France","key":"CountryName"},{"value":"Nouvelle-Aquitaine","key":"StateName"},{"value":"Deux-Sèvres","key":"CountyName"}]},"MapReference":{"ReferenceId":"545555786","Spot":0.05,"SideOfStreet":"left","CountryId":"20000001","StateId":"20000383","CountyId":"20080046","CityId":"20080578","AddressId":"371725261","RoadLinkId":"47904938"}}},{"Relevance":1.0,"Distance":29.0,"MatchLevel":"houseNumber","MatchQuality":{"Country":1.0,"State":1.0,"County":1.0,"City":1.0,"Street":[1.0],"HouseNumber":1.0,"PostalCode":1.0},"MatchType":"interpolated","Location":{"LocationId":"NT_oV6HWqGM.rCZn7yWcr0iBB_2cD","LocationType":"point","DisplayPosition":{"Latitude":46.64715,"Longitude":-0.25131},"MapView":{"TopLeft":{"Latitude":46.6482742,"Longitude":-0.2529475},"BottomRight":{"Latitude":46.6460258,"Longitude":-0.2496725}},"Address":{"Label":"67 Rue Louis Aguillon, 79200 Parthenay, France","Country":"FRA","State":"Nouvelle-Aquitaine","County":"Deux-Sèvres","City":"Parthenay","Street":"Rue Louis Aguillon","HouseNumber":"67","PostalCode":"79200","AdditionalData":[{"value":"France","key":"CountryName"},{"value":"Nouvelle-Aquitaine","key":"StateName"},{"value":"Deux-Sèvres","key":"CountyName"}]},"MapReference":{"ReferenceId":"545555824","Spot":0.72,"SideOfStreet":"left","CountryId":"20000001","StateId":"20000383","CountyId":"20080046","CityId":"20080578","AddressId":"318064744","RoadLinkId":"46992567"}}},{"Relevance":1.0,"Distance":32.0,"MatchLevel":"houseNumber","MatchQuality":{"Country":1.0,"State":1.0,"County":1.0,"City":1.0,"Street":[1.0],"HouseNumber":1.0,"PostalCode":1.0},"MatchType":"interpolated","Location":{"LocationId":"NT_t2rlmHrwcN5t3aW5LzY9zB_3UD","LocationType":"point","DisplayPosition":{"Latitude":46.64681,"Longitude":-0.25173},"MapView":{"TopLeft":{"Latitude":46.6479342,"Longitude":-0.2533675},"BottomRight":{"Latitude":46.6456858,"Longitude":-0.2500925}},"Address":{"Label":"75 Rue Jean Jaurès, 79200 Parthenay, France","Country":"FRA","State":"Nouvelle-Aquitaine","County":"Deux-Sèvres","City":"Parthenay","Street":"Rue Jean Jaurès","HouseNumber":"75","PostalCode":"79200","AdditionalData":[{"value":"France","key":"CountryName"},{"value":"Nouvelle-Aquitaine","key":"StateName"},{"value":"Deux-Sèvres","key":"CountyName"}]},"MapReference":{"ReferenceId":"545555795","Spot":0.92,"SideOfStreet":"right","CountryId":"20000001","StateId":"20000383","CountyId":"20080046","CityId":"20080578","AddressId":"318021649","RoadLinkId":"47227052"}}},{"Relevance":1.0,"Distance":36.0,"MatchLevel":"houseNumber","MatchQuality":{"Country":1.0,"State":1.0,"County":1.0,"City":1.0,"Street":[1.0],"HouseNumber":1.0,"PostalCode":1.0},"MatchType":"interpolated","Location":{"LocationId":"NT_t2rlmHrwcN5t3aW5LzY9zB_4QD","LocationType":"point","DisplayPosition":{"Latitude":46.64724,"Longitude":-0.25127},"MapView":{"TopLeft":{"Latitude":46.6483642,"Longitude":-0.2529075},"BottomRight":{"Latitude":46.6461158,"Longitude":-0.2496325}},"Address":{"Label":"84 Rue Jean Jaurès, 79200 Parthenay, France","Country":"FRA","State":"Nouvelle-Aquitaine","County":"Deux-Sèvres","City":"Parthenay","Street":"Rue Jean Jaurès","HouseNumber":"84","PostalCode":"79200","AdditionalData":[{"value":"France","key":"CountryName"},{"value":"Nouvelle-Aquitaine","key":"StateName"},{"value":"Deux-Sèvres","key":"CountyName"}]},"MapReference":{"ReferenceId":"545555779","Spot":0.56,"SideOfStreet":"left","CountryId":"20000001","StateId":"20000383","CountyId":"20080046","CityId":"20080578","AddressId":"381570822","RoadLinkId":"46852737"}}},{"Relevance":1.0,"Distance":47.1,"MatchLevel":"houseNumber","MatchQuality":{"Country":1.0,"State":1.0,"County":1.0,"City":1.0,"Street":[1.0],"HouseNumber":1.0,"PostalCode":1.0},"MatchType":"interpolated","Location":{"LocationId":"NT_lsgQ3D1edNaf5o.en0Zz8C_yA","LocationType":"point","DisplayPosition":{"Latitude":46.64713,"Longitude":-0.25109},"MapView":{"TopLeft":{"Latitude":46.6482542,"Longitude":-0.2527275},"BottomRight":{"Latitude":46.6460058,"Longitude":-0.2494525}},"Address":{"Label":"2 Place des Bancs, 79200 Parthenay, France","Country":"FRA","State":"Nouvelle-Aquitaine","County":"Deux-Sèvres","City":"Parthenay","Street":"Place des Bancs","HouseNumber":"2","PostalCode":"79200","AdditionalData":[{"value":"France","key":"CountryName"},{"value":"Nouvelle-Aquitaine","key":"StateName"},{"value":"Deux-Sèvres","key":"CountyName"}]},"MapReference":{"ReferenceId":"545555817","Spot":0.64,"SideOfStreet":"right","CountryId":"20000001","StateId":"20000383","CountyId":"20080046","CityId":"20080578","AddressId":"318026363","RoadLinkId":"46974318"}}}]}]}}