{"Response":{"MetaInfo":{"Timestamp":"2020-03-31T17:05:56.599+0000","NextPageInformation":"2"},"View":[{"_type":"SearchResultsViewType","ViewId":0,"Result":[{"Relevance":1.0,"Distance":0.0,"Direction":0.0,"MatchLevel":"city","MatchQuality":{"Country":1.0,"County":1.0,"City":1.0,"PostalCode":1.0},"Location":{"LocationId":"NT_1NBiiG9p9ylFaA5-thSZZA","LocationType":"point","DisplayPosition":{"Latitude":46.6028,"Longitude":15.1075},"MapView":{"TopLeft":{"Latitude":46.65232,"Longitude":14.92039},"BottomRight":{"Latitude":46.53048,"Longitude":15.12779}},"Address":{"Label":"Dravograd, Slovenija","Country":"SVN","County":"Dravograd","City":"Dravograd","PostalCode":"2370","AdditionalData":[{"value":"Slovenija","key":"CountryName"},{"value":"Dravograd","key":"CountyName"}]},"MapReference":{"ReferenceId":"1198406153","SideOfStreet":"neither","CountryId":"20633685","CountyId":"20635699","CityId":"20635700"}}},{"Relevance":1.0,"Distance":25.3,"MatchLevel":"houseNumber","MatchQuality":{"Country":1.0,"County":1.0,"City":1.0,"District":1.0,"Street":[1.0],"HouseNumber":1.0,"PostalCode":1.0},"MatchType":"interpolated","Location":{"LocationId":"NT_se1QllFu8WAJdKXSx9G3uA_1cD","LocationType":"point","DisplayPosition":{"Latitude":46.60269,"Longitude":15.10721},"MapView":{"TopLeft":{"Latitude":46.6038142,"Longitude":15.1055738},"BottomRight":{"Latitude":46.6015658,"Longitude":15.1088462}},"Address":{"Label":"Trbonje 57, SI- 2371 Dravograd, Slovenija","Country":"SVN","County":"Dravograd","City":"Dravograd","District":"Trbonje","Street":"Trbonje","HouseNumber":"57","PostalCode":"2371","AdditionalData":[{"value":"Slovenija","key":"CountryName"},{"value":"Dravograd","key":"CountyName"}]},"MapReference":{"ReferenceId":"1176736328","Spot":0.95,"SideOfStreet":"left","CountryId":"20633685","CountyId":"20635699","CityId":"20635700","DistrictId":"22693662","AddressId":"406947069","RoadLinkId":"484420397"}}},{"Relevance":1.0,"Distance":72.0,"MatchLevel":"street","MatchQuality":{"Country":1.0,"County":1.0,"City":1.0,"District":1.0,"Street":[1.0],"PostalCode":1.0},"Location":{"LocationId":"NT_se1QllFu8WAJdKXSx9G3uA_l_1176736329_R","LocationType":"point","DisplayPosition":{"Latitude":46.60294,"Longitude":15.10658},"MapView":{"TopLeft":{"Latitude":46.60343,"Longitude":15.10551},"BottomRight":{"Latitude":46.60294,"Longitude":15.10658}},"Address":{"Label":"Trbonje, SI- 2371 Dravograd, Slovenija","Country":"SVN","County":"Dravograd","City":"Dravograd","District":"Trbonje","Street":"Trbonje","PostalCode":"2371","AdditionalData":[{"value":"Slovenija","key":"CountryName"},{"value":"Dravograd","key":"CountyName"}]},"MapReference":{"ReferenceId":"1176736329","Spot":0.0,"SideOfStreet":"right","CountryId":"20633685","CountyId":"20635699","CityId":"20635700","DistrictId":"22693662"}}},{"Relevance":1.0,"Distance":106.8,"MatchLevel":"houseNumber","MatchQuality":{"Country":1.0,"County":1.0,"City":1.0,"District":1.0,"Street":[1.0],"HouseNumber":1.0,"PostalCode":1.0},"MatchType":"interpolated","Location":{"LocationId":"NT_se1QllFu8WAJdKXSx9G3uA_1A","LocationType":"point","DisplayPosition":{"Latitude":46.60291,"Longitude":15.1061},"MapView":{"TopLeft":{"Latitude":46.6040342,"Longitude":15.1044638},"BottomRight":{"Latitude":46.6017858,"Longitude":15.1077362}},"Address":{"Label":"Trbonje 5, SI- 2371 Dravograd, Slovenija","Country":"SVN","County":"Dravograd","City":"Dravograd","District":"Trbonje","Street":"Trbonje","HouseNumber":"5","PostalCode":"2371","AdditionalData":[{"value":"Slovenija","key":"CountryName"},{"value":"Dravograd","key":"CountyName"}]},"MapReference":{"ReferenceId":"710545313","Spot":0.45,"SideOfStreet":"left","CountryId":"20633685","CountyId":"20635699","CityId":"20635700","DistrictId":"22693662","AddressId":"406797389","RoadLinkId":"115726399"}}},{"Relevance":1.0,"Distance":111.6,"MatchLevel":"houseNumber","MatchQuality":{"Country":1.0,"County":1.0,"City":1.0,"District":1.0,"Street":[1.0],"HouseNumber":1.0,"PostalCode":1.0},"MatchType":"interpolated","Location":{"LocationId":"NT_Xne7Dw5PrLEMRXd1WhQihB_xMD","LocationType":"point","DisplayPosition":{"Latitude":46.60245,"Longitude":15.10573},"MapView":{"TopLeft":{"Latitude":46.6035742,"Longitude":15.1040938},"BottomRight":{"Latitude":46.6013258,"Longitude":15.1073662}},"Address":{"Label":"702 13, SI- 2371 Dravograd, Slovenija","Country":"SVN","County":"Dravograd","City":"Dravograd","District":"Trbonje","Street":"702","HouseNumber":"13","PostalCode":"2371","AdditionalData":[{"value":"Slovenija","key":"CountryName"},{"value":"Dravograd","key":"CountyName"}]},"MapReference":{"ReferenceId":"974841059","Spot":0.42,"SideOfStreet":"right","CountryId":"20633685","CountyId":"20635699","CityId":"20635700","DistrictId":"22693662","AddressId":"406691345","RoadLinkId":"310389295"}}},{"Relevance":1.0,"Distance":126.3,"MatchLevel":"houseNumber","MatchQuality":{"Country":1.0,"County":1.0,"City":1.0,"District":1.0,"Street":[1.0],"HouseNumber":1.0,"PostalCode":1.0},"MatchType":"interpolated","Location":{"LocationId":"NT_Xne7Dw5PrLEMRXd1WhQihB_0A","LocationType":"point","DisplayPosition":{"Latitude":46.60359,"Longitude":15.10579},"MapView":{"TopLeft":{"Latitude":46.6047142,"Longitude":15.1041538},"BottomRight":{"Latitude":46.6024658,"Longitude":15.1074262}},"Address":{"Label":"702 4, SI- 2371 Dravograd, Slovenija","Country":"SVN","County":"Dravograd","City":"Dravograd","District":"Trbonje","Street":"702","HouseNumber":"4","PostalCode":"2371","AdditionalData":[{"value":"Slovenija","key":"CountryName"},{"value":"Dravograd","key":"CountyName"}]},"MapReference":{"ReferenceId":"1176736331","Spot":0.73,"SideOfStreet":"right","CountryId":"20633685","CountyId":"20635699","CityId":"20635700","DistrictId":"22693662","AddressId":"406712996","RoadLinkId":"484420402"}}},{"Relevance":1.0,"Distance":158.9,"MatchLevel":"houseNumber","MatchQuality":{"Country":1.0,"County":1.0,"City":1.0,"District":1.0,"Street":[1.0],"HouseNumber":1.0,"PostalCode":1.0},"MatchType":"interpolated","Location":{"LocationId":"NT_Xne7Dw5PrLEMRXd1WhQihB_2A","LocationType":"point","DisplayPosition":{"Latitude":46.60307,"Longitude":15.10537},"MapView":{"TopLeft":{"Latitude":46.6041942,"Longitude":15.1037338},"BottomRight":{"Latitude":46.6019458,"Longitude":15.1070062}},"Address":{"Label":"702 6, SI- 2371 Dravograd, Slovenija","Country":"SVN","County":"Dravograd","City":"Dravograd","District":"Trbonje","Street":"702","HouseNumber":"6","PostalCode":"2371","AdditionalData":[{"value":"Slovenija","key":"CountryName"},{"value":"Dravograd","key":"CountyName"}]},"MapReference":{"ReferenceId":"710506663","Spot":0.51,"SideOfStreet":"right","CountryId":"20633685","CountyId":"20635699","CityId":"20635700","DistrictId":"22693662","AddressId":"406973107","RoadLinkId":"115718362"}}},{"Relevance":1.0,"Distance":162.9,"MatchLevel":"houseNumber","MatchQuality":{"Country":1.0,"County":1.0,"City":1.0,"District":1.0,"Street":[1.0],"HouseNumber":1.0,"PostalCode":1.0},"MatchType":"interpolated","Location":{"LocationId":"NT_Xne7Dw5PrLEMRXd1WhQihB_0YD","LocationType":"point","DisplayPosition":{"Latitude":46.60437,"Longitude":15.10671},"MapView":{"TopLeft":{"Latitude":46.6054942,"Longitude":15.1050738},"BottomRight":{"Latitude":46.6032458,"Longitude":15.1083462}},"Address":{"Label":"702 46, SI- 2371 Dravograd, Slovenija","Country":"SVN","County":"Dravograd","City":"Dravograd","District":"Trbonje","Street":"702","HouseNumber":"46","PostalCode":"2371","AdditionalData":[{"value":"Slovenija","key":"CountryName"},{"value":"Dravograd","key":"CountyName"}]},"MapReference":{"ReferenceId":"1169404777","Spot":0.15,"SideOfStreet":"right","CountryId":"20633685","CountyId":"20635699","CityId":"20635700","DistrictId":"22693662","AddressId":"406863068","RoadLinkId":"476171677"}}},{"Relevance":1.0,"Distance":163.9,"MatchLevel":"street","MatchQuality":{"Country":1.0,"County":1.0,"City":1.0,"District":1.0,"Street":[1.0],"PostalCode":1.0},"Location":{"LocationId":"NT_8d4bSGWsRNX91EeRpQ6.oB_l_1169404775_R","LocationType":"point","DisplayPosition":{"Latitude":46.604015,"Longitude":15.106285},"MapView":{"TopLeft":{"Latitude":46.60403,"Longitude":15.10589},"BottomRight":{"Latitude":46.60365,"Longitude":15.1063}},"Address":{"Label":"702, SI- 2371 Dravograd, Slovenija","Country":"SVN","County":"Dravograd","City":"Dravograd","District":"Trbonje","Street":"702","PostalCode":"2371","AdditionalData":[{"value":"Slovenija","key":"CountryName"},{"value":"Dravograd","key":"CountyName"}]},"MapReference":{"ReferenceId":"1169404775","Spot":0.96,"SideOfStreet":"right","CountryId":"20633685","CountyId":"20635699","CityId":"20635700","DistrictId":"22693662"}}},{"Relevance":1.0,"Distance":164.7,"MatchLevel":"street","MatchQuality":{"Country":1.0,"County":1.0,"City":1.0,"District":1.0,"Street":[1.0],"PostalCode":1.0},"Location":{"LocationId":"NT_Xne7Dw5PrLEMRXd1WhQihB_l_1169404776_R","LocationType":"point","DisplayPosition":{"Latitude":46.60403,"Longitude":15.1063},"MapView":{"TopLeft":{"Latitude":46.60429,"Longitude":15.1063},"BottomRight":{"Latitude":46.60403,"Longitude":15.10657}},"Address":{"Label":"702, SI- 2371 Dravograd, Slovenija","Country":"SVN","County":"Dravograd","City":"Dravograd","District":"Trbonje","Street":"702","PostalCode":"2371","AdditionalData":[{"value":"Slovenija","key":"CountryName"},{"value":"Dravograd","key":"CountyName"}]},"MapReference":{"ReferenceId":"1169404776","Spot":0.0,"SideOfStreet":"right","CountryId":"20633685","CountyId":"20635699","CityId":"20635700","DistrictId":"22693662"}}}]}]}}