{"Response":{"MetaInfo":{"Timestamp":"2020-03-28T10:14:01.074+0000","NextPageInformation":"2"},"View":[{"_type":"SearchResultsViewType","ViewId":0,"Result":[{"Relevance":1.0,"Distance":0.0,"Direction":0.0,"MatchLevel":"district","MatchQuality":{"Country":1.0,"State":1.0,"County":1.0,"City":1.0,"District":1.0,"PostalCode":1.0},"Location":{"LocationId":"NT_eL3hs.0mUfulUHV9G7KVbB","LocationType":"point","DisplayPosition":{"Latitude":46.7005733,"Longitude":15.3999245},"MapView":{"TopLeft":{"Latitude":46.70749,"Longitude":15.39791},"BottomRight":{"Latitude":46.69799,"Longitude":15.40438}},"Address":{"Label":"Sankt Johann im Saggautal, Steiermark, Österreich","Country":"AUT","State":"Steiermark","County":"Leibnitz","City":"Sankt Johann im Saggautal","District":"Sankt Johann im Saggautal","PostalCode":"8453","AdditionalData":[{"value":"Österreich","key":"CountryName"},{"value":"Steiermark","key":"StateName"},{"value":"Leibnitz","key":"CountyName"}]},"MapReference":{"ReferenceId":"917235286","SideOfStreet":"neither","CountryId":"20128885","StateId":"20134876","CountyId":"20135868","CityId":"20135968","DistrictId":"20135970"}}},{"Relevance":1.0,"Distance":19.2,"MatchLevel":"houseNumber","MatchQuality":{"Country":1.0,"State":1.0,"County":1.0,"City":1.0,"District":1.0,"Street":[1.0],"HouseNumber":1.0,"PostalCode":1.0},"MatchType":"interpolated","Location":{"LocationId":"NT_poeHeQYKk78qFqn6y5jjUD_2QD","LocationType":"point","DisplayPosition":{"Latitude":46.70039,"Longitude":15.40031},"MapView":{"TopLeft":{"Latitude":46.7015142,"Longitude":15.3986708},"BottomRight":{"Latitude":46.6992658,"Longitude":15.4019492}},"Address":{"Label":"Sankt Johann im Saggautal 64, 8453 Sankt Johann im Saggautal, Österreich","Country":"AUT","State":"Steiermark","County":"Leibnitz","City":"Sankt Johann im Saggautal","District":"Sankt Johann im Saggautal","Street":"Sankt Johann im Saggautal","HouseNumber":"64","PostalCode":"8453","AdditionalData":[{"value":"Österreich","key":"CountryName"},{"value":"Steiermark","key":"StateName"},{"value":"Leibnitz","key":"CountyName"}]},"MapReference":{"ReferenceId":"572528332","Spot":0.3,"SideOfStreet":"left","CountryId":"20128885","StateId":"20134876","CountyId":"20135868","CityId":"20135968","DistrictId":"20135970","AddressId":"161951803","RoadLinkId":"28659422"}}},{"Relevance":1.0,"Distance":64.4,"MatchLevel":"houseNumber","MatchQuality":{"Country":1.0,"State":1.0,"County":1.0,"City":1.0,"Street":[1.0],"HouseNumber":1.0,"PostalCode":1.0},"MatchType":"interpolated","Location":{"LocationId":"NT_UBB.x5gVKI88lxbrzpB3vC_xADO","LocationType":"point","DisplayPosition":{"Latitude":46.70066,"Longitude":15.39894},"MapView":{"TopLeft":{"Latitude":46.7017842,"Longitude":15.3973008},"BottomRight":{"Latitude":46.6995358,"Longitude":15.4005792}},"Address":{"Label":"Sankt Johann im Saggautal 108, 8453 Sankt Johann im Saggautal, Österreich","Country":"AUT","State":"Steiermark","County":"Leibnitz","City":"Sankt Johann im Saggautal","Street":"Sankt Johann im Saggautal","HouseNumber":"108","PostalCode":"8453","AdditionalData":[{"value":"Österreich","key":"CountryName"},{"value":"Steiermark","key":"StateName"},{"value":"Leibnitz","key":"CountyName"}]},"MapReference":{"ReferenceId":"1247003688","Spot":0.0,"SideOfStreet":"right","CountryId":"20128885","StateId":"20134876","CountyId":"20135868","CityId":"20135968","AddressId":"161953220","RoadLinkId":"568711353"}}},{"Relevance":1.0,"Distance":66.7,"MatchLevel":"houseNumber","MatchQuality":{"Country":1.0,"State":1.0,"County":1.0,"City":1.0,"Street":[1.0],"HouseNumber":1.0,"PostalCode":1.0},"MatchType":"interpolated","Location":{"LocationId":"NT_UBB.x5gVKI88lxbrzpB3vC_xEDN","LocationType":"point","DisplayPosition":{"Latitude":46.70157,"Longitude":15.39912},"MapView":{"TopLeft":{"Latitude":46.7026942,"Longitude":15.3974808},"BottomRight":{"Latitude":46.7004458,"Longitude":15.4007592}},"Address":{"Label":"Sankt Johann im Saggautal 114, 8453 Sankt Johann im Saggautal, Österreich","Country":"AUT","State":"Steiermark","County":"Leibnitz","City":"Sankt Johann im Saggautal","Street":"Sankt Johann im Saggautal","HouseNumber":"114","PostalCode":"8453","AdditionalData":[{"value":"Österreich","key":"CountryName"},{"value":"Steiermark","key":"StateName"},{"value":"Leibnitz","key":"CountyName"}]},"MapReference":{"ReferenceId":"1247003690","Spot":0.88,"SideOfStreet":"right","CountryId":"20128885","StateId":"20134876","CountyId":"20135868","CityId":"20135968","AddressId":"161953222","RoadLinkId":"568711352"}}},{"Relevance":1.0,"Distance":87.0,"MatchLevel":"houseNumber","MatchQuality":{"Country":1.0,"State":1.0,"County":1.0,"City":1.0,"District":1.0,"Street":[1.0],"HouseNumber":1.0,"PostalCode":1.0},"MatchType":"interpolated","Location":{"LocationId":"NT_poeHeQYKk78qFqn6y5jjUD_xEjN","LocationType":"point","DisplayPosition":{"Latitude":46.70166,"Longitude":15.39982},"MapView":{"TopLeft":{"Latitude":46.7027842,"Longitude":15.3981808},"BottomRight":{"Latitude":46.7005358,"Longitude":15.4014592}},"Address":{"Label":"Sankt Johann im Saggautal 116, 8453 Sankt Johann im Saggautal, Österreich","Country":"AUT","State":"Steiermark","County":"Leibnitz","City":"Sankt Johann im Saggautal","District":"Sankt Johann im Saggautal","Street":"Sankt Johann im Saggautal","HouseNumber":"116","PostalCode":"8453","AdditionalData":[{"value":"Österreich","key":"CountryName"},{"value":"Steiermark","key":"StateName"},{"value":"Leibnitz","key":"CountyName"}]},"MapReference":{"ReferenceId":"572399200","Spot":0.0,"SideOfStreet":"left","CountryId":"20128885","StateId":"20134876","CountyId":"20135868","CityId":"20135968","DistrictId":"20135970","AddressId":"161951663","RoadLinkId":"28927695"}}},{"Relevance":1.0,"Distance":98.6,"MatchLevel":"houseNumber","MatchQuality":{"Country":1.0,"State":1.0,"County":1.0,"City":1.0,"District":1.0,"Street":[1.0],"HouseNumber":1.0,"PostalCode":1.0},"MatchType":"interpolated","Location":{"LocationId":"NT_poeHeQYKk78qFqn6y5jjUD_4kD","LocationType":"point","DisplayPosition":{"Latitude":46.69955,"Longitude":15.40038},"MapView":{"TopLeft":{"Latitude":46.7006742,"Longitude":15.3987409},"BottomRight":{"Latitude":46.6984258,"Longitude":15.4020191}},"Address":{"Label":"Sankt Johann im Saggautal 89, 8453 Sankt Johann im Saggautal, Österreich","Country":"AUT","State":"Steiermark","County":"Leibnitz","City":"Sankt Johann im Saggautal","District":"Sankt Johann im Saggautal","Street":"Sankt Johann im Saggautal","HouseNumber":"89","PostalCode":"8453","AdditionalData":[{"value":"Österreich","key":"CountryName"},{"value":"Steiermark","key":"StateName"},{"value":"Leibnitz","key":"CountyName"}]},"MapReference":{"ReferenceId":"572528330","Spot":0.26,"SideOfStreet":"right","CountryId":"20128885","StateId":"20134876","CountyId":"20135868","CityId":"20135968","DistrictId":"20135970","AddressId":"161951808","RoadLinkId":"28305920"}}},{"Relevance":1.0,"Distance":104.6,"MatchLevel":"houseNumber","MatchQuality":{"Country":1.0,"State":1.0,"County":1.0,"City":1.0,"District":1.0,"Street":[1.0],"HouseNumber":1.0,"PostalCode":1.0},"MatchType":"interpolated","Location":{"LocationId":"NT_poeHeQYKk78qFqn6y5jjUD_xETN","LocationType":"point","DisplayPosition":{"Latitude":46.70162,"Longitude":15.39926},"MapView":{"TopLeft":{"Latitude":46.7027442,"Longitude":15.3976208},"BottomRight":{"Latitude":46.7004958,"Longitude":15.4008992}},"Address":{"Label":"Sankt Johann im Saggautal 115, 8453 Sankt Johann im Saggautal, Österreich","Country":"AUT","State":"Steiermark","County":"Leibnitz","City":"Sankt Johann im Saggautal","District":"Sankt Johann im Saggautal","Street":"Sankt Johann im Saggautal","HouseNumber":"115","PostalCode":"8453","AdditionalData":[{"value":"Österreich","key":"CountryName"},{"value":"Steiermark","key":"StateName"},{"value":"Leibnitz","key":"CountyName"}]},"MapReference":{"ReferenceId":"572399199","Spot":0.07,"SideOfStreet":"right","CountryId":"20128885","StateId":"20134876","CountyId":"20135868","CityId":"20135968","DistrictId":"20135970","AddressId":"161953195","RoadLinkId":"28899513"}}},{"Relevance":1.0,"Distance":106.8,"MatchLevel":"houseNumber","MatchQuality":{"Country":1.0,"State":1.0,"County":1.0,"City":1.0,"Street":[1.0],"HouseNumber":1.0,"PostalCode":1.0},"MatchType":"interpolated","Location":{"LocationId":"NT_UBB.x5gVKI88lxbrzpB3vC_l_1247003691_L_xADO","LocationType":"point","DisplayPosition":{"Latitude":46.7011379,"Longitude":15.3987159},"MapView":{"TopLeft":{"Latitude":46.7022621,"Longitude":15.3970767},"BottomRight":{"Latitude":46.7000138,"Longitude":15.4003551}},"Address":{"Label":"Sankt Johann im Saggautal 108, 8453 Sankt Johann im Saggautal, Österreich","Country":"AUT","State":"Steiermark","County":"Leibnitz","City":"Sankt Johann im Saggautal","Street":"Sankt Johann im Saggautal","HouseNumber":"108","PostalCode":"8453","AdditionalData":[{"value":"Österreich","key":"CountryName"},{"value":"Steiermark","key":"StateName"},{"value":"Leibnitz","key":"CountyName"}]},"MapReference":{"ReferenceId":"1247003691","Spot":0.51,"SideOfStreet":"left","CountryId":"20128885","StateId":"20134876","CountyId":"20135868","CityId":"20135968"}}},{"Relevance":1.0,"Distance":115.3,"MatchLevel":"houseNumber","MatchQuality":{"Country":1.0,"State":1.0,"County":1.0,"City":1.0,"District":1.0,"Street":[1.0],"HouseNumber":1.0,"PostalCode":1.0},"MatchType":"interpolated","Location":{"LocationId":"NT_poeHeQYKk78qFqn6y5jjUD_0kD","LocationType":"point","DisplayPosition":{"Latitude":46.6995,"Longitude":15.39976},"MapView":{"TopLeft":{"Latitude":46.7006242,"Longitude":15.3981209},"BottomRight":{"Latitude":46.6983758,"Longitude":15.4013991}},"Address":{"Label":"Sankt Johann im Saggautal 49, 8453 Sankt Johann im Saggautal, Österreich","Country":"AUT","State":"Steiermark","County":"Leibnitz","City":"Sankt Johann im Saggautal","District":"Sankt Johann im Saggautal","Street":"Sankt Johann im Saggautal","HouseNumber":"49","PostalCode":"8453","AdditionalData":[{"value":"Österreich","key":"CountryName"},{"value":"Steiermark","key":"StateName"},{"value":"Leibnitz","key":"CountyName"}]},"MapReference":{"ReferenceId":"572528331","Spot":0.39,"SideOfStreet":"left","CountryId":"20128885","StateId":"20134876","CountyId":"20135868","CityId":"20135968","DistrictId":"20135970","AddressId":"161954104","RoadLinkId":"29170600"}}},{"Relevance":1.0,"Distance":134.4,"MatchLevel":"houseNumber","MatchQuality":{"Country":1.0,"State":1.0,"County":1.0,"City":1.0,"District":1.0,"Street":[1.0],"HouseNumber":1.0,"PostalCode":1.0},"MatchType":"interpolated","Location":{"LocationId":"NT_poeHeQYKk78qFqn6y5jjUD_xIDN","LocationType":"point","DisplayPosition":{"Latitude":46.69944,"Longitude":15.39931},"MapView":{"TopLeft":{"Latitude":46.7005642,"Longitude":15.3976709},"BottomRight":{"Latitude":46.6983158,"Longitude":15.4009491}},"Address":{"Label":"Sankt Johann im Saggautal 124, 8453 Sankt Johann im Saggautal, Österreich","Country":"AUT","State":"Steiermark","County":"Leibnitz","City":"Sankt Johann im Saggautal","District":"Sankt Johann im Saggautal","Street":"Sankt Johann im Saggautal","HouseNumber":"124","PostalCode":"8453","AdditionalData":[{"value":"Österreich","key":"CountryName"},{"value":"Steiermark","key":"StateName"},{"value":"Leibnitz","key":"CountyName"}]},"MapReference":{"ReferenceId":"572528297","Spot":0.59,"SideOfStreet":"left","CountryId":"20128885","StateId":"20134876","CountyId":"20135868","CityId":"20135968","DistrictId":"20135970","AddressId":"732399849","RoadLinkId":"28175215"}}}]}]}}