{"Response":{"MetaInfo":{"Timestamp":"2020-03-28T10:14:31.018+0000","NextPageInformation":"2"},"View":[{"_type":"SearchResultsViewType","ViewId":0,"Result":[{"Relevance":1.0,"Distance":0.0,"Direction":0.0,"MatchLevel":"district","MatchQuality":{"Country":1.0,"State":1.0,"County":1.0,"City":1.0,"District":1.0,"PostalCode":1.0},"Location":{"LocationId":"NT_voeebSbisQwS4zT0Za34BB","LocationType":"point","DisplayPosition":{"Latitude":46.7804491,"Longitude":15.5422955},"MapView":{"TopLeft":{"Latitude":46.80065,"Longitude":15.53005},"BottomRight":{"Latitude":46.76998,"Longitude":15.56726}},"Address":{"Label":"Leibnitz, Steiermark, Österreich","Country":"AUT","State":"Steiermark","County":"Leibnitz","City":"Leibnitz","District":"Leibnitz","PostalCode":"8430","AdditionalData":[{"value":"Österreich","key":"CountryName"},{"value":"Steiermark","key":"StateName"},{"value":"Leibnitz","key":"CountyName"}]},"MapReference":{"ReferenceId":"572392072","SideOfStreet":"neither","CountryId":"20128885","StateId":"20134876","CountyId":"20135868","CityId":"20135937","DistrictId":"20135939"}}},{"Relevance":1.0,"Distance":12.4,"MatchLevel":"houseNumber","MatchQuality":{"Country":1.0,"State":1.0,"County":1.0,"City":1.0,"District":1.0,"Street":[1.0],"HouseNumber":1.0,"PostalCode":1.0},"MatchType":"interpolated","Location":{"LocationId":"NT_zQiv49cjxwT2VL1V7GQ6fA_3A","LocationType":"point","DisplayPosition":{"Latitude":46.78037,"Longitude":15.54218},"MapView":{"TopLeft":{"Latitude":46.7814942,"Longitude":15.5405384},"BottomRight":{"Latitude":46.7792458,"Longitude":15.5438216}},"Address":{"Label":"Karl-Morre-Gasse 7, 8430 Leibnitz, Österreich","Country":"AUT","State":"Steiermark","County":"Leibnitz","City":"Leibnitz","District":"Leibnitz","Street":"Karl-Morre-Gasse","HouseNumber":"7","PostalCode":"8430","AdditionalData":[{"value":"Österreich","key":"CountryName"},{"value":"Steiermark","key":"StateName"},{"value":"Leibnitz","key":"CountyName"}]},"MapReference":{"ReferenceId":"572476080","Spot":0.93,"SideOfStreet":"right","CountryId":"20128885","StateId":"20134876","CountyId":"20135868","CityId":"20135937","DistrictId":"20135939","AddressId":"161048206","RoadLinkId":"29176981"}}},{"Relevance":1.0,"Distance":23.6,"MatchLevel":"houseNumber","MatchQuality":{"Country":1.0,"State":1.0,"County":1.0,"City":1.0,"District":1.0,"Street":[1.0],"HouseNumber":1.0,"PostalCode":1.0},"MatchType":"interpolated","Location":{"LocationId":"NT_zQiv49cjxwT2VL1V7GQ6fA_xID","LocationType":"point","DisplayPosition":{"Latitude":46.78057,"Longitude":15.54204},"MapView":{"TopLeft":{"Latitude":46.7816942,"Longitude":15.5403984},"BottomRight":{"Latitude":46.7794458,"Longitude":15.5436816}},"Address":{"Label":"Karl-Morre-Gasse 12, 8430 Leibnitz, Österreich","Country":"AUT","State":"Steiermark","County":"Leibnitz","City":"Leibnitz","District":"Leibnitz","Street":"Karl-Morre-Gasse","HouseNumber":"12","PostalCode":"8430","AdditionalData":[{"value":"Österreich","key":"CountryName"},{"value":"Steiermark","key":"StateName"},{"value":"Leibnitz","key":"CountyName"}]},"MapReference":{"ReferenceId":"572476082","Spot":0.11,"SideOfStreet":"left","CountryId":"20128885","StateId":"20134876","CountyId":"20135868","CityId":"20135937","DistrictId":"20135939","AddressId":"161048208","RoadLinkId":"28617498"}}},{"Relevance":1.0,"Distance":51.2,"MatchLevel":"houseNumber","MatchQuality":{"Country":1.0,"State":1.0,"County":1.0,"City":1.0,"District":1.0,"Street":[1.0],"HouseNumber":1.0,"PostalCode":1.0},"MatchType":"interpolated","Location":{"LocationId":"NT_DB1PTqO9eAw9-8apL7L.OC_yA","LocationType":"point","DisplayPosition":{"Latitude":46.78072,"Longitude":15.54284},"MapView":{"TopLeft":{"Latitude":46.7818442,"Longitude":15.5411984},"BottomRight":{"Latitude":46.7795958,"Longitude":15.5444816}},"Address":{"Label":"Dr.-Leo-Klein-Gasse 2, 8430 Leibnitz, Österreich","Country":"AUT","State":"Steiermark","County":"Leibnitz","City":"Leibnitz","District":"Leibnitz","Street":"Dr.-Leo-Klein-Gasse","HouseNumber":"2","PostalCode":"8430","AdditionalData":[{"value":"Österreich","key":"CountryName"},{"value":"Steiermark","key":"StateName"},{"value":"Leibnitz","key":"CountyName"}]},"MapReference":{"ReferenceId":"572476079","Spot":0.26,"SideOfStreet":"right","CountryId":"20128885","StateId":"20134876","CountyId":"20135868","CityId":"20135937","DistrictId":"20135939","AddressId":"161037589","RoadLinkId":"28359320"}}},{"Relevance":1.0,"Distance":57.7,"MatchLevel":"houseNumber","MatchQuality":{"Country":1.0,"State":1.0,"County":1.0,"City":1.0,"District":1.0,"Street":[1.0],"HouseNumber":1.0,"PostalCode":1.0},"MatchType":"interpolated","Location":{"LocationId":"NT_-e9j5tBJsmLsxKku42sJqA_0A","LocationType":"point","DisplayPosition":{"Latitude":46.78026,"Longitude":15.54159},"MapView":{"TopLeft":{"Latitude":46.7813842,"Longitude":15.5399484},"BottomRight":{"Latitude":46.7791358,"Longitude":15.5432316}},"Address":{"Label":"Dolinarweg 4, 8430 Leibnitz, Österreich","Country":"AUT","State":"Steiermark","County":"Leibnitz","City":"Leibnitz","District":"Leibnitz","Street":"Dolinarweg","HouseNumber":"4","PostalCode":"8430","AdditionalData":[{"value":"Österreich","key":"CountryName"},{"value":"Steiermark","key":"StateName"},{"value":"Leibnitz","key":"CountyName"}]},"MapReference":{"ReferenceId":"572392153","Spot":0.61,"SideOfStreet":"left","CountryId":"20128885","StateId":"20134876","CountyId":"20135868","CityId":"20135937","DistrictId":"20135939","AddressId":"161037677","RoadLinkId":"27920956"}}},{"Relevance":1.0,"Distance":103.6,"MatchLevel":"houseNumber","MatchQuality":{"Country":1.0,"State":1.0,"County":1.0,"City":1.0,"District":1.0,"Street":[1.0],"HouseNumber":1.0,"PostalCode":1.0},"MatchType":"interpolated","Location":{"LocationId":"NT_czKTj5.ciUTCjqI9hlHOoC_1A","LocationType":"point","DisplayPosition":{"Latitude":46.78107,"Longitude":15.54056},"MapView":{"TopLeft":{"Latitude":46.7821942,"Longitude":15.5389184},"BottomRight":{"Latitude":46.7799458,"Longitude":15.5422016}},"Address":{"Label":"Julius-Strauß-Weg 5, 8430 Leibnitz, Österreich","Country":"AUT","State":"Steiermark","County":"Leibnitz","City":"Leibnitz","District":"Leibnitz","Street":"Julius-Strauß-Weg","HouseNumber":"5","PostalCode":"8430","AdditionalData":[{"value":"Österreich","key":"CountryName"},{"value":"Steiermark","key":"StateName"},{"value":"Leibnitz","key":"CountyName"}]},"MapReference":{"ReferenceId":"62840797","Spot":0.12,"SideOfStreet":"right","CountryId":"20128885","StateId":"20134876","CountyId":"20135868","CityId":"20135937","DistrictId":"20135939","AddressId":"161048172","RoadLinkId":"29020448"}}},{"Relevance":1.0,"Distance":116.2,"MatchLevel":"street","MatchQuality":{"Country":1.0,"State":1.0,"County":1.0,"City":1.0,"District":1.0,"Street":[1.0],"PostalCode":1.0},"Location":{"LocationId":"NT_ME7nkgDsTdxW3CAPsmQqKB_l_572392154_R","LocationType":"point","DisplayPosition":{"Latitude":46.779682,"Longitude":15.54126},"MapView":{"TopLeft":{"Latitude":46.77979,"Longitude":15.54118},"BottomRight":{"Latitude":46.77935,"Longitude":15.54146}},"Address":{"Label":"Dolinarweg, 8430 Leibnitz, Österreich","Country":"AUT","State":"Steiermark","County":"Leibnitz","City":"Leibnitz","District":"Leibnitz","Street":"Dolinarweg","PostalCode":"8430","AdditionalData":[{"value":"Österreich","key":"CountryName"},{"value":"Steiermark","key":"StateName"},{"value":"Leibnitz","key":"CountyName"}]},"MapReference":{"ReferenceId":"572392154","Spot":0.74,"SideOfStreet":"right","CountryId":"20128885","StateId":"20134876","CountyId":"20135868","CityId":"20135937","DistrictId":"20135939"}}},{"Relevance":1.0,"Distance":122.8,"MatchLevel":"street","MatchQuality":{"Country":1.0,"State":1.0,"County":1.0,"City":1.0,"District":1.0,"PostalCode":1.0},"Location":{"LocationId":"NT_NgHnwr03vuWC.DW680nSUA_l_62840790_R","LocationType":"point","DisplayPosition":{"Latitude":46.78139,"Longitude":15.54145},"MapView":{"TopLeft":{"Latitude":46.78139,"Longitude":15.5414},"BottomRight":{"Latitude":46.78138,"Longitude":15.54145}},"Address":{"Label":"8430 Leibnitz, Österreich","Country":"AUT","State":"Steiermark","County":"Leibnitz","City":"Leibnitz","District":"Leibnitz","PostalCode":"8430","AdditionalData":[{"value":"Österreich","key":"CountryName"},{"value":"Steiermark","key":"StateName"},{"value":"Leibnitz","key":"CountyName"}]},"MapReference":{"ReferenceId":"62840790","Spot":1.0,"SideOfStreet":"right","CountryId":"20128885","StateId":"20134876","CountyId":"20135868","CityId":"20135937","DistrictId":"20135939"}}},{"Relevance":1.0,"Distance":123.6,"MatchLevel":"street","MatchQuality":{"Country":1.0,"State":1.0,"County":1.0,"City":1.0,"District":1.0,"PostalCode":1.0},"Location":{"LocationId":"NT_NgHnwr03vuWC.DW680nSUA_l_62840786_R","LocationType":"point","DisplayPosition":{"Latitude":46.78141,"Longitude":15.54148},"MapView":{"TopLeft":{"Latitude":46.78152,"Longitude":15.54141},"BottomRight":{"Latitude":46.78139,"Longitude":15.5415}},"Address":{"Label":"8430 Leibnitz, Österreich","Country":"AUT","State":"Steiermark","County":"Leibnitz","City":"Leibnitz","District":"Leibnitz","PostalCode":"8430","AdditionalData":[{"value":"Österreich","key":"CountryName"},{"value":"Steiermark","key":"StateName"},{"value":"Leibnitz","key":"CountyName"}]},"MapReference":{"ReferenceId":"62840786","Spot":0.17,"SideOfStreet":"right","CountryId":"20128885","StateId":"20134876","CountyId":"20135868","CityId":"20135937","DistrictId":"20135939"}}},{"Relevance":1.0,"Distance":124.0,"MatchLevel":"street","MatchQuality":{"Country":1.0,"State":1.0,"County":1.0,"City":1.0,"District":1.0,"PostalCode":1.0},"Location":{"LocationId":"NT_NgHnwr03vuWC.DW680nSUA_l_820318140_L","LocationType":"point","DisplayPosition":{"Latitude":46.78138,"Longitude":15.5414},"MapView":{"TopLeft":{"Latitude":46.78145,"Longitude":15.54128},"BottomRight":{"Latitude":46.78138,"Longitude":15.5414}},"Address":{"Label":"8430 Leibnitz, Österreich","Country":"AUT","State":"Steiermark","County":"Leibnitz","City":"Leibnitz","District":"Leibnitz","PostalCode":"8430","AdditionalData":[{"value":"Österreich","key":"CountryName"},{"value":"Steiermark","key":"StateName"},{"value":"Leibnitz","key":"CountyName"}]},"MapReference":{"ReferenceId":"820318140","Spot":0.0,"SideOfStreet":"left","CountryId":"20128885","StateId":"20134876","CountyId":"20135868","CityId":"20135937","DistrictId":"20135939"}}}]}]}}