{"Response":{"MetaInfo":{"Timestamp":"2020-03-28T11:34:53.760+0000","NextPageInformation":"2"},"View":[{"_type":"SearchResultsViewType","ViewId":0,"Result":[{"Relevance":1.0,"Distance":0.0,"Direction":0.0,"MatchLevel":"district","MatchQuality":{"Country":1.0,"County":1.0,"City":1.0,"District":1.0,"PostalCode":1.0},"Location":{"LocationId":"NT_0hRtXbkuU3xnBpEicSZZzA","LocationType":"point","DisplayPosition":{"Latitude":46.7806378,"Longitude":23.5854103},"MapView":{"TopLeft":{"Latitude":46.84565,"Longitude":23.52831},"BottomRight":{"Latitude":46.70963,"Longitude":23.70151}},"Address":{"Label":"Cluj-Napoca, România","Country":"ROU","County":"Cluj","City":"Cluj-Napoca","District":"Cluj-Napoca","PostalCode":"400217","AdditionalData":[{"value":"România","key":"CountryName"},{"value":"Cluj","key":"CountyName"}]},"MapReference":{"ReferenceId":"1229084931","SideOfStreet":"neither","CountryId":"20656215","CountyId":"20658566","CityId":"20658626","DistrictId":"20658627"}}},{"Relevance":1.0,"Distance":20.3,"MatchLevel":"landmark","MatchQuality":{"Country":1.0,"County":1.0,"City":1.0,"District":1.0,"Street":[1.0],"PostalCode":1.0,"Name":1.0},"Location":{"LocationId":"NT_WN-TKM01utPVifemQ-fQFC_p_BgA2PKz7u.ju9z1ufR7GgD","LocationType":"cemetery","Name":"Cimitirul Crișan","DisplayPosition":{"Latitude":46.77952,"Longitude":23.58436},"MapView":{"TopLeft":{"Latitude":46.78083,"Longitude":23.58246},"BottomRight":{"Latitude":46.77925,"Longitude":23.58516}},"Address":{"Label":"Strada Crișan, 400177 Cluj-Napoca, România","Country":"ROU","County":"Cluj","City":"Cluj-Napoca","District":"Cluj-Napoca","Street":"Strada Crișan","PostalCode":"400177","AdditionalData":[{"value":"România","key":"CountryName"},{"value":"Cluj","key":"CountyName"}]},"MapReference":{"CountryId":"20656215","CountyId":"20658566","CityId":"20658626","DistrictId":"20658627","PlaceId":"1105266931"}}},{"Relevance":1.0,"Distance":26.5,"MatchLevel":"houseNumber","MatchQuality":{"Country":1.0,"County":1.0,"City":1.0,"District":1.0,"Street":[1.0],"HouseNumber":1.0,"PostalCode":1.0},"MatchType":"interpolated","Location":{"LocationId":"NT_aHWJ4aEzY6fd3Ex4B2-0SB_1A","LocationType":"point","DisplayPosition":{"Latitude":46.78081,"Longitude":23.58576},"MapView":{"TopLeft":{"Latitude":46.7819342,"Longitude":23.5841184},"BottomRight":{"Latitude":46.7796858,"Longitude":23.5874016}},"Address":{"Label":"Strada Câmpeni 5, 400217 Cluj-Napoca, România","Country":"ROU","County":"Cluj","City":"Cluj-Napoca","District":"Cluj-Napoca","Street":"Strada Câmpeni","HouseNumber":"5","PostalCode":"400217","AdditionalData":[{"value":"România","key":"CountryName"},{"value":"Cluj","key":"CountyName"}]},"MapReference":{"ReferenceId":"791099471","Spot":0.12,"SideOfStreet":"left","CountryId":"20656215","CountyId":"20658566","CityId":"20658626","DistrictId":"20658627","AddressId":"686366977","RoadLinkId":"183259229"}}},{"Relevance":1.0,"Distance":60.9,"MatchLevel":"houseNumber","MatchQuality":{"Country":1.0,"County":1.0,"City":1.0,"District":1.0,"Street":[1.0],"HouseNumber":1.0,"PostalCode":1.0},"MatchType":"interpolated","Location":{"LocationId":"NT_aHWJ4aEzY6fd3Ex4B2-0SB_xA","LocationType":"point","DisplayPosition":{"Latitude":46.78067,"Longitude":23.58621},"MapView":{"TopLeft":{"Latitude":46.7817942,"Longitude":23.5845684},"BottomRight":{"Latitude":46.7795458,"Longitude":23.5878516}},"Address":{"Label":"Strada Câmpeni 1, 400217 Cluj-Napoca, România","Country":"ROU","County":"Cluj","City":"Cluj-Napoca","District":"Cluj-Napoca","Street":"Strada Câmpeni","HouseNumber":"1","PostalCode":"400217","AdditionalData":[{"value":"România","key":"CountryName"},{"value":"Cluj","key":"CountyName"}]},"MapReference":{"ReferenceId":"588362825","Spot":0.77,"SideOfStreet":"left","CountryId":"20656215","CountyId":"20658566","CityId":"20658626","DistrictId":"20658627","AddressId":"686330424","RoadLinkId":"77331186"}}},{"Relevance":1.0,"Distance":64.1,"MatchLevel":"houseNumber","MatchQuality":{"Country":1.0,"County":1.0,"City":1.0,"District":1.0,"Street":[1.0],"HouseNumber":1.0,"PostalCode":1.0},"MatchType":"interpolated","Location":{"LocationId":"NT_nNajShcC1piireXJpWFvkC_zEE","LocationType":"point","DisplayPosition":{"Latitude":46.78013,"Longitude":23.58581},"MapView":{"TopLeft":{"Latitude":46.7812542,"Longitude":23.5841684},"BottomRight":{"Latitude":46.7790058,"Longitude":23.5874516}},"Address":{"Label":"Strada Câmpeni 3A, 400200 Cluj-Napoca, România","Country":"ROU","County":"Cluj","City":"Cluj-Napoca","District":"Cluj-Napoca","Street":"Strada Câmpeni","HouseNumber":"3A","PostalCode":"400200","AdditionalData":[{"value":"România","key":"CountryName"},{"value":"Cluj","key":"CountyName"}]},"MapReference":{"ReferenceId":"1201953951","Spot":0.19,"SideOfStreet":"right","CountryId":"20656215","CountyId":"20658566","CityId":"20658626","DistrictId":"20658627","AddressId":"686330086","RoadLinkId":"514656545"}}},{"Relevance":1.0,"Distance":86.9,"MatchLevel":"street","MatchQuality":{"Country":1.0,"County":1.0,"City":1.0,"District":1.0,"Street":[1.0]},"Location":{"LocationId":"NT_bkwEL05eUF.lZI7JZVEpdA_l_924096444_L","LocationType":"point","DisplayPosition":{"Latitude":46.78014,"Longitude":23.58629},"MapView":{"TopLeft":{"Latitude":46.7802,"Longitude":23.58625},"BottomRight":{"Latitude":46.77963,"Longitude":23.58644}},"Address":{"Label":"Aleea Theodor Aman, Cluj-Napoca, România","Country":"ROU","County":"Cluj","City":"Cluj-Napoca","District":"Cluj-Napoca","Street":"Aleea Theodor Aman","AdditionalData":[{"value":"România","key":"CountryName"},{"value":"Cluj","key":"CountyName"}]},"MapReference":{"ReferenceId":"924096444","Spot":0.76,"SideOfStreet":"left","CountryId":"20656215","CountyId":"20658566","CityId":"20658626","DistrictId":"20658627"}}},{"Relevance":1.0,"Distance":92.3,"MatchLevel":"street","MatchQuality":{"Country":1.0,"County":1.0,"City":1.0,"District":1.0,"Street":[1.0]},"Location":{"LocationId":"NT_bkwEL05eUF.lZI7JZVEpdA_l_924096446_L","LocationType":"point","DisplayPosition":{"Latitude":46.7802,"Longitude":23.58644},"MapView":{"TopLeft":{"Latitude":46.7802,"Longitude":23.58644},"BottomRight":{"Latitude":46.77968,"Longitude":23.58644}},"Address":{"Label":"Aleea Theodor Aman, Cluj-Napoca, România","Country":"ROU","County":"Cluj","City":"Cluj-Napoca","District":"Cluj-Napoca","Street":"Aleea Theodor Aman","AdditionalData":[{"value":"România","key":"CountryName"},{"value":"Cluj","key":"CountyName"}]},"MapReference":{"ReferenceId":"924096446","Spot":1.0,"SideOfStreet":"left","CountryId":"20656215","CountyId":"20658566","CityId":"20658626","DistrictId":"20658627"}}},{"Relevance":1.0,"Distance":92.3,"MatchLevel":"street","MatchQuality":{"Country":1.0,"County":1.0,"City":1.0,"District":1.0,"Street":[1.0]},"Location":{"LocationId":"NT_bkwEL05eUF.lZI7JZVEpdA_l_924096445_R","LocationType":"point","DisplayPosition":{"Latitude":46.7802,"Longitude":23.58644},"MapView":{"TopLeft":{"Latitude":46.7802,"Longitude":23.58644},"BottomRight":{"Latitude":46.78018,"Longitude":23.5873}},"Address":{"Label":"Aleea Theodor Aman, Cluj-Napoca, România","Country":"ROU","County":"Cluj","City":"Cluj-Napoca","District":"Cluj-Napoca","Street":"Aleea Theodor Aman","AdditionalData":[{"value":"România","key":"CountryName"},{"value":"Cluj","key":"CountyName"}]},"MapReference":{"ReferenceId":"924096445","Spot":1.0,"SideOfStreet":"right","CountryId":"20656215","CountyId":"20658566","CityId":"20658626","DistrictId":"20658627"}}},{"Relevance":1.0,"Distance":110.8,"MatchLevel":"street","MatchQuality":{"Country":1.0,"County":1.0,"City":1.0,"District":1.0,"Street":[1.0]},"Location":{"LocationId":"NT_bkwEL05eUF.lZI7JZVEpdA_l_924096443_R","LocationType":"point","DisplayPosition":{"Latitude":46.77969,"Longitude":23.58586},"MapView":{"TopLeft":{"Latitude":46.77969,"Longitude":23.58586},"BottomRight":{"Latitude":46.77963,"Longitude":23.58625}},"Address":{"Label":"Aleea Theodor Aman, Cluj-Napoca, România","Country":"ROU","County":"Cluj","City":"Cluj-Napoca","District":"Cluj-Napoca","Street":"Aleea Theodor Aman","AdditionalData":[{"value":"România","key":"CountryName"},{"value":"Cluj","key":"CountyName"}]},"MapReference":{"ReferenceId":"924096443","Spot":1.0,"SideOfStreet":"right","CountryId":"20656215","CountyId":"20658566","CityId":"20658626","DistrictId":"20658627"}}},{"Relevance":1.0,"Distance":123.2,"MatchLevel":"houseNumber","MatchQuality":{"Country":1.0,"County":1.0,"City":1.0,"District":1.0,"Street":[1.0],"HouseNumber":1.0,"PostalCode":1.0},"MatchType":"interpolated","Location":{"LocationId":"NT_yNNzfv.8p1djNnYoM4jMaA_zAD","LocationType":"point","DisplayPosition":{"Latitude":46.78108,"Longitude":23.58387},"MapView":{"TopLeft":{"Latitude":46.7822042,"Longitude":23.5822284},"BottomRight":{"Latitude":46.7799558,"Longitude":23.5855116}},"Address":{"Label":"Strada Mecanicilor 30, 400210 Cluj-Napoca, România","Country":"ROU","County":"Cluj","City":"Cluj-Napoca","District":"Cluj-Napoca","Street":"Strada Mecanicilor","HouseNumber":"30","PostalCode":"400210","AdditionalData":[{"value":"România","key":"CountryName"},{"value":"Cluj","key":"CountyName"}]},"MapReference":{"ReferenceId":"924162591","Spot":0.89,"SideOfStreet":"right","CountryId":"20656215","CountyId":"20658566","CityId":"20658626","DistrictId":"20658627","AddressId":"686457672","RoadLinkId":"279554855"}}}]}]}}