{"Response":{"MetaInfo":{"Timestamp":"2020-03-28T10:42:28.388+0000","NextPageInformation":"2"},"View":[{"_type":"SearchResultsViewType","ViewId":0,"Result":[{"Relevance":1.0,"Distance":0.0,"Direction":0.0,"MatchLevel":"district","MatchQuality":{"Country":1.0,"State":1.0,"County":1.0,"City":1.0,"District":1.0,"PostalCode":1.0},"Location":{"LocationId":"NT_5DQy2jGEbsNO.IeRR1VT8A","LocationType":"point","DisplayPosition":{"Latitude":46.7547037,"Longitude":17.3530376},"MapView":{"TopLeft":{"Latitude":46.7709,"Longitude":17.33828},"BottomRight":{"Latitude":46.74715,"Longitude":17.36663}},"Address":{"Label":"Balatongyörök, Zala, Magyarország","Country":"HUN","State":"Zala","County":"Keszthelyi Járás","City":"Balatongyörök","District":"Balatongyörök","PostalCode":"8313","AdditionalData":[{"value":"Magyarország","key":"CountryName"},{"value":"Zala","key":"StateName"},{"value":"Keszthelyi Járás","key":"CountyName"}]},"MapReference":{"ReferenceId":"710776655","SideOfStreet":"neither","CountryId":"20613038","StateId":"20622969","CountyId":"26680548","CityId":"22233988","DistrictId":"26682338"}}},{"Relevance":1.0,"Distance":11.9,"MatchLevel":"street","MatchQuality":{"Country":1.0,"State":1.0,"County":1.0,"City":1.0,"District":1.0,"PostalCode":1.0},"Location":{"LocationId":"NT_QlFFFQZjlZB8L9-O3FgJrD_l_739449925_L","LocationType":"point","DisplayPosition":{"Latitude":46.7545967,"Longitude":17.3530448},"MapView":{"TopLeft":{"Latitude":46.75462,"Longitude":17.35191},"BottomRight":{"Latitude":46.75452,"Longitude":17.35339}},"Address":{"Label":"Balatongyörök 8313, Magyarország","Country":"HUN","State":"Zala","County":"Keszthelyi Járás","City":"Balatongyörök","District":"Balatongyörök","PostalCode":"8313","AdditionalData":[{"value":"Magyarország","key":"CountryName"},{"value":"Zala","key":"StateName"},{"value":"Keszthelyi Járás","key":"CountyName"}]},"MapReference":{"ReferenceId":"739449925","Spot":0.77,"SideOfStreet":"left","CountryId":"20613038","StateId":"20622969","CountyId":"26680548","CityId":"22233988","DistrictId":"26682338"}}},{"Relevance":1.0,"Distance":17.8,"MatchLevel":"houseNumber","MatchQuality":{"Country":1.0,"State":1.0,"County":1.0,"City":1.0,"District":1.0,"Street":[1.0],"HouseNumber":1.0,"PostalCode":1.0},"MatchType":"interpolated","Location":{"LocationId":"NT_NEPbW-hp8i6nW4u4RKR7UB_l_739449924_L_yID","LocationType":"point","DisplayPosition":{"Latitude":46.754645,"Longitude":17.35339},"MapView":{"TopLeft":{"Latitude":46.7557692,"Longitude":17.3517492},"BottomRight":{"Latitude":46.7535209,"Longitude":17.3550308}},"Address":{"Label":"Dózsa György utca 22, Balatongyörök 8313, Magyarország","Country":"HUN","State":"Zala","County":"Keszthelyi Járás","City":"Balatongyörök","District":"Balatongyörök","Street":"Dózsa György utca","HouseNumber":"22","PostalCode":"8313","AdditionalData":[{"value":"Magyarország","key":"CountryName"},{"value":"Zala","key":"StateName"},{"value":"Keszthelyi Járás","key":"CountyName"}]},"MapReference":{"ReferenceId":"739449924","Spot":0.5,"SideOfStreet":"left","CountryId":"20613038","StateId":"20622969","CountyId":"26680548","CityId":"22233988","DistrictId":"26682338"}}},{"Relevance":1.0,"Distance":24.5,"MatchLevel":"houseNumber","MatchQuality":{"Country":1.0,"State":1.0,"County":1.0,"City":1.0,"District":1.0,"Street":[1.0],"HouseNumber":1.0,"PostalCode":1.0},"MatchType":"interpolated","Location":{"LocationId":"NT_NEPbW-hp8i6nW4u4RKR7UB_yQD","LocationType":"point","DisplayPosition":{"Latitude":46.75489,"Longitude":17.3534},"MapView":{"TopLeft":{"Latitude":46.7560142,"Longitude":17.3517592},"BottomRight":{"Latitude":46.7537658,"Longitude":17.3550408}},"Address":{"Label":"Dózsa György utca 24, Balatongyörök 8313, Magyarország","Country":"HUN","State":"Zala","County":"Keszthelyi Járás","City":"Balatongyörök","District":"Balatongyörök","Street":"Dózsa György utca","HouseNumber":"24","PostalCode":"8313","AdditionalData":[{"value":"Magyarország","key":"CountryName"},{"value":"Zala","key":"StateName"},{"value":"Keszthelyi Járás","key":"CountyName"}]},"MapReference":{"ReferenceId":"710776715","Spot":0.12,"SideOfStreet":"left","CountryId":"20613038","StateId":"20622969","CountyId":"26680548","CityId":"22233988","DistrictId":"26682338","AddressId":"356393769","RoadLinkId":"115959702"}}},{"Relevance":1.0,"Distance":27.1,"MatchLevel":"street","MatchQuality":{"Country":1.0,"State":1.0,"County":1.0,"City":1.0,"District":1.0,"PostalCode":1.0},"Location":{"LocationId":"NT_QlFFFQZjlZB8L9-O3FgJrD_l_710776714_L","LocationType":"point","DisplayPosition":{"Latitude":46.75467,"Longitude":17.35339},"MapView":{"TopLeft":{"Latitude":46.75495,"Longitude":17.35339},"BottomRight":{"Latitude":46.75467,"Longitude":17.35466}},"Address":{"Label":"Balatongyörök 8313, Magyarország","Country":"HUN","State":"Zala","County":"Keszthelyi Járás","City":"Balatongyörök","District":"Balatongyörök","PostalCode":"8313","AdditionalData":[{"value":"Magyarország","key":"CountryName"},{"value":"Zala","key":"StateName"},{"value":"Keszthelyi Járás","key":"CountyName"}]},"MapReference":{"ReferenceId":"710776714","Spot":0.0,"SideOfStreet":"left","CountryId":"20613038","StateId":"20622969","CountyId":"26680548","CityId":"22233988","DistrictId":"26682338"}}},{"Relevance":1.0,"Distance":28.9,"MatchLevel":"houseNumber","MatchQuality":{"Country":1.0,"State":1.0,"County":1.0,"City":1.0,"District":1.0,"Street":[1.0],"HouseNumber":1.0,"PostalCode":1.0},"MatchType":"interpolated","Location":{"LocationId":"NT_NEPbW-hp8i6nW4u4RKR7UB_yID","LocationType":"point","DisplayPosition":{"Latitude":46.75446,"Longitude":17.35338},"MapView":{"TopLeft":{"Latitude":46.7555842,"Longitude":17.3517392},"BottomRight":{"Latitude":46.7533358,"Longitude":17.3550208}},"Address":{"Label":"Dózsa György utca 22, Balatongyörök 8313, Magyarország","Country":"HUN","State":"Zala","County":"Keszthelyi Járás","City":"Balatongyörök","District":"Balatongyörök","Street":"Dózsa György utca","HouseNumber":"22","PostalCode":"8313","AdditionalData":[{"value":"Magyarország","key":"CountryName"},{"value":"Zala","key":"StateName"},{"value":"Keszthelyi Járás","key":"CountyName"}]},"MapReference":{"ReferenceId":"739449923","Spot":0.94,"SideOfStreet":"left","CountryId":"20613038","StateId":"20622969","CountyId":"26680548","CityId":"22233988","DistrictId":"26682338","AddressId":"354914414","RoadLinkId":"138362814"}}},{"Relevance":1.0,"Distance":73.9,"MatchLevel":"houseNumber","MatchQuality":{"Country":1.0,"State":1.0,"County":1.0,"City":1.0,"District":1.0,"Street":[1.0],"HouseNumber":1.0,"PostalCode":1.0},"MatchType":"interpolated","Location":{"LocationId":"NT_f-OFg9pK59N3J5vgPlyktA_zED","LocationType":"point","DisplayPosition":{"Latitude":46.75461,"Longitude":17.35186},"MapView":{"TopLeft":{"Latitude":46.7557342,"Longitude":17.3502192},"BottomRight":{"Latitude":46.7534858,"Longitude":17.3535008}},"Address":{"Label":"Kossuth Lajos utca 31, Balatongyörök 8313, Magyarország","Country":"HUN","State":"Zala","County":"Keszthelyi Járás","City":"Balatongyörök","District":"Balatongyörök","Street":"Kossuth Lajos utca","HouseNumber":"31","PostalCode":"8313","AdditionalData":[{"value":"Magyarország","key":"CountryName"},{"value":"Zala","key":"StateName"},{"value":"Keszthelyi Járás","key":"CountyName"}]},"MapReference":{"ReferenceId":"739449927","Spot":0.04,"SideOfStreet":"right","CountryId":"20613038","StateId":"20622969","CountyId":"26680548","CityId":"22233988","DistrictId":"26682338","AddressId":"355928577","RoadLinkId":"138362821"}}},{"Relevance":1.0,"Distance":74.7,"MatchLevel":"houseNumber","MatchQuality":{"Country":1.0,"State":1.0,"County":1.0,"City":1.0,"District":1.0,"Street":[1.0],"HouseNumber":1.0,"PostalCode":1.0},"MatchType":"interpolated","Location":{"LocationId":"NT_f-OFg9pK59N3J5vgPlyktA_ycD","LocationType":"point","DisplayPosition":{"Latitude":46.75435,"Longitude":17.35197},"MapView":{"TopLeft":{"Latitude":46.7554742,"Longitude":17.3503292},"BottomRight":{"Latitude":46.7532258,"Longitude":17.3536108}},"Address":{"Label":"Kossuth Lajos utca 27, Balatongyörök 8313, Magyarország","Country":"HUN","State":"Zala","County":"Keszthelyi Járás","City":"Balatongyörök","District":"Balatongyörök","Street":"Kossuth Lajos utca","HouseNumber":"27","PostalCode":"8313","AdditionalData":[{"value":"Magyarország","key":"CountryName"},{"value":"Zala","key":"StateName"},{"value":"Keszthelyi Járás","key":"CountyName"}]},"MapReference":{"ReferenceId":"739449926","Spot":0.91,"SideOfStreet":"right","CountryId":"20613038","StateId":"20622969","CountyId":"26680548","CityId":"22233988","DistrictId":"26682338","AddressId":"355979971","RoadLinkId":"138362817"}}},{"Relevance":1.0,"Distance":113.2,"MatchLevel":"houseNumber","MatchQuality":{"Country":1.0,"State":1.0,"County":1.0,"City":1.0,"District":1.0,"Street":[1.0],"HouseNumber":1.0,"PostalCode":1.0},"MatchType":"interpolated","Location":{"LocationId":"NT_X0.nX5FnlPmOgX7SeVWP2D_0A","LocationType":"point","DisplayPosition":{"Latitude":46.75488,"Longitude":17.35469},"MapView":{"TopLeft":{"Latitude":46.7560042,"Longitude":17.3530492},"BottomRight":{"Latitude":46.7537558,"Longitude":17.3563308}},"Address":{"Label":"Eötvös Károly utca 4, Balatongyörök 8313, Magyarország","Country":"HUN","State":"Zala","County":"Keszthelyi Járás","City":"Balatongyörök","District":"Balatongyörök","Street":"Eötvös Károly utca","HouseNumber":"4","PostalCode":"8313","AdditionalData":[{"value":"Magyarország","key":"CountryName"},{"value":"Zala","key":"StateName"},{"value":"Keszthelyi Járás","key":"CountyName"}]},"MapReference":{"ReferenceId":"710776717","Spot":0.9,"SideOfStreet":"left","CountryId":"20613038","StateId":"20622969","CountyId":"26680548","CityId":"22233988","DistrictId":"26682338","AddressId":"355102782","RoadLinkId":"115959704"}}},{"Relevance":1.0,"Distance":118.1,"MatchLevel":"houseNumber","MatchQuality":{"Country":1.0,"State":1.0,"County":1.0,"City":1.0,"District":1.0,"Street":[1.0],"HouseNumber":1.0,"PostalCode":1.0},"MatchType":"interpolated","Location":{"LocationId":"NT_X0.nX5FnlPmOgX7SeVWP2D_4A","LocationType":"point","DisplayPosition":{"Latitude":46.75537,"Longitude":17.35448},"MapView":{"TopLeft":{"Latitude":46.7564942,"Longitude":17.3528392},"BottomRight":{"Latitude":46.7542458,"Longitude":17.3561208}},"Address":{"Label":"Eötvös Károly utca 8, Balatongyörök 8313, Magyarország","Country":"HUN","State":"Zala","County":"Keszthelyi Járás","City":"Balatongyörök","District":"Balatongyörök","Street":"Eötvös Károly utca","HouseNumber":"8","PostalCode":"8313","AdditionalData":[{"value":"Magyarország","key":"CountryName"},{"value":"Zala","key":"StateName"},{"value":"Keszthelyi Járás","key":"CountyName"}]},"MapReference":{"ReferenceId":"710776711","Spot":0.26,"SideOfStreet":"left","CountryId":"20613038","StateId":"20622969","CountyId":"26680548","CityId":"22233988","DistrictId":"26682338","AddressId":"356525268","RoadLinkId":"115959698"}}}]}]}}