{"Response":{"MetaInfo":{"Timestamp":"2020-03-28T11:34:44.470+0000","NextPageInformation":"2"},"View":[{"_type":"SearchResultsViewType","ViewId":0,"Result":[{"Relevance":1.0,"Distance":0.0,"Direction":0.0,"MatchLevel":"district","MatchQuality":{"Country":1.0,"County":1.0,"City":1.0,"District":1.0,"PostalCode":1.0},"Location":{"LocationId":"NT_0hRtXbkuU3xnBpEicSZZzA","LocationType":"point","DisplayPosition":{"Latitude":46.7630684,"Longitude":23.5882087},"MapView":{"TopLeft":{"Latitude":46.84565,"Longitude":23.52831},"BottomRight":{"Latitude":46.70963,"Longitude":23.70151}},"Address":{"Label":"Cluj-Napoca, România","Country":"ROU","County":"Cluj","City":"Cluj-Napoca","District":"Cluj-Napoca","PostalCode":"400015","AdditionalData":[{"value":"România","key":"CountryName"},{"value":"Cluj","key":"CountyName"}]},"MapReference":{"ReferenceId":"1229084931","SideOfStreet":"neither","CountryId":"20656215","CountyId":"20658566","CityId":"20658626","DistrictId":"20658627"}}},{"Relevance":1.0,"Distance":7.9,"MatchLevel":"street","MatchQuality":{"Country":1.0,"County":1.0,"City":1.0,"District":1.0},"Location":{"LocationId":"NT_tP2m9OWPcyeXYsxRPLrbpC_l_1058210099_L","LocationType":"point","DisplayPosition":{"Latitude":46.7630007,"Longitude":23.5882382},"MapView":{"TopLeft":{"Latitude":46.76308,"Longitude":23.58803},"BottomRight":{"Latitude":46.76291,"Longitude":23.58842}},"Address":{"Label":"Cluj-Napoca, România","Country":"ROU","County":"Cluj","City":"Cluj-Napoca","District":"Cluj-Napoca","AdditionalData":[{"value":"România","key":"CountryName"},{"value":"Cluj","key":"CountyName"}]},"MapReference":{"ReferenceId":"1058210099","Spot":0.53,"SideOfStreet":"left","CountryId":"20656215","CountyId":"20658566","CityId":"20658626","DistrictId":"20658627"}}},{"Relevance":1.0,"Distance":14.6,"MatchLevel":"houseNumber","MatchQuality":{"Country":1.0,"County":1.0,"City":1.0,"District":1.0,"Street":[1.0],"HouseNumber":1.0,"PostalCode":1.0},"MatchType":"interpolated","Location":{"LocationId":"NT_dMFT6A8x.taqaAdOcYcZxA_zgD","LocationType":"point","DisplayPosition":{"Latitude":46.76304,"Longitude":23.58845},"MapView":{"TopLeft":{"Latitude":46.7641642,"Longitude":23.5868089},"BottomRight":{"Latitude":46.7619158,"Longitude":23.5900911}},"Address":{"Label":"Strada Republicii 38, 400015 Cluj-Napoca, România","Country":"ROU","County":"Cluj","City":"Cluj-Napoca","District":"Cluj-Napoca","Street":"Strada Republicii","HouseNumber":"38","PostalCode":"400015","AdditionalData":[{"value":"România","key":"CountryName"},{"value":"Cluj","key":"CountyName"}]},"MapReference":{"ReferenceId":"1058210097","Spot":0.42,"SideOfStreet":"left","CountryId":"20656215","CountyId":"20658566","CityId":"20658626","DistrictId":"20658627","AddressId":"686511011","RoadLinkId":"381114173"}}},{"Relevance":1.0,"Distance":17.8,"MatchLevel":"street","MatchQuality":{"Country":1.0,"County":1.0,"City":1.0,"District":1.0},"Location":{"LocationId":"NT_tP2m9OWPcyeXYsxRPLrbpC_l_1050329191_L","LocationType":"point","DisplayPosition":{"Latitude":46.7629172,"Longitude":23.5882843},"MapView":{"TopLeft":{"Latitude":46.76301,"Longitude":23.58769},"BottomRight":{"Latitude":46.76278,"Longitude":23.58847}},"Address":{"Label":"Cluj-Napoca, România","Country":"ROU","County":"Cluj","City":"Cluj-Napoca","District":"Cluj-Napoca","AdditionalData":[{"value":"România","key":"CountryName"},{"value":"Cluj","key":"CountyName"}]},"MapReference":{"ReferenceId":"1050329191","Spot":0.75,"SideOfStreet":"left","CountryId":"20656215","CountyId":"20658566","CityId":"20658626","DistrictId":"20658627"}}},{"Relevance":1.0,"Distance":31.8,"MatchLevel":"houseNumber","MatchQuality":{"Country":1.0,"County":1.0,"City":1.0,"District":1.0,"Street":[1.0],"HouseNumber":1.0,"PostalCode":1.0},"MatchType":"interpolated","Location":{"LocationId":"NT_dMFT6A8x.taqaAdOcYcZxA_0AD","LocationType":"point","DisplayPosition":{"Latitude":46.76289,"Longitude":23.58855},"MapView":{"TopLeft":{"Latitude":46.7640142,"Longitude":23.5869089},"BottomRight":{"Latitude":46.7617658,"Longitude":23.5901911}},"Address":{"Label":"Strada Republicii 40, 400015 Cluj-Napoca, România","Country":"ROU","County":"Cluj","City":"Cluj-Napoca","District":"Cluj-Napoca","Street":"Strada Republicii","HouseNumber":"40","PostalCode":"400015","AdditionalData":[{"value":"România","key":"CountryName"},{"value":"Cluj","key":"CountyName"}]},"MapReference":{"ReferenceId":"1050329189","Spot":0.66,"SideOfStreet":"left","CountryId":"20656215","CountyId":"20658566","CityId":"20658626","DistrictId":"20658627","AddressId":"686485890","RoadLinkId":"370512719"}}},{"Relevance":1.0,"Distance":40.5,"MatchLevel":"houseNumber","MatchQuality":{"Country":1.0,"County":1.0,"City":1.0,"District":1.0,"Street":[1.0],"HouseNumber":1.0,"PostalCode":1.0},"MatchType":"interpolated","Location":{"LocationId":"NT_dMFT6A8x.taqaAdOcYcZxA_zQD","LocationType":"point","DisplayPosition":{"Latitude":46.76345,"Longitude":23.58822},"MapView":{"TopLeft":{"Latitude":46.7645742,"Longitude":23.5865789},"BottomRight":{"Latitude":46.7623258,"Longitude":23.5898611}},"Address":{"Label":"Strada Republicii 34, 400015 Cluj-Napoca, România","Country":"ROU","County":"Cluj","City":"Cluj-Napoca","District":"Cluj-Napoca","Street":"Strada Republicii","HouseNumber":"34","PostalCode":"400015","AdditionalData":[{"value":"România","key":"CountryName"},{"value":"Cluj","key":"CountyName"}]},"MapReference":{"ReferenceId":"1058210098","Spot":0.76,"SideOfStreet":"left","CountryId":"20656215","CountyId":"20658566","CityId":"20658626","DistrictId":"20658627","AddressId":"686511024","RoadLinkId":"381114174"}}},{"Relevance":1.0,"Distance":48.3,"MatchLevel":"houseNumber","MatchQuality":{"Country":1.0,"County":1.0,"City":1.0,"District":1.0,"Street":[1.0],"HouseNumber":1.0},"MatchType":"interpolated","Location":{"LocationId":"NT_sQ.ob3EyN.QdbieMsZ2gqA_l_588364755_R_xA","LocationType":"point","DisplayPosition":{"Latitude":46.76362,"Longitude":23.58833},"MapView":{"TopLeft":{"Latitude":46.7647442,"Longitude":23.5866889},"BottomRight":{"Latitude":46.7624959,"Longitude":23.5899711}},"Address":{"Label":"Strada Petre Ispirescu 1, Cluj-Napoca, România","Country":"ROU","County":"Cluj","City":"Cluj-Napoca","District":"Cluj-Napoca","Street":"Strada Petre Ispirescu","HouseNumber":"1","AdditionalData":[{"value":"România","key":"CountryName"},{"value":"Cluj","key":"CountyName"}]},"MapReference":{"ReferenceId":"588364755","Spot":0.09,"SideOfStreet":"right","CountryId":"20656215","CountyId":"20658566","CityId":"20658626","DistrictId":"20658627"}}},{"Relevance":1.0,"Distance":62.5,"MatchLevel":"street","MatchQuality":{"Country":1.0,"County":1.0,"City":1.0,"District":1.0},"Location":{"LocationId":"NT_tP2m9OWPcyeXYsxRPLrbpC_l_1035673696_L","LocationType":"point","DisplayPosition":{"Latitude":46.7625632,"Longitude":23.5885672},"MapView":{"TopLeft":{"Latitude":46.7627,"Longitude":23.58814},"BottomRight":{"Latitude":46.76226,"Longitude":23.58876}},"Address":{"Label":"Cluj-Napoca, România","Country":"ROU","County":"Cluj","City":"Cluj-Napoca","District":"Cluj-Napoca","AdditionalData":[{"value":"România","key":"CountryName"},{"value":"Cluj","key":"CountyName"}]},"MapReference":{"ReferenceId":"1035673696","Spot":0.69,"SideOfStreet":"left","CountryId":"20656215","CountyId":"20658566","CityId":"20658626","DistrictId":"20658627"}}},{"Relevance":1.0,"Distance":74.0,"MatchLevel":"houseNumber","MatchQuality":{"Country":1.0,"County":1.0,"City":1.0,"District":1.0,"Street":[1.0],"HouseNumber":1.0,"PostalCode":1.0},"MatchType":"interpolated","Location":{"LocationId":"NT_dMFT6A8x.taqaAdOcYcZxA_zUD","LocationType":"point","DisplayPosition":{"Latitude":46.76373,"Longitude":23.5881},"MapView":{"TopLeft":{"Latitude":46.7648542,"Longitude":23.5864589},"BottomRight":{"Latitude":46.7626058,"Longitude":23.5897411}},"Address":{"Label":"Strada Republicii 35, 400015 Cluj-Napoca, România","Country":"ROU","County":"Cluj","City":"Cluj-Napoca","District":"Cluj-Napoca","Street":"Strada Republicii","HouseNumber":"35","PostalCode":"400015","AdditionalData":[{"value":"România","key":"CountryName"},{"value":"Cluj","key":"CountyName"}]},"MapReference":{"ReferenceId":"588364756","Spot":0.52,"SideOfStreet":"right","CountryId":"20656215","CountyId":"20658566","CityId":"20658626","DistrictId":"20658627","AddressId":"686368480","RoadLinkId":"77383458"}}},{"Relevance":1.0,"Distance":77.4,"MatchLevel":"houseNumber","MatchQuality":{"Country":1.0,"County":1.0,"City":1.0,"District":1.0,"Street":[1.0],"HouseNumber":1.0,"PostalCode":1.0},"MatchType":"interpolated","Location":{"LocationId":"NT_dMFT6A8x.taqaAdOcYcZxA_zkD","LocationType":"point","DisplayPosition":{"Latitude":46.7626,"Longitude":23.58896},"MapView":{"TopLeft":{"Latitude":46.7637242,"Longitude":23.587319},"BottomRight":{"Latitude":46.7614758,"Longitude":23.590601}},"Address":{"Label":"Strada Republicii 39, 400015 Cluj-Napoca, România","Country":"ROU","County":"Cluj","City":"Cluj-Napoca","District":"Cluj-Napoca","Street":"Strada Republicii","HouseNumber":"39","PostalCode":"400015","AdditionalData":[{"value":"România","key":"CountryName"},{"value":"Cluj","key":"CountyName"}]},"MapReference":{"ReferenceId":"1051579871","Spot":0.6,"SideOfStreet":"right","CountryId":"20656215","CountyId":"20658566","CityId":"20658626","DistrictId":"20658627","AddressId":"686513357","RoadLinkId":"371210567"}}}]}]}}