{"Response":{"MetaInfo":{"Timestamp":"2020-03-28T10:27:57.414+0000","NextPageInformation":"2"},"View":[{"_type":"SearchResultsViewType","ViewId":0,"Result":[{"Relevance":1.0,"Distance":0.0,"Direction":0.0,"MatchLevel":"city","MatchQuality":{"Country":1.0,"State":1.0,"County":1.0,"City":1.0,"PostalCode":1.0},"Location":{"LocationId":"NT_t8KesswohHyggYO8laVmXB","LocationType":"point","DisplayPosition":{"Latitude":46.7398127,"Longitude":-1.6097479},"MapView":{"TopLeft":{"Latitude":46.78384,"Longitude":-1.72532},"BottomRight":{"Latitude":46.6896,"Longitude":-1.5292}},"Address":{"Label":"Aizenay, Pays de la Loire, France","Country":"FRA","State":"Pays de la Loire","County":"Vendée","City":"Aizenay","PostalCode":"85190","AdditionalData":[{"value":"France","key":"CountryName"},{"value":"Pays de la Loire","key":"StateName"},{"value":"Vendée","key":"CountyName"}]},"MapReference":{"ReferenceId":"558015153","SideOfStreet":"neither","CountryId":"20000001","StateId":"20068992","CountyId":"20080973","CityId":"20080982"}}},{"Relevance":1.0,"Distance":9.5,"MatchLevel":"street","MatchQuality":{"Country":1.0,"State":1.0,"County":1.0,"City":1.0,"Street":[1.0],"PostalCode":1.0},"Location":{"LocationId":"NT_uooAWcQO1lNXwR3pQ78BBB_l_807539021_R","LocationType":"point","DisplayPosition":{"Latitude":46.73985,"Longitude":-1.60986},"MapView":{"TopLeft":{"Latitude":46.73985,"Longitude":-1.61001},"BottomRight":{"Latitude":46.73974,"Longitude":-1.60986}},"Address":{"Label":"Rue du Docteur Neveu, 85190 Aizenay, France","Country":"FRA","State":"Pays de la Loire","County":"Vendée","City":"Aizenay","Street":"Rue du Docteur Neveu","PostalCode":"85190","AdditionalData":[{"value":"France","key":"CountryName"},{"value":"Pays de la Loire","key":"StateName"},{"value":"Vendée","key":"CountyName"}]},"MapReference":{"ReferenceId":"807539021","Spot":1.0,"SideOfStreet":"right","CountryId":"20000001","StateId":"20068992","CountyId":"20080973","CityId":"20080982"}}},{"Relevance":1.0,"Distance":21.5,"MatchLevel":"street","MatchQuality":{"Country":1.0,"State":1.0,"County":1.0,"City":1.0,"Street":[1.0],"PostalCode":1.0},"Location":{"LocationId":"NT_32QPXmzQZEvVG23lyi1mOD_l_807539024_L","LocationType":"point","DisplayPosition":{"Latitude":46.73974,"Longitude":-1.61001},"MapView":{"TopLeft":{"Latitude":46.73984,"Longitude":-1.61042},"BottomRight":{"Latitude":46.73958,"Longitude":-1.61001}},"Address":{"Label":"Rue Monseigneur Gendreau, 85190 Aizenay, France","Country":"FRA","State":"Pays de la Loire","County":"Vendée","City":"Aizenay","Street":"Rue Monseigneur Gendreau","PostalCode":"85190","AdditionalData":[{"value":"France","key":"CountryName"},{"value":"Pays de la Loire","key":"StateName"},{"value":"Vendée","key":"CountyName"}]},"MapReference":{"ReferenceId":"807539024","Spot":1.0,"SideOfStreet":"left","CountryId":"20000001","StateId":"20068992","CountyId":"20080973","CityId":"20080982"}}},{"Relevance":1.0,"Distance":21.5,"MatchLevel":"street","MatchQuality":{"Country":1.0,"State":1.0,"County":1.0,"City":1.0,"Street":[1.0],"PostalCode":1.0},"Location":{"LocationId":"NT_uooAWcQO1lNXwR3pQ78BBB_l_807539020_R","LocationType":"point","DisplayPosition":{"Latitude":46.73974,"Longitude":-1.61001},"MapView":{"TopLeft":{"Latitude":46.73974,"Longitude":-1.61015},"BottomRight":{"Latitude":46.73949,"Longitude":-1.61001}},"Address":{"Label":"Rue du Docteur Neveu, 85190 Aizenay, France","Country":"FRA","State":"Pays de la Loire","County":"Vendée","City":"Aizenay","Street":"Rue du Docteur Neveu","PostalCode":"85190","AdditionalData":[{"value":"France","key":"CountryName"},{"value":"Pays de la Loire","key":"StateName"},{"value":"Vendée","key":"CountyName"}]},"MapReference":{"ReferenceId":"807539020","Spot":1.0,"SideOfStreet":"right","CountryId":"20000001","StateId":"20068992","CountyId":"20080973","CityId":"20080982"}}},{"Relevance":1.0,"Distance":28.0,"MatchLevel":"houseNumber","MatchQuality":{"Country":1.0,"State":1.0,"County":1.0,"City":1.0,"Street":[1.0],"HouseNumber":1.0,"PostalCode":1.0},"MatchType":"interpolated","Location":{"LocationId":"NT_DA8KWai2MfA.l8cI0o.BJB_xID","LocationType":"point","DisplayPosition":{"Latitude":46.7396,"Longitude":-1.6095},"MapView":{"TopLeft":{"Latitude":46.7407242,"Longitude":-1.6111403},"BottomRight":{"Latitude":46.7384758,"Longitude":-1.6078597}},"Address":{"Label":"12 Rue du Maréchal Foch, 85190 Aizenay, France","Country":"FRA","State":"Pays de la Loire","County":"Vendée","City":"Aizenay","Street":"Rue du Maréchal Foch","HouseNumber":"12","PostalCode":"85190","AdditionalData":[{"value":"France","key":"CountryName"},{"value":"Pays de la Loire","key":"StateName"},{"value":"Vendée","key":"CountyName"}]},"MapReference":{"ReferenceId":"558015156","Spot":0.69,"SideOfStreet":"left","CountryId":"20000001","StateId":"20068992","CountyId":"20080973","CityId":"20080982","AddressId":"381360116","RoadLinkId":"160767508"}}},{"Relevance":1.0,"Distance":29.8,"MatchLevel":"houseNumber","MatchQuality":{"Country":1.0,"State":1.0,"County":1.0,"City":1.0,"Street":[1.0],"HouseNumber":1.0,"PostalCode":1.0},"MatchType":"interpolated","Location":{"LocationId":"NT_DA8KWai2MfA.l8cI0o.BJB_2A","LocationType":"point","DisplayPosition":{"Latitude":46.73983,"Longitude":-1.60932},"MapView":{"TopLeft":{"Latitude":46.7409542,"Longitude":-1.6109604},"BottomRight":{"Latitude":46.7387058,"Longitude":-1.6076796}},"Address":{"Label":"6 Rue du Maréchal Foch, 85190 Aizenay, France","Country":"FRA","State":"Pays de la Loire","County":"Vendée","City":"Aizenay","Street":"Rue du Maréchal Foch","HouseNumber":"6","PostalCode":"85190","AdditionalData":[{"value":"France","key":"CountryName"},{"value":"Pays de la Loire","key":"StateName"},{"value":"Vendée","key":"CountyName"}]},"MapReference":{"ReferenceId":"558015164","Spot":0.0,"SideOfStreet":"left","CountryId":"20000001","StateId":"20068992","CountyId":"20080973","CityId":"20080982","AddressId":"381367165","RoadLinkId":"160768617"}}},{"Relevance":1.0,"Distance":37.8,"MatchLevel":"houseNumber","MatchQuality":{"Country":1.0,"State":1.0,"County":1.0,"City":1.0,"Street":[1.0],"HouseNumber":1.0,"PostalCode":1.0},"MatchType":"interpolated","Location":{"LocationId":"NT_uooAWcQO1lNXwR3pQ78BBB_yA","LocationType":"point","DisplayPosition":{"Latitude":46.74008,"Longitude":-1.60945},"MapView":{"TopLeft":{"Latitude":46.7412042,"Longitude":-1.6110904},"BottomRight":{"Latitude":46.7389558,"Longitude":-1.6078096}},"Address":{"Label":"2 Rue du Docteur Neveu, 85190 Aizenay, France","Country":"FRA","State":"Pays de la Loire","County":"Vendée","City":"Aizenay","Street":"Rue du Docteur Neveu","HouseNumber":"2","PostalCode":"85190","AdditionalData":[{"value":"France","key":"CountryName"},{"value":"Pays de la Loire","key":"StateName"},{"value":"Vendée","key":"CountyName"}]},"MapReference":{"ReferenceId":"558014721","Spot":0.54,"SideOfStreet":"left","CountryId":"20000001","StateId":"20068992","CountyId":"20080973","CityId":"20080982","AddressId":"323539786","RoadLinkId":"46966041"}}},{"Relevance":1.0,"Distance":40.9,"MatchLevel":"houseNumber","MatchQuality":{"Country":1.0,"State":1.0,"County":1.0,"City":1.0,"Street":[1.0],"HouseNumber":1.0,"PostalCode":1.0},"MatchType":"interpolated","Location":{"LocationId":"NT_GKvparj6vR79LBwxhHTl3D_l_807539022_R_2A","LocationType":"point","DisplayPosition":{"Latitude":46.7395437,"Longitude":-1.6102858},"MapView":{"TopLeft":{"Latitude":46.7406679,"Longitude":-1.6119261},"BottomRight":{"Latitude":46.7384196,"Longitude":-1.6086454}},"Address":{"Label":"6 Rue Monseigneur Gendreau, 85190 Aizenay, France","Country":"FRA","State":"Pays de la Loire","County":"Vendée","City":"Aizenay","Street":"Rue Monseigneur Gendreau","HouseNumber":"6","PostalCode":"85190","AdditionalData":[{"value":"France","key":"CountryName"},{"value":"Pays de la Loire","key":"StateName"},{"value":"Vendée","key":"CountyName"}]},"MapReference":{"ReferenceId":"807539022","Spot":0.51,"SideOfStreet":"right","CountryId":"20000001","StateId":"20068992","CountyId":"20080973","CityId":"20080982"}}},{"Relevance":1.0,"Distance":46.2,"MatchLevel":"houseNumber","MatchQuality":{"Country":1.0,"State":1.0,"County":1.0,"City":1.0,"Street":[1.0],"HouseNumber":1.0,"PostalCode":1.0},"MatchType":"interpolated","Location":{"LocationId":"NT_BIhsnIqx3whq7I1u8B8D8A_yA","LocationType":"point","DisplayPosition":{"Latitude":46.73967,"Longitude":-1.60915},"MapView":{"TopLeft":{"Latitude":46.7407942,"Longitude":-1.6107903},"BottomRight":{"Latitude":46.7385458,"Longitude":-1.6075097}},"Address":{"Label":"2 Rue des Halles, 85190 Aizenay, France","Country":"FRA","State":"Pays de la Loire","County":"Vendée","City":"Aizenay","Street":"Rue des Halles","HouseNumber":"2","PostalCode":"85190","AdditionalData":[{"value":"France","key":"CountryName"},{"value":"Pays de la Loire","key":"StateName"},{"value":"Vendée","key":"CountyName"}]},"MapReference":{"ReferenceId":"807538970","Spot":0.2,"SideOfStreet":"left","CountryId":"20000001","StateId":"20068992","CountyId":"20080973","CityId":"20080982","AddressId":"381329030","RoadLinkId":"195209968"}}},{"Relevance":1.0,"Distance":47.1,"MatchLevel":"houseNumber","MatchQuality":{"Country":1.0,"State":1.0,"County":1.0,"City":1.0,"Street":[1.0],"HouseNumber":1.0,"PostalCode":1.0},"MatchType":"interpolated","Location":{"LocationId":"NT_32QPXmzQZEvVG23lyi1mOD_xA","LocationType":"point","DisplayPosition":{"Latitude":46.73948,"Longitude":-1.61013},"MapView":{"TopLeft":{"Latitude":46.7406042,"Longitude":-1.6117703},"BottomRight":{"Latitude":46.7383558,"Longitude":-1.6084897}},"Address":{"Label":"1 Rue Monseigneur Gendreau, 85190 Aizenay, France","Country":"FRA","State":"Pays de la Loire","County":"Vendée","City":"Aizenay","Street":"Rue Monseigneur Gendreau","HouseNumber":"1","PostalCode":"85190","AdditionalData":[{"value":"France","key":"CountryName"},{"value":"Pays de la Loire","key":"StateName"},{"value":"Vendée","key":"CountyName"}]},"MapReference":{"ReferenceId":"767260559","Spot":0.94,"SideOfStreet":"left","CountryId":"20000001","StateId":"20068992","CountyId":"20080973","CityId":"20080982","AddressId":"323637638","RoadLinkId":"160915337"}}}]}]}}