{"Response":{"MetaInfo":{"Timestamp":"2020-03-28T11:53:18.852+0000","NextPageInformation":"2"},"View":[{"_type":"SearchResultsViewType","ViewId":0,"Result":[{"Relevance":1.0,"Distance":0.0,"Direction":0.0,"MatchLevel":"city","MatchQuality":{"Country":1.0,"State":1.0,"County":1.0,"City":1.0,"PostalCode":1.0},"Location":{"LocationId":"NT_S.FP-pzMOt3VXQlVCTBayB","LocationType":"point","DisplayPosition":{"Latitude":46.7862655,"Longitude":0.8129738},"MapView":{"TopLeft":{"Latitude":46.81621,"Longitude":0.75154},"BottomRight":{"Latitude":46.73743,"Longitude":0.86009}},"Address":{"Label":"La Roche-Posay, Nouvelle-Aquitaine, France","Country":"FRA","State":"Nouvelle-Aquitaine","County":"Vienne","City":"La Roche-Posay","PostalCode":"86270","AdditionalData":[{"value":"France","key":"CountryName"},{"value":"Nouvelle-Aquitaine","key":"StateName"},{"value":"Vienne","key":"CountyName"}]},"MapReference":{"ReferenceId":"57230254","SideOfStreet":"neither","CountryId":"20000001","StateId":"20000383","CountyId":"20081830","CityId":"20082427"}}},{"Relevance":1.0,"Distance":2.5,"MatchLevel":"houseNumber","MatchQuality":{"Country":1.0,"State":1.0,"County":1.0,"City":1.0,"Street":[1.0],"HouseNumber":1.0,"PostalCode":1.0},"MatchType":"interpolated","Location":{"LocationId":"NT_8LzXNN4nIsNWSyFR2BVOYB_xcD","LocationType":"point","DisplayPosition":{"Latitude":46.7863,"Longitude":0.81285},"MapView":{"TopLeft":{"Latitude":46.7874242,"Longitude":0.8112082},"BottomRight":{"Latitude":46.7851758,"Longitude":0.8144918}},"Address":{"Label":"17 Cours Pasteur, 86270 La Roche-Posay, France","Country":"FRA","State":"Nouvelle-Aquitaine","County":"Vienne","City":"La Roche-Posay","Street":"Cours Pasteur","HouseNumber":"17","PostalCode":"86270","AdditionalData":[{"value":"France","key":"CountryName"},{"value":"Nouvelle-Aquitaine","key":"StateName"},{"value":"Vienne","key":"CountyName"}]},"MapReference":{"ReferenceId":"57230254","Spot":0.21,"SideOfStreet":"right","CountryId":"20000001","StateId":"20000383","CountyId":"20081830","CityId":"20082427","AddressId":"318040297","RoadLinkId":"46533111"}}},{"Relevance":1.0,"Distance":20.9,"MatchLevel":"street","MatchQuality":{"Country":1.0,"State":1.0,"County":1.0,"City":1.0,"Street":[1.0],"PostalCode":1.0},"Location":{"LocationId":"NT_.7LKrhL.sSoHhwtPI56W1C_l_568366085_R","LocationType":"point","DisplayPosition":{"Latitude":46.78618,"Longitude":0.81273},"MapView":{"TopLeft":{"Latitude":46.78648,"Longitude":0.81214},"BottomRight":{"Latitude":46.78618,"Longitude":0.81273}},"Address":{"Label":"Place de la République, 86270 La Roche-Posay, France","Country":"FRA","State":"Nouvelle-Aquitaine","County":"Vienne","City":"La Roche-Posay","Street":"Place de la République","PostalCode":"86270","AdditionalData":[{"value":"France","key":"CountryName"},{"value":"Nouvelle-Aquitaine","key":"StateName"},{"value":"Vienne","key":"CountyName"}]},"MapReference":{"ReferenceId":"568366085","Spot":0.0,"SideOfStreet":"right","CountryId":"20000001","StateId":"20000383","CountyId":"20081830","CityId":"20082427"}}},{"Relevance":1.0,"Distance":23.1,"MatchLevel":"houseNumber","MatchQuality":{"Country":1.0,"State":1.0,"County":1.0,"City":1.0,"Street":[1.0],"HouseNumber":1.0,"PostalCode":1.0},"MatchType":"interpolated","Location":{"LocationId":"NT_8LzXNN4nIsNWSyFR2BVOYB_yED","LocationType":"point","DisplayPosition":{"Latitude":46.78614,"Longitude":0.81269},"MapView":{"TopLeft":{"Latitude":46.7872642,"Longitude":0.8110482},"BottomRight":{"Latitude":46.7850158,"Longitude":0.8143318}},"Address":{"Label":"21 Cours Pasteur, 86270 La Roche-Posay, France","Country":"FRA","State":"Nouvelle-Aquitaine","County":"Vienne","City":"La Roche-Posay","Street":"Cours Pasteur","HouseNumber":"21","PostalCode":"86270","AdditionalData":[{"value":"France","key":"CountryName"},{"value":"Nouvelle-Aquitaine","key":"StateName"},{"value":"Vienne","key":"CountyName"}]},"MapReference":{"ReferenceId":"568366083","Spot":0.96,"SideOfStreet":"right","CountryId":"20000001","StateId":"20000383","CountyId":"20081830","CityId":"20082427","AddressId":"376476583","RoadLinkId":"46993055"}}},{"Relevance":1.0,"Distance":49.8,"MatchLevel":"houseNumber","MatchQuality":{"Country":1.0,"State":1.0,"County":1.0,"City":1.0,"Street":[1.0],"HouseNumber":1.0,"PostalCode":1.0},"MatchType":"interpolated","Location":{"LocationId":"NT_JEV8Ay7abW2ZQDkuAgCNwD_yA","LocationType":"point","DisplayPosition":{"Latitude":46.78656,"Longitude":0.81351},"MapView":{"TopLeft":{"Latitude":46.7876842,"Longitude":0.8118682},"BottomRight":{"Latitude":46.7854358,"Longitude":0.8151518}},"Address":{"Label":"2 Rue du Ivè Zouave, 86270 La Roche-Posay, France","Country":"FRA","State":"Nouvelle-Aquitaine","County":"Vienne","City":"La Roche-Posay","Street":"Rue du Ivè Zouave","HouseNumber":"2","PostalCode":"86270","AdditionalData":[{"value":"France","key":"CountryName"},{"value":"Nouvelle-Aquitaine","key":"StateName"},{"value":"Vienne","key":"CountyName"}]},"MapReference":{"ReferenceId":"990164133","Spot":0.75,"SideOfStreet":"left","CountryId":"20000001","StateId":"20000383","CountyId":"20081830","CityId":"20082427","AddressId":"318138633","RoadLinkId":"318813108"}}},{"Relevance":1.0,"Distance":66.3,"MatchLevel":"houseNumber","MatchQuality":{"Country":1.0,"State":1.0,"County":1.0,"City":1.0,"Street":[1.0],"HouseNumber":1.0,"PostalCode":1.0},"MatchType":"interpolated","Location":{"LocationId":"NT_2r2bp3h3qp04kvNMxQ65HD_yA","LocationType":"point","DisplayPosition":{"Latitude":46.78682,"Longitude":0.81341},"MapView":{"TopLeft":{"Latitude":46.7879442,"Longitude":0.8117682},"BottomRight":{"Latitude":46.7856958,"Longitude":0.8150518}},"Address":{"Label":"2 Place de l'Éperon, 86270 La Roche-Posay, France","Country":"FRA","State":"Nouvelle-Aquitaine","County":"Vienne","City":"La Roche-Posay","Street":"Place de l'Éperon","HouseNumber":"2","PostalCode":"86270","AdditionalData":[{"value":"France","key":"CountryName"},{"value":"Nouvelle-Aquitaine","key":"StateName"},{"value":"Vienne","key":"CountyName"}]},"MapReference":{"ReferenceId":"57230014","Spot":0.55,"SideOfStreet":"right","CountryId":"20000001","StateId":"20000383","CountyId":"20081830","CityId":"20082427","AddressId":"318029665","RoadLinkId":"46378081"}}},{"Relevance":1.0,"Distance":67.9,"MatchLevel":"houseNumber","MatchQuality":{"Country":1.0,"State":1.0,"County":1.0,"City":1.0,"Street":[1.0],"HouseNumber":1.0,"PostalCode":1.0},"MatchType":"interpolated","Location":{"LocationId":"NT_.7LKrhL.sSoHhwtPI56W1C_yA","LocationType":"point","DisplayPosition":{"Latitude":46.78648,"Longitude":0.81214},"MapView":{"TopLeft":{"Latitude":46.7876042,"Longitude":0.8104982},"BottomRight":{"Latitude":46.7853558,"Longitude":0.8137818}},"Address":{"Label":"2 Rue Pierre-Denis Rousseau, 86270 La Roche-Posay, France","Country":"FRA","State":"Nouvelle-Aquitaine","County":"Vienne","City":"La Roche-Posay","Street":"Rue Pierre-Denis Rousseau","HouseNumber":"2","PostalCode":"86270","AdditionalData":[{"value":"France","key":"CountryName"},{"value":"Nouvelle-Aquitaine","key":"StateName"},{"value":"Vienne","key":"CountyName"}]},"MapReference":{"ReferenceId":"568366086","Spot":0.0,"SideOfStreet":"right","CountryId":"20000001","StateId":"20000383","CountyId":"20081830","CityId":"20082427","AddressId":"317904221","RoadLinkId":"47987445"}}},{"Relevance":1.0,"Distance":68.2,"MatchLevel":"houseNumber","MatchQuality":{"Country":1.0,"State":1.0,"County":1.0,"City":1.0,"Street":[1.0],"HouseNumber":1.0,"PostalCode":1.0},"MatchType":"interpolated","Location":{"LocationId":"NT_FClgwTCIXgQkut5wQqRQRB_yA","LocationType":"point","DisplayPosition":{"Latitude":46.78645,"Longitude":0.81212},"MapView":{"TopLeft":{"Latitude":46.7875742,"Longitude":0.8104782},"BottomRight":{"Latitude":46.7853258,"Longitude":0.8137618}},"Address":{"Label":"2 Boulevard Victor Hugo, 86270 La Roche-Posay, France","Country":"FRA","State":"Nouvelle-Aquitaine","County":"Vienne","City":"La Roche-Posay","Street":"Boulevard Victor Hugo","HouseNumber":"2","PostalCode":"86270","AdditionalData":[{"value":"France","key":"CountryName"},{"value":"Nouvelle-Aquitaine","key":"StateName"},{"value":"Vienne","key":"CountyName"}]},"MapReference":{"ReferenceId":"568366527","Spot":0.94,"SideOfStreet":"left","CountryId":"20000001","StateId":"20000383","CountyId":"20081830","CityId":"20082427","AddressId":"590918541","RoadLinkId":"46322735"}}},{"Relevance":1.0,"Distance":88.4,"MatchLevel":"houseNumber","MatchQuality":{"Country":1.0,"State":1.0,"County":1.0,"City":1.0,"Street":[1.0],"HouseNumber":1.0,"PostalCode":1.0},"MatchType":"interpolated","Location":{"LocationId":"NT_JEV8Ay7abW2ZQDkuAgCNwD_xQjQ","LocationType":"point","DisplayPosition":{"Latitude":46.7857,"Longitude":0.81379},"MapView":{"TopLeft":{"Latitude":46.7868242,"Longitude":0.8121483},"BottomRight":{"Latitude":46.7845758,"Longitude":0.8154317}},"Address":{"Label":"14B Rue du Ivè Zouave, 86270 La Roche-Posay, France","Country":"FRA","State":"Nouvelle-Aquitaine","County":"Vienne","City":"La Roche-Posay","Street":"Rue du Ivè Zouave","HouseNumber":"14B","PostalCode":"86270","AdditionalData":[{"value":"France","key":"CountryName"},{"value":"Nouvelle-Aquitaine","key":"StateName"},{"value":"Vienne","key":"CountyName"}]},"MapReference":{"ReferenceId":"990164134","Spot":0.23,"SideOfStreet":"right","CountryId":"20000001","StateId":"20000383","CountyId":"20081830","CityId":"20082427","AddressId":"388671927","RoadLinkId":"318813111"}}},{"Relevance":1.0,"Distance":91.1,"MatchLevel":"street","MatchQuality":{"Country":1.0,"State":1.0,"County":1.0,"City":1.0,"Street":[1.0],"PostalCode":1.0},"Location":{"LocationId":"NT_w3A--xDI9QABQRQQTuqFWD_l_1047795239_R","LocationType":"point","DisplayPosition":{"Latitude":46.78589,"Longitude":0.81191},"MapView":{"TopLeft":{"Latitude":46.78598,"Longitude":0.81143},"BottomRight":{"Latitude":46.78528,"Longitude":0.81192}},"Address":{"Label":"Place de la République, 86270 La Roche-Posay, France","Country":"FRA","State":"Nouvelle-Aquitaine","County":"Vienne","City":"La Roche-Posay","Street":"Place de la République","PostalCode":"86270","AdditionalData":[{"value":"France","key":"CountryName"},{"value":"Nouvelle-Aquitaine","key":"StateName"},{"value":"Vienne","key":"CountyName"}]},"MapReference":{"ReferenceId":"1047795239","Spot":0.8,"SideOfStreet":"right","CountryId":"20000001","StateId":"20000383","CountyId":"20081830","CityId":"20082427"}}}]}]}}