{"Response":{"MetaInfo":{"Timestamp":"2020-03-28T11:34:40.207+0000","NextPageInformation":"2"},"View":[{"_type":"SearchResultsViewType","ViewId":0,"Result":[{"Relevance":1.0,"Distance":0.0,"Direction":0.0,"MatchLevel":"district","MatchQuality":{"Country":1.0,"County":1.0,"City":1.0,"District":1.0,"PostalCode":1.0},"Location":{"LocationId":"NT_C7GAH2LlfEmd1TWLr6Ir2C","LocationType":"point","DisplayPosition":{"Latitude":46.7060853,"Longitude":28.0388752},"MapView":{"TopLeft":{"Latitude":46.71539,"Longitude":28.02728},"BottomRight":{"Latitude":46.70086,"Longitude":28.05334}},"Address":{"Label":"Epureni, Duda-Epureni, România","Country":"ROU","County":"Vaslui","City":"Duda-Epureni","District":"Epureni","PostalCode":"737233","AdditionalData":[{"value":"România","key":"CountryName"},{"value":"Vaslui","key":"CountyName"}]},"MapReference":{"ReferenceId":"845430141","SideOfStreet":"neither","CountryId":"20656215","CountyId":"20663521","CityId":"23770385","DistrictId":"23772299"}}},{"Relevance":1.0,"Distance":27.9,"MatchLevel":"street","MatchQuality":{"Country":1.0,"County":1.0,"City":1.0,"District":1.0,"PostalCode":1.0},"Location":{"LocationId":"NT_lCHrE1St8SiHve2khNlDpB_l_845430126_R","LocationType":"point","DisplayPosition":{"Latitude":46.7060002,"Longitude":28.0385306},"MapView":{"TopLeft":{"Latitude":46.70665,"Longitude":28.03837},"BottomRight":{"Latitude":46.70469,"Longitude":28.03912}},"Address":{"Label":"737233 Duda-Epureni, România","Country":"ROU","County":"Vaslui","City":"Duda-Epureni","District":"Epureni","PostalCode":"737233","AdditionalData":[{"value":"România","key":"CountryName"},{"value":"Vaslui","key":"CountyName"}]},"MapReference":{"ReferenceId":"845430126","Spot":0.69,"SideOfStreet":"right","CountryId":"20656215","CountyId":"20663521","CityId":"23770385","DistrictId":"23772299"}}},{"Relevance":1.0,"Distance":73.7,"MatchLevel":"street","MatchQuality":{"Country":1.0,"County":1.0,"City":1.0,"District":1.0,"Street":[1.0],"PostalCode":1.0},"Location":{"LocationId":"NT_ArdMvp9pQ4Wf-1aqzv3nYD_l_845430109_R","LocationType":"point","DisplayPosition":{"Latitude":46.70665,"Longitude":28.03837},"MapView":{"TopLeft":{"Latitude":46.70665,"Longitude":28.03675},"BottomRight":{"Latitude":46.70614,"Longitude":28.03837}},"Address":{"Label":"DJ284, 737233 Duda-Epureni, România","Country":"ROU","County":"Vaslui","City":"Duda-Epureni","District":"Epureni","Street":"DJ284","PostalCode":"737233","AdditionalData":[{"value":"România","key":"CountryName"},{"value":"Vaslui","key":"CountyName"}]},"MapReference":{"ReferenceId":"845430109","Spot":1.0,"SideOfStreet":"right","CountryId":"20656215","CountyId":"20663521","CityId":"23770385","DistrictId":"23772299"}}},{"Relevance":1.0,"Distance":73.7,"MatchLevel":"street","MatchQuality":{"Country":1.0,"County":1.0,"City":1.0,"District":1.0,"Street":[1.0],"PostalCode":1.0},"Location":{"LocationId":"NT_ArdMvp9pQ4Wf-1aqzv3nYD_l_845430147_R","LocationType":"point","DisplayPosition":{"Latitude":46.70665,"Longitude":28.03837},"MapView":{"TopLeft":{"Latitude":46.7069,"Longitude":28.03832},"BottomRight":{"Latitude":46.70665,"Longitude":28.03837}},"Address":{"Label":"DJ284, 737233 Duda-Epureni, România","Country":"ROU","County":"Vaslui","City":"Duda-Epureni","District":"Epureni","Street":"DJ284","PostalCode":"737233","AdditionalData":[{"value":"România","key":"CountryName"},{"value":"Vaslui","key":"CountyName"}]},"MapReference":{"ReferenceId":"845430147","Spot":0.0,"SideOfStreet":"right","CountryId":"20656215","CountyId":"20663521","CityId":"23770385","DistrictId":"23772299"}}},{"Relevance":1.0,"Distance":100.0,"MatchLevel":"street","MatchQuality":{"Country":1.0,"County":1.0,"City":1.0,"District":1.0,"Street":[1.0],"PostalCode":1.0},"Location":{"LocationId":"NT_ArdMvp9pQ4Wf-1aqzv3nYD_l_845430167_R","LocationType":"point","DisplayPosition":{"Latitude":46.7069,"Longitude":28.03832},"MapView":{"TopLeft":{"Latitude":46.70769,"Longitude":28.03812},"BottomRight":{"Latitude":46.7069,"Longitude":28.03832}},"Address":{"Label":"DJ284, 737233 Duda-Epureni, România","Country":"ROU","County":"Vaslui","City":"Duda-Epureni","District":"Epureni","Street":"DJ284","PostalCode":"737233","AdditionalData":[{"value":"România","key":"CountryName"},{"value":"Vaslui","key":"CountyName"}]},"MapReference":{"ReferenceId":"845430167","Spot":0.0,"SideOfStreet":"right","CountryId":"20656215","CountyId":"20663521","CityId":"23770385","DistrictId":"23772299"}}},{"Relevance":1.0,"Distance":100.0,"MatchLevel":"street","MatchQuality":{"Country":1.0,"County":1.0,"City":1.0,"District":1.0,"PostalCode":1.0},"Location":{"LocationId":"NT_lCHrE1St8SiHve2khNlDpB_l_845430152_L","LocationType":"point","DisplayPosition":{"Latitude":46.7069,"Longitude":28.03832},"MapView":{"TopLeft":{"Latitude":46.70773,"Longitude":28.03728},"BottomRight":{"Latitude":46.7069,"Longitude":28.03832}},"Address":{"Label":"737233 Duda-Epureni, România","Country":"ROU","County":"Vaslui","City":"Duda-Epureni","District":"Epureni","PostalCode":"737233","AdditionalData":[{"value":"România","key":"CountryName"},{"value":"Vaslui","key":"CountyName"}]},"MapReference":{"ReferenceId":"845430152","Spot":0.0,"SideOfStreet":"left","CountryId":"20656215","CountyId":"20663521","CityId":"23770385","DistrictId":"23772299"}}},{"Relevance":1.0,"Distance":150.2,"MatchLevel":"street","MatchQuality":{"Country":1.0,"County":1.0,"City":1.0,"District":1.0,"PostalCode":1.0},"Location":{"LocationId":"NT_lCHrE1St8SiHve2khNlDpB_l_845430170_L","LocationType":"point","DisplayPosition":{"Latitude":46.7047751,"Longitude":28.0393532},"MapView":{"TopLeft":{"Latitude":46.70512,"Longitude":28.03912},"BottomRight":{"Latitude":46.70469,"Longitude":28.04056}},"Address":{"Label":"737233 Duda-Epureni, România","Country":"ROU","County":"Vaslui","City":"Duda-Epureni","District":"Epureni","PostalCode":"737233","AdditionalData":[{"value":"România","key":"CountryName"},{"value":"Vaslui","key":"CountyName"}]},"MapReference":{"ReferenceId":"845430170","Spot":0.16,"SideOfStreet":"left","CountryId":"20656215","CountyId":"20663521","CityId":"23770385","DistrictId":"23772299"}}},{"Relevance":1.0,"Distance":152.2,"MatchLevel":"street","MatchQuality":{"Country":1.0,"County":1.0,"City":1.0,"District":1.0,"Street":[1.0],"PostalCode":1.0},"Location":{"LocationId":"NT_ArdMvp9pQ4Wf-1aqzv3nYD_l_845430102_L","LocationType":"point","DisplayPosition":{"Latitude":46.70659,"Longitude":28.04073},"MapView":{"TopLeft":{"Latitude":46.70659,"Longitude":28.04073},"BottomRight":{"Latitude":46.70556,"Longitude":28.0421}},"Address":{"Label":"DJ284, 737233 Duda-Epureni, România","Country":"ROU","County":"Vaslui","City":"Duda-Epureni","District":"Epureni","Street":"DJ284","PostalCode":"737233","AdditionalData":[{"value":"România","key":"CountryName"},{"value":"Vaslui","key":"CountyName"}]},"MapReference":{"ReferenceId":"845430102","Spot":1.0,"SideOfStreet":"left","CountryId":"20656215","CountyId":"20663521","CityId":"23770385","DistrictId":"23772299"}}},{"Relevance":1.0,"Distance":152.2,"MatchLevel":"street","MatchQuality":{"Country":1.0,"County":1.0,"City":1.0,"District":1.0,"PostalCode":1.0},"Location":{"LocationId":"NT_lCHrE1St8SiHve2khNlDpB_l_845430165_L","LocationType":"point","DisplayPosition":{"Latitude":46.70659,"Longitude":28.04073},"MapView":{"TopLeft":{"Latitude":46.70695,"Longitude":28.04073},"BottomRight":{"Latitude":46.70659,"Longitude":28.04139}},"Address":{"Label":"737233 Duda-Epureni, România","Country":"ROU","County":"Vaslui","City":"Duda-Epureni","District":"Epureni","PostalCode":"737233","AdditionalData":[{"value":"România","key":"CountryName"},{"value":"Vaslui","key":"CountyName"}]},"MapReference":{"ReferenceId":"845430165","Spot":0.0,"SideOfStreet":"left","CountryId":"20656215","CountyId":"20663521","CityId":"23770385","DistrictId":"23772299"}}},{"Relevance":1.0,"Distance":156.3,"MatchLevel":"street","MatchQuality":{"Country":1.0,"County":1.0,"City":1.0,"District":1.0,"PostalCode":1.0},"Location":{"LocationId":"NT_lCHrE1St8SiHve2khNlDpB_l_845430141_R","LocationType":"point","DisplayPosition":{"Latitude":46.70469,"Longitude":28.03912},"MapView":{"TopLeft":{"Latitude":46.70469,"Longitude":28.03912},"BottomRight":{"Latitude":46.70417,"Longitude":28.03956}},"Address":{"Label":"737233 Duda-Epureni, România","Country":"ROU","County":"Vaslui","City":"Duda-Epureni","District":"Epureni","PostalCode":"737233","AdditionalData":[{"value":"România","key":"CountryName"},{"value":"Vaslui","key":"CountyName"}]},"MapReference":{"ReferenceId":"845430141","Spot":1.0,"SideOfStreet":"right","CountryId":"20656215","CountyId":"20663521","CityId":"23770385","DistrictId":"23772299"}}}]}]}}