{"Response":{"MetaInfo":{"Timestamp":"2020-03-28T12:07:06.931+0000","NextPageInformation":"2"},"View":[{"_type":"SearchResultsViewType","ViewId":0,"Result":[{"Relevance":1.0,"Distance":0.0,"Direction":0.0,"MatchLevel":"district","MatchQuality":{"Country":1.0,"County":1.0,"City":1.0,"District":1.0,"PostalCode":1.0},"Location":{"LocationId":"NT_c6Xd.7eLvOnZOVski..h-C","LocationType":"point","DisplayPosition":{"Latitude":46.7231455,"Longitude":25.5994878},"MapView":{"TopLeft":{"Latitude":46.73378,"Longitude":25.56302},"BottomRight":{"Latitude":46.71072,"Longitude":25.63564}},"Address":{"Label":"Gheorgheni, România","Country":"ROU","County":"Harghita","City":"Gheorgheni","District":"Gheorgheni","PostalCode":"535500","AdditionalData":[{"value":"România","key":"CountryName"},{"value":"Harghita","key":"CountyName"}]},"MapReference":{"ReferenceId":"799651573","SideOfStreet":"neither","CountryId":"20656215","CountyId":"20659957","CityId":"23761988","DistrictId":"23763877"}}},{"Relevance":1.0,"Distance":6.5,"MatchLevel":"houseNumber","MatchQuality":{"Country":1.0,"County":1.0,"City":1.0,"District":1.0,"Street":[1.0],"HouseNumber":1.0,"PostalCode":1.0},"MatchType":"interpolated","Location":{"LocationId":"NT_PLXKqQHdDXVz4vvbRYZ9YD_4A","LocationType":"point","DisplayPosition":{"Latitude":46.72322,"Longitude":25.59954},"MapView":{"TopLeft":{"Latitude":46.7243442,"Longitude":25.5979002},"BottomRight":{"Latitude":46.7220958,"Longitude":25.6011798}},"Address":{"Label":"Bulevardul Lacu Roșu 8, 535500 Gheorgheni, România","Country":"ROU","County":"Harghita","City":"Gheorgheni","District":"Gheorgheni","Street":"Bulevardul Lacu Roșu","HouseNumber":"8","PostalCode":"535500","AdditionalData":[{"value":"România","key":"CountryName"},{"value":"Harghita","key":"CountyName"}]},"MapReference":{"ReferenceId":"880227893","Spot":0.19,"SideOfStreet":"right","CountryId":"20656215","CountyId":"20659957","CityId":"23761988","DistrictId":"23763877","AddressId":"686761100","RoadLinkId":"248875012"}}},{"Relevance":1.0,"Distance":9.6,"MatchLevel":"street","MatchQuality":{"Country":1.0,"County":1.0,"City":1.0,"District":1.0,"Street":[1.0],"PostalCode":1.0},"Location":{"LocationId":"NT_PLXKqQHdDXVz4vvbRYZ9YD_l_880227899_R","LocationType":"point","DisplayPosition":{"Latitude":46.7232,"Longitude":25.59939},"MapView":{"TopLeft":{"Latitude":46.7232,"Longitude":25.59894},"BottomRight":{"Latitude":46.72313,"Longitude":25.59939}},"Address":{"Label":"Bulevardul Lacu Roșu, 535500 Gheorgheni, România","Country":"ROU","County":"Harghita","City":"Gheorgheni","District":"Gheorgheni","Street":"Bulevardul Lacu Roșu","PostalCode":"535500","AdditionalData":[{"value":"România","key":"CountryName"},{"value":"Harghita","key":"CountyName"}]},"MapReference":{"ReferenceId":"880227899","Spot":1.0,"SideOfStreet":"right","CountryId":"20656215","CountyId":"20659957","CityId":"23761988","DistrictId":"23763877"}}},{"Relevance":1.0,"Distance":9.6,"MatchLevel":"street","MatchQuality":{"Country":1.0,"County":1.0,"City":1.0,"District":1.0,"PostalCode":1.0},"Location":{"LocationId":"NT_nxcNOFmMll1zqC3GuhDhhC_l_799565771_R","LocationType":"point","DisplayPosition":{"Latitude":46.7232,"Longitude":25.59939},"MapView":{"TopLeft":{"Latitude":46.72324,"Longitude":25.59933},"BottomRight":{"Latitude":46.7232,"Longitude":25.59939}},"Address":{"Label":"535500 Gheorgheni, România","Country":"ROU","County":"Harghita","City":"Gheorgheni","District":"Gheorgheni","PostalCode":"535500","AdditionalData":[{"value":"România","key":"CountryName"},{"value":"Harghita","key":"CountyName"}]},"MapReference":{"ReferenceId":"799565771","Spot":0.0,"SideOfStreet":"right","CountryId":"20656215","CountyId":"20659957","CityId":"23761988","DistrictId":"23763877"}}},{"Relevance":1.0,"Distance":13.0,"MatchLevel":"street","MatchQuality":{"Country":1.0,"County":1.0,"City":1.0,"District":1.0,"Street":[1.0],"PostalCode":1.0},"Location":{"LocationId":"NT_D7ghsvnziVn68odaKqH9tA_l_880227895_R","LocationType":"point","DisplayPosition":{"Latitude":46.7232614,"Longitude":25.5994701},"MapView":{"TopLeft":{"Latitude":46.72337,"Longitude":25.59933},"BottomRight":{"Latitude":46.72324,"Longitude":25.60018}},"Address":{"Label":"Bulevardul Lacu Roșu, 535500 Gheorgheni, România","Country":"ROU","County":"Harghita","City":"Gheorgheni","District":"Gheorgheni","Street":"Bulevardul Lacu Roșu","PostalCode":"535500","AdditionalData":[{"value":"România","key":"CountryName"},{"value":"Harghita","key":"CountyName"}]},"MapReference":{"ReferenceId":"880227895","Spot":0.16,"SideOfStreet":"right","CountryId":"20656215","CountyId":"20659957","CityId":"23761988","DistrictId":"23763877"}}},{"Relevance":1.0,"Distance":31.2,"MatchLevel":"houseNumber","MatchQuality":{"Country":1.0,"County":1.0,"City":1.0,"District":1.0,"Street":[1.0],"HouseNumber":1.0,"PostalCode":1.0},"MatchType":"interpolated","Location":{"LocationId":"NT_PLXKqQHdDXVz4vvbRYZ9YD_xA","LocationType":"point","DisplayPosition":{"Latitude":46.72321,"Longitude":25.59909},"MapView":{"TopLeft":{"Latitude":46.7243342,"Longitude":25.5974502},"BottomRight":{"Latitude":46.7220858,"Longitude":25.6007298}},"Address":{"Label":"Bulevardul Lacu Roșu 1, 535500 Gheorgheni, România","Country":"ROU","County":"Harghita","City":"Gheorgheni","District":"Gheorgheni","Street":"Bulevardul Lacu Roșu","HouseNumber":"1","PostalCode":"535500","AdditionalData":[{"value":"România","key":"CountryName"},{"value":"Harghita","key":"CountyName"}]},"MapReference":{"ReferenceId":"880227901","Spot":0.43,"SideOfStreet":"left","CountryId":"20656215","CountyId":"20659957","CityId":"23761988","DistrictId":"23763877","AddressId":"686761103","RoadLinkId":"248875026"}}},{"Relevance":1.0,"Distance":41.8,"MatchLevel":"street","MatchQuality":{"Country":1.0,"County":1.0,"City":1.0,"District":1.0,"Street":[1.0],"PostalCode":1.0},"Location":{"LocationId":"NT_D7ghsvnziVn68odaKqH9tA_l_880227898_R","LocationType":"point","DisplayPosition":{"Latitude":46.72313,"Longitude":25.59894},"MapView":{"TopLeft":{"Latitude":46.72313,"Longitude":25.5985},"BottomRight":{"Latitude":46.72306,"Longitude":25.59894}},"Address":{"Label":"Bulevardul Lacu Roșu, 535500 Gheorgheni, România","Country":"ROU","County":"Harghita","City":"Gheorgheni","District":"Gheorgheni","Street":"Bulevardul Lacu Roșu","PostalCode":"535500","AdditionalData":[{"value":"România","key":"CountryName"},{"value":"Harghita","key":"CountyName"}]},"MapReference":{"ReferenceId":"880227898","Spot":1.0,"SideOfStreet":"right","CountryId":"20656215","CountyId":"20659957","CityId":"23761988","DistrictId":"23763877"}}},{"Relevance":1.0,"Distance":44.2,"MatchLevel":"street","MatchQuality":{"Country":1.0,"County":1.0,"City":1.0,"District":1.0,"Street":[1.0],"PostalCode":1.0},"Location":{"LocationId":"NT_PLXKqQHdDXVz4vvbRYZ9YD_l_880227900_R","LocationType":"point","DisplayPosition":{"Latitude":46.72318,"Longitude":25.59891},"MapView":{"TopLeft":{"Latitude":46.72318,"Longitude":25.59847},"BottomRight":{"Latitude":46.72316,"Longitude":25.59891}},"Address":{"Label":"Bulevardul Lacu Roșu, 535500 Gheorgheni, România","Country":"ROU","County":"Harghita","City":"Gheorgheni","District":"Gheorgheni","Street":"Bulevardul Lacu Roșu","PostalCode":"535500","AdditionalData":[{"value":"România","key":"CountryName"},{"value":"Harghita","key":"CountyName"}]},"MapReference":{"ReferenceId":"880227900","Spot":1.0,"SideOfStreet":"right","CountryId":"20656215","CountyId":"20659957","CityId":"23761988","DistrictId":"23763877"}}},{"Relevance":1.0,"Distance":55.8,"MatchLevel":"street","MatchQuality":{"Country":1.0,"County":1.0,"City":1.0,"District":1.0,"Street":[1.0],"PostalCode":1.0},"Location":{"LocationId":"NT_RT0Lfhp9TgNZKEMF8.TVRB_l_996473227_L","LocationType":"point","DisplayPosition":{"Latitude":46.72331,"Longitude":25.60018},"MapView":{"TopLeft":{"Latitude":46.72331,"Longitude":25.60018},"BottomRight":{"Latitude":46.72325,"Longitude":25.60026}},"Address":{"Label":"Strada Mitrop. Miron Cristea, 535500 Gheorgheni, România","Country":"ROU","County":"Harghita","City":"Gheorgheni","District":"Gheorgheni","Street":"Strada Mitrop. Miron Cristea","PostalCode":"535500","AdditionalData":[{"value":"România","key":"CountryName"},{"value":"Harghita","key":"CountyName"}]},"MapReference":{"ReferenceId":"996473227","Spot":1.0,"SideOfStreet":"left","CountryId":"20656215","CountyId":"20659957","CityId":"23761988","DistrictId":"23763877"}}},{"Relevance":1.0,"Distance":55.8,"MatchLevel":"street","MatchQuality":{"Country":1.0,"County":1.0,"City":1.0,"District":1.0,"Street":[1.0],"PostalCode":1.0},"Location":{"LocationId":"NT_PLXKqQHdDXVz4vvbRYZ9YD_l_880227894_R","LocationType":"point","DisplayPosition":{"Latitude":46.72331,"Longitude":25.60018},"MapView":{"TopLeft":{"Latitude":46.72344,"Longitude":25.60018},"BottomRight":{"Latitude":46.72331,"Longitude":25.6009}},"Address":{"Label":"Bulevardul Lacu Roșu, 535500 Gheorgheni, România","Country":"ROU","County":"Harghita","City":"Gheorgheni","District":"Gheorgheni","Street":"Bulevardul Lacu Roșu","PostalCode":"535500","AdditionalData":[{"value":"România","key":"CountryName"},{"value":"Harghita","key":"CountyName"}]},"MapReference":{"ReferenceId":"880227894","Spot":0.0,"SideOfStreet":"right","CountryId":"20656215","CountyId":"20659957","CityId":"23761988","DistrictId":"23763877"}}}]}]}}