{"Response":{"MetaInfo":{"Timestamp":"2020-03-28T11:35:21.171+0000","NextPageInformation":"2"},"View":[{"_type":"SearchResultsViewType","ViewId":0,"Result":[{"Relevance":1.0,"Distance":0.0,"Direction":0.0,"MatchLevel":"district","MatchQuality":{"Country":1.0,"County":1.0,"City":1.0,"District":1.0,"PostalCode":1.0},"Location":{"LocationId":"NT_0hRtXbkuU3xnBpEicSZZzA","LocationType":"point","DisplayPosition":{"Latitude":46.7743398,"Longitude":23.5999931},"MapView":{"TopLeft":{"Latitude":46.84565,"Longitude":23.52831},"BottomRight":{"Latitude":46.70963,"Longitude":23.70151}},"Address":{"Label":"Cluj-Napoca, România","Country":"ROU","County":"Cluj","City":"Cluj-Napoca","District":"Cluj-Napoca","PostalCode":"400119","AdditionalData":[{"value":"România","key":"CountryName"},{"value":"Cluj","key":"CountyName"}]},"MapReference":{"ReferenceId":"1229084931","SideOfStreet":"neither","CountryId":"20656215","CountyId":"20658566","CityId":"20658626","DistrictId":"20658627"}}},{"Relevance":1.0,"Distance":18.2,"MatchLevel":"houseNumber","MatchQuality":{"Country":1.0,"County":1.0,"City":1.0,"District":1.0,"Street":[1.0],"HouseNumber":1.0},"MatchType":"interpolated","Location":{"LocationId":"NT_rU-.j.RosNGeL7b.xY-sDC_1UD","LocationType":"point","DisplayPosition":{"Latitude":46.77431,"Longitude":23.60027},"MapView":{"TopLeft":{"Latitude":46.7754342,"Longitude":23.5986286},"BottomRight":{"Latitude":46.7731858,"Longitude":23.6019114}},"Address":{"Label":"Bulevardul 21 Decembrie 1989 55, Cluj-Napoca, România","Country":"ROU","County":"Cluj","City":"Cluj-Napoca","District":"Cluj-Napoca","Street":"Bulevardul 21 Decembrie 1989","HouseNumber":"55","AdditionalData":[{"value":"România","key":"CountryName"},{"value":"Cluj","key":"CountyName"}]},"MapReference":{"ReferenceId":"905118260","Spot":0.34,"SideOfStreet":"left","CountryId":"20656215","CountyId":"20658566","CityId":"20658626","DistrictId":"20658627","AddressId":"722163145","RoadLinkId":"266322393"}}},{"Relevance":1.0,"Distance":25.8,"MatchLevel":"houseNumber","MatchQuality":{"Country":1.0,"County":1.0,"City":1.0,"District":1.0,"Street":[1.0],"HouseNumber":1.0},"MatchType":"interpolated","Location":{"LocationId":"NT_rU-.j.RosNGeL7b.xY-sDC_4ID","LocationType":"point","DisplayPosition":{"Latitude":46.77414,"Longitude":23.59982},"MapView":{"TopLeft":{"Latitude":46.7752642,"Longitude":23.5981786},"BottomRight":{"Latitude":46.7730158,"Longitude":23.6014614}},"Address":{"Label":"Bulevardul 21 Decembrie 1989 82, Cluj-Napoca, România","Country":"ROU","County":"Cluj","City":"Cluj-Napoca","District":"Cluj-Napoca","Street":"Bulevardul 21 Decembrie 1989","HouseNumber":"82","AdditionalData":[{"value":"România","key":"CountryName"},{"value":"Cluj","key":"CountyName"}]},"MapReference":{"ReferenceId":"1201844243","Spot":0.05,"SideOfStreet":"right","CountryId":"20656215","CountyId":"20658566","CityId":"20658626","DistrictId":"20658627","AddressId":"722162893","RoadLinkId":"514505150"}}},{"Relevance":1.0,"Distance":36.6,"MatchLevel":"houseNumber","MatchQuality":{"Country":1.0,"County":1.0,"City":1.0,"District":1.0,"Street":[1.0],"HouseNumber":1.0},"MatchType":"interpolated","Location":{"LocationId":"NT_rU-.j.RosNGeL7b.xY-sDC_1ED","LocationType":"point","DisplayPosition":{"Latitude":46.77409,"Longitude":23.59968},"MapView":{"TopLeft":{"Latitude":46.7752142,"Longitude":23.5980386},"BottomRight":{"Latitude":46.7729658,"Longitude":23.6013214}},"Address":{"Label":"Bulevardul 21 Decembrie 1989 51, Cluj-Napoca, România","Country":"ROU","County":"Cluj","City":"Cluj-Napoca","District":"Cluj-Napoca","Street":"Bulevardul 21 Decembrie 1989","HouseNumber":"51","AdditionalData":[{"value":"România","key":"CountryName"},{"value":"Cluj","key":"CountyName"}]},"MapReference":{"ReferenceId":"1201844242","Spot":0.55,"SideOfStreet":"left","CountryId":"20656215","CountyId":"20658566","CityId":"20658626","DistrictId":"20658627","AddressId":"722162892","RoadLinkId":"514505149"}}},{"Relevance":1.0,"Distance":49.8,"MatchLevel":"street","MatchQuality":{"Country":1.0,"County":1.0,"City":1.0,"District":1.0,"Street":[1.0]},"Location":{"LocationId":"NT_kvq2BkTXsqzMs.SkZE1xQC_l_892140484_R","LocationType":"point","DisplayPosition":{"Latitude":46.77403,"Longitude":23.59952},"MapView":{"TopLeft":{"Latitude":46.77437,"Longitude":23.59929},"BottomRight":{"Latitude":46.77403,"Longitude":23.59952}},"Address":{"Label":"Strada Paris, Cluj-Napoca, România","Country":"ROU","County":"Cluj","City":"Cluj-Napoca","District":"Cluj-Napoca","Street":"Strada Paris","AdditionalData":[{"value":"România","key":"CountryName"},{"value":"Cluj","key":"CountyName"}]},"MapReference":{"ReferenceId":"892140484","Spot":0.0,"SideOfStreet":"right","CountryId":"20656215","CountyId":"20658566","CityId":"20658626","DistrictId":"20658627"}}},{"Relevance":1.0,"Distance":49.8,"MatchLevel":"street","MatchQuality":{"Country":1.0,"County":1.0,"City":1.0,"District":1.0,"Street":[1.0]},"Location":{"LocationId":"NT_rU-.j.RosNGeL7b.xY-sDC_l_905118263_L","LocationType":"point","DisplayPosition":{"Latitude":46.77403,"Longitude":23.59952},"MapView":{"TopLeft":{"Latitude":46.77403,"Longitude":23.59942},"BottomRight":{"Latitude":46.77399,"Longitude":23.59952}},"Address":{"Label":"Bulevardul 21 Decembrie 1989, Cluj-Napoca, România","Country":"ROU","County":"Cluj","City":"Cluj-Napoca","District":"Cluj-Napoca","Street":"Bulevardul 21 Decembrie 1989","AdditionalData":[{"value":"România","key":"CountryName"},{"value":"Cluj","key":"CountyName"}]},"MapReference":{"ReferenceId":"905118263","Spot":1.0,"SideOfStreet":"left","CountryId":"20656215","CountyId":"20658566","CityId":"20658626","DistrictId":"20658627"}}},{"Relevance":1.0,"Distance":50.0,"MatchLevel":"street","MatchQuality":{"Country":1.0,"County":1.0,"City":1.0,"District":1.0,"Street":[1.0],"PostalCode":1.0},"Location":{"LocationId":"NT_qtlDGBRzY5-sV2IMkiWd0A_l_1235772987_R","LocationType":"point","DisplayPosition":{"Latitude":46.7740261,"Longitude":23.5995226},"MapView":{"TopLeft":{"Latitude":46.77403,"Longitude":23.59952},"BottomRight":{"Latitude":46.77397,"Longitude":23.59956}},"Address":{"Label":"Strada Pitești, 400119 Cluj-Napoca, România","Country":"ROU","County":"Cluj","City":"Cluj-Napoca","District":"Cluj-Napoca","Street":"Strada Pitești","PostalCode":"400119","AdditionalData":[{"value":"România","key":"CountryName"},{"value":"Cluj","key":"CountyName"}]},"MapReference":{"ReferenceId":"1235772987","Spot":0.94,"SideOfStreet":"right","CountryId":"20656215","CountyId":"20658566","CityId":"20658626","DistrictId":"20658627"}}},{"Relevance":1.0,"Distance":69.4,"MatchLevel":"houseNumber","MatchQuality":{"Country":1.0,"County":1.0,"City":1.0,"District":1.0,"Street":[1.0],"HouseNumber":1.0,"PostalCode":1.0},"MatchType":"interpolated","Location":{"LocationId":"NT_qtlDGBRzY5-sV2IMkiWd0A_yAD","LocationType":"point","DisplayPosition":{"Latitude":46.77371,"Longitude":23.59976},"MapView":{"TopLeft":{"Latitude":46.7748342,"Longitude":23.5981186},"BottomRight":{"Latitude":46.7725858,"Longitude":23.6014014}},"Address":{"Label":"Strada Pitești 20, 400119 Cluj-Napoca, România","Country":"ROU","County":"Cluj","City":"Cluj-Napoca","District":"Cluj-Napoca","Street":"Strada Pitești","HouseNumber":"20","PostalCode":"400119","AdditionalData":[{"value":"România","key":"CountryName"},{"value":"Cluj","key":"CountyName"}]},"MapReference":{"ReferenceId":"1235773005","Spot":0.76,"SideOfStreet":"right","CountryId":"20656215","CountyId":"20658566","CityId":"20658626","DistrictId":"20658627","AddressId":"686334631","RoadLinkId":"556332927"}}},{"Relevance":1.0,"Distance":73.8,"MatchLevel":"houseNumber","MatchQuality":{"Country":1.0,"County":1.0,"City":1.0,"District":1.0,"Street":[1.0],"HouseNumber":1.0,"PostalCode":1.0},"MatchType":"interpolated","Location":{"LocationId":"NT_J6snm-vISxsmN2BdU7rJvD_1kD","LocationType":"point","DisplayPosition":{"Latitude":46.77455,"Longitude":23.60091},"MapView":{"TopLeft":{"Latitude":46.7756742,"Longitude":23.5992686},"BottomRight":{"Latitude":46.7734258,"Longitude":23.6025514}},"Address":{"Label":"Bulevardul 21 Decembrie 1989 59, 400124 Cluj-Napoca, România","Country":"ROU","County":"Cluj","City":"Cluj-Napoca","District":"Cluj-Napoca","Street":"Bulevardul 21 Decembrie 1989","HouseNumber":"59","PostalCode":"400124","AdditionalData":[{"value":"România","key":"CountryName"},{"value":"Cluj","key":"CountyName"}]},"MapReference":{"ReferenceId":"905118261","Spot":0.08,"SideOfStreet":"left","CountryId":"20656215","CountyId":"20658566","CityId":"20658626","DistrictId":"20658627","AddressId":"722163136","RoadLinkId":"266322394"}}},{"Relevance":1.0,"Distance":78.6,"MatchLevel":"street","MatchQuality":{"Country":1.0,"County":1.0,"City":1.0,"District":1.0},"Location":{"LocationId":"NT_tP2m9OWPcyeXYsxRPLrbpC_l_1056872107_L","LocationType":"point","DisplayPosition":{"Latitude":46.77503,"Longitude":23.59977},"MapView":{"TopLeft":{"Latitude":46.77529,"Longitude":23.59954},"BottomRight":{"Latitude":46.77503,"Longitude":23.59977}},"Address":{"Label":"Cluj-Napoca, România","Country":"ROU","County":"Cluj","City":"Cluj-Napoca","District":"Cluj-Napoca","AdditionalData":[{"value":"România","key":"CountryName"},{"value":"Cluj","key":"CountyName"}]},"MapReference":{"ReferenceId":"1056872107","Spot":0.0,"SideOfStreet":"left","CountryId":"20656215","CountyId":"20658566","CityId":"20658626","DistrictId":"20658627"}}}]}]}}