{"Response":{"MetaInfo":{"Timestamp":"2020-03-28T10:50:26.607+0000","NextPageInformation":"2"},"View":[{"_type":"SearchResultsViewType","ViewId":0,"Result":[{"Relevance":1.0,"Distance":0.0,"Direction":0.0,"MatchLevel":"district","MatchQuality":{"Country":1.0,"County":1.0,"City":1.0,"District":1.0,"PostalCode":1.0},"Location":{"LocationId":"NT_iZkDf1ICeB6lJ1V4R6qOmC","LocationType":"point","DisplayPosition":{"Latitude":46.7477349,"Longitude":23.8412696},"MapView":{"TopLeft":{"Latitude":46.75599,"Longitude":23.81438},"BottomRight":{"Latitude":46.73913,"Longitude":23.84962}},"Address":{"Label":"Cojocna, România","Country":"ROU","County":"Cluj","City":"Cojocna","District":"Cojocna","PostalCode":"407240","AdditionalData":[{"value":"România","key":"CountryName"},{"value":"Cluj","key":"CountyName"}]},"MapReference":{"ReferenceId":"1181848378","SideOfStreet":"neither","CountryId":"20656215","CountyId":"20658566","CityId":"23759478","DistrictId":"23761886"}}},{"Relevance":1.0,"Distance":90.7,"MatchLevel":"street","MatchQuality":{"Country":1.0,"County":1.0,"City":1.0,"District":1.0,"Street":[1.0],"PostalCode":1.0},"Location":{"LocationId":"NT_HCrgHSP-Elr1KA7pGUasUA_l_1205872322_L","LocationType":"point","DisplayPosition":{"Latitude":46.74772,"Longitude":23.84246},"MapView":{"TopLeft":{"Latitude":46.74867,"Longitude":23.84246},"BottomRight":{"Latitude":46.74772,"Longitude":23.84279}},"Address":{"Label":"Strada Sanator, 407240 Cojocna, România","Country":"ROU","County":"Cluj","City":"Cojocna","District":"Cojocna","Street":"Strada Sanator","PostalCode":"407240","AdditionalData":[{"value":"România","key":"CountryName"},{"value":"Cluj","key":"CountyName"}]},"MapReference":{"ReferenceId":"1205872322","Spot":0.0,"SideOfStreet":"left","CountryId":"20656215","CountyId":"20658566","CityId":"23759478","DistrictId":"23761886"}}},{"Relevance":1.0,"Distance":90.7,"MatchLevel":"street","MatchQuality":{"Country":1.0,"County":1.0,"City":1.0,"District":1.0,"PostalCode":1.0},"Location":{"LocationId":"NT_p83ZK4lTtYLxS67o4PiyZA_l_1255640856_L","LocationType":"point","DisplayPosition":{"Latitude":46.74772,"Longitude":23.84246},"MapView":{"TopLeft":{"Latitude":46.74772,"Longitude":23.84246},"BottomRight":{"Latitude":46.74756,"Longitude":23.84346}},"Address":{"Label":"407240 Cojocna, România","Country":"ROU","County":"Cluj","City":"Cojocna","District":"Cojocna","PostalCode":"407240","AdditionalData":[{"value":"România","key":"CountryName"},{"value":"Cluj","key":"CountyName"}]},"MapReference":{"ReferenceId":"1255640856","Spot":1.0,"SideOfStreet":"left","CountryId":"20656215","CountyId":"20658566","CityId":"23759478","DistrictId":"23761886"}}},{"Relevance":1.0,"Distance":90.8,"MatchLevel":"street","MatchQuality":{"Country":1.0,"County":1.0,"City":1.0,"District":1.0,"Street":[1.0],"PostalCode":1.0},"Location":{"LocationId":"NT_HCrgHSP-Elr1KA7pGUasUA_l_1255636774_L","LocationType":"point","DisplayPosition":{"Latitude":46.7472932,"Longitude":23.8422719},"MapView":{"TopLeft":{"Latitude":46.74772,"Longitude":23.8422},"BottomRight":{"Latitude":46.74713,"Longitude":23.84246}},"Address":{"Label":"Strada Sanator, 407240 Cojocna, România","Country":"ROU","County":"Cluj","City":"Cojocna","District":"Cojocna","Street":"Strada Sanator","PostalCode":"407240","AdditionalData":[{"value":"România","key":"CountryName"},{"value":"Cluj","key":"CountyName"}]},"MapReference":{"ReferenceId":"1255636774","Spot":0.28,"SideOfStreet":"left","CountryId":"20656215","CountyId":"20658566","CityId":"23759478","DistrictId":"23761886"}}},{"Relevance":1.0,"Distance":97.7,"MatchLevel":"street","MatchQuality":{"Country":1.0,"County":1.0,"City":1.0,"District":1.0,"Street":[1.0],"PostalCode":1.0},"Location":{"LocationId":"NT_HCrgHSP-Elr1KA7pGUasUA_l_1255636773_L","LocationType":"point","DisplayPosition":{"Latitude":46.74713,"Longitude":23.8422},"MapView":{"TopLeft":{"Latitude":46.74713,"Longitude":23.83729},"BottomRight":{"Latitude":46.73913,"Longitude":23.8422}},"Address":{"Label":"Strada Sanator, 407240 Cojocna, România","Country":"ROU","County":"Cluj","City":"Cojocna","District":"Cojocna","Street":"Strada Sanator","PostalCode":"407240","AdditionalData":[{"value":"România","key":"CountryName"},{"value":"Cluj","key":"CountyName"}]},"MapReference":{"ReferenceId":"1255636773","Spot":1.0,"SideOfStreet":"left","CountryId":"20656215","CountyId":"20658566","CityId":"23759478","DistrictId":"23761886"}}},{"Relevance":1.0,"Distance":155.7,"MatchLevel":"street","MatchQuality":{"Country":1.0,"County":1.0,"City":1.0,"District":1.0,"Street":[1.0],"PostalCode":1.0},"Location":{"LocationId":"NT_3uV0mvJOiJBKykQGAKdueD_l_1205872320_L","LocationType":"point","DisplayPosition":{"Latitude":46.74867,"Longitude":23.84279},"MapView":{"TopLeft":{"Latitude":46.74867,"Longitude":23.84279},"BottomRight":{"Latitude":46.74847,"Longitude":23.84396}},"Address":{"Label":"Strada Abator, 407240 Cojocna, România","Country":"ROU","County":"Cluj","City":"Cojocna","District":"Cojocna","Street":"Strada Abator","PostalCode":"407240","AdditionalData":[{"value":"România","key":"CountryName"},{"value":"Cluj","key":"CountyName"}]},"MapReference":{"ReferenceId":"1205872320","Spot":1.0,"SideOfStreet":"left","CountryId":"20656215","CountyId":"20658566","CityId":"23759478","DistrictId":"23761886"}}},{"Relevance":1.0,"Distance":155.7,"MatchLevel":"street","MatchQuality":{"Country":1.0,"County":1.0,"City":1.0,"District":1.0,"Street":[1.0],"PostalCode":1.0},"Location":{"LocationId":"NT_HCrgHSP-Elr1KA7pGUasUA_l_835778721_L","LocationType":"point","DisplayPosition":{"Latitude":46.74867,"Longitude":23.84279},"MapView":{"TopLeft":{"Latitude":46.74966,"Longitude":23.84272},"BottomRight":{"Latitude":46.74867,"Longitude":23.84287}},"Address":{"Label":"Strada Sanator, 407240 Cojocna, România","Country":"ROU","County":"Cluj","City":"Cojocna","District":"Cojocna","Street":"Strada Sanator","PostalCode":"407240","AdditionalData":[{"value":"România","key":"CountryName"},{"value":"Cluj","key":"CountyName"}]},"MapReference":{"ReferenceId":"835778721","Spot":0.0,"SideOfStreet":"left","CountryId":"20656215","CountyId":"20658566","CityId":"23759478","DistrictId":"23761886"}}},{"Relevance":1.0,"Distance":161.5,"MatchLevel":"street","MatchQuality":{"Country":1.0,"County":1.0,"City":1.0,"District":1.0,"PostalCode":1.0},"Location":{"LocationId":"NT_p83ZK4lTtYLxS67o4PiyZA_l_1257111781_R","LocationType":"point","DisplayPosition":{"Latitude":46.74734,"Longitude":23.83923},"MapView":{"TopLeft":{"Latitude":46.74858,"Longitude":23.83779},"BottomRight":{"Latitude":46.74723,"Longitude":23.83923}},"Address":{"Label":"407240 Cojocna, România","Country":"ROU","County":"Cluj","City":"Cojocna","District":"Cojocna","PostalCode":"407240","AdditionalData":[{"value":"România","key":"CountryName"},{"value":"Cluj","key":"CountyName"}]},"MapReference":{"ReferenceId":"1257111781","Spot":0.05,"SideOfStreet":"right","CountryId":"20656215","CountyId":"20658566","CityId":"23759478","DistrictId":"23761886"}}},{"Relevance":1.0,"Distance":177.4,"MatchLevel":"street","MatchQuality":{"Country":1.0,"County":1.0,"City":1.0,"District":1.0,"PostalCode":1.0},"Location":{"LocationId":"NT_p83ZK4lTtYLxS67o4PiyZA_l_1205873790_L","LocationType":"point","DisplayPosition":{"Latitude":46.74674,"Longitude":23.83945},"MapView":{"TopLeft":{"Latitude":46.74674,"Longitude":23.83648},"BottomRight":{"Latitude":46.74646,"Longitude":23.83945}},"Address":{"Label":"407240 Cojocna, România","Country":"ROU","County":"Cluj","City":"Cojocna","District":"Cojocna","PostalCode":"407240","AdditionalData":[{"value":"România","key":"CountryName"},{"value":"Cluj","key":"CountyName"}]},"MapReference":{"ReferenceId":"1205873790","Spot":1.0,"SideOfStreet":"left","CountryId":"20656215","CountyId":"20658566","CityId":"23759478","DistrictId":"23761886"}}},{"Relevance":1.0,"Distance":177.4,"MatchLevel":"street","MatchQuality":{"Country":1.0,"County":1.0,"City":1.0,"District":1.0,"PostalCode":1.0},"Location":{"LocationId":"NT_p83ZK4lTtYLxS67o4PiyZA_l_835774810_R","LocationType":"point","DisplayPosition":{"Latitude":46.74674,"Longitude":23.83945},"MapView":{"TopLeft":{"Latitude":46.74723,"Longitude":23.83916},"BottomRight":{"Latitude":46.74674,"Longitude":23.83945}},"Address":{"Label":"407240 Cojocna, România","Country":"ROU","County":"Cluj","City":"Cojocna","District":"Cojocna","PostalCode":"407240","AdditionalData":[{"value":"România","key":"CountryName"},{"value":"Cluj","key":"CountyName"}]},"MapReference":{"ReferenceId":"835774810","Spot":0.0,"SideOfStreet":"right","CountryId":"20656215","CountyId":"20658566","CityId":"23759478","DistrictId":"23761886"}}}]}]}}