{"Response":{"MetaInfo":{"Timestamp":"2020-03-28T09:54:37.542+0000","NextPageInformation":"2"},"View":[{"_type":"SearchResultsViewType","ViewId":0,"Result":[{"Relevance":1.0,"Distance":0.0,"Direction":0.0,"MatchLevel":"district","MatchQuality":{"Country":1.0,"State":1.0,"County":1.0,"City":1.0,"District":1.0,"PostalCode":1.0},"Location":{"LocationId":"NT_6sPd-jw..64MT9TdY0p4LC","LocationType":"point","DisplayPosition":{"Latitude":46.8413409,"Longitude":16.4225548},"MapView":{"TopLeft":{"Latitude":46.85329,"Longitude":16.39837},"BottomRight":{"Latitude":46.83119,"Longitude":16.43609}},"Address":{"Label":"Őriszentpéter, Vas, Magyarország","Country":"HUN","State":"Vas","County":"Körmendi Járás","City":"Őriszentpéter","District":"Őriszentpéter","PostalCode":"9941","AdditionalData":[{"value":"Magyarország","key":"CountryName"},{"value":"Vas","key":"StateName"},{"value":"Körmendi Járás","key":"CountyName"}]},"MapReference":{"ReferenceId":"1148234304","SideOfStreet":"neither","CountryId":"20613038","StateId":"20621587","CountyId":"26680485","CityId":"20622019","DistrictId":"26680991"}}},{"Relevance":1.0,"Distance":24.1,"MatchLevel":"houseNumber","MatchQuality":{"Country":1.0,"State":1.0,"County":1.0,"City":1.0,"District":1.0,"Street":[1.0],"HouseNumber":1.0,"PostalCode":1.0},"MatchType":"interpolated","Location":{"LocationId":"NT_-VsijwSTStDGZ7XDQCfxDB_l_598374762_R_yA","LocationType":"point","DisplayPosition":{"Latitude":46.8416389,"Longitude":16.422586},"MapView":{"TopLeft":{"Latitude":46.842763,"Longitude":16.4209425},"BottomRight":{"Latitude":46.8405147,"Longitude":16.4242295}},"Address":{"Label":"Iskolaszer 2, Őriszentpéter 9941, Magyarország","Country":"HUN","State":"Vas","County":"Körmendi Járás","City":"Őriszentpéter","District":"Őriszentpéter","Street":"Iskolaszer","HouseNumber":"2","PostalCode":"9941","AdditionalData":[{"value":"Magyarország","key":"CountryName"},{"value":"Vas","key":"StateName"},{"value":"Körmendi Járás","key":"CountyName"}]},"MapReference":{"ReferenceId":"598374762","Spot":0.55,"SideOfStreet":"right","CountryId":"20613038","StateId":"20621587","CountyId":"26680485","CityId":"20622019","DistrictId":"26680991"}}},{"Relevance":1.0,"Distance":54.0,"MatchLevel":"street","MatchQuality":{"Country":1.0,"State":1.0,"County":1.0,"City":1.0,"District":1.0,"PostalCode":1.0},"Location":{"LocationId":"NT_Sq6vsPfSPXpEb8Bnb4So3D_l_1233835370_L","LocationType":"point","DisplayPosition":{"Latitude":46.84092,"Longitude":16.4222},"MapView":{"TopLeft":{"Latitude":46.84092,"Longitude":16.42187},"BottomRight":{"Latitude":46.84074,"Longitude":16.4222}},"Address":{"Label":"Őriszentpéter 9941, Magyarország","Country":"HUN","State":"Vas","County":"Körmendi Járás","City":"Őriszentpéter","District":"Őriszentpéter","PostalCode":"9941","AdditionalData":[{"value":"Magyarország","key":"CountryName"},{"value":"Vas","key":"StateName"},{"value":"Körmendi Járás","key":"CountyName"}]},"MapReference":{"ReferenceId":"1233835370","Spot":1.0,"SideOfStreet":"left","CountryId":"20613038","StateId":"20621587","CountyId":"26680485","CityId":"20622019","DistrictId":"26680991"}}},{"Relevance":1.0,"Distance":55.3,"MatchLevel":"street","MatchQuality":{"Country":1.0,"State":1.0,"County":1.0,"City":1.0,"District":1.0,"PostalCode":1.0},"Location":{"LocationId":"NT_Sq6vsPfSPXpEb8Bnb4So3D_l_1233835376_R","LocationType":"point","DisplayPosition":{"Latitude":46.84087,"Longitude":16.42232},"MapView":{"TopLeft":{"Latitude":46.84092,"Longitude":16.4222},"BottomRight":{"Latitude":46.84048,"Longitude":16.42236}},"Address":{"Label":"Őriszentpéter 9941, Magyarország","Country":"HUN","State":"Vas","County":"Körmendi Járás","City":"Őriszentpéter","District":"Őriszentpéter","PostalCode":"9941","AdditionalData":[{"value":"Magyarország","key":"CountryName"},{"value":"Vas","key":"StateName"},{"value":"Körmendi Járás","key":"CountyName"}]},"MapReference":{"ReferenceId":"1233835376","Spot":0.76,"SideOfStreet":"right","CountryId":"20613038","StateId":"20621587","CountyId":"26680485","CityId":"20622019","DistrictId":"26680991"}}},{"Relevance":1.0,"Distance":64.7,"MatchLevel":"houseNumber","MatchQuality":{"Country":1.0,"State":1.0,"County":1.0,"City":1.0,"District":1.0,"Street":[1.0],"HouseNumber":1.0,"PostalCode":1.0},"MatchType":"interpolated","Location":{"LocationId":"NT_CTuJIeCWGePwglA3k4wDzA_0YD","LocationType":"point","DisplayPosition":{"Latitude":46.84079,"Longitude":16.42283},"MapView":{"TopLeft":{"Latitude":46.8419142,"Longitude":16.4211866},"BottomRight":{"Latitude":46.8396658,"Longitude":16.4244734}},"Address":{"Label":"7451 46, Őriszentpéter 9941, Magyarország","Country":"HUN","State":"Vas","County":"Körmendi Járás","City":"Őriszentpéter","District":"Őriszentpéter","Street":"7451","HouseNumber":"46","PostalCode":"9941","AdditionalData":[{"value":"Magyarország","key":"CountryName"},{"value":"Vas","key":"StateName"},{"value":"Körmendi Járás","key":"CountyName"}]},"MapReference":{"ReferenceId":"598374787","Spot":0.17,"SideOfStreet":"right","CountryId":"20613038","StateId":"20621587","CountyId":"26680485","CityId":"20622019","DistrictId":"26680991","AddressId":"357052541","RoadLinkId":"60362259"}}},{"Relevance":1.0,"Distance":68.2,"MatchLevel":"houseNumber","MatchQuality":{"Country":1.0,"State":1.0,"County":1.0,"City":1.0,"District":1.0,"Street":[1.0],"HouseNumber":1.0,"PostalCode":1.0},"MatchType":"interpolated","Location":{"LocationId":"NT_-VsijwSTStDGZ7XDQCfxDB_yA","LocationType":"point","DisplayPosition":{"Latitude":46.84104,"Longitude":16.42158},"MapView":{"TopLeft":{"Latitude":46.8421642,"Longitude":16.4199366},"BottomRight":{"Latitude":46.8399158,"Longitude":16.4232234}},"Address":{"Label":"Iskolaszer 2, Őriszentpéter 9941, Magyarország","Country":"HUN","State":"Vas","County":"Körmendi Járás","City":"Őriszentpéter","District":"Őriszentpéter","Street":"Iskolaszer","HouseNumber":"2","PostalCode":"9941","AdditionalData":[{"value":"Magyarország","key":"CountryName"},{"value":"Vas","key":"StateName"},{"value":"Körmendi Járás","key":"CountyName"}]},"MapReference":{"ReferenceId":"1233834598","Spot":0.49,"SideOfStreet":"right","CountryId":"20613038","StateId":"20621587","CountyId":"26680485","CityId":"20622019","DistrictId":"26680991","AddressId":"354956090","RoadLinkId":"554105635"}}},{"Relevance":1.0,"Distance":85.8,"MatchLevel":"street","MatchQuality":{"Country":1.0,"State":1.0,"County":1.0,"City":1.0,"District":1.0,"Street":[1.0],"PostalCode":1.0},"Location":{"LocationId":"NT_iwF.fBrMIRcONAu.HogXSD_l_598374791_L","LocationType":"point","DisplayPosition":{"Latitude":46.84057,"Longitude":16.42261},"MapView":{"TopLeft":{"Latitude":46.84057,"Longitude":16.42247},"BottomRight":{"Latitude":46.84038,"Longitude":16.42261}},"Address":{"Label":"7451, Őriszentpéter 9941, Magyarország","Country":"HUN","State":"Vas","County":"Körmendi Járás","City":"Őriszentpéter","District":"Őriszentpéter","Street":"7451","PostalCode":"9941","AdditionalData":[{"value":"Magyarország","key":"CountryName"},{"value":"Vas","key":"StateName"},{"value":"Körmendi Járás","key":"CountyName"}]},"MapReference":{"ReferenceId":"598374791","Spot":1.0,"SideOfStreet":"left","CountryId":"20613038","StateId":"20621587","CountyId":"26680485","CityId":"20622019","DistrictId":"26680991"}}},{"Relevance":1.0,"Distance":87.6,"MatchLevel":"houseNumber","MatchQuality":{"Country":1.0,"State":1.0,"County":1.0,"City":1.0,"District":1.0,"Street":[1.0],"HouseNumber":1.0,"PostalCode":1.0},"MatchType":"interpolated","Location":{"LocationId":"NT_-VsijwSTStDGZ7XDQCfxDB_xA","LocationType":"point","DisplayPosition":{"Latitude":46.84064,"Longitude":16.42203},"MapView":{"TopLeft":{"Latitude":46.8417642,"Longitude":16.4203866},"BottomRight":{"Latitude":46.8395158,"Longitude":16.4236734}},"Address":{"Label":"Iskolaszer 1, Őriszentpéter 9941, Magyarország","Country":"HUN","State":"Vas","County":"Körmendi Járás","City":"Őriszentpéter","District":"Őriszentpéter","Street":"Iskolaszer","HouseNumber":"1","PostalCode":"9941","AdditionalData":[{"value":"Magyarország","key":"CountryName"},{"value":"Vas","key":"StateName"},{"value":"Körmendi Járás","key":"CountyName"}]},"MapReference":{"ReferenceId":"1233834597","Spot":0.62,"SideOfStreet":"left","CountryId":"20613038","StateId":"20621587","CountyId":"26680485","CityId":"20622019","DistrictId":"26680991","AddressId":"354956091","RoadLinkId":"554105634"}}},{"Relevance":1.0,"Distance":89.9,"MatchLevel":"houseNumber","MatchQuality":{"Country":1.0,"State":1.0,"County":1.0,"City":1.0,"District":1.0,"Street":[1.0],"HouseNumber":1.0,"PostalCode":1.0},"MatchType":"interpolated","Location":{"LocationId":"NT_-VsijwSTStDGZ7XDQCfxDB_l_598374759_L_1A","LocationType":"point","DisplayPosition":{"Latitude":46.841888,"Longitude":16.4236226},"MapView":{"TopLeft":{"Latitude":46.8430121,"Longitude":16.4219792},"BottomRight":{"Latitude":46.8407638,"Longitude":16.4252661}},"Address":{"Label":"Iskolaszer 5, Őriszentpéter 9941, Magyarország","Country":"HUN","State":"Vas","County":"Körmendi Járás","City":"Őriszentpéter","District":"Őriszentpéter","Street":"Iskolaszer","HouseNumber":"5","PostalCode":"9941","AdditionalData":[{"value":"Magyarország","key":"CountryName"},{"value":"Vas","key":"StateName"},{"value":"Körmendi Járás","key":"CountyName"}]},"MapReference":{"ReferenceId":"598374759","Spot":0.5,"SideOfStreet":"left","CountryId":"20613038","StateId":"20621587","CountyId":"26680485","CityId":"20622019","DistrictId":"26680991"}}},{"Relevance":1.0,"Distance":93.9,"MatchLevel":"houseNumber","MatchQuality":{"Country":1.0,"State":1.0,"County":1.0,"City":1.0,"District":1.0,"Street":[1.0],"HouseNumber":1.0,"PostalCode":1.0},"MatchType":"interpolated","Location":{"LocationId":"NT_-VsijwSTStDGZ7XDQCfxDB_l_598374752_L_2A","LocationType":"point","DisplayPosition":{"Latitude":46.8423003,"Longitude":16.4228055},"MapView":{"TopLeft":{"Latitude":46.8434245,"Longitude":16.421162},"BottomRight":{"Latitude":46.8411762,"Longitude":16.424449}},"Address":{"Label":"Iskolaszer 6, Őriszentpéter 9941, Magyarország","Country":"HUN","State":"Vas","County":"Körmendi Járás","City":"Őriszentpéter","District":"Őriszentpéter","Street":"Iskolaszer","HouseNumber":"6","PostalCode":"9941","AdditionalData":[{"value":"Magyarország","key":"CountryName"},{"value":"Vas","key":"StateName"},{"value":"Körmendi Járás","key":"CountyName"}]},"MapReference":{"ReferenceId":"598374752","Spot":0.5,"SideOfStreet":"left","CountryId":"20613038","StateId":"20621587","CountyId":"26680485","CityId":"20622019","DistrictId":"26680991"}}}]}]}}