{"Response":{"MetaInfo":{"Timestamp":"2020-03-28T11:48:26.555+0000","NextPageInformation":"2"},"View":[{"_type":"SearchResultsViewType","ViewId":0,"Result":[{"Relevance":1.0,"Distance":0.0,"Direction":0.0,"MatchLevel":"city","MatchQuality":{"Country":1.0,"State":1.0,"County":1.0,"City":1.0,"PostalCode":1.0},"Location":{"LocationId":"NT_Fl2aqKFmPj-MEE4PlMzl8C","LocationType":"point","DisplayPosition":{"Latitude":46.8527271,"Longitude":-1.8932703},"MapView":{"TopLeft":{"Latitude":46.87577,"Longitude":-1.9208},"BottomRight":{"Latitude":46.79001,"Longitude":-1.7634}},"Address":{"Label":"Challans, Pays de la Loire, France","Country":"FRA","State":"Pays de la Loire","County":"Vendée","City":"Challans","PostalCode":"85300","AdditionalData":[{"value":"France","key":"CountryName"},{"value":"Pays de la Loire","key":"StateName"},{"value":"Vendée","key":"CountyName"}]},"MapReference":{"ReferenceId":"57204037","SideOfStreet":"neither","CountryId":"20000001","StateId":"20068992","CountyId":"20080973","CityId":"20081105"}}},{"Relevance":1.0,"Distance":15.7,"MatchLevel":"houseNumber","MatchQuality":{"Country":1.0,"State":1.0,"County":1.0,"City":1.0,"Street":[1.0],"HouseNumber":1.0,"PostalCode":1.0},"MatchType":"interpolated","Location":{"LocationId":"NT_y9TyfRpqDQWKfJBy2xRsaD_0A","LocationType":"point","DisplayPosition":{"Latitude":46.85256,"Longitude":-1.89317},"MapView":{"TopLeft":{"Latitude":46.8536842,"Longitude":-1.8948138},"BottomRight":{"Latitude":46.8514358,"Longitude":-1.8915262}},"Address":{"Label":"4 Rue de la Rive, 85300 Challans, France","Country":"FRA","State":"Pays de la Loire","County":"Vendée","City":"Challans","Street":"Rue de la Rive","HouseNumber":"4","PostalCode":"85300","AdditionalData":[{"value":"France","key":"CountryName"},{"value":"Pays de la Loire","key":"StateName"},{"value":"Vendée","key":"CountyName"}]},"MapReference":{"ReferenceId":"947968209","Spot":0.2,"SideOfStreet":"left","CountryId":"20000001","StateId":"20068992","CountyId":"20080973","CityId":"20081105","AddressId":"381379047","RoadLinkId":"295455879"}}},{"Relevance":1.0,"Distance":20.0,"MatchLevel":"landmark","MatchQuality":{"Country":1.0,"State":1.0,"County":1.0,"City":1.0,"Street":[1.0],"PostalCode":1.0,"Name":1.0},"Location":{"LocationId":"NT_kySrHOnzhkoocNOIEX6GrA_p_OML2Zo3MP54hko6SN.H-vD","LocationType":"shoppingCentre","Name":"Zone Commerciale la Juisière Alizés","DisplayPosition":{"Latitude":46.85455,"Longitude":-1.89592},"MapView":{"TopLeft":{"Latitude":46.85545,"Longitude":-1.89938},"BottomRight":{"Latitude":46.85032,"Longitude":-1.88665}},"Address":{"Label":"Rue Carnot, 85300 Challans, France","Country":"FRA","State":"Pays de la Loire","County":"Vendée","City":"Challans","Street":"Rue Carnot","PostalCode":"85300","AdditionalData":[{"value":"France","key":"CountryName"},{"value":"Pays de la Loire","key":"StateName"},{"value":"Vendée","key":"CountyName"}]},"MapReference":{"CountryId":"20000001","StateId":"20068992","CountyId":"20080973","CityId":"20081105","PlaceId":"75636896"}}},{"Relevance":1.0,"Distance":20.8,"MatchLevel":"street","MatchQuality":{"Country":1.0,"State":1.0,"County":1.0,"City":1.0,"PostalCode":1.0},"Location":{"LocationId":"NT_l.v4HRf2ZNe2JujT0ziAIC_l_947968210_R","LocationType":"point","DisplayPosition":{"Latitude":46.85254,"Longitude":-1.89326},"MapView":{"TopLeft":{"Latitude":46.85254,"Longitude":-1.89326},"BottomRight":{"Latitude":46.85248,"Longitude":-1.89315}},"Address":{"Label":"85300 Challans, France","Country":"FRA","State":"Pays de la Loire","County":"Vendée","City":"Challans","PostalCode":"85300","AdditionalData":[{"value":"France","key":"CountryName"},{"value":"Pays de la Loire","key":"StateName"},{"value":"Vendée","key":"CountyName"}]},"MapReference":{"ReferenceId":"947968210","Spot":1.0,"SideOfStreet":"right","CountryId":"20000001","StateId":"20068992","CountyId":"20080973","CityId":"20081105"}}},{"Relevance":1.0,"Distance":22.4,"MatchLevel":"houseNumber","MatchQuality":{"Country":1.0,"State":1.0,"County":1.0,"City":1.0,"Street":[1.0],"HouseNumber":1.0,"PostalCode":1.0},"MatchType":"interpolated","Location":{"LocationId":"NT_y9TyfRpqDQWKfJBy2xRsaD_2A","LocationType":"point","DisplayPosition":{"Latitude":46.85251,"Longitude":-1.89337},"MapView":{"TopLeft":{"Latitude":46.8536342,"Longitude":-1.8950138},"BottomRight":{"Latitude":46.8513858,"Longitude":-1.8917262}},"Address":{"Label":"6 Rue de la Rive, 85300 Challans, France","Country":"FRA","State":"Pays de la Loire","County":"Vendée","City":"Challans","Street":"Rue de la Rive","HouseNumber":"6","PostalCode":"85300","AdditionalData":[{"value":"France","key":"CountryName"},{"value":"Pays de la Loire","key":"StateName"},{"value":"Vendée","key":"CountyName"}]},"MapReference":{"ReferenceId":"947968208","Spot":0.82,"SideOfStreet":"left","CountryId":"20000001","StateId":"20068992","CountyId":"20080973","CityId":"20081105","AddressId":"381456661","RoadLinkId":"295455878"}}},{"Relevance":1.0,"Distance":29.6,"MatchLevel":"houseNumber","MatchQuality":{"Country":1.0,"State":1.0,"County":1.0,"City":1.0,"Street":[1.0],"HouseNumber":1.0,"PostalCode":1.0},"MatchType":"interpolated","Location":{"LocationId":"NT_QXLEakdFe1l0V38HDhhInC_xYTO","LocationType":"point","DisplayPosition":{"Latitude":46.85303,"Longitude":-1.89328},"MapView":{"TopLeft":{"Latitude":46.8541542,"Longitude":-1.8949238},"BottomRight":{"Latitude":46.8519058,"Longitude":-1.8916362}},"Address":{"Label":"169 Rue Carnot, 85300 Challans, France","Country":"FRA","State":"Pays de la Loire","County":"Vendée","City":"Challans","Street":"Rue Carnot","HouseNumber":"169","PostalCode":"85300","AdditionalData":[{"value":"France","key":"CountryName"},{"value":"Pays de la Loire","key":"StateName"},{"value":"Vendée","key":"CountyName"}]},"MapReference":{"ReferenceId":"569923952","Spot":0.93,"SideOfStreet":"left","CountryId":"20000001","StateId":"20068992","CountyId":"20080973","CityId":"20081105","AddressId":"323514472","RoadLinkId":"47158605"}}},{"Relevance":1.0,"Distance":31.3,"MatchLevel":"street","MatchQuality":{"Country":1.0,"State":1.0,"County":1.0,"City":1.0,"Street":[1.0],"PostalCode":1.0},"Location":{"LocationId":"NT_kUTXMPTB014..Ex8TSbIoD_l_546202117_L","LocationType":"point","DisplayPosition":{"Latitude":46.85275,"Longitude":-1.89286},"MapView":{"TopLeft":{"Latitude":46.8528,"Longitude":-1.89286},"BottomRight":{"Latitude":46.85272,"Longitude":-1.89285}},"Address":{"Label":"Rond-Point de la Rive, 85300 Challans, France","Country":"FRA","State":"Pays de la Loire","County":"Vendée","City":"Challans","Street":"Rond-Point de la Rive","PostalCode":"85300","AdditionalData":[{"value":"France","key":"CountryName"},{"value":"Pays de la Loire","key":"StateName"},{"value":"Vendée","key":"CountyName"}]},"MapReference":{"ReferenceId":"546202117","Spot":0.38,"SideOfStreet":"left","CountryId":"20000001","StateId":"20068992","CountyId":"20080973","CityId":"20081105"}}},{"Relevance":1.0,"Distance":32.0,"MatchLevel":"street","MatchQuality":{"Country":1.0,"State":1.0,"County":1.0,"City":1.0,"Street":[1.0],"PostalCode":1.0},"Location":{"LocationId":"NT_kUTXMPTB014..Ex8TSbIoD_l_546202118_L","LocationType":"point","DisplayPosition":{"Latitude":46.85272,"Longitude":-1.89285},"MapView":{"TopLeft":{"Latitude":46.85272,"Longitude":-1.89285},"BottomRight":{"Latitude":46.85267,"Longitude":-1.89267}},"Address":{"Label":"Rond-Point de la Rive, 85300 Challans, France","Country":"FRA","State":"Pays de la Loire","County":"Vendée","City":"Challans","Street":"Rond-Point de la Rive","PostalCode":"85300","AdditionalData":[{"value":"France","key":"CountryName"},{"value":"Pays de la Loire","key":"StateName"},{"value":"Vendée","key":"CountyName"}]},"MapReference":{"ReferenceId":"546202118","Spot":1.0,"SideOfStreet":"left","CountryId":"20000001","StateId":"20068992","CountyId":"20080973","CityId":"20081105"}}},{"Relevance":1.0,"Distance":33.0,"MatchLevel":"street","MatchQuality":{"Country":1.0,"State":1.0,"County":1.0,"City":1.0,"Street":[1.0],"PostalCode":1.0},"Location":{"LocationId":"NT_kUTXMPTB014..Ex8TSbIoD_l_546202116_L","LocationType":"point","DisplayPosition":{"Latitude":46.8528,"Longitude":-1.89285},"MapView":{"TopLeft":{"Latitude":46.85285,"Longitude":-1.89285},"BottomRight":{"Latitude":46.8528,"Longitude":-1.89263}},"Address":{"Label":"Rond-Point de la Rive, 85300 Challans, France","Country":"FRA","State":"Pays de la Loire","County":"Vendée","City":"Challans","Street":"Rond-Point de la Rive","PostalCode":"85300","AdditionalData":[{"value":"France","key":"CountryName"},{"value":"Pays de la Loire","key":"StateName"},{"value":"Vendée","key":"CountyName"}]},"MapReference":{"ReferenceId":"546202116","Spot":0.0,"SideOfStreet":"left","CountryId":"20000001","StateId":"20068992","CountyId":"20080973","CityId":"20081105"}}},{"Relevance":1.0,"Distance":45.8,"MatchLevel":"street","MatchQuality":{"Country":1.0,"State":1.0,"County":1.0,"City":1.0,"Street":[1.0],"PostalCode":1.0},"Location":{"LocationId":"NT_kUTXMPTB014..Ex8TSbIoD_l_546202119_L","LocationType":"point","DisplayPosition":{"Latitude":46.85269,"Longitude":-1.89267},"MapView":{"TopLeft":{"Latitude":46.8528,"Longitude":-1.89267},"BottomRight":{"Latitude":46.85269,"Longitude":-1.89262}},"Address":{"Label":"Rond-Point de la Rive, 85300 Challans, France","Country":"FRA","State":"Pays de la Loire","County":"Vendée","City":"Challans","Street":"Rond-Point de la Rive","PostalCode":"85300","AdditionalData":[{"value":"France","key":"CountryName"},{"value":"Pays de la Loire","key":"StateName"},{"value":"Vendée","key":"CountyName"}]},"MapReference":{"ReferenceId":"546202119","Spot":0.0,"SideOfStreet":"left","CountryId":"20000001","StateId":"20068992","CountyId":"20080973","CityId":"20081105"}}}]}]}}