{"Response":{"MetaInfo":{"Timestamp":"2020-03-28T10:30:08.010+0000","NextPageInformation":"2"},"View":[{"_type":"SearchResultsViewType","ViewId":0,"Result":[{"Relevance":1.0,"Distance":0.0,"Direction":0.0,"MatchLevel":"city","MatchQuality":{"Country":1.0,"State":1.0,"County":1.0,"City":1.0,"PostalCode":1.0},"Location":{"LocationId":"NT_e8xVu8D74Znyx-5N1c6hrD","LocationType":"point","DisplayPosition":{"Latitude":46.805974,"Longitude":1.640873},"MapView":{"TopLeft":{"Latitude":46.88507,"Longitude":1.55598},"BottomRight":{"Latitude":46.73668,"Longitude":1.68459}},"Address":{"Label":"Saint-Maur, Centre-Val de Loire, France","Country":"FRA","State":"Centre-Val de Loire","County":"Indre","City":"Saint-Maur","PostalCode":"36250","AdditionalData":[{"value":"France","key":"CountryName"},{"value":"Centre-Val de Loire","key":"StateName"},{"value":"Indre","key":"CountyName"}]},"MapReference":{"ReferenceId":"913578898","SideOfStreet":"neither","CountryId":"20000001","StateId":"20002113","CountyId":"20066515","CityId":"20067122"}}},{"Relevance":1.0,"Distance":16.3,"MatchLevel":"houseNumber","MatchQuality":{"Country":1.0,"State":1.0,"County":1.0,"City":1.0,"Street":[1.0],"HouseNumber":1.0,"PostalCode":1.0},"MatchType":"interpolated","Location":{"LocationId":"NT_40cwdo5ugH.JFmQoYyaPeA_zA","LocationType":"point","DisplayPosition":{"Latitude":46.80583,"Longitude":1.64098},"MapView":{"TopLeft":{"Latitude":46.8069542,"Longitude":1.6393376},"BottomRight":{"Latitude":46.8047058,"Longitude":1.6426224}},"Address":{"Label":"3 Rue de la Martinique, 36250 Saint-Maur, France","Country":"FRA","State":"Centre-Val de Loire","County":"Indre","City":"Saint-Maur","Street":"Rue de la Martinique","HouseNumber":"3","PostalCode":"36250","AdditionalData":[{"value":"France","key":"CountryName"},{"value":"Centre-Val de Loire","key":"StateName"},{"value":"Indre","key":"CountyName"}]},"MapReference":{"ReferenceId":"568331925","Spot":0.71,"SideOfStreet":"left","CountryId":"20000001","StateId":"20002113","CountyId":"20066515","CityId":"20067122","AddressId":"344640311","RoadLinkId":"53221255"}}},{"Relevance":1.0,"Distance":22.2,"MatchLevel":"houseNumber","MatchQuality":{"Country":1.0,"State":1.0,"County":1.0,"City":1.0,"Street":[1.0],"HouseNumber":1.0,"PostalCode":1.0},"MatchType":"interpolated","Location":{"LocationId":"NT_40cwdo5ugH.JFmQoYyaPeA_1A","LocationType":"point","DisplayPosition":{"Latitude":46.80615,"Longitude":1.64101},"MapView":{"TopLeft":{"Latitude":46.8072742,"Longitude":1.6393676},"BottomRight":{"Latitude":46.8050258,"Longitude":1.6426524}},"Address":{"Label":"5 Rue de la Martinique, 36250 Saint-Maur, France","Country":"FRA","State":"Centre-Val de Loire","County":"Indre","City":"Saint-Maur","Street":"Rue de la Martinique","HouseNumber":"5","PostalCode":"36250","AdditionalData":[{"value":"France","key":"CountryName"},{"value":"Centre-Val de Loire","key":"StateName"},{"value":"Indre","key":"CountyName"}]},"MapReference":{"ReferenceId":"568331942","Spot":0.14,"SideOfStreet":"left","CountryId":"20000001","StateId":"20002113","CountyId":"20066515","CityId":"20067122","AddressId":"344649752","RoadLinkId":"53523819"}}},{"Relevance":1.0,"Distance":23.8,"MatchLevel":"houseNumber","MatchQuality":{"Country":1.0,"State":1.0,"County":1.0,"City":1.0,"Street":[1.0],"HouseNumber":1.0,"PostalCode":1.0},"MatchType":"interpolated","Location":{"LocationId":"NT_bca5hxpFaHaNYpakmx4L6D_4A","LocationType":"point","DisplayPosition":{"Latitude":46.80609,"Longitude":1.64061},"MapView":{"TopLeft":{"Latitude":46.8072142,"Longitude":1.6389676},"BottomRight":{"Latitude":46.8049658,"Longitude":1.6422524}},"Address":{"Label":"8 Rue Georges Robert, 36250 Saint-Maur, France","Country":"FRA","State":"Centre-Val de Loire","County":"Indre","City":"Saint-Maur","Street":"Rue Georges Robert","HouseNumber":"8","PostalCode":"36250","AdditionalData":[{"value":"France","key":"CountryName"},{"value":"Centre-Val de Loire","key":"StateName"},{"value":"Indre","key":"CountyName"}]},"MapReference":{"ReferenceId":"568331946","Spot":0.33,"SideOfStreet":"left","CountryId":"20000001","StateId":"20002113","CountyId":"20066515","CityId":"20067122","AddressId":"344646925","RoadLinkId":"53581247"}}},{"Relevance":1.0,"Distance":59.6,"MatchLevel":"houseNumber","MatchQuality":{"Country":1.0,"State":1.0,"County":1.0,"City":1.0,"Street":[1.0],"HouseNumber":1.0,"PostalCode":1.0},"MatchType":"interpolated","Location":{"LocationId":"NT_5D6ALdbbpfqcfuNUvcNRcD_1A","LocationType":"point","DisplayPosition":{"Latitude":46.80543,"Longitude":1.64056},"MapView":{"TopLeft":{"Latitude":46.8065542,"Longitude":1.6389177},"BottomRight":{"Latitude":46.8043058,"Longitude":1.6422023}},"Address":{"Label":"5 Rue du Gué de la Chapelle, 36250 Saint-Maur, France","Country":"FRA","State":"Centre-Val de Loire","County":"Indre","City":"Saint-Maur","Street":"Rue du Gué de la Chapelle","HouseNumber":"5","PostalCode":"36250","AdditionalData":[{"value":"France","key":"CountryName"},{"value":"Centre-Val de Loire","key":"StateName"},{"value":"Indre","key":"CountyName"}]},"MapReference":{"ReferenceId":"568331287","Spot":0.28,"SideOfStreet":"right","CountryId":"20000001","StateId":"20002113","CountyId":"20066515","CityId":"20067122","AddressId":"344647484","RoadLinkId":"52617320"}}},{"Relevance":1.0,"Distance":62.6,"MatchLevel":"houseNumber","MatchQuality":{"Country":1.0,"State":1.0,"County":1.0,"City":1.0,"Street":[1.0],"HouseNumber":1.0,"PostalCode":1.0},"MatchType":"interpolated","Location":{"LocationId":"NT_bca5hxpFaHaNYpakmx4L6D_xAD","LocationType":"point","DisplayPosition":{"Latitude":46.80591,"Longitude":1.64169},"MapView":{"TopLeft":{"Latitude":46.8070342,"Longitude":1.6400476},"BottomRight":{"Latitude":46.8047858,"Longitude":1.6433324}},"Address":{"Label":"10 Rue Georges Robert, 36250 Saint-Maur, France","Country":"FRA","State":"Centre-Val de Loire","County":"Indre","City":"Saint-Maur","Street":"Rue Georges Robert","HouseNumber":"10","PostalCode":"36250","AdditionalData":[{"value":"France","key":"CountryName"},{"value":"Centre-Val de Loire","key":"StateName"},{"value":"Indre","key":"CountyName"}]},"MapReference":{"ReferenceId":"568331917","Spot":0.52,"SideOfStreet":"left","CountryId":"20000001","StateId":"20002113","CountyId":"20066515","CityId":"20067122","AddressId":"344645357","RoadLinkId":"52800188"}}},{"Relevance":1.0,"Distance":80.8,"MatchLevel":"houseNumber","MatchQuality":{"Country":1.0,"State":1.0,"County":1.0,"City":1.0,"Street":[1.0],"HouseNumber":1.0,"PostalCode":1.0},"MatchType":"interpolated","Location":{"LocationId":"NT_nuJdqkddjGoA6CoRBSaKzD_2A","LocationType":"point","DisplayPosition":{"Latitude":46.80624,"Longitude":1.63982},"MapView":{"TopLeft":{"Latitude":46.8073642,"Longitude":1.6381776},"BottomRight":{"Latitude":46.8051158,"Longitude":1.6414624}},"Address":{"Label":"6 Rue du 8 Mai 1945, 36250 Saint-Maur, France","Country":"FRA","State":"Centre-Val de Loire","County":"Indre","City":"Saint-Maur","Street":"Rue du 8 Mai 1945","HouseNumber":"6","PostalCode":"36250","AdditionalData":[{"value":"France","key":"CountryName"},{"value":"Centre-Val de Loire","key":"StateName"},{"value":"Indre","key":"CountyName"}]},"MapReference":{"ReferenceId":"568331922","Spot":0.94,"SideOfStreet":"right","CountryId":"20000001","StateId":"20002113","CountyId":"20066515","CityId":"20067122","AddressId":"570649247","RoadLinkId":"52662264"}}},{"Relevance":1.0,"Distance":87.3,"MatchLevel":"houseNumber","MatchQuality":{"Country":1.0,"State":1.0,"County":1.0,"City":1.0,"Street":[1.0],"HouseNumber":1.0,"PostalCode":1.0},"MatchType":"interpolated","Location":{"LocationId":"NT_5D6ALdbbpfqcfuNUvcNRcD_xED","LocationType":"point","DisplayPosition":{"Latitude":46.8053,"Longitude":1.64157},"MapView":{"TopLeft":{"Latitude":46.8064242,"Longitude":1.6399277},"BottomRight":{"Latitude":46.8041758,"Longitude":1.6432123}},"Address":{"Label":"11 Rue du Gué de la Chapelle, 36250 Saint-Maur, France","Country":"FRA","State":"Centre-Val de Loire","County":"Indre","City":"Saint-Maur","Street":"Rue du Gué de la Chapelle","HouseNumber":"11","PostalCode":"36250","AdditionalData":[{"value":"France","key":"CountryName"},{"value":"Centre-Val de Loire","key":"StateName"},{"value":"Indre","key":"CountyName"}]},"MapReference":{"ReferenceId":"568331289","Spot":0.26,"SideOfStreet":"right","CountryId":"20000001","StateId":"20002113","CountyId":"20066515","CityId":"20067122","AddressId":"344635901","RoadLinkId":"53237421"}}},{"Relevance":1.0,"Distance":103.0,"MatchLevel":"houseNumber","MatchQuality":{"Country":1.0,"State":1.0,"County":1.0,"City":1.0,"Street":[1.0],"HouseNumber":1.0,"PostalCode":1.0},"MatchType":"interpolated","Location":{"LocationId":"NT_5D6ALdbbpfqcfuNUvcNRcD_xMD","LocationType":"point","DisplayPosition":{"Latitude":46.80529,"Longitude":1.64186},"MapView":{"TopLeft":{"Latitude":46.8064142,"Longitude":1.6402177},"BottomRight":{"Latitude":46.8041658,"Longitude":1.6435023}},"Address":{"Label":"13 Rue du Gué de la Chapelle, 36250 Saint-Maur, France","Country":"FRA","State":"Centre-Val de Loire","County":"Indre","City":"Saint-Maur","Street":"Rue du Gué de la Chapelle","HouseNumber":"13","PostalCode":"36250","AdditionalData":[{"value":"France","key":"CountryName"},{"value":"Centre-Val de Loire","key":"StateName"},{"value":"Indre","key":"CountyName"}]},"MapReference":{"ReferenceId":"568331288","Spot":0.88,"SideOfStreet":"right","CountryId":"20000001","StateId":"20002113","CountyId":"20066515","CityId":"20067122","AddressId":"344637617","RoadLinkId":"53255590"}}},{"Relevance":1.0,"Distance":109.5,"MatchLevel":"houseNumber","MatchQuality":{"Country":1.0,"State":1.0,"County":1.0,"City":1.0,"Street":[1.0],"HouseNumber":1.0,"PostalCode":1.0},"MatchType":"interpolated","Location":{"LocationId":"NT_bca5hxpFaHaNYpakmx4L6D_l_568331935_L_yA","LocationType":"point","DisplayPosition":{"Latitude":46.8063602,"Longitude":1.639514},"MapView":{"TopLeft":{"Latitude":46.8074844,"Longitude":1.6378716},"BottomRight":{"Latitude":46.8052361,"Longitude":1.6411564}},"Address":{"Label":"2 Rue Georges Robert, 36250 Saint-Maur, France","Country":"FRA","State":"Centre-Val de Loire","County":"Indre","City":"Saint-Maur","Street":"Rue Georges Robert","HouseNumber":"2","PostalCode":"36250","AdditionalData":[{"value":"France","key":"CountryName"},{"value":"Centre-Val de Loire","key":"StateName"},{"value":"Indre","key":"CountyName"}]},"MapReference":{"ReferenceId":"568331935","Spot":0.51,"SideOfStreet":"left","CountryId":"20000001","StateId":"20002113","CountyId":"20066515","CityId":"20067122"}}}]}]}}