{"Response":{"MetaInfo":{"Timestamp":"2020-03-28T11:37:36.863+0000","NextPageInformation":"2"},"View":[{"_type":"SearchResultsViewType","ViewId":0,"Result":[{"Relevance":1.0,"Distance":0.0,"Direction":0.0,"MatchLevel":"district","MatchQuality":{"Country":1.0,"State":1.0,"County":1.0,"City":1.0,"District":1.0,"PostalCode":1.0},"Location":{"LocationId":"NT_FvfbEyE.2uXVe0hvtmzw.B","LocationType":"point","DisplayPosition":{"Latitude":46.8170659,"Longitude":13.5135194},"MapView":{"TopLeft":{"Latitude":46.82757,"Longitude":13.50078},"BottomRight":{"Latitude":46.81239,"Longitude":13.53562}},"Address":{"Label":"Seeboden am Millstätter See, Kärnten, Österreich","Country":"AUT","State":"Kärnten","County":"Spittal an der Drau","City":"Seeboden am Millstätter See","District":"Seeboden am Millstätter See","PostalCode":"9871","AdditionalData":[{"value":"Österreich","key":"CountryName"},{"value":"Kärnten","key":"StateName"},{"value":"Spittal an der Drau","key":"CountyName"}]},"MapReference":{"ReferenceId":"558392786","SideOfStreet":"neither","CountryId":"20128885","StateId":"20129532","CountyId":"20129843","CityId":"20129933","DistrictId":"20129936"}}},{"Relevance":1.0,"Distance":5.6,"MatchLevel":"houseNumber","MatchQuality":{"Country":1.0,"State":1.0,"County":1.0,"City":1.0,"District":1.0,"Street":[1.0],"HouseNumber":1.0,"PostalCode":1.0},"MatchType":"interpolated","Location":{"LocationId":"NT_ZVhdFAm7ItsjBmGbRshReB_l_1205021669_R_xA","LocationType":"point","DisplayPosition":{"Latitude":46.8170598,"Longitude":13.5133956},"MapView":{"TopLeft":{"Latitude":46.818184,"Longitude":13.5117529},"BottomRight":{"Latitude":46.8159357,"Longitude":13.5150383}},"Address":{"Label":"Wirlsdorfer Straße 1, 9871 Seeboden am Millstätter See, Österreich","Country":"AUT","State":"Kärnten","County":"Spittal an der Drau","City":"Seeboden am Millstätter See","District":"Seeboden am Millstätter See","Street":"Wirlsdorfer Straße","HouseNumber":"1","PostalCode":"9871","AdditionalData":[{"value":"Österreich","key":"CountryName"},{"value":"Kärnten","key":"StateName"},{"value":"Spittal an der Drau","key":"CountyName"}]},"MapReference":{"ReferenceId":"1205021669","Spot":0.64,"SideOfStreet":"right","CountryId":"20128885","StateId":"20129532","CountyId":"20129843","CityId":"20129933","DistrictId":"20129936"}}},{"Relevance":1.0,"Distance":11.2,"MatchLevel":"houseNumber","MatchQuality":{"Country":1.0,"State":1.0,"County":1.0,"City":1.0,"District":1.0,"Street":[1.0],"HouseNumber":1.0,"PostalCode":1.0},"MatchType":"interpolated","Location":{"LocationId":"NT_oaClAVzyg3t7nRC3ijDciA_1AD","LocationType":"point","DisplayPosition":{"Latitude":46.81732,"Longitude":13.51359},"MapView":{"TopLeft":{"Latitude":46.8184442,"Longitude":13.5119473},"BottomRight":{"Latitude":46.8161958,"Longitude":13.5152327}},"Address":{"Label":"Hauptstraße 50, 9871 Seeboden am Millstätter See, Österreich","Country":"AUT","State":"Kärnten","County":"Spittal an der Drau","City":"Seeboden am Millstätter See","District":"Seeboden am Millstätter See","Street":"Hauptstraße","HouseNumber":"50","PostalCode":"9871","AdditionalData":[{"value":"Österreich","key":"CountryName"},{"value":"Kärnten","key":"StateName"},{"value":"Spittal an der Drau","key":"CountyName"}]},"MapReference":{"ReferenceId":"558392772","Spot":0.2,"SideOfStreet":"right","CountryId":"20128885","StateId":"20129532","CountyId":"20129843","CityId":"20129933","DistrictId":"20129936","AddressId":"161523131","RoadLinkId":"28942457"}}},{"Relevance":1.0,"Distance":27.8,"MatchLevel":"street","MatchQuality":{"Country":1.0,"State":1.0,"County":1.0,"City":1.0,"District":1.0,"Street":[1.0],"PostalCode":1.0},"Location":{"LocationId":"NT_ZVhdFAm7ItsjBmGbRshReB_l_558392771_R","LocationType":"point","DisplayPosition":{"Latitude":46.8173,"Longitude":13.51339},"MapView":{"TopLeft":{"Latitude":46.8174,"Longitude":13.51339},"BottomRight":{"Latitude":46.8173,"Longitude":13.5134}},"Address":{"Label":"Wirlsdorfer Straße, 9871 Seeboden am Millstätter See, Österreich","Country":"AUT","State":"Kärnten","County":"Spittal an der Drau","City":"Seeboden am Millstätter See","District":"Seeboden am Millstätter See","Street":"Wirlsdorfer Straße","PostalCode":"9871","AdditionalData":[{"value":"Österreich","key":"CountryName"},{"value":"Kärnten","key":"StateName"},{"value":"Spittal an der Drau","key":"CountyName"}]},"MapReference":{"ReferenceId":"558392771","Spot":0.0,"SideOfStreet":"right","CountryId":"20128885","StateId":"20129532","CountyId":"20129843","CityId":"20129933","DistrictId":"20129936"}}},{"Relevance":1.0,"Distance":31.2,"MatchLevel":"houseNumber","MatchQuality":{"Country":1.0,"State":1.0,"County":1.0,"City":1.0,"District":1.0,"Street":[1.0],"HouseNumber":1.0,"PostalCode":1.0},"MatchType":"interpolated","Location":{"LocationId":"NT_oaClAVzyg3t7nRC3ijDciA_0gD","LocationType":"point","DisplayPosition":{"Latitude":46.81738,"Longitude":13.51325},"MapView":{"TopLeft":{"Latitude":46.8185042,"Longitude":13.5116073},"BottomRight":{"Latitude":46.8162558,"Longitude":13.5148927}},"Address":{"Label":"Hauptstraße 48, 9871 Seeboden am Millstätter See, Österreich","Country":"AUT","State":"Kärnten","County":"Spittal an der Drau","City":"Seeboden am Millstätter See","District":"Seeboden am Millstätter See","Street":"Hauptstraße","HouseNumber":"48","PostalCode":"9871","AdditionalData":[{"value":"Österreich","key":"CountryName"},{"value":"Kärnten","key":"StateName"},{"value":"Spittal an der Drau","key":"CountyName"}]},"MapReference":{"ReferenceId":"558383404","Spot":0.48,"SideOfStreet":"right","CountryId":"20128885","StateId":"20129532","CountyId":"20129843","CityId":"20129933","DistrictId":"20129936","AddressId":"161514195","RoadLinkId":"28659643"}}},{"Relevance":1.0,"Distance":31.2,"MatchLevel":"houseNumber","MatchQuality":{"Country":1.0,"State":1.0,"County":1.0,"City":1.0,"District":1.0,"Street":[1.0],"HouseNumber":1.0,"PostalCode":1.0},"MatchType":"interpolated","Location":{"LocationId":"NT_oaClAVzyg3t7nRC3ijDciA_0YD","LocationType":"point","DisplayPosition":{"Latitude":46.81735,"Longitude":13.51303},"MapView":{"TopLeft":{"Latitude":46.8184742,"Longitude":13.5113873},"BottomRight":{"Latitude":46.8162258,"Longitude":13.5146727}},"Address":{"Label":"Hauptstraße 46, 9871 Seeboden am Millstätter See, Österreich","Country":"AUT","State":"Kärnten","County":"Spittal an der Drau","City":"Seeboden am Millstätter See","District":"Seeboden am Millstätter See","Street":"Hauptstraße","HouseNumber":"46","PostalCode":"9871","AdditionalData":[{"value":"Österreich","key":"CountryName"},{"value":"Kärnten","key":"StateName"},{"value":"Spittal an der Drau","key":"CountyName"}]},"MapReference":{"ReferenceId":"558384402","Spot":0.94,"SideOfStreet":"right","CountryId":"20128885","StateId":"20129532","CountyId":"20129843","CityId":"20129933","DistrictId":"20129936","AddressId":"161514194","RoadLinkId":"28741746"}}},{"Relevance":1.0,"Distance":42.5,"MatchLevel":"houseNumber","MatchQuality":{"Country":1.0,"State":1.0,"County":1.0,"City":1.0,"District":1.0,"Street":[1.0],"HouseNumber":1.0,"PostalCode":1.0},"MatchType":"interpolated","Location":{"LocationId":"NT_AvYnZb-0wVd75BF1vWzO3C_xA","LocationType":"point","DisplayPosition":{"Latitude":46.81658,"Longitude":13.51398},"MapView":{"TopLeft":{"Latitude":46.8177042,"Longitude":13.5123373},"BottomRight":{"Latitude":46.8154558,"Longitude":13.5156227}},"Address":{"Label":"Seegarten 1, 9871 Seeboden am Millstätter See, Österreich","Country":"AUT","State":"Kärnten","County":"Spittal an der Drau","City":"Seeboden am Millstätter See","District":"Seeboden am Millstätter See","Street":"Seegarten","HouseNumber":"1","PostalCode":"9871","AdditionalData":[{"value":"Österreich","key":"CountryName"},{"value":"Kärnten","key":"StateName"},{"value":"Spittal an der Drau","key":"CountyName"}]},"MapReference":{"ReferenceId":"558392774","Spot":0.2,"SideOfStreet":"left","CountryId":"20128885","StateId":"20129532","CountyId":"20129843","CityId":"20129933","DistrictId":"20129936","AddressId":"772489114","RoadLinkId":"28498618"}}},{"Relevance":1.0,"Distance":50.2,"MatchLevel":"houseNumber","MatchQuality":{"Country":1.0,"State":1.0,"County":1.0,"City":1.0,"District":1.0,"Street":[1.0],"HouseNumber":1.0,"PostalCode":1.0},"MatchType":"interpolated","Location":{"LocationId":"NT_oaClAVzyg3t7nRC3ijDciA_1MD","LocationType":"point","DisplayPosition":{"Latitude":46.81746,"Longitude":13.51384},"MapView":{"TopLeft":{"Latitude":46.8185842,"Longitude":13.5121973},"BottomRight":{"Latitude":46.8163358,"Longitude":13.5154827}},"Address":{"Label":"Hauptstraße 53, 9871 Seeboden am Millstätter See, Österreich","Country":"AUT","State":"Kärnten","County":"Spittal an der Drau","City":"Seeboden am Millstätter See","District":"Seeboden am Millstätter See","Street":"Hauptstraße","HouseNumber":"53","PostalCode":"9871","AdditionalData":[{"value":"Österreich","key":"CountryName"},{"value":"Kärnten","key":"StateName"},{"value":"Spittal an der Drau","key":"CountyName"}]},"MapReference":{"ReferenceId":"833442804","Spot":0.59,"SideOfStreet":"left","CountryId":"20128885","StateId":"20129532","CountyId":"20129843","CityId":"20129933","DistrictId":"20129936","AddressId":"161522867","RoadLinkId":"216750784"}}},{"Relevance":1.0,"Distance":55.9,"MatchLevel":"houseNumber","MatchQuality":{"Country":1.0,"State":1.0,"County":1.0,"City":1.0,"District":1.0,"Street":[1.0],"HouseNumber":1.0,"PostalCode":1.0},"MatchType":"interpolated","Location":{"LocationId":"NT_ZVhdFAm7ItsjBmGbRshReB_0A","LocationType":"point","DisplayPosition":{"Latitude":46.81658,"Longitude":13.51333},"MapView":{"TopLeft":{"Latitude":46.8177042,"Longitude":13.5116873},"BottomRight":{"Latitude":46.8154558,"Longitude":13.5149727}},"Address":{"Label":"Wirlsdorfer Straße 4, 9871 Seeboden am Millstätter See, Österreich","Country":"AUT","State":"Kärnten","County":"Spittal an der Drau","City":"Seeboden am Millstätter See","District":"Seeboden am Millstätter See","Street":"Wirlsdorfer Straße","HouseNumber":"4","PostalCode":"9871","AdditionalData":[{"value":"Österreich","key":"CountryName"},{"value":"Kärnten","key":"StateName"},{"value":"Spittal an der Drau","key":"CountyName"}]},"MapReference":{"ReferenceId":"1205021668","Spot":0.92,"SideOfStreet":"left","CountryId":"20128885","StateId":"20129532","CountyId":"20129843","CityId":"20129933","DistrictId":"20129936","AddressId":"161519623","RoadLinkId":"518511010"}}},{"Relevance":1.0,"Distance":68.3,"MatchLevel":"street","MatchQuality":{"Country":1.0,"State":1.0,"County":1.0,"City":1.0,"District":1.0,"Street":[1.0],"PostalCode":1.0},"Location":{"LocationId":"NT_5LuqNXyGXJv6IO8PeD4OoB_l_833442805_R","LocationType":"point","DisplayPosition":{"Latitude":46.81751,"Longitude":13.51414},"MapView":{"TopLeft":{"Latitude":46.81753,"Longitude":13.51414},"BottomRight":{"Latitude":46.81751,"Longitude":13.51425}},"Address":{"Label":"Hauptstraße, 9871 Seeboden am Millstätter See, Österreich","Country":"AUT","State":"Kärnten","County":"Spittal an der Drau","City":"Seeboden am Millstätter See","District":"Seeboden am Millstätter See","Street":"Hauptstraße","PostalCode":"9871","AdditionalData":[{"value":"Österreich","key":"CountryName"},{"value":"Kärnten","key":"StateName"},{"value":"Spittal an der Drau","key":"CountyName"}]},"MapReference":{"ReferenceId":"833442805","Spot":0.0,"SideOfStreet":"right","CountryId":"20128885","StateId":"20129532","CountyId":"20129843","CityId":"20129933","DistrictId":"20129936"}}}]}]}}