{"Response":{"MetaInfo":{"Timestamp":"2020-03-28T11:49:41.780+0000","NextPageInformation":"2"},"View":[{"_type":"SearchResultsViewType","ViewId":0,"Result":[{"Relevance":1.0,"Distance":0.0,"Direction":0.0,"MatchLevel":"district","MatchQuality":{"Country":1.0,"State":1.0,"County":1.0,"City":1.0,"District":1.0,"PostalCode":1.0},"Location":{"LocationId":"NT_eM1VZMPiUHIG3afEPNTYIA","LocationType":"point","DisplayPosition":{"Latitude":46.8299984,"Longitude":-1.5969688},"MapView":{"TopLeft":{"Latitude":46.84273,"Longitude":-1.61687},"BottomRight":{"Latitude":46.81575,"Longitude":-1.57743}},"Address":{"Label":"La Poissonnière, Saint-Étienne-du-Bois, Pays de la Loire, France","Country":"FRA","State":"Pays de la Loire","County":"Vendée","City":"Saint-Étienne-du-Bois","District":"La Poissonnière","PostalCode":"85670","AdditionalData":[{"value":"France","key":"CountryName"},{"value":"Pays de la Loire","key":"StateName"},{"value":"Vendée","key":"CountyName"}]},"MapReference":{"ReferenceId":"557833618","SideOfStreet":"neither","CountryId":"20000001","StateId":"20068992","CountyId":"20080973","CityId":"20081567"}}},{"Relevance":1.0,"Distance":4.9,"MatchLevel":"houseNumber","MatchQuality":{"Country":1.0,"State":1.0,"County":1.0,"City":1.0,"Street":[1.0],"HouseNumber":1.0,"PostalCode":1.0},"MatchType":"interpolated","Location":{"LocationId":"NT_zUwIw03m6xr30In33lGl0C_zA","LocationType":"point","DisplayPosition":{"Latitude":46.83001,"Longitude":-1.59689},"MapView":{"TopLeft":{"Latitude":46.8311342,"Longitude":-1.5985331},"BottomRight":{"Latitude":46.8288858,"Longitude":-1.5952469}},"Address":{"Label":"3 Place des Anciens Combattants, 85670 Saint-Étienne-du-Bois, France","Country":"FRA","State":"Pays de la Loire","County":"Vendée","City":"Saint-Étienne-du-Bois","Street":"Place des Anciens Combattants","HouseNumber":"3","PostalCode":"85670","AdditionalData":[{"value":"France","key":"CountryName"},{"value":"Pays de la Loire","key":"StateName"},{"value":"Vendée","key":"CountyName"}]},"MapReference":{"ReferenceId":"807536045","Spot":0.08,"SideOfStreet":"left","CountryId":"20000001","StateId":"20068992","CountyId":"20080973","CityId":"20081567","AddressId":"323881464","RoadLinkId":"195206559"}}},{"Relevance":1.0,"Distance":9.8,"MatchLevel":"street","MatchQuality":{"Country":1.0,"State":1.0,"County":1.0,"City":1.0,"Street":[1.0],"PostalCode":1.0},"Location":{"LocationId":"NT_zUwIw03m6xr30In33lGl0C_l_807536044_L","LocationType":"point","DisplayPosition":{"Latitude":46.82999,"Longitude":-1.59684},"MapView":{"TopLeft":{"Latitude":46.83015,"Longitude":-1.59684},"BottomRight":{"Latitude":46.82999,"Longitude":-1.59646}},"Address":{"Label":"Place des Anciens Combattants, 85670 Saint-Étienne-du-Bois, France","Country":"FRA","State":"Pays de la Loire","County":"Vendée","City":"Saint-Étienne-du-Bois","Street":"Place des Anciens Combattants","PostalCode":"85670","AdditionalData":[{"value":"France","key":"CountryName"},{"value":"Pays de la Loire","key":"StateName"},{"value":"Vendée","key":"CountyName"}]},"MapReference":{"ReferenceId":"807536044","Spot":0.0,"SideOfStreet":"left","CountryId":"20000001","StateId":"20068992","CountyId":"20080973","CityId":"20081567"}}},{"Relevance":1.0,"Distance":20.5,"MatchLevel":"houseNumber","MatchQuality":{"Country":1.0,"State":1.0,"County":1.0,"City":1.0,"Street":[1.0],"HouseNumber":1.0,"PostalCode":1.0},"MatchType":"interpolated","Location":{"LocationId":"NT_umvMKzw91tH5YbHZ2r9S1B_l_1047798524_L_1A","LocationType":"point","DisplayPosition":{"Latitude":46.8302832,"Longitude":-1.5967675},"MapView":{"TopLeft":{"Latitude":46.8314074,"Longitude":-1.5984106},"BottomRight":{"Latitude":46.8291591,"Longitude":-1.5951244}},"Address":{"Label":"5 Lotissement des Acacias, 85670 Saint-Étienne-du-Bois, France","Country":"FRA","State":"Pays de la Loire","County":"Vendée","City":"Saint-Étienne-du-Bois","Street":"Lotissement des Acacias","HouseNumber":"5","PostalCode":"85670","AdditionalData":[{"value":"France","key":"CountryName"},{"value":"Pays de la Loire","key":"StateName"},{"value":"Vendée","key":"CountyName"}]},"MapReference":{"ReferenceId":"1047798524","Spot":0.39,"SideOfStreet":"left","CountryId":"20000001","StateId":"20068992","CountyId":"20080973","CityId":"20081567"}}},{"Relevance":1.0,"Distance":42.4,"MatchLevel":"houseNumber","MatchQuality":{"Country":1.0,"State":1.0,"County":1.0,"City":1.0,"Street":[1.0],"HouseNumber":1.0,"PostalCode":1.0},"MatchType":"interpolated","Location":{"LocationId":"NT_umvMKzw91tH5YbHZ2r9S1B_l_807536042_R_xED","LocationType":"point","DisplayPosition":{"Latitude":46.8301,"Longitude":-1.59762},"MapView":{"TopLeft":{"Latitude":46.8312242,"Longitude":-1.5992631},"BottomRight":{"Latitude":46.8289759,"Longitude":-1.5959769}},"Address":{"Label":"11 Lotissement des Acacias, 85670 Saint-Étienne-du-Bois, France","Country":"FRA","State":"Pays de la Loire","County":"Vendée","City":"Saint-Étienne-du-Bois","Street":"Lotissement des Acacias","HouseNumber":"11","PostalCode":"85670","AdditionalData":[{"value":"France","key":"CountryName"},{"value":"Pays de la Loire","key":"StateName"},{"value":"Vendée","key":"CountyName"}]},"MapReference":{"ReferenceId":"807536042","Spot":0.5,"SideOfStreet":"right","CountryId":"20000001","StateId":"20068992","CountyId":"20080973","CityId":"20081567"}}},{"Relevance":1.0,"Distance":43.7,"MatchLevel":"houseNumber","MatchQuality":{"Country":1.0,"State":1.0,"County":1.0,"City":1.0,"Street":[1.0],"HouseNumber":1.0,"PostalCode":1.0},"MatchType":"interpolated","Location":{"LocationId":"NT_umvMKzw91tH5YbHZ2r9S1B_xA","LocationType":"point","DisplayPosition":{"Latitude":46.83012,"Longitude":-1.59638},"MapView":{"TopLeft":{"Latitude":46.8312442,"Longitude":-1.5980231},"BottomRight":{"Latitude":46.8289958,"Longitude":-1.5947369}},"Address":{"Label":"1 Lotissement des Acacias, 85670 Saint-Étienne-du-Bois, France","Country":"FRA","State":"Pays de la Loire","County":"Vendée","City":"Saint-Étienne-du-Bois","Street":"Lotissement des Acacias","HouseNumber":"1","PostalCode":"85670","AdditionalData":[{"value":"France","key":"CountryName"},{"value":"Pays de la Loire","key":"StateName"},{"value":"Vendée","key":"CountyName"}]},"MapReference":{"ReferenceId":"807536041","Spot":0.7,"SideOfStreet":"left","CountryId":"20000001","StateId":"20068992","CountyId":"20080973","CityId":"20081567","AddressId":"572869108","RoadLinkId":"195206552"}}},{"Relevance":1.0,"Distance":47.2,"MatchLevel":"houseNumber","MatchQuality":{"Country":1.0,"State":1.0,"County":1.0,"City":1.0,"Street":[1.0],"HouseNumber":1.0,"PostalCode":1.0},"MatchType":"interpolated","Location":{"LocationId":"NT_umvMKzw91tH5YbHZ2r9S1B_xQD","LocationType":"point","DisplayPosition":{"Latitude":46.8304,"Longitude":-1.59728},"MapView":{"TopLeft":{"Latitude":46.8315242,"Longitude":-1.5989231},"BottomRight":{"Latitude":46.8292758,"Longitude":-1.5956369}},"Address":{"Label":"14 Lotissement des Acacias, 85670 Saint-Étienne-du-Bois, France","Country":"FRA","State":"Pays de la Loire","County":"Vendée","City":"Saint-Étienne-du-Bois","Street":"Lotissement des Acacias","HouseNumber":"14","PostalCode":"85670","AdditionalData":[{"value":"France","key":"CountryName"},{"value":"Pays de la Loire","key":"StateName"},{"value":"Vendée","key":"CountyName"}]},"MapReference":{"ReferenceId":"1047798525","Spot":0.88,"SideOfStreet":"right","CountryId":"20000001","StateId":"20068992","CountyId":"20080973","CityId":"20081567","AddressId":"572901259","RoadLinkId":"367957355"}}},{"Relevance":1.0,"Distance":53.2,"MatchLevel":"street","MatchQuality":{"Country":1.0,"State":1.0,"County":1.0,"City":1.0,"Street":[1.0],"PostalCode":1.0},"Location":{"LocationId":"NT_lYYLpb8EPTAnJFhPuqoYoB_l_1047798523_R","LocationType":"point","DisplayPosition":{"Latitude":46.83043,"Longitude":-1.59727},"MapView":{"TopLeft":{"Latitude":46.83062,"Longitude":-1.59727},"BottomRight":{"Latitude":46.83043,"Longitude":-1.59716}},"Address":{"Label":"Rue des Acacias, 85670 Saint-Étienne-du-Bois, France","Country":"FRA","State":"Pays de la Loire","County":"Vendée","City":"Saint-Étienne-du-Bois","Street":"Rue des Acacias","PostalCode":"85670","AdditionalData":[{"value":"France","key":"CountryName"},{"value":"Pays de la Loire","key":"StateName"},{"value":"Vendée","key":"CountyName"}]},"MapReference":{"ReferenceId":"1047798523","Spot":0.0,"SideOfStreet":"right","CountryId":"20000001","StateId":"20068992","CountyId":"20080973","CityId":"20081567"}}},{"Relevance":1.0,"Distance":56.6,"MatchLevel":"houseNumber","MatchQuality":{"Country":1.0,"State":1.0,"County":1.0,"City":1.0,"Street":[1.0],"HouseNumber":1.0,"PostalCode":1.0},"MatchType":"interpolated","Location":{"LocationId":"NT_nVuAQn9hcXyb-nAGEV6yfB_yQD","LocationType":"point","DisplayPosition":{"Latitude":46.82985,"Longitude":-1.59768},"MapView":{"TopLeft":{"Latitude":46.8309742,"Longitude":-1.5993231},"BottomRight":{"Latitude":46.8287258,"Longitude":-1.5960369}},"Address":{"Label":"24 Rue de Sainte-Marie, 85670 Saint-Étienne-du-Bois, France","Country":"FRA","State":"Pays de la Loire","County":"Vendée","City":"Saint-Étienne-du-Bois","Street":"Rue de Sainte-Marie","HouseNumber":"24","PostalCode":"85670","AdditionalData":[{"value":"France","key":"CountryName"},{"value":"Pays de la Loire","key":"StateName"},{"value":"Vendée","key":"CountyName"}]},"MapReference":{"ReferenceId":"557833624","Spot":0.14,"SideOfStreet":"left","CountryId":"20000001","StateId":"20068992","CountyId":"20080973","CityId":"20081567","AddressId":"572918390","RoadLinkId":"46876701"}}},{"Relevance":1.0,"Distance":56.6,"MatchLevel":"houseNumber","MatchQuality":{"Country":1.0,"State":1.0,"County":1.0,"City":1.0,"Street":[1.0],"HouseNumber":1.0,"PostalCode":1.0},"MatchType":"interpolated","Location":{"LocationId":"NT_.drvUm20Rsf4Kf6-.FbqvC_2A","LocationType":"point","DisplayPosition":{"Latitude":46.82948,"Longitude":-1.59676},"MapView":{"TopLeft":{"Latitude":46.8306042,"Longitude":-1.5984031},"BottomRight":{"Latitude":46.8283558,"Longitude":-1.5951169}},"Address":{"Label":"6 Rue Clemenceau, 85670 Saint-Étienne-du-Bois, France","Country":"FRA","State":"Pays de la Loire","County":"Vendée","City":"Saint-Étienne-du-Bois","Street":"Rue Clemenceau","HouseNumber":"6","PostalCode":"85670","AdditionalData":[{"value":"France","key":"CountryName"},{"value":"Pays de la Loire","key":"StateName"},{"value":"Vendée","key":"CountyName"}]},"MapReference":{"ReferenceId":"557833615","Spot":0.29,"SideOfStreet":"left","CountryId":"20000001","StateId":"20068992","CountyId":"20080973","CityId":"20081567","AddressId":"323407800","RoadLinkId":"47907562"}}}]}]}}