{"Response":{"MetaInfo":{"Timestamp":"2020-03-28T11:35:43.252+0000","NextPageInformation":"2"},"View":[{"_type":"SearchResultsViewType","ViewId":0,"Result":[{"Relevance":1.0,"Distance":0.0,"Direction":0.0,"MatchLevel":"district","MatchQuality":{"Country":1.0,"County":1.0,"City":1.0,"District":1.0,"PostalCode":1.0},"Location":{"LocationId":"NT_8RBlOZ5YyR-enoiQfWa0uB","LocationType":"point","DisplayPosition":{"Latitude":46.8040383,"Longitude":21.6687814},"MapView":{"TopLeft":{"Latitude":46.82071,"Longitude":21.62041},"BottomRight":{"Latitude":46.78622,"Longitude":21.68174}},"Address":{"Label":"Salonta, România","Country":"ROU","County":"Bihor","City":"Salonta","District":"Salonta","PostalCode":"415500","AdditionalData":[{"value":"România","key":"CountryName"},{"value":"Bihor","key":"CountyName"}]},"MapReference":{"ReferenceId":"914995776","SideOfStreet":"neither","CountryId":"20656215","CountyId":"20657269","CityId":"23756289","DistrictId":"23756403"}}},{"Relevance":1.0,"Distance":15.0,"MatchLevel":"houseNumber","MatchQuality":{"Country":1.0,"County":1.0,"City":1.0,"District":1.0,"Street":[1.0],"HouseNumber":1.0,"PostalCode":1.0},"MatchType":"interpolated","Location":{"LocationId":"NT_85lMZ3rUGBrhPim4swozdB_3A","LocationType":"point","DisplayPosition":{"Latitude":46.80391,"Longitude":21.66872},"MapView":{"TopLeft":{"Latitude":46.8050342,"Longitude":21.6670777},"BottomRight":{"Latitude":46.8027858,"Longitude":21.6703623}},"Address":{"Label":"Strada I. C. Cantacuzino 7, 415500 Salonta, România","Country":"ROU","County":"Bihor","City":"Salonta","District":"Salonta","Street":"Strada I. C. Cantacuzino","HouseNumber":"7","PostalCode":"415500","AdditionalData":[{"value":"România","key":"CountryName"},{"value":"Bihor","key":"CountyName"}]},"MapReference":{"ReferenceId":"833352518","Spot":0.9,"SideOfStreet":"right","CountryId":"20656215","CountyId":"20657269","CityId":"23756289","DistrictId":"23756403","AddressId":"685911804","RoadLinkId":"216654045"}}},{"Relevance":1.0,"Distance":16.1,"MatchLevel":"houseNumber","MatchQuality":{"Country":1.0,"County":1.0,"City":1.0,"District":1.0,"Street":[1.0],"HouseNumber":1.0,"PostalCode":1.0},"MatchType":"interpolated","Location":{"LocationId":"NT_85lMZ3rUGBrhPim4swozdB_5A","LocationType":"point","DisplayPosition":{"Latitude":46.80396,"Longitude":21.66896},"MapView":{"TopLeft":{"Latitude":46.8050842,"Longitude":21.6673177},"BottomRight":{"Latitude":46.8028358,"Longitude":21.6706023}},"Address":{"Label":"Strada I. C. Cantacuzino 9, 415500 Salonta, România","Country":"ROU","County":"Bihor","City":"Salonta","District":"Salonta","Street":"Strada I. C. Cantacuzino","HouseNumber":"9","PostalCode":"415500","AdditionalData":[{"value":"România","key":"CountryName"},{"value":"Bihor","key":"CountyName"}]},"MapReference":{"ReferenceId":"847941241","Spot":0.3,"SideOfStreet":"right","CountryId":"20656215","CountyId":"20657269","CityId":"23756289","DistrictId":"23756403","AddressId":"685914490","RoadLinkId":"228650578"}}},{"Relevance":1.0,"Distance":30.0,"MatchLevel":"street","MatchQuality":{"Country":1.0,"County":1.0,"City":1.0,"District":1.0,"Street":[1.0],"PostalCode":1.0},"Location":{"LocationId":"NT_85lMZ3rUGBrhPim4swozdB_l_847941243_L","LocationType":"point","DisplayPosition":{"Latitude":46.80415,"Longitude":21.66914},"MapView":{"TopLeft":{"Latitude":46.80415,"Longitude":21.66914},"BottomRight":{"Latitude":46.80401,"Longitude":21.66921}},"Address":{"Label":"Strada I. C. Cantacuzino, 415500 Salonta, România","Country":"ROU","County":"Bihor","City":"Salonta","District":"Salonta","Street":"Strada I. C. Cantacuzino","PostalCode":"415500","AdditionalData":[{"value":"România","key":"CountryName"},{"value":"Bihor","key":"CountyName"}]},"MapReference":{"ReferenceId":"847941243","Spot":1.0,"SideOfStreet":"left","CountryId":"20656215","CountyId":"20657269","CityId":"23756289","DistrictId":"23756403"}}},{"Relevance":1.0,"Distance":30.6,"MatchLevel":"street","MatchQuality":{"Country":1.0,"County":1.0,"City":1.0,"District":1.0,"PostalCode":1.0},"Location":{"LocationId":"NT_Y.qJ8UPQOqcZwvMuIQIURC_l_847941244_L","LocationType":"point","DisplayPosition":{"Latitude":46.8041774,"Longitude":21.6691291},"MapView":{"TopLeft":{"Latitude":46.8043,"Longitude":21.66908},"BottomRight":{"Latitude":46.80415,"Longitude":21.66914}},"Address":{"Label":"415500 Salonta, România","Country":"ROU","County":"Bihor","City":"Salonta","District":"Salonta","PostalCode":"415500","AdditionalData":[{"value":"România","key":"CountryName"},{"value":"Bihor","key":"CountyName"}]},"MapReference":{"ReferenceId":"847941244","Spot":0.18,"SideOfStreet":"left","CountryId":"20656215","CountyId":"20657269","CityId":"23756289","DistrictId":"23756403"}}},{"Relevance":1.0,"Distance":38.5,"MatchLevel":"houseNumber","MatchQuality":{"Country":1.0,"County":1.0,"City":1.0,"District":1.0,"Street":[1.0],"HouseNumber":1.0,"PostalCode":1.0},"MatchType":"interpolated","Location":{"LocationId":"NT_u7JpQBledvT7jQHILidG6D_xA","LocationType":"point","DisplayPosition":{"Latitude":46.80371,"Longitude":21.66893},"MapView":{"TopLeft":{"Latitude":46.8048342,"Longitude":21.6672877},"BottomRight":{"Latitude":46.8025858,"Longitude":21.6705723}},"Address":{"Label":"Strada Pista Danko 1, 415500 Salonta, România","Country":"ROU","County":"Bihor","City":"Salonta","District":"Salonta","Street":"Strada Pista Danko","HouseNumber":"1","PostalCode":"415500","AdditionalData":[{"value":"România","key":"CountryName"},{"value":"Bihor","key":"CountyName"}]},"MapReference":{"ReferenceId":"833352525","Spot":0.8,"SideOfStreet":"left","CountryId":"20656215","CountyId":"20657269","CityId":"23756289","DistrictId":"23756403","AddressId":"685910845","RoadLinkId":"216654052"}}},{"Relevance":1.0,"Distance":41.8,"MatchLevel":"houseNumber","MatchQuality":{"Country":1.0,"County":1.0,"City":1.0,"District":1.0,"Street":[1.0],"HouseNumber":1.0,"PostalCode":1.0},"MatchType":"interpolated","Location":{"LocationId":"NT_85lMZ3rUGBrhPim4swozdB_xMD","LocationType":"point","DisplayPosition":{"Latitude":46.80403,"Longitude":21.66933},"MapView":{"TopLeft":{"Latitude":46.8051542,"Longitude":21.6676877},"BottomRight":{"Latitude":46.8029058,"Longitude":21.6709723}},"Address":{"Label":"Strada I. C. Cantacuzino 13, 415500 Salonta, România","Country":"ROU","County":"Bihor","City":"Salonta","District":"Salonta","Street":"Strada I. C. Cantacuzino","HouseNumber":"13","PostalCode":"415500","AdditionalData":[{"value":"România","key":"CountryName"},{"value":"Bihor","key":"CountyName"}]},"MapReference":{"ReferenceId":"847941242","Spot":0.22,"SideOfStreet":"right","CountryId":"20656215","CountyId":"20657269","CityId":"23756289","DistrictId":"23756403","AddressId":"685914477","RoadLinkId":"228650579"}}},{"Relevance":1.0,"Distance":75.0,"MatchLevel":"street","MatchQuality":{"Country":1.0,"County":1.0,"City":1.0,"District":1.0,"Street":[1.0],"PostalCode":1.0},"Location":{"LocationId":"NT_85lMZ3rUGBrhPim4swozdB_l_847915296_L","LocationType":"point","DisplayPosition":{"Latitude":46.80412,"Longitude":21.66976},"MapView":{"TopLeft":{"Latitude":46.80416,"Longitude":21.66976},"BottomRight":{"Latitude":46.80412,"Longitude":21.67004}},"Address":{"Label":"Strada I. C. Cantacuzino, 415500 Salonta, România","Country":"ROU","County":"Bihor","City":"Salonta","District":"Salonta","Street":"Strada I. C. Cantacuzino","PostalCode":"415500","AdditionalData":[{"value":"România","key":"CountryName"},{"value":"Bihor","key":"CountyName"}]},"MapReference":{"ReferenceId":"847915296","Spot":0.0,"SideOfStreet":"left","CountryId":"20656215","CountyId":"20657269","CityId":"23756289","DistrictId":"23756403"}}},{"Relevance":1.0,"Distance":87.8,"MatchLevel":"houseNumber","MatchQuality":{"Country":1.0,"County":1.0,"City":1.0,"District":1.0,"Street":[1.0],"HouseNumber":1.0,"PostalCode":1.0},"MatchType":"interpolated","Location":{"LocationId":"NT_SmLotkC6srs1VFewffsGsD_xA","LocationType":"point","DisplayPosition":{"Latitude":46.80372,"Longitude":21.66987},"MapView":{"TopLeft":{"Latitude":46.8048442,"Longitude":21.6682277},"BottomRight":{"Latitude":46.8025958,"Longitude":21.6715123}},"Address":{"Label":"Strada Sportului 1, 415500 Salonta, România","Country":"ROU","County":"Bihor","City":"Salonta","District":"Salonta","Street":"Strada Sportului","HouseNumber":"1","PostalCode":"415500","AdditionalData":[{"value":"România","key":"CountryName"},{"value":"Bihor","key":"CountyName"}]},"MapReference":{"ReferenceId":"833352524","Spot":0.8,"SideOfStreet":"left","CountryId":"20656215","CountyId":"20657269","CityId":"23756289","DistrictId":"23756403","AddressId":"685910853","RoadLinkId":"216654051"}}},{"Relevance":1.0,"Distance":92.0,"MatchLevel":"houseNumber","MatchQuality":{"Country":1.0,"County":1.0,"City":1.0,"District":1.0,"Street":[1.0],"HouseNumber":1.0,"PostalCode":1.0},"MatchType":"interpolated","Location":{"LocationId":"NT_xCXkHTe7AOOWc1kol6XMLA_xAD","LocationType":"point","DisplayPosition":{"Latitude":46.80368,"Longitude":21.66757},"MapView":{"TopLeft":{"Latitude":46.8048042,"Longitude":21.6659277},"BottomRight":{"Latitude":46.8025558,"Longitude":21.6692123}},"Address":{"Label":"Piața Haiducilor 10, 415500 Salonta, România","Country":"ROU","County":"Bihor","City":"Salonta","District":"Salonta","Street":"Piața Haiducilor","HouseNumber":"10","PostalCode":"415500","AdditionalData":[{"value":"România","key":"CountryName"},{"value":"Bihor","key":"CountyName"}]},"MapReference":{"ReferenceId":"833352519","Spot":1.0,"SideOfStreet":"left","CountryId":"20656215","CountyId":"20657269","CityId":"23756289","DistrictId":"23756403","AddressId":"685911797","RoadLinkId":"216654046"}}}]}]}}