{"Response":{"MetaInfo":{"Timestamp":"2020-03-28T11:07:53.648+0000","NextPageInformation":"2"},"View":[{"_type":"SearchResultsViewType","ViewId":0,"Result":[{"Relevance":1.0,"Distance":-0.9,"MatchLevel":"landmark","MatchQuality":{"Country":1.0,"State":1.0,"County":1.0,"City":1.0,"PostalCode":1.0,"Name":1.0},"Location":{"LocationId":"NT_Uq46ZB-23bsprPgv.4nKIB","LocationType":"industrialComplex","Name":"Z.I. le Portail","DisplayPosition":{"Latitude":46.9654,"Longitude":2.00232},"MapView":{"TopLeft":{"Latitude":46.97547,"Longitude":1.99386},"BottomRight":{"Latitude":46.95533,"Longitude":2.01749}},"Address":{"Label":"36100 Issoudun, France","Country":"FRA","State":"Centre-Val de Loire","County":"Indre","City":"Issoudun","PostalCode":"36100","AdditionalData":[{"value":"France","key":"CountryName"},{"value":"Centre-Val de Loire","key":"StateName"},{"value":"Indre","key":"CountyName"}]},"MapReference":{"CountryId":"20000001","StateId":"20002113","CountyId":"20066515","CityId":"20066778","PlaceId":"556476556"}}},{"Relevance":1.0,"Distance":0.0,"Direction":0.0,"MatchLevel":"city","MatchQuality":{"Country":1.0,"State":1.0,"County":1.0,"City":1.0,"PostalCode":1.0},"Location":{"LocationId":"NT_eHnC.P1YLcsRALi.Rr3-RA","LocationType":"point","DisplayPosition":{"Latitude":46.9585641,"Longitude":1.997604},"MapView":{"TopLeft":{"Latitude":46.98064,"Longitude":1.93089},"BottomRight":{"Latitude":46.90875,"Longitude":2.08458}},"Address":{"Label":"Issoudun, Centre-Val de Loire, France","Country":"FRA","State":"Centre-Val de Loire","County":"Indre","City":"Issoudun","PostalCode":"36100","AdditionalData":[{"value":"France","key":"CountryName"},{"value":"Centre-Val de Loire","key":"StateName"},{"value":"Indre","key":"CountyName"}]},"MapReference":{"ReferenceId":"545638114","SideOfStreet":"neither","CountryId":"20000001","StateId":"20002113","CountyId":"20066515","CityId":"20066778"}}},{"Relevance":1.0,"Distance":1.0,"MatchLevel":"landmark","MatchQuality":{"Country":1.0,"State":1.0,"County":1.0,"City":1.0,"PostalCode":1.0,"Name":1.0},"Location":{"LocationId":"NT_YRikU6Pr.P.a4TSZray3YB_p_Bt.XP9bO7GK5AG1jFMIBUC","LocationType":"hospital","Name":"CH de La Tour Blanche","DisplayPosition":{"Latitude":46.95767,"Longitude":1.99623},"MapView":{"TopLeft":{"Latitude":46.95951,"Longitude":1.99265},"BottomRight":{"Latitude":46.95654,"Longitude":1.99769}},"Address":{"Label":"36100 Issoudun, France","Country":"FRA","State":"Centre-Val de Loire","County":"Indre","City":"Issoudun","PostalCode":"36100","AdditionalData":[{"value":"France","key":"CountryName"},{"value":"Centre-Val de Loire","key":"StateName"},{"value":"Indre","key":"CountyName"}]},"MapReference":{"CountryId":"20000001","StateId":"20002113","CountyId":"20066515","CityId":"20066778","PlaceId":"73605729"}}},{"Relevance":1.0,"Distance":7.5,"MatchLevel":"street","MatchQuality":{"Country":1.0,"State":1.0,"County":1.0,"City":1.0,"PostalCode":1.0},"Location":{"LocationId":"NT_dBGTr63ATE2iMp16p1YbAB_l_992069326_L","LocationType":"point","DisplayPosition":{"Latitude":46.9586293,"Longitude":1.9976285},"MapView":{"TopLeft":{"Latitude":46.9587,"Longitude":1.99744},"BottomRight":{"Latitude":46.95858,"Longitude":1.99776}},"Address":{"Label":"36100 Issoudun, France","Country":"FRA","State":"Centre-Val de Loire","County":"Indre","City":"Issoudun","PostalCode":"36100","AdditionalData":[{"value":"France","key":"CountryName"},{"value":"Centre-Val de Loire","key":"StateName"},{"value":"Indre","key":"CountyName"}]},"MapReference":{"ReferenceId":"992069326","Spot":0.41,"SideOfStreet":"left","CountryId":"20000001","StateId":"20002113","CountyId":"20066515","CityId":"20066778"}}},{"Relevance":1.0,"Distance":8.2,"MatchLevel":"street","MatchQuality":{"Country":1.0,"State":1.0,"County":1.0,"City":1.0,"Street":[1.0],"PostalCode":1.0},"Location":{"LocationId":"NT_ka5nKACiQUhtsYYmBBbcpC_l_992069327_L","LocationType":"point","DisplayPosition":{"Latitude":46.95852,"Longitude":1.99769},"MapView":{"TopLeft":{"Latitude":46.95858,"Longitude":1.99769},"BottomRight":{"Latitude":46.95852,"Longitude":1.99776}},"Address":{"Label":"Avenue Jean Bonnefont, 36100 Issoudun, France","Country":"FRA","State":"Centre-Val de Loire","County":"Indre","City":"Issoudun","Street":"Avenue Jean Bonnefont","PostalCode":"36100","AdditionalData":[{"value":"France","key":"CountryName"},{"value":"Centre-Val de Loire","key":"StateName"},{"value":"Indre","key":"CountyName"}]},"MapReference":{"ReferenceId":"992069327","Spot":0.0,"SideOfStreet":"left","CountryId":"20000001","StateId":"20002113","CountyId":"20066515","CityId":"20066778"}}},{"Relevance":1.0,"Distance":12.0,"MatchLevel":"street","MatchQuality":{"Country":1.0,"State":1.0,"County":1.0,"City":1.0,"Street":[1.0],"PostalCode":1.0},"Location":{"LocationId":"NT_Po94Qx73aPCDsU42m-ZAFD_l_992069328_L","LocationType":"point","DisplayPosition":{"Latitude":46.95858,"Longitude":1.99776},"MapView":{"TopLeft":{"Latitude":46.95901,"Longitude":1.99776},"BottomRight":{"Latitude":46.95858,"Longitude":1.99829}},"Address":{"Label":"Avenue Jean Bonnefont, 36100 Issoudun, France","Country":"FRA","State":"Centre-Val de Loire","County":"Indre","City":"Issoudun","Street":"Avenue Jean Bonnefont","PostalCode":"36100","AdditionalData":[{"value":"France","key":"CountryName"},{"value":"Centre-Val de Loire","key":"StateName"},{"value":"Indre","key":"CountyName"}]},"MapReference":{"ReferenceId":"992069328","Spot":0.0,"SideOfStreet":"left","CountryId":"20000001","StateId":"20002113","CountyId":"20066515","CityId":"20066778"}}},{"Relevance":1.0,"Distance":19.7,"MatchLevel":"houseNumber","MatchQuality":{"Country":1.0,"State":1.0,"County":1.0,"City":1.0,"Street":[1.0],"HouseNumber":1.0,"PostalCode":1.0},"MatchType":"interpolated","Location":{"LocationId":"NT_ka5nKACiQUhtsYYmBBbcpC_l_921026685_L_xA","LocationType":"point","DisplayPosition":{"Latitude":46.958348,"Longitude":1.9974837},"MapView":{"TopLeft":{"Latitude":46.9594722,"Longitude":1.9958367},"BottomRight":{"Latitude":46.9572239,"Longitude":1.9991308}},"Address":{"Label":"1 Avenue Jean Bonnefont, 36100 Issoudun, France","Country":"FRA","State":"Centre-Val de Loire","County":"Indre","City":"Issoudun","Street":"Avenue Jean Bonnefont","HouseNumber":"1","PostalCode":"36100","AdditionalData":[{"value":"France","key":"CountryName"},{"value":"Centre-Val de Loire","key":"StateName"},{"value":"Indre","key":"CountyName"}]},"MapReference":{"ReferenceId":"921026685","Spot":0.5,"SideOfStreet":"left","CountryId":"20000001","StateId":"20002113","CountyId":"20066515","CityId":"20066778"}}},{"Relevance":1.0,"Distance":39.0,"MatchLevel":"houseNumber","MatchQuality":{"Country":1.0,"State":1.0,"County":1.0,"City":1.0,"Street":[1.0],"HouseNumber":1.0,"PostalCode":1.0},"MatchType":"interpolated","Location":{"LocationId":"NT_f6EI9NIUkll1Q1LZjhQ.fB_4A","LocationType":"point","DisplayPosition":{"Latitude":46.95817,"Longitude":1.99779},"MapView":{"TopLeft":{"Latitude":46.9592942,"Longitude":1.996143},"BottomRight":{"Latitude":46.9570458,"Longitude":1.999437}},"Address":{"Label":"8 Rue Salvador Allende, 36100 Issoudun, France","Country":"FRA","State":"Centre-Val de Loire","County":"Indre","City":"Issoudun","Street":"Rue Salvador Allende","HouseNumber":"8","PostalCode":"36100","AdditionalData":[{"value":"France","key":"CountryName"},{"value":"Centre-Val de Loire","key":"StateName"},{"value":"Indre","key":"CountyName"}]},"MapReference":{"ReferenceId":"545639485","Spot":0.43,"SideOfStreet":"left","CountryId":"20000001","StateId":"20002113","CountyId":"20066515","CityId":"20066778","AddressId":"318923105","RoadLinkId":"53324449"}}},{"Relevance":1.0,"Distance":49.3,"MatchLevel":"street","MatchQuality":{"Country":1.0,"State":1.0,"County":1.0,"City":1.0,"Street":[1.0],"PostalCode":1.0},"Location":{"LocationId":"NT_ka5nKACiQUhtsYYmBBbcpC_l_921026684_L","LocationType":"point","DisplayPosition":{"Latitude":46.95818,"Longitude":1.99728},"MapView":{"TopLeft":{"Latitude":46.95818,"Longitude":1.99706},"BottomRight":{"Latitude":46.958,"Longitude":1.99728}},"Address":{"Label":"Avenue Jean Bonnefont, 36100 Issoudun, France","Country":"FRA","State":"Centre-Val de Loire","County":"Indre","City":"Issoudun","Street":"Avenue Jean Bonnefont","PostalCode":"36100","AdditionalData":[{"value":"France","key":"CountryName"},{"value":"Centre-Val de Loire","key":"StateName"},{"value":"Indre","key":"CountyName"}]},"MapReference":{"ReferenceId":"921026684","Spot":1.0,"SideOfStreet":"left","CountryId":"20000001","StateId":"20002113","CountyId":"20066515","CityId":"20066778"}}},{"Relevance":1.0,"Distance":54.4,"MatchLevel":"houseNumber","MatchQuality":{"Country":1.0,"State":1.0,"County":1.0,"City":1.0,"Street":[1.0],"HouseNumber":1.0,"PostalCode":1.0},"MatchType":"interpolated","Location":{"LocationId":"NT_nd-cyPN6pr3hPz1BGBQcnA_xAD","LocationType":"point","DisplayPosition":{"Latitude":46.95859,"Longitude":1.99832},"MapView":{"TopLeft":{"Latitude":46.9597142,"Longitude":1.996673},"BottomRight":{"Latitude":46.9574658,"Longitude":1.999967}},"Address":{"Label":"10 Place Paul Éluard, 36100 Issoudun, France","Country":"FRA","State":"Centre-Val de Loire","County":"Indre","City":"Issoudun","Street":"Place Paul Éluard","HouseNumber":"10","PostalCode":"36100","AdditionalData":[{"value":"France","key":"CountryName"},{"value":"Centre-Val de Loire","key":"StateName"},{"value":"Indre","key":"CountyName"}]},"MapReference":{"ReferenceId":"545639481","Spot":0.89,"SideOfStreet":"right","CountryId":"20000001","StateId":"20002113","CountyId":"20066515","CityId":"20066778","AddressId":"318756212","RoadLinkId":"52814802"}}}]}]}}