{"Response":{"MetaInfo":{"Timestamp":"2020-03-28T11:14:56.931+0000","NextPageInformation":"2"},"View":[{"_type":"SearchResultsViewType","ViewId":0,"Result":[{"Relevance":1.0,"Distance":0.0,"Direction":0.0,"MatchLevel":"city","MatchQuality":{"Country":1.0,"State":1.0,"County":1.0,"City":1.0,"PostalCode":1.0},"Location":{"LocationId":"NT_fg3Featfwu9WpVqkb3ovOA","LocationType":"point","DisplayPosition":{"Latitude":46.9034142,"Longitude":6.3708512},"MapView":{"TopLeft":{"Latitude":46.9574,"Longitude":6.31154},"BottomRight":{"Latitude":46.87578,"Longitude":6.44774}},"Address":{"Label":"Pontarlier, Bourgogne-Franche-Comté, France","Country":"FRA","State":"Bourgogne-Franche-Comté","County":"Doubs","City":"Pontarlier","PostalCode":"25300","AdditionalData":[{"value":"France","key":"CountryName"},{"value":"Bourgogne-Franche-Comté","key":"StateName"},{"value":"Doubs","key":"CountyName"}]},"MapReference":{"ReferenceId":"70151724","SideOfStreet":"neither","CountryId":"20000001","StateId":"20013306","CountyId":"20013307","CityId":"20014583"}}},{"Relevance":1.0,"Distance":32.8,"MatchLevel":"houseNumber","MatchQuality":{"Country":1.0,"State":1.0,"County":1.0,"City":1.0,"Street":[1.0],"HouseNumber":1.0,"PostalCode":1.0},"MatchType":"interpolated","Location":{"LocationId":"NT_2G5KBeDUhq8eGVVT2aEvEB_xkD","LocationType":"point","DisplayPosition":{"Latitude":46.90318,"Longitude":6.37126},"MapView":{"TopLeft":{"Latitude":46.9043042,"Longitude":6.3696147},"BottomRight":{"Latitude":46.9020558,"Longitude":6.3729053}},"Address":{"Label":"19 Rue Paul Grimault, 25300 Pontarlier, France","Country":"FRA","State":"Bourgogne-Franche-Comté","County":"Doubs","City":"Pontarlier","Street":"Rue Paul Grimault","HouseNumber":"19","PostalCode":"25300","AdditionalData":[{"value":"France","key":"CountryName"},{"value":"Bourgogne-Franche-Comté","key":"StateName"},{"value":"Doubs","key":"CountyName"}]},"MapReference":{"ReferenceId":"705072085","Spot":0.52,"SideOfStreet":"left","CountryId":"20000001","StateId":"20013306","CountyId":"20013307","CityId":"20014583","AddressId":"399091328","RoadLinkId":"111624315"}}},{"Relevance":1.0,"Distance":48.6,"MatchLevel":"houseNumber","MatchQuality":{"Country":1.0,"State":1.0,"County":1.0,"City":1.0,"Street":[1.0],"HouseNumber":1.0,"PostalCode":1.0},"MatchType":"interpolated","Location":{"LocationId":"NT_VZTqBrzhw55Goo8AbdvOVC_0A","LocationType":"point","DisplayPosition":{"Latitude":46.90346,"Longitude":6.37161},"MapView":{"TopLeft":{"Latitude":46.9045842,"Longitude":6.3699646},"BottomRight":{"Latitude":46.9023358,"Longitude":6.3732554}},"Address":{"Label":"4 Rue de la Grangette, 25300 Pontarlier, France","Country":"FRA","State":"Bourgogne-Franche-Comté","County":"Doubs","City":"Pontarlier","Street":"Rue de la Grangette","HouseNumber":"4","PostalCode":"25300","AdditionalData":[{"value":"France","key":"CountryName"},{"value":"Bourgogne-Franche-Comté","key":"StateName"},{"value":"Doubs","key":"CountyName"}]},"MapReference":{"ReferenceId":"705072087","Spot":0.06,"SideOfStreet":"left","CountryId":"20000001","StateId":"20013306","CountyId":"20013307","CityId":"20014583","AddressId":"317323076","RoadLinkId":"111624317"}}},{"Relevance":1.0,"Distance":59.3,"MatchLevel":"street","MatchQuality":{"Country":1.0,"State":1.0,"County":1.0,"City":1.0,"Street":[1.0],"PostalCode":1.0},"Location":{"LocationId":"NT_QPZ97wudk0LGslhqaEZWxB_l_705072088_L","LocationType":"point","DisplayPosition":{"Latitude":46.90329,"Longitude":6.37161},"MapView":{"TopLeft":{"Latitude":46.90337,"Longitude":6.37161},"BottomRight":{"Latitude":46.90329,"Longitude":6.37165}},"Address":{"Label":"Rue Claude Sautet, 25300 Pontarlier, France","Country":"FRA","State":"Bourgogne-Franche-Comté","County":"Doubs","City":"Pontarlier","Street":"Rue Claude Sautet","PostalCode":"25300","AdditionalData":[{"value":"France","key":"CountryName"},{"value":"Bourgogne-Franche-Comté","key":"StateName"},{"value":"Doubs","key":"CountyName"}]},"MapReference":{"ReferenceId":"705072088","Spot":0.0,"SideOfStreet":"left","CountryId":"20000001","StateId":"20013306","CountyId":"20013307","CityId":"20014583"}}},{"Relevance":1.0,"Distance":65.5,"MatchLevel":"houseNumber","MatchQuality":{"Country":1.0,"State":1.0,"County":1.0,"City":1.0,"Street":[1.0],"HouseNumber":1.0,"PostalCode":1.0},"MatchType":"interpolated","Location":{"LocationId":"NT_QPZ97wudk0LGslhqaEZWxB_ykD","LocationType":"point","DisplayPosition":{"Latitude":46.90307,"Longitude":6.37159},"MapView":{"TopLeft":{"Latitude":46.9041942,"Longitude":6.3699447},"BottomRight":{"Latitude":46.9019458,"Longitude":6.3732353}},"Address":{"Label":"29 Rue Claude Sautet, 25300 Pontarlier, France","Country":"FRA","State":"Bourgogne-Franche-Comté","County":"Doubs","City":"Pontarlier","Street":"Rue Claude Sautet","HouseNumber":"29","PostalCode":"25300","AdditionalData":[{"value":"France","key":"CountryName"},{"value":"Bourgogne-Franche-Comté","key":"StateName"},{"value":"Doubs","key":"CountyName"}]},"MapReference":{"ReferenceId":"705072084","Spot":0.73,"SideOfStreet":"left","CountryId":"20000001","StateId":"20013306","CountyId":"20013307","CityId":"20014583","AddressId":"317354358","RoadLinkId":"111624320"}}},{"Relevance":1.0,"Distance":69.8,"MatchLevel":"houseNumber","MatchQuality":{"Country":1.0,"State":1.0,"County":1.0,"City":1.0,"Street":[1.0],"HouseNumber":1.0,"PostalCode":1.0},"MatchType":"interpolated","Location":{"LocationId":"NT_2G5KBeDUhq8eGVVT2aEvEB_xMD","LocationType":"point","DisplayPosition":{"Latitude":46.90279,"Longitude":6.37117},"MapView":{"TopLeft":{"Latitude":46.9039142,"Longitude":6.3695247},"BottomRight":{"Latitude":46.9016658,"Longitude":6.3728153}},"Address":{"Label":"13 Rue Paul Grimault, 25300 Pontarlier, France","Country":"FRA","State":"Bourgogne-Franche-Comté","County":"Doubs","City":"Pontarlier","Street":"Rue Paul Grimault","HouseNumber":"13","PostalCode":"25300","AdditionalData":[{"value":"France","key":"CountryName"},{"value":"Bourgogne-Franche-Comté","key":"StateName"},{"value":"Doubs","key":"CountyName"}]},"MapReference":{"ReferenceId":"705072078","Spot":0.99,"SideOfStreet":"left","CountryId":"20000001","StateId":"20013306","CountyId":"20013307","CityId":"20014583","AddressId":"371036867","RoadLinkId":"111624311"}}},{"Relevance":1.0,"Distance":83.5,"MatchLevel":"houseNumber","MatchQuality":{"Country":1.0,"State":1.0,"County":1.0,"City":1.0,"Street":[1.0],"HouseNumber":1.0,"PostalCode":1.0},"MatchType":"interpolated","Location":{"LocationId":"NT_VZTqBrzhw55Goo8AbdvOVC_2A","LocationType":"point","DisplayPosition":{"Latitude":46.90323,"Longitude":6.37194},"MapView":{"TopLeft":{"Latitude":46.9043542,"Longitude":6.3702947},"BottomRight":{"Latitude":46.9021058,"Longitude":6.3735853}},"Address":{"Label":"6 Rue de la Grangette, 25300 Pontarlier, France","Country":"FRA","State":"Bourgogne-Franche-Comté","County":"Doubs","City":"Pontarlier","Street":"Rue de la Grangette","HouseNumber":"6","PostalCode":"25300","AdditionalData":[{"value":"France","key":"CountryName"},{"value":"Bourgogne-Franche-Comté","key":"StateName"},{"value":"Doubs","key":"CountyName"}]},"MapReference":{"ReferenceId":"705072086","Spot":0.76,"SideOfStreet":"left","CountryId":"20000001","StateId":"20013306","CountyId":"20013307","CityId":"20014583","AddressId":"317282368","RoadLinkId":"111624316"}}},{"Relevance":1.0,"Distance":114.8,"MatchLevel":"street","MatchQuality":{"Country":1.0,"State":1.0,"County":1.0,"City":1.0,"Street":[1.0],"PostalCode":1.0},"Location":{"LocationId":"NT_2ifNzJVgLe-Byc3.u79a5D_l_70148560_R","LocationType":"point","DisplayPosition":{"Latitude":46.9044221,"Longitude":6.3705258},"MapView":{"TopLeft":{"Latitude":46.90453,"Longitude":6.36836},"BottomRight":{"Latitude":46.90394,"Longitude":6.37086}},"Address":{"Label":"Rue du 3ème R.T.A., 25300 Pontarlier, France","Country":"FRA","State":"Bourgogne-Franche-Comté","County":"Doubs","City":"Pontarlier","Street":"Rue du 3ème R.T.A.","PostalCode":"25300","AdditionalData":[{"value":"France","key":"CountryName"},{"value":"Bourgogne-Franche-Comté","key":"StateName"},{"value":"Doubs","key":"CountyName"}]},"MapReference":{"ReferenceId":"70148560","Spot":0.86,"SideOfStreet":"right","CountryId":"20000001","StateId":"20013306","CountyId":"20013307","CityId":"20014583"}}},{"Relevance":1.0,"Distance":121.9,"MatchLevel":"houseNumber","MatchQuality":{"Country":1.0,"State":1.0,"County":1.0,"City":1.0,"Street":[1.0],"HouseNumber":1.0,"PostalCode":1.0},"MatchType":"interpolated","Location":{"LocationId":"NT_QPZ97wudk0LGslhqaEZWxB_yMD","LocationType":"point","DisplayPosition":{"Latitude":46.90237,"Longitude":6.37164},"MapView":{"TopLeft":{"Latitude":46.9034942,"Longitude":6.3699947},"BottomRight":{"Latitude":46.9012458,"Longitude":6.3732853}},"Address":{"Label":"23 Rue Claude Sautet, 25300 Pontarlier, France","Country":"FRA","State":"Bourgogne-Franche-Comté","County":"Doubs","City":"Pontarlier","Street":"Rue Claude Sautet","HouseNumber":"23","PostalCode":"25300","AdditionalData":[{"value":"France","key":"CountryName"},{"value":"Bourgogne-Franche-Comté","key":"StateName"},{"value":"Doubs","key":"CountyName"}]},"MapReference":{"ReferenceId":"705072080","Spot":0.9,"SideOfStreet":"left","CountryId":"20000001","StateId":"20013306","CountyId":"20013307","CityId":"20014583","AddressId":"590318944","RoadLinkId":"111624319"}}},{"Relevance":1.0,"Distance":124.1,"MatchLevel":"street","MatchQuality":{"Country":1.0,"State":1.0,"County":1.0,"City":1.0,"Street":[1.0],"PostalCode":1.0},"Location":{"LocationId":"NT_y2DCtUcPWSVAFSdvoYwuZC_l_70152537_R","LocationType":"point","DisplayPosition":{"Latitude":46.90453,"Longitude":6.37086},"MapView":{"TopLeft":{"Latitude":46.90792,"Longitude":6.37086},"BottomRight":{"Latitude":46.90453,"Longitude":6.37873}},"Address":{"Label":"Chemin des Marneaux, 25300 Pontarlier, France","Country":"FRA","State":"Bourgogne-Franche-Comté","County":"Doubs","City":"Pontarlier","Street":"Chemin des Marneaux","PostalCode":"25300","AdditionalData":[{"value":"France","key":"CountryName"},{"value":"Bourgogne-Franche-Comté","key":"StateName"},{"value":"Doubs","key":"CountyName"}]},"MapReference":{"ReferenceId":"70152537","Spot":0.0,"SideOfStreet":"right","CountryId":"20000001","StateId":"20013306","CountyId":"20013307","CityId":"20014583"}}}]}]}}