{"Response":{"MetaInfo":{"Timestamp":"2020-03-28T10:12:07.308+0000","NextPageInformation":"2"},"View":[{"_type":"SearchResultsViewType","ViewId":0,"Result":[{"Relevance":1.0,"Distance":0.0,"Direction":0.0,"MatchLevel":"district","MatchQuality":{"Country":1.0,"State":1.0,"County":1.0,"City":1.0,"District":1.0,"PostalCode":1.0},"Location":{"LocationId":"NT_6tquo.yNIGRDokPJv8riQD","LocationType":"point","DisplayPosition":{"Latitude":46.9140315,"Longitude":17.6742807},"MapView":{"TopLeft":{"Latitude":46.91789,"Longitude":17.66891},"BottomRight":{"Latitude":46.90702,"Longitude":17.67946}},"Address":{"Label":"Szentantalfa, Veszprém, Magyarország","Country":"HUN","State":"Veszprém","County":"Balatonfüredi Járás","City":"Szentantalfa","District":"Szentantalfa","PostalCode":"8272","AdditionalData":[{"value":"Magyarország","key":"CountryName"},{"value":"Veszprém","key":"StateName"},{"value":"Balatonfüredi Járás","key":"CountyName"}]},"MapReference":{"ReferenceId":"598436677","SideOfStreet":"neither","CountryId":"20613038","StateId":"20622272","CountyId":"26680455","CityId":"20622841","DistrictId":"26680680"}}},{"Relevance":1.0,"Distance":17.4,"MatchLevel":"houseNumber","MatchQuality":{"Country":1.0,"State":1.0,"County":1.0,"City":1.0,"District":1.0,"Street":[1.0],"HouseNumber":1.0,"PostalCode":1.0},"MatchType":"interpolated","Location":{"LocationId":"NT_4u099H5aJUe8XpB9lRAHbA_ygD","LocationType":"point","DisplayPosition":{"Latitude":46.91423,"Longitude":17.67439},"MapView":{"TopLeft":{"Latitude":46.9153542,"Longitude":17.6727443},"BottomRight":{"Latitude":46.9131058,"Longitude":17.6760357}},"Address":{"Label":"Fő utca 28, Szentantalfa 8272, Magyarország","Country":"HUN","State":"Veszprém","County":"Balatonfüredi Járás","City":"Szentantalfa","District":"Szentantalfa","Street":"Fő utca","HouseNumber":"28","PostalCode":"8272","AdditionalData":[{"value":"Magyarország","key":"CountryName"},{"value":"Veszprém","key":"StateName"},{"value":"Balatonfüredi Járás","key":"CountyName"}]},"MapReference":{"ReferenceId":"808924089","Spot":0.8,"SideOfStreet":"right","CountryId":"20613038","StateId":"20622272","CountyId":"26680455","CityId":"20622841","DistrictId":"26680680","AddressId":"356978505","RoadLinkId":"196254257"}}},{"Relevance":1.0,"Distance":23.4,"MatchLevel":"street","MatchQuality":{"Country":1.0,"State":1.0,"County":1.0,"City":1.0,"District":1.0,"Street":[1.0],"PostalCode":1.0},"Location":{"LocationId":"NT_vIO4yGPAfK8T06l4G1lFRC_l_598436412_R","LocationType":"point","DisplayPosition":{"Latitude":46.9142372,"Longitude":17.6742149},"MapView":{"TopLeft":{"Latitude":46.91429,"Longitude":17.67381},"BottomRight":{"Latitude":46.91375,"Longitude":17.67438}},"Address":{"Label":"Kút utca, Szentantalfa 8272, Magyarország","Country":"HUN","State":"Veszprém","County":"Balatonfüredi Járás","City":"Szentantalfa","District":"Szentantalfa","Street":"Kút utca","PostalCode":"8272","AdditionalData":[{"value":"Magyarország","key":"CountryName"},{"value":"Veszprém","key":"StateName"},{"value":"Balatonfüredi Járás","key":"CountyName"}]},"MapReference":{"ReferenceId":"598436412","Spot":0.8,"SideOfStreet":"right","CountryId":"20613038","StateId":"20622272","CountyId":"26680455","CityId":"20622841","DistrictId":"26680680"}}},{"Relevance":1.0,"Distance":28.1,"MatchLevel":"houseNumber","MatchQuality":{"Country":1.0,"State":1.0,"County":1.0,"City":1.0,"District":1.0,"Street":[1.0],"HouseNumber":1.0,"PostalCode":1.0},"MatchType":"interpolated","Location":{"LocationId":"NT_K3lc21VBtqV0j-JhdHElYB_l_598436438_L_zMD","LocationType":"point","DisplayPosition":{"Latitude":46.9139171,"Longitude":17.6739502},"MapView":{"TopLeft":{"Latitude":46.9150413,"Longitude":17.6723045},"BottomRight":{"Latitude":46.912793,"Longitude":17.6755959}},"Address":{"Label":"Fő utca 33, Szentantalfa 8272, Magyarország","Country":"HUN","State":"Veszprém","County":"Balatonfüredi Járás","City":"Szentantalfa","District":"Szentantalfa","Street":"Fő utca","HouseNumber":"33","PostalCode":"8272","AdditionalData":[{"value":"Magyarország","key":"CountryName"},{"value":"Veszprém","key":"StateName"},{"value":"Balatonfüredi Járás","key":"CountyName"}]},"MapReference":{"ReferenceId":"598436438","Spot":0.47,"SideOfStreet":"left","CountryId":"20613038","StateId":"20622272","CountyId":"26680455","CityId":"20622841","DistrictId":"26680680"}}},{"Relevance":1.0,"Distance":29.6,"MatchLevel":"street","MatchQuality":{"Country":1.0,"State":1.0,"County":1.0,"City":1.0,"District":1.0,"PostalCode":1.0},"Location":{"LocationId":"NT_wQ8Ufw4s3re0yEJkE9GAdA_l_808924091_L","LocationType":"point","DisplayPosition":{"Latitude":46.9142886,"Longitude":17.6743835},"MapView":{"TopLeft":{"Latitude":46.91429,"Longitude":17.67438},"BottomRight":{"Latitude":46.91425,"Longitude":17.67448}},"Address":{"Label":"Szentantalfa 8272, Magyarország","Country":"HUN","State":"Veszprém","County":"Balatonfüredi Járás","City":"Szentantalfa","District":"Szentantalfa","PostalCode":"8272","AdditionalData":[{"value":"Magyarország","key":"CountryName"},{"value":"Veszprém","key":"StateName"},{"value":"Balatonfüredi Járás","key":"CountyName"}]},"MapReference":{"ReferenceId":"808924091","Spot":0.96,"SideOfStreet":"left","CountryId":"20613038","StateId":"20622272","CountyId":"26680455","CityId":"20622841","DistrictId":"26680680"}}},{"Relevance":1.0,"Distance":29.7,"MatchLevel":"street","MatchQuality":{"Country":1.0,"State":1.0,"County":1.0,"City":1.0,"District":1.0,"PostalCode":1.0},"Location":{"LocationId":"NT_wQ8Ufw4s3re0yEJkE9GAdA_l_808924092_L","LocationType":"point","DisplayPosition":{"Latitude":46.91429,"Longitude":17.67438},"MapView":{"TopLeft":{"Latitude":46.91548,"Longitude":17.67395},"BottomRight":{"Latitude":46.91429,"Longitude":17.67438}},"Address":{"Label":"Szentantalfa 8272, Magyarország","Country":"HUN","State":"Veszprém","County":"Balatonfüredi Járás","City":"Szentantalfa","District":"Szentantalfa","PostalCode":"8272","AdditionalData":[{"value":"Magyarország","key":"CountryName"},{"value":"Veszprém","key":"StateName"},{"value":"Balatonfüredi Járás","key":"CountyName"}]},"MapReference":{"ReferenceId":"808924092","Spot":0.0,"SideOfStreet":"left","CountryId":"20613038","StateId":"20622272","CountyId":"26680455","CityId":"20622841","DistrictId":"26680680"}}},{"Relevance":1.0,"Distance":35.9,"MatchLevel":"houseNumber","MatchQuality":{"Country":1.0,"State":1.0,"County":1.0,"City":1.0,"District":1.0,"Street":[1.0],"HouseNumber":1.0,"PostalCode":1.0},"MatchType":"interpolated","Location":{"LocationId":"NT_4u099H5aJUe8XpB9lRAHbA_yYD","LocationType":"point","DisplayPosition":{"Latitude":46.91427,"Longitude":17.6746},"MapView":{"TopLeft":{"Latitude":46.9153942,"Longitude":17.6729543},"BottomRight":{"Latitude":46.9131458,"Longitude":17.6762457}},"Address":{"Label":"Fő utca 26, Szentantalfa 8272, Magyarország","Country":"HUN","State":"Veszprém","County":"Balatonfüredi Járás","City":"Szentantalfa","District":"Szentantalfa","Street":"Fő utca","HouseNumber":"26","PostalCode":"8272","AdditionalData":[{"value":"Magyarország","key":"CountryName"},{"value":"Veszprém","key":"StateName"},{"value":"Balatonfüredi Járás","key":"CountyName"}]},"MapReference":{"ReferenceId":"950088086","Spot":0.14,"SideOfStreet":"right","CountryId":"20613038","StateId":"20622272","CountyId":"26680455","CityId":"20622841","DistrictId":"26680680","AddressId":"356757700","RoadLinkId":"297026214"}}},{"Relevance":1.0,"Distance":44.0,"MatchLevel":"houseNumber","MatchQuality":{"Country":1.0,"State":1.0,"County":1.0,"City":1.0,"District":1.0,"Street":[1.0],"HouseNumber":1.0,"PostalCode":1.0},"MatchType":"interpolated","Location":{"LocationId":"NT_4u099H5aJUe8XpB9lRAHbA_zAD","LocationType":"point","DisplayPosition":{"Latitude":46.91366,"Longitude":17.67389},"MapView":{"TopLeft":{"Latitude":46.9147842,"Longitude":17.6722443},"BottomRight":{"Latitude":46.9125358,"Longitude":17.6755357}},"Address":{"Label":"Fő utca 30, Szentantalfa 8272, Magyarország","Country":"HUN","State":"Veszprém","County":"Balatonfüredi Járás","City":"Szentantalfa","District":"Szentantalfa","Street":"Fő utca","HouseNumber":"30","PostalCode":"8272","AdditionalData":[{"value":"Magyarország","key":"CountryName"},{"value":"Veszprém","key":"StateName"},{"value":"Balatonfüredi Járás","key":"CountyName"}]},"MapReference":{"ReferenceId":"808924087","Spot":0.27,"SideOfStreet":"right","CountryId":"20613038","StateId":"20622272","CountyId":"26680455","CityId":"20622841","DistrictId":"26680680","AddressId":"356263985","RoadLinkId":"196254251"}}},{"Relevance":1.0,"Distance":47.5,"MatchLevel":"street","MatchQuality":{"Country":1.0,"State":1.0,"County":1.0,"City":1.0,"District":1.0,"PostalCode":1.0},"Location":{"LocationId":"NT_wQ8Ufw4s3re0yEJkE9GAdA_l_808924088_R","LocationType":"point","DisplayPosition":{"Latitude":46.91375,"Longitude":17.67381},"MapView":{"TopLeft":{"Latitude":46.91375,"Longitude":17.67381},"BottomRight":{"Latitude":46.91363,"Longitude":17.67389}},"Address":{"Label":"Szentantalfa 8272, Magyarország","Country":"HUN","State":"Veszprém","County":"Balatonfüredi Járás","City":"Szentantalfa","District":"Szentantalfa","PostalCode":"8272","AdditionalData":[{"value":"Magyarország","key":"CountryName"},{"value":"Veszprém","key":"StateName"},{"value":"Balatonfüredi Járás","key":"CountyName"}]},"MapReference":{"ReferenceId":"808924088","Spot":1.0,"SideOfStreet":"right","CountryId":"20613038","StateId":"20622272","CountyId":"26680455","CityId":"20622841","DistrictId":"26680680"}}},{"Relevance":1.0,"Distance":56.6,"MatchLevel":"houseNumber","MatchQuality":{"Country":1.0,"State":1.0,"County":1.0,"City":1.0,"District":1.0,"Street":[1.0],"HouseNumber":1.0,"PostalCode":1.0},"MatchType":"interpolated","Location":{"LocationId":"NT_vIO4yGPAfK8T06l4G1lFRC_3A","LocationType":"point","DisplayPosition":{"Latitude":46.91374,"Longitude":17.67367},"MapView":{"TopLeft":{"Latitude":46.9148642,"Longitude":17.6720243},"BottomRight":{"Latitude":46.9126158,"Longitude":17.6753157}},"Address":{"Label":"Kút utca 7, Szentantalfa 8272, Magyarország","Country":"HUN","State":"Veszprém","County":"Balatonfüredi Járás","City":"Szentantalfa","District":"Szentantalfa","Street":"Kút utca","HouseNumber":"7","PostalCode":"8272","AdditionalData":[{"value":"Magyarország","key":"CountryName"},{"value":"Veszprém","key":"StateName"},{"value":"Balatonfüredi Járás","key":"CountyName"}]},"MapReference":{"ReferenceId":"598436442","Spot":0.81,"SideOfStreet":"left","CountryId":"20613038","StateId":"20622272","CountyId":"26680455","CityId":"20622841","DistrictId":"26680680","AddressId":"355571469","RoadLinkId":"60585824"}}}]}]}}