{"Response":{"MetaInfo":{"Timestamp":"2020-03-28T11:52:36.136+0000","NextPageInformation":"2"},"View":[{"_type":"SearchResultsViewType","ViewId":0,"Result":[{"Relevance":1.0,"Distance":0.0,"Direction":0.0,"MatchLevel":"city","MatchQuality":{"Country":1.0,"State":1.0,"County":1.0,"City":1.0,"PostalCode":1.0},"Location":{"LocationId":"NT_OVcVCmthlEQtCDgUwHZnKC","LocationType":"point","DisplayPosition":{"Latitude":46.9537139,"Longitude":6.1189583},"MapView":{"TopLeft":{"Latitude":47.0178,"Longitude":6.05356},"BottomRight":{"Latitude":46.91327,"Longitude":6.18584}},"Address":{"Label":"Levier, Bourgogne-Franche-Comté, France","Country":"FRA","State":"Bourgogne-Franche-Comté","County":"Doubs","City":"Levier","PostalCode":"25270","AdditionalData":[{"value":"France","key":"CountryName"},{"value":"Bourgogne-Franche-Comté","key":"StateName"},{"value":"Doubs","key":"CountyName"}]},"MapReference":{"ReferenceId":"579015506","SideOfStreet":"neither","CountryId":"20000001","StateId":"20013306","CountyId":"20013307","CityId":"20014232"}}},{"Relevance":1.0,"Distance":4.8,"MatchLevel":"houseNumber","MatchQuality":{"Country":1.0,"State":1.0,"County":1.0,"City":1.0,"Street":[1.0],"HouseNumber":1.0,"PostalCode":1.0},"MatchType":"interpolated","Location":{"LocationId":"NT_P1epMrepb.j631zMY9o9vA_yA","LocationType":"point","DisplayPosition":{"Latitude":46.95378,"Longitude":6.1189},"MapView":{"TopLeft":{"Latitude":46.9549042,"Longitude":6.1172531},"BottomRight":{"Latitude":46.9526558,"Longitude":6.1205469}},"Address":{"Label":"2 Rue de Pontarlier, 25270 Levier, France","Country":"FRA","State":"Bourgogne-Franche-Comté","County":"Doubs","City":"Levier","Street":"Rue de Pontarlier","HouseNumber":"2","PostalCode":"25270","AdditionalData":[{"value":"France","key":"CountryName"},{"value":"Bourgogne-Franche-Comté","key":"StateName"},{"value":"Doubs","key":"CountyName"}]},"MapReference":{"ReferenceId":"809172052","Spot":0.19,"SideOfStreet":"right","CountryId":"20000001","StateId":"20013306","CountyId":"20013307","CityId":"20014232","AddressId":"379292218","RoadLinkId":"196517259"}}},{"Relevance":1.0,"Distance":13.0,"MatchLevel":"houseNumber","MatchQuality":{"Country":1.0,"State":1.0,"County":1.0,"City":1.0,"Street":[1.0],"HouseNumber":1.0,"PostalCode":1.0},"MatchType":"interpolated","Location":{"LocationId":"NT_2fb4NVCW0Kx9FpmH5bYfOB_5A","LocationType":"point","DisplayPosition":{"Latitude":46.9536,"Longitude":6.11883},"MapView":{"TopLeft":{"Latitude":46.9547242,"Longitude":6.1171831},"BottomRight":{"Latitude":46.9524758,"Longitude":6.1204769}},"Address":{"Label":"9 Rue Alexis Rousset, 25270 Levier, France","Country":"FRA","State":"Bourgogne-Franche-Comté","County":"Doubs","City":"Levier","Street":"Rue Alexis Rousset","HouseNumber":"9","PostalCode":"25270","AdditionalData":[{"value":"France","key":"CountryName"},{"value":"Bourgogne-Franche-Comté","key":"StateName"},{"value":"Doubs","key":"CountyName"}]},"MapReference":{"ReferenceId":"579015497","Spot":0.66,"SideOfStreet":"right","CountryId":"20000001","StateId":"20013306","CountyId":"20013307","CityId":"20014232","AddressId":"590323926","RoadLinkId":"44492122"}}},{"Relevance":1.0,"Distance":30.9,"MatchLevel":"houseNumber","MatchQuality":{"Country":1.0,"State":1.0,"County":1.0,"City":1.0,"Street":[1.0],"HouseNumber":1.0,"PostalCode":1.0},"MatchType":"interpolated","Location":{"LocationId":"NT_P1epMrepb.j631zMY9o9vA_xA","LocationType":"point","DisplayPosition":{"Latitude":46.95377,"Longitude":6.11856},"MapView":{"TopLeft":{"Latitude":46.9548942,"Longitude":6.1169131},"BottomRight":{"Latitude":46.9526458,"Longitude":6.1202069}},"Address":{"Label":"1 Rue de Pontarlier, 25270 Levier, France","Country":"FRA","State":"Bourgogne-Franche-Comté","County":"Doubs","City":"Levier","Street":"Rue de Pontarlier","HouseNumber":"1","PostalCode":"25270","AdditionalData":[{"value":"France","key":"CountryName"},{"value":"Bourgogne-Franche-Comté","key":"StateName"},{"value":"Doubs","key":"CountyName"}]},"MapReference":{"ReferenceId":"759131249","Spot":0.41,"SideOfStreet":"left","CountryId":"20000001","StateId":"20013306","CountyId":"20013307","CityId":"20014232","AddressId":"317397759","RoadLinkId":"153720871"}}},{"Relevance":1.0,"Distance":33.1,"MatchLevel":"houseNumber","MatchQuality":{"Country":1.0,"State":1.0,"County":1.0,"City":1.0,"Street":[1.0],"HouseNumber":1.0,"PostalCode":1.0},"MatchType":"interpolated","Location":{"LocationId":"NT_y62ERAvTrKfOAARnZDjk3B_xAD","LocationType":"point","DisplayPosition":{"Latitude":46.95368,"Longitude":6.11843},"MapView":{"TopLeft":{"Latitude":46.9548042,"Longitude":6.1167831},"BottomRight":{"Latitude":46.9525558,"Longitude":6.1200769}},"Address":{"Label":"10 Place de Verdun, 25270 Levier, France","Country":"FRA","State":"Bourgogne-Franche-Comté","County":"Doubs","City":"Levier","Street":"Place de Verdun","HouseNumber":"10","PostalCode":"25270","AdditionalData":[{"value":"France","key":"CountryName"},{"value":"Bourgogne-Franche-Comté","key":"StateName"},{"value":"Doubs","key":"CountyName"}]},"MapReference":{"ReferenceId":"759131251","Spot":0.9,"SideOfStreet":"right","CountryId":"20000001","StateId":"20013306","CountyId":"20013307","CityId":"20014232","AddressId":"317340990","RoadLinkId":"153720873"}}},{"Relevance":1.0,"Distance":39.8,"MatchLevel":"street","MatchQuality":{"Country":1.0,"State":1.0,"County":1.0,"City":1.0,"Street":[1.0],"PostalCode":1.0},"Location":{"LocationId":"NT_P1epMrepb.j631zMY9o9vA_l_759131250_R","LocationType":"point","DisplayPosition":{"Latitude":46.95377,"Longitude":6.11844},"MapView":{"TopLeft":{"Latitude":46.95377,"Longitude":6.11834},"BottomRight":{"Latitude":46.95377,"Longitude":6.11844}},"Address":{"Label":"Place de Verdun, 25270 Levier, France","Country":"FRA","State":"Bourgogne-Franche-Comté","County":"Doubs","City":"Levier","Street":"Place de Verdun","PostalCode":"25270","AdditionalData":[{"value":"France","key":"CountryName"},{"value":"Bourgogne-Franche-Comté","key":"StateName"},{"value":"Doubs","key":"CountyName"}]},"MapReference":{"ReferenceId":"759131250","Spot":1.0,"SideOfStreet":"right","CountryId":"20000001","StateId":"20013306","CountyId":"20013307","CityId":"20014232"}}},{"Relevance":1.0,"Distance":53.0,"MatchLevel":"houseNumber","MatchQuality":{"Country":1.0,"State":1.0,"County":1.0,"City":1.0,"Street":[1.0],"HouseNumber":1.0,"PostalCode":1.0},"MatchType":"interpolated","Location":{"LocationId":"NT_2fb4NVCW0Kx9FpmH5bYfOB_2A","LocationType":"point","DisplayPosition":{"Latitude":46.95317,"Longitude":6.11888},"MapView":{"TopLeft":{"Latitude":46.9542942,"Longitude":6.1172331},"BottomRight":{"Latitude":46.9520458,"Longitude":6.1205269}},"Address":{"Label":"6 Rue Alexis Rousset, 25270 Levier, France","Country":"FRA","State":"Bourgogne-Franche-Comté","County":"Doubs","City":"Levier","Street":"Rue Alexis Rousset","HouseNumber":"6","PostalCode":"25270","AdditionalData":[{"value":"France","key":"CountryName"},{"value":"Bourgogne-Franche-Comté","key":"StateName"},{"value":"Doubs","key":"CountyName"}]},"MapReference":{"ReferenceId":"579015496","Spot":0.83,"SideOfStreet":"left","CountryId":"20000001","StateId":"20013306","CountyId":"20013307","CityId":"20014232","AddressId":"317350212","RoadLinkId":"44519810"}}},{"Relevance":1.0,"Distance":57.3,"MatchLevel":"houseNumber","MatchQuality":{"Country":1.0,"State":1.0,"County":1.0,"City":1.0,"Street":[1.0],"HouseNumber":1.0,"PostalCode":1.0},"MatchType":"interpolated","Location":{"LocationId":"NT_-67iJS.FntSG9.RFYAWoGB_yA","LocationType":"point","DisplayPosition":{"Latitude":46.95393,"Longitude":6.11826},"MapView":{"TopLeft":{"Latitude":46.9550542,"Longitude":6.1166131},"BottomRight":{"Latitude":46.9528058,"Longitude":6.1199069}},"Address":{"Label":"2 Impasse du 13 Mai 1958, 25270 Levier, France","Country":"FRA","State":"Bourgogne-Franche-Comté","County":"Doubs","City":"Levier","Street":"Impasse du 13 Mai 1958","HouseNumber":"2","PostalCode":"25270","AdditionalData":[{"value":"France","key":"CountryName"},{"value":"Bourgogne-Franche-Comté","key":"StateName"},{"value":"Doubs","key":"CountyName"}]},"MapReference":{"ReferenceId":"579015463","Spot":0.15,"SideOfStreet":"right","CountryId":"20000001","StateId":"20013306","CountyId":"20013307","CityId":"20014232","AddressId":"371022818","RoadLinkId":"43982299"}}},{"Relevance":1.0,"Distance":62.4,"MatchLevel":"houseNumber","MatchQuality":{"Country":1.0,"State":1.0,"County":1.0,"City":1.0,"Street":[1.0],"HouseNumber":1.0,"PostalCode":1.0},"MatchType":"interpolated","Location":{"LocationId":"NT_y62ERAvTrKfOAARnZDjk3B_xED","LocationType":"point","DisplayPosition":{"Latitude":46.95377,"Longitude":6.11814},"MapView":{"TopLeft":{"Latitude":46.9548942,"Longitude":6.1164931},"BottomRight":{"Latitude":46.9526458,"Longitude":6.1197869}},"Address":{"Label":"11 Place de Verdun, 25270 Levier, France","Country":"FRA","State":"Bourgogne-Franche-Comté","County":"Doubs","City":"Levier","Street":"Place de Verdun","HouseNumber":"11","PostalCode":"25270","AdditionalData":[{"value":"France","key":"CountryName"},{"value":"Bourgogne-Franche-Comté","key":"StateName"},{"value":"Doubs","key":"CountyName"}]},"MapReference":{"ReferenceId":"579015474","Spot":0.67,"SideOfStreet":"left","CountryId":"20000001","StateId":"20013306","CountyId":"20013307","CityId":"20014232","AddressId":"388793930","RoadLinkId":"44105117"}}},{"Relevance":1.0,"Distance":63.9,"MatchLevel":"houseNumber","MatchQuality":{"Country":1.0,"State":1.0,"County":1.0,"City":1.0,"Street":[1.0],"HouseNumber":1.0,"PostalCode":1.0},"MatchType":"interpolated","Location":{"LocationId":"NT_2fb4NVCW0Kx9FpmH5bYfOB_1A","LocationType":"point","DisplayPosition":{"Latitude":46.95314,"Longitude":6.11908},"MapView":{"TopLeft":{"Latitude":46.9542642,"Longitude":6.1174331},"BottomRight":{"Latitude":46.9520158,"Longitude":6.1207269}},"Address":{"Label":"5 Rue Alexis Rousset, 25270 Levier, France","Country":"FRA","State":"Bourgogne-Franche-Comté","County":"Doubs","City":"Levier","Street":"Rue Alexis Rousset","HouseNumber":"5","PostalCode":"25270","AdditionalData":[{"value":"France","key":"CountryName"},{"value":"Bourgogne-Franche-Comté","key":"StateName"},{"value":"Doubs","key":"CountyName"}]},"MapReference":{"ReferenceId":"579015493","Spot":0.85,"SideOfStreet":"right","CountryId":"20000001","StateId":"20013306","CountyId":"20013307","CityId":"20014232","AddressId":"317305928","RoadLinkId":"44023343"}}}]}]}}