{"Response":{"MetaInfo":{"Timestamp":"2020-03-28T11:22:18.454+0000","NextPageInformation":"2"},"View":[{"_type":"SearchResultsViewType","ViewId":0,"Result":[{"Relevance":1.0,"Distance":0.0,"Direction":0.0,"MatchLevel":"district","MatchQuality":{"Country":1.0,"State":1.0,"County":1.0,"City":1.0,"District":1.0,"PostalCode":1.0},"Location":{"LocationId":"NT_0mL0iDuE.y.zjZtfjELYqB","LocationType":"point","DisplayPosition":{"Latitude":46.9623676,"Longitude":17.8745306},"MapView":{"TopLeft":{"Latitude":46.97777,"Longitude":17.85103},"BottomRight":{"Latitude":46.93738,"Longitude":17.91543}},"Address":{"Label":"Balatonfüred, Veszprém, Magyarország","Country":"HUN","State":"Veszprém","County":"Balatonfüredi Járás","City":"Balatonfüred","District":"Balatonfüred","PostalCode":"8230","AdditionalData":[{"value":"Magyarország","key":"CountryName"},{"value":"Veszprém","key":"StateName"},{"value":"Balatonfüredi Járás","key":"CountyName"}]},"MapReference":{"ReferenceId":"777861946","SideOfStreet":"neither","CountryId":"20613038","StateId":"20622272","CountyId":"26680455","CityId":"20622386","DistrictId":"26680694"}}},{"Relevance":1.0,"Distance":11.8,"MatchLevel":"street","MatchQuality":{"Country":1.0,"State":1.0,"County":1.0,"City":1.0,"District":1.0,"PostalCode":1.0},"Location":{"LocationId":"NT_zdF-36xSE8vISO6RJ2cqmA_l_583940347_R","LocationType":"point","DisplayPosition":{"Latitude":46.9624719,"Longitude":17.8745018},"MapView":{"TopLeft":{"Latitude":46.96272,"Longitude":17.87377},"BottomRight":{"Latitude":46.96227,"Longitude":17.87519}},"Address":{"Label":"Balatonfüred 8230, Magyarország","Country":"HUN","State":"Veszprém","County":"Balatonfüredi Járás","City":"Balatonfüred","District":"Balatonfüred","PostalCode":"8230","AdditionalData":[{"value":"Magyarország","key":"CountryName"},{"value":"Veszprém","key":"StateName"},{"value":"Balatonfüredi Járás","key":"CountyName"}]},"MapReference":{"ReferenceId":"583940347","Spot":0.51,"SideOfStreet":"right","CountryId":"20613038","StateId":"20622272","CountyId":"26680455","CityId":"20622386","DistrictId":"26680694"}}},{"Relevance":1.0,"Distance":43.8,"MatchLevel":"houseNumber","MatchQuality":{"Country":1.0,"State":1.0,"County":1.0,"City":1.0,"District":1.0,"Street":[1.0],"HouseNumber":1.0,"PostalCode":1.0},"MatchType":"interpolated","Location":{"LocationId":"NT_oiqQpqJEzpQrP3YrPLa0eC_xA","LocationType":"point","DisplayPosition":{"Latitude":46.96208,"Longitude":17.87392},"MapView":{"TopLeft":{"Latitude":46.9632042,"Longitude":17.8722728},"BottomRight":{"Latitude":46.9609558,"Longitude":17.8755672}},"Address":{"Label":"Csárda utca 1, Balatonfüred 8230, Magyarország","Country":"HUN","State":"Veszprém","County":"Balatonfüredi Járás","City":"Balatonfüred","District":"Balatonfüred","Street":"Csárda utca","HouseNumber":"1","PostalCode":"8230","AdditionalData":[{"value":"Magyarország","key":"CountryName"},{"value":"Veszprém","key":"StateName"},{"value":"Balatonfüredi Járás","key":"CountyName"}]},"MapReference":{"ReferenceId":"775250977","Spot":0.08,"SideOfStreet":"right","CountryId":"20613038","StateId":"20622272","CountyId":"26680455","CityId":"20622386","DistrictId":"26680694","AddressId":"355731086","RoadLinkId":"168786608"}}},{"Relevance":1.0,"Distance":55.9,"MatchLevel":"houseNumber","MatchQuality":{"Country":1.0,"State":1.0,"County":1.0,"City":1.0,"District":1.0,"Street":[1.0],"HouseNumber":1.0,"PostalCode":1.0},"MatchType":"interpolated","Location":{"LocationId":"NT_oiqQpqJEzpQrP3YrPLa0eC_zA","LocationType":"point","DisplayPosition":{"Latitude":46.96243,"Longitude":17.87364},"MapView":{"TopLeft":{"Latitude":46.9635542,"Longitude":17.8719928},"BottomRight":{"Latitude":46.9613058,"Longitude":17.8752872}},"Address":{"Label":"Csárda utca 3, Balatonfüred 8230, Magyarország","Country":"HUN","State":"Veszprém","County":"Balatonfüredi Járás","City":"Balatonfüred","District":"Balatonfüred","Street":"Csárda utca","HouseNumber":"3","PostalCode":"8230","AdditionalData":[{"value":"Magyarország","key":"CountryName"},{"value":"Veszprém","key":"StateName"},{"value":"Balatonfüredi Járás","key":"CountyName"}]},"MapReference":{"ReferenceId":"583940346","Spot":0.52,"SideOfStreet":"right","CountryId":"20613038","StateId":"20622272","CountyId":"26680455","CityId":"20622386","DistrictId":"26680694","AddressId":"356664837","RoadLinkId":"60493614"}}},{"Relevance":1.0,"Distance":57.0,"MatchLevel":"street","MatchQuality":{"Country":1.0,"State":1.0,"County":1.0,"City":1.0,"District":1.0,"PostalCode":1.0},"Location":{"LocationId":"NT_zdF-36xSE8vISO6RJ2cqmA_l_775250978_L","LocationType":"point","DisplayPosition":{"Latitude":46.96206,"Longitude":17.87393},"MapView":{"TopLeft":{"Latitude":46.96206,"Longitude":17.8733},"BottomRight":{"Latitude":46.96187,"Longitude":17.87393}},"Address":{"Label":"Balatonfüred 8230, Magyarország","Country":"HUN","State":"Veszprém","County":"Balatonfüredi Járás","City":"Balatonfüred","District":"Balatonfüred","PostalCode":"8230","AdditionalData":[{"value":"Magyarország","key":"CountryName"},{"value":"Veszprém","key":"StateName"},{"value":"Balatonfüredi Járás","key":"CountyName"}]},"MapReference":{"ReferenceId":"775250978","Spot":1.0,"SideOfStreet":"left","CountryId":"20613038","StateId":"20622272","CountyId":"26680455","CityId":"20622386","DistrictId":"26680694"}}},{"Relevance":1.0,"Distance":61.4,"MatchLevel":"street","MatchQuality":{"Country":1.0,"State":1.0,"County":1.0,"City":1.0,"District":1.0,"PostalCode":1.0},"Location":{"LocationId":"NT_zdF-36xSE8vISO6RJ2cqmA_l_913594437_L","LocationType":"point","DisplayPosition":{"Latitude":46.9623676,"Longitude":17.87534},"MapView":{"TopLeft":{"Latitude":46.96252,"Longitude":17.87534},"BottomRight":{"Latitude":46.96236,"Longitude":17.87534}},"Address":{"Label":"Balatonfüred 8230, Magyarország","Country":"HUN","State":"Veszprém","County":"Balatonfüredi Járás","City":"Balatonfüred","District":"Balatonfüred","PostalCode":"8230","AdditionalData":[{"value":"Magyarország","key":"CountryName"},{"value":"Veszprém","key":"StateName"},{"value":"Balatonfüredi Járás","key":"CountyName"}]},"MapReference":{"ReferenceId":"913594437","Spot":0.05,"SideOfStreet":"left","CountryId":"20613038","StateId":"20622272","CountyId":"26680455","CityId":"20622386","DistrictId":"26680694"}}},{"Relevance":1.0,"Distance":61.4,"MatchLevel":"street","MatchQuality":{"Country":1.0,"State":1.0,"County":1.0,"City":1.0,"District":1.0,"PostalCode":1.0},"Location":{"LocationId":"NT_zdF-36xSE8vISO6RJ2cqmA_l_775250982_L","LocationType":"point","DisplayPosition":{"Latitude":46.96236,"Longitude":17.87534},"MapView":{"TopLeft":{"Latitude":46.96236,"Longitude":17.87534},"BottomRight":{"Latitude":46.96214,"Longitude":17.87555}},"Address":{"Label":"Balatonfüred 8230, Magyarország","Country":"HUN","State":"Veszprém","County":"Balatonfüredi Járás","City":"Balatonfüred","District":"Balatonfüred","PostalCode":"8230","AdditionalData":[{"value":"Magyarország","key":"CountryName"},{"value":"Veszprém","key":"StateName"},{"value":"Balatonfüredi Járás","key":"CountyName"}]},"MapReference":{"ReferenceId":"775250982","Spot":1.0,"SideOfStreet":"left","CountryId":"20613038","StateId":"20622272","CountyId":"26680455","CityId":"20622386","DistrictId":"26680694"}}},{"Relevance":1.0,"Distance":63.6,"MatchLevel":"street","MatchQuality":{"Country":1.0,"State":1.0,"County":1.0,"City":1.0,"District":1.0,"PostalCode":1.0},"Location":{"LocationId":"NT_zdF-36xSE8vISO6RJ2cqmA_l_913594439_L","LocationType":"point","DisplayPosition":{"Latitude":46.96272,"Longitude":17.87519},"MapView":{"TopLeft":{"Latitude":46.96272,"Longitude":17.87519},"BottomRight":{"Latitude":46.96252,"Longitude":17.87534}},"Address":{"Label":"Balatonfüred 8230, Magyarország","Country":"HUN","State":"Veszprém","County":"Balatonfüredi Járás","City":"Balatonfüred","District":"Balatonfüred","PostalCode":"8230","AdditionalData":[{"value":"Magyarország","key":"CountryName"},{"value":"Veszprém","key":"StateName"},{"value":"Balatonfüredi Járás","key":"CountyName"}]},"MapReference":{"ReferenceId":"913594439","Spot":1.0,"SideOfStreet":"left","CountryId":"20613038","StateId":"20622272","CountyId":"26680455","CityId":"20622386","DistrictId":"26680694"}}},{"Relevance":1.0,"Distance":63.6,"MatchLevel":"street","MatchQuality":{"Country":1.0,"State":1.0,"County":1.0,"City":1.0,"District":1.0,"PostalCode":1.0},"Location":{"LocationId":"NT_zdF-36xSE8vISO6RJ2cqmA_l_583940349_R","LocationType":"point","DisplayPosition":{"Latitude":46.96272,"Longitude":17.87519},"MapView":{"TopLeft":{"Latitude":46.96301,"Longitude":17.87519},"BottomRight":{"Latitude":46.96272,"Longitude":17.87634}},"Address":{"Label":"Balatonfüred 8230, Magyarország","Country":"HUN","State":"Veszprém","County":"Balatonfüredi Járás","City":"Balatonfüred","District":"Balatonfüred","PostalCode":"8230","AdditionalData":[{"value":"Magyarország","key":"CountryName"},{"value":"Veszprém","key":"StateName"},{"value":"Balatonfüredi Járás","key":"CountyName"}]},"MapReference":{"ReferenceId":"583940349","Spot":0.0,"SideOfStreet":"right","CountryId":"20613038","StateId":"20622272","CountyId":"26680455","CityId":"20622386","DistrictId":"26680694"}}},{"Relevance":1.0,"Distance":63.7,"MatchLevel":"street","MatchQuality":{"Country":1.0,"State":1.0,"County":1.0,"City":1.0,"District":1.0,"PostalCode":1.0},"Location":{"LocationId":"NT_zdF-36xSE8vISO6RJ2cqmA_l_913594438_L","LocationType":"point","DisplayPosition":{"Latitude":46.96252,"Longitude":17.87534},"MapView":{"TopLeft":{"Latitude":46.96286,"Longitude":17.87534},"BottomRight":{"Latitude":46.96252,"Longitude":17.87657}},"Address":{"Label":"Balatonfüred 8230, Magyarország","Country":"HUN","State":"Veszprém","County":"Balatonfüredi Járás","City":"Balatonfüred","District":"Balatonfüred","PostalCode":"8230","AdditionalData":[{"value":"Magyarország","key":"CountryName"},{"value":"Veszprém","key":"StateName"},{"value":"Balatonfüredi Járás","key":"CountyName"}]},"MapReference":{"ReferenceId":"913594438","Spot":0.0,"SideOfStreet":"left","CountryId":"20613038","StateId":"20622272","CountyId":"26680455","CityId":"20622386","DistrictId":"26680694"}}}]}]}}