{"Response":{"MetaInfo":{"Timestamp":"2020-03-28T11:12:54.981+0000","NextPageInformation":"2"},"View":[{"_type":"SearchResultsViewType","ViewId":0,"Result":[{"Relevance":1.0,"Distance":0.0,"Direction":0.0,"MatchLevel":"district","MatchQuality":{"Country":1.0,"State":1.0,"County":1.0,"City":1.0,"District":1.0,"PostalCode":1.0},"Location":{"LocationId":"NT_RvbdvxEDIBAPMlUSrOBg3B","LocationType":"point","DisplayPosition":{"Latitude":46.9760748,"Longitude":3.1237136},"MapView":{"TopLeft":{"Latitude":46.98879,"Longitude":3.1039},"BottomRight":{"Latitude":46.96181,"Longitude":3.14344}},"Address":{"Label":"Les Fondereaux, Nevers, Bourgogne-Franche-Comté, France","Country":"FRA","State":"Bourgogne-Franche-Comté","County":"Nièvre","City":"Nevers","District":"Les Fondereaux","PostalCode":"58000","AdditionalData":[{"value":"France","key":"CountryName"},{"value":"Bourgogne-Franche-Comté","key":"StateName"},{"value":"Nièvre","key":"CountyName"}]},"MapReference":{"ReferenceId":"584192047","SideOfStreet":"neither","CountryId":"20000001","StateId":"20013306","CountyId":"20025328","CityId":"20025919"}}},{"Relevance":1.0,"Distance":3.4,"MatchLevel":"landmark","MatchQuality":{"Country":1.0,"State":1.0,"County":1.0,"City":1.0,"PostalCode":1.0,"Name":1.0},"Location":{"LocationId":"NT_yDdrP.skx0yw5JxivBUk5B_p_afAE3Bgnwzg7AkKoyurblA","LocationType":"hospital","Name":"Hôpital Pierre Beregovoy","DisplayPosition":{"Latitude":46.97998,"Longitude":3.12264},"MapView":{"TopLeft":{"Latitude":46.982,"Longitude":3.1198},"BottomRight":{"Latitude":46.97606,"Longitude":3.12489}},"Address":{"Label":"58000 Nevers, France","Country":"FRA","State":"Bourgogne-Franche-Comté","County":"Nièvre","City":"Nevers","PostalCode":"58000","AdditionalData":[{"value":"France","key":"CountryName"},{"value":"Bourgogne-Franche-Comté","key":"StateName"},{"value":"Nièvre","key":"CountyName"}]},"MapReference":{"CountryId":"20000001","StateId":"20013306","CountyId":"20025328","CityId":"20025919","PlaceId":"555358774"}}},{"Relevance":1.0,"Distance":6.0,"MatchLevel":"street","MatchQuality":{"Country":1.0,"State":1.0,"County":1.0,"City":1.0,"Street":[1.0],"PostalCode":1.0},"Location":{"LocationId":"NT_wn-jufjdEwt.a005a58HwB_l_548668484_L","LocationType":"point","DisplayPosition":{"Latitude":46.97606,"Longitude":3.12379},"MapView":{"TopLeft":{"Latitude":46.97798,"Longitude":3.12379},"BottomRight":{"Latitude":46.97606,"Longitude":3.12483}},"Address":{"Label":"Rue de la Raie, 58000 Nevers, France","Country":"FRA","State":"Bourgogne-Franche-Comté","County":"Nièvre","City":"Nevers","Street":"Rue de la Raie","PostalCode":"58000","AdditionalData":[{"value":"France","key":"CountryName"},{"value":"Bourgogne-Franche-Comté","key":"StateName"},{"value":"Nièvre","key":"CountyName"}]},"MapReference":{"ReferenceId":"548668484","Spot":0.0,"SideOfStreet":"left","CountryId":"20000001","StateId":"20013306","CountyId":"20025328","CityId":"20025919"}}},{"Relevance":1.0,"Distance":131.0,"MatchLevel":"houseNumber","MatchQuality":{"Country":1.0,"State":1.0,"County":1.0,"City":1.0,"Street":[1.0],"HouseNumber":1.0,"PostalCode":1.0},"MatchType":"interpolated","Location":{"LocationId":"NT_U8huCJz-06RwIqf6ajJoQB_yADM","LocationType":"point","DisplayPosition":{"Latitude":46.9749,"Longitude":3.12359},"MapView":{"TopLeft":{"Latitude":46.9760242,"Longitude":3.1219425},"BottomRight":{"Latitude":46.9737758,"Longitude":3.1252375}},"Address":{"Label":"200 Rue de la Raie, 58000 Nevers, France","Country":"FRA","State":"Bourgogne-Franche-Comté","County":"Nièvre","City":"Nevers","Street":"Rue de la Raie","HouseNumber":"200","PostalCode":"58000","AdditionalData":[{"value":"France","key":"CountryName"},{"value":"Bourgogne-Franche-Comté","key":"StateName"},{"value":"Nièvre","key":"CountyName"}]},"MapReference":{"ReferenceId":"584192047","Spot":0.24,"SideOfStreet":"right","CountryId":"20000001","StateId":"20013306","CountyId":"20025328","CityId":"20025919","AddressId":"370846437","RoadLinkId":"292452060"}}},{"Relevance":1.0,"Distance":132.2,"MatchLevel":"houseNumber","MatchQuality":{"Country":1.0,"State":1.0,"County":1.0,"City":1.0,"Street":[1.0],"HouseNumber":1.0,"PostalCode":1.0},"MatchType":"interpolated","Location":{"LocationId":"NT_ynwJM79ZbpsHkodcYFi6MD_xMjQ","LocationType":"point","DisplayPosition":{"Latitude":46.97576,"Longitude":3.12546},"MapView":{"TopLeft":{"Latitude":46.9768842,"Longitude":3.1238124},"BottomRight":{"Latitude":46.9746358,"Longitude":3.1271076}},"Address":{"Label":"13B Boulevard de la Pisserotte, 58000 Nevers, France","Country":"FRA","State":"Bourgogne-Franche-Comté","County":"Nièvre","City":"Nevers","Street":"Boulevard de la Pisserotte","HouseNumber":"13B","PostalCode":"58000","AdditionalData":[{"value":"France","key":"CountryName"},{"value":"Bourgogne-Franche-Comté","key":"StateName"},{"value":"Nièvre","key":"CountyName"}]},"MapReference":{"ReferenceId":"548668519","Spot":0.51,"SideOfStreet":"left","CountryId":"20000001","StateId":"20013306","CountyId":"20025328","CityId":"20025919","AddressId":"570344345","RoadLinkId":"52827006"}}},{"Relevance":1.0,"Distance":170.6,"MatchLevel":"street","MatchQuality":{"Country":1.0,"State":1.0,"County":1.0,"City":1.0,"Street":[1.0],"PostalCode":1.0},"Location":{"LocationId":"NT_MbdQNDzonYkiq.IRZkx6RD_l_1205407924_L","LocationType":"point","DisplayPosition":{"Latitude":46.97455,"Longitude":3.12347},"MapView":{"TopLeft":{"Latitude":46.97455,"Longitude":3.12332},"BottomRight":{"Latitude":46.97433,"Longitude":3.12347}},"Address":{"Label":"Rue de la Raie, 58180 Marzy, France","Country":"FRA","State":"Bourgogne-Franche-Comté","County":"Nièvre","City":"Marzy","Street":"Rue de la Raie","PostalCode":"58180","AdditionalData":[{"value":"France","key":"CountryName"},{"value":"Bourgogne-Franche-Comté","key":"StateName"},{"value":"Nièvre","key":"CountyName"}]},"MapReference":{"ReferenceId":"1205407924","Spot":1.0,"SideOfStreet":"left","CountryId":"20000001","StateId":"20013306","CountyId":"20025328","CityId":"20025813"}}},{"Relevance":1.0,"Distance":190.0,"MatchLevel":"houseNumber","MatchQuality":{"Country":1.0,"State":1.0,"County":1.0,"City":1.0,"Street":[1.0],"HouseNumber":1.0,"PostalCode":1.0},"MatchType":"interpolated","Location":{"LocationId":"NT_j3w-0.jUbYKf63iqq8SvXD_xA","LocationType":"point","DisplayPosition":{"Latitude":46.97823,"Longitude":3.12399},"MapView":{"TopLeft":{"Latitude":46.9793542,"Longitude":3.1223424},"BottomRight":{"Latitude":46.9771058,"Longitude":3.1256376}},"Address":{"Label":"1 Boulevard de l'Hôpital, 58000 Nevers, France","Country":"FRA","State":"Bourgogne-Franche-Comté","County":"Nièvre","City":"Nevers","Street":"Boulevard de l'Hôpital","HouseNumber":"1","PostalCode":"58000","AdditionalData":[{"value":"France","key":"CountryName"},{"value":"Bourgogne-Franche-Comté","key":"StateName"},{"value":"Nièvre","key":"CountyName"}]},"MapReference":{"ReferenceId":"927443886","Spot":0.65,"SideOfStreet":"left","CountryId":"20000001","StateId":"20013306","CountyId":"20025328","CityId":"20025919","AddressId":"370831765","RoadLinkId":"282844817"}}},{"Relevance":1.0,"Distance":196.3,"MatchLevel":"street","MatchQuality":{"Country":1.0,"State":1.0,"County":1.0,"City":1.0,"Street":[1.0],"PostalCode":1.0},"Location":{"LocationId":"NT_MbdQNDzonYkiq.IRZkx6RD_l_1205407923_L","LocationType":"point","DisplayPosition":{"Latitude":46.97433,"Longitude":3.12332},"MapView":{"TopLeft":{"Latitude":46.97433,"Longitude":3.12116},"BottomRight":{"Latitude":46.97276,"Longitude":3.12332}},"Address":{"Label":"Rue de la Raie, 58180 Marzy, France","Country":"FRA","State":"Bourgogne-Franche-Comté","County":"Nièvre","City":"Marzy","Street":"Rue de la Raie","PostalCode":"58180","AdditionalData":[{"value":"France","key":"CountryName"},{"value":"Bourgogne-Franche-Comté","key":"StateName"},{"value":"Nièvre","key":"CountyName"}]},"MapReference":{"ReferenceId":"1205407923","Spot":1.0,"SideOfStreet":"left","CountryId":"20000001","StateId":"20013306","CountyId":"20025328","CityId":"20025813"}}},{"Relevance":1.0,"Distance":196.3,"MatchLevel":"street","MatchQuality":{"Country":1.0,"State":1.0,"County":1.0,"City":1.0,"Street":[1.0],"PostalCode":1.0},"Location":{"LocationId":"NT_1iNqADHJm7oZqGhWErPsiD_l_1205407926_R","LocationType":"point","DisplayPosition":{"Latitude":46.97433,"Longitude":3.12332},"MapView":{"TopLeft":{"Latitude":46.97433,"Longitude":3.12332},"BottomRight":{"Latitude":46.97356,"Longitude":3.1234}},"Address":{"Label":"Rue Maurice Javillier, 58000 Nevers, France","Country":"FRA","State":"Bourgogne-Franche-Comté","County":"Nièvre","City":"Nevers","Street":"Rue Maurice Javillier","PostalCode":"58000","AdditionalData":[{"value":"France","key":"CountryName"},{"value":"Bourgogne-Franche-Comté","key":"StateName"},{"value":"Nièvre","key":"CountyName"}]},"MapReference":{"ReferenceId":"1205407926","Spot":1.0,"SideOfStreet":"right","CountryId":"20000001","StateId":"20013306","CountyId":"20025328","CityId":"20025919"}}},{"Relevance":1.0,"Distance":226.7,"MatchLevel":"street","MatchQuality":{"Country":1.0,"State":1.0,"County":1.0,"City":1.0,"Street":[1.0],"PostalCode":1.0},"Location":{"LocationId":"NT_e8rMBnfIFEaEyksvRAL3fA_l_548668515_L","LocationType":"point","DisplayPosition":{"Latitude":46.97796,"Longitude":3.12485},"MapView":{"TopLeft":{"Latitude":46.97798,"Longitude":3.12483},"BottomRight":{"Latitude":46.97793,"Longitude":3.125}},"Address":{"Label":"Rond-Point Barthélémy Badouix, 58000 Nevers, France","Country":"FRA","State":"Bourgogne-Franche-Comté","County":"Nièvre","City":"Nevers","Street":"Rond-Point Barthélémy Badouix","PostalCode":"58000","AdditionalData":[{"value":"France","key":"CountryName"},{"value":"Bourgogne-Franche-Comté","key":"StateName"},{"value":"Nièvre","key":"CountyName"}]},"MapReference":{"ReferenceId":"548668515","Spot":0.85,"SideOfStreet":"left","CountryId":"20000001","StateId":"20013306","CountyId":"20025328","CityId":"20025919"}}}]}]}}