{"Response":{"MetaInfo":{"Timestamp":"2020-03-28T11:37:28.324+0000","NextPageInformation":"2"},"View":[{"_type":"SearchResultsViewType","ViewId":0,"Result":[{"Relevance":1.0,"Distance":0.0,"Direction":0.0,"MatchLevel":"district","MatchQuality":{"Country":1.0,"State":1.0,"County":1.0,"City":1.0,"District":1.0,"PostalCode":1.0},"Location":{"LocationId":"NT_S53FoFLtpl3DLz2JnUm7cA","LocationType":"point","DisplayPosition":{"Latitude":47.0314989,"Longitude":15.494965},"MapView":{"TopLeft":{"Latitude":47.03959,"Longitude":15.48419},"BottomRight":{"Latitude":47.02176,"Longitude":15.5071}},"Address":{"Label":"Raaba, Raaba-Grambach, Steiermark, Österreich","Country":"AUT","State":"Steiermark","County":"Graz-Umgebung","City":"Raaba-Grambach","District":"Raaba","PostalCode":"8074","AdditionalData":[{"value":"Österreich","key":"CountryName"},{"value":"Steiermark","key":"StateName"},{"value":"Graz-Umgebung","key":"CountyName"}]},"MapReference":{"ReferenceId":"835368474","SideOfStreet":"neither","CountryId":"20128885","StateId":"20134876","CountyId":"20135352","CityId":"20135476","DistrictId":"20220545"}}},{"Relevance":1.0,"Distance":13.3,"MatchLevel":"houseNumber","MatchQuality":{"Country":1.0,"State":1.0,"County":1.0,"City":1.0,"District":1.0,"Street":[1.0],"HouseNumber":1.0,"PostalCode":1.0},"MatchType":"interpolated","Location":{"LocationId":"NT_kFWwGXzGQNM61bu0sxAthD_zMD","LocationType":"point","DisplayPosition":{"Latitude":47.03157,"Longitude":15.49464},"MapView":{"TopLeft":{"Latitude":47.0326942,"Longitude":15.4929907},"BottomRight":{"Latitude":47.0304458,"Longitude":15.4962893}},"Address":{"Label":"Josef-Krainer-Straße 33, 8074 Raaba-Grambach, Österreich","Country":"AUT","State":"Steiermark","County":"Graz-Umgebung","City":"Raaba-Grambach","District":"Raaba","Street":"Josef-Krainer-Straße","HouseNumber":"33","PostalCode":"8074","AdditionalData":[{"value":"Österreich","key":"CountryName"},{"value":"Steiermark","key":"StateName"},{"value":"Graz-Umgebung","key":"CountyName"}]},"MapReference":{"ReferenceId":"774023598","Spot":0.22,"SideOfStreet":"right","CountryId":"20128885","StateId":"20134876","CountyId":"20135352","CityId":"20135476","DistrictId":"20220545","AddressId":"161281031","RoadLinkId":"167658520"}}},{"Relevance":1.0,"Distance":24.1,"MatchLevel":"street","MatchQuality":{"Country":1.0,"State":1.0,"County":1.0,"City":1.0,"District":1.0,"Street":[1.0],"PostalCode":1.0},"Location":{"LocationId":"NT_MCCBY0GSQCtugJneWZph6D_l_62838986_L","LocationType":"point","DisplayPosition":{"Latitude":47.03137,"Longitude":15.49471},"MapView":{"TopLeft":{"Latitude":47.03137,"Longitude":15.49421},"BottomRight":{"Latitude":47.03132,"Longitude":15.49471}},"Address":{"Label":"Apothekenstraße, 8074 Raaba-Grambach, Österreich","Country":"AUT","State":"Steiermark","County":"Graz-Umgebung","City":"Raaba-Grambach","District":"Raaba","Street":"Apothekenstraße","PostalCode":"8074","AdditionalData":[{"value":"Österreich","key":"CountryName"},{"value":"Steiermark","key":"StateName"},{"value":"Graz-Umgebung","key":"CountyName"}]},"MapReference":{"ReferenceId":"62838986","Spot":1.0,"SideOfStreet":"left","CountryId":"20128885","StateId":"20134876","CountyId":"20135352","CityId":"20135476","DistrictId":"20220545"}}},{"Relevance":1.0,"Distance":32.2,"MatchLevel":"houseNumber","MatchQuality":{"Country":1.0,"State":1.0,"County":1.0,"City":1.0,"District":1.0,"Street":[1.0],"HouseNumber":1.0,"PostalCode":1.0},"MatchType":"interpolated","Location":{"LocationId":"NT_L528-MMENnGUD3I0tlUWYB_xED","LocationType":"point","DisplayPosition":{"Latitude":47.03166,"Longitude":15.49565},"MapView":{"TopLeft":{"Latitude":47.0327842,"Longitude":15.4940007},"BottomRight":{"Latitude":47.0305358,"Longitude":15.4972993}},"Address":{"Label":"Am Anger 11, 8074 Raaba-Grambach, Österreich","Country":"AUT","State":"Steiermark","County":"Graz-Umgebung","City":"Raaba-Grambach","District":"Raaba","Street":"Am Anger","HouseNumber":"11","PostalCode":"8074","AdditionalData":[{"value":"Österreich","key":"CountryName"},{"value":"Steiermark","key":"StateName"},{"value":"Graz-Umgebung","key":"CountyName"}]},"MapReference":{"ReferenceId":"828666762","Spot":0.0,"SideOfStreet":"left","CountryId":"20128885","StateId":"20134876","CountyId":"20135352","CityId":"20135476","DistrictId":"20220545","AddressId":"161033067","RoadLinkId":"213555720"}}},{"Relevance":1.0,"Distance":36.5,"MatchLevel":"houseNumber","MatchQuality":{"Country":1.0,"State":1.0,"County":1.0,"City":1.0,"District":1.0,"Street":[1.0],"HouseNumber":1.0,"PostalCode":1.0},"MatchType":"interpolated","Location":{"LocationId":"NT_kFWwGXzGQNM61bu0sxAthD_zUD","LocationType":"point","DisplayPosition":{"Latitude":47.03113,"Longitude":15.49478},"MapView":{"TopLeft":{"Latitude":47.0322542,"Longitude":15.4931307},"BottomRight":{"Latitude":47.0300058,"Longitude":15.4964293}},"Address":{"Label":"Josef-Krainer-Straße 35, 8074 Raaba-Grambach, Österreich","Country":"AUT","State":"Steiermark","County":"Graz-Umgebung","City":"Raaba-Grambach","District":"Raaba","Street":"Josef-Krainer-Straße","HouseNumber":"35","PostalCode":"8074","AdditionalData":[{"value":"Österreich","key":"CountryName"},{"value":"Steiermark","key":"StateName"},{"value":"Graz-Umgebung","key":"CountyName"}]},"MapReference":{"ReferenceId":"834173002","Spot":0.45,"SideOfStreet":"right","CountryId":"20128885","StateId":"20134876","CountyId":"20135352","CityId":"20135476","DistrictId":"20220545","AddressId":"161281035","RoadLinkId":"217402824"}}},{"Relevance":1.0,"Distance":62.7,"MatchLevel":"houseNumber","MatchQuality":{"Country":1.0,"State":1.0,"County":1.0,"City":1.0,"District":1.0,"Street":[1.0],"HouseNumber":1.0,"PostalCode":1.0},"MatchType":"interpolated","Location":{"LocationId":"NT_MCCBY0GSQCtugJneWZph6D_xA","LocationType":"point","DisplayPosition":{"Latitude":47.03132,"Longitude":15.49418},"MapView":{"TopLeft":{"Latitude":47.0324442,"Longitude":15.4925307},"BottomRight":{"Latitude":47.0301958,"Longitude":15.4958293}},"Address":{"Label":"Apothekenstraße 1, 8074 Raaba-Grambach, Österreich","Country":"AUT","State":"Steiermark","County":"Graz-Umgebung","City":"Raaba-Grambach","District":"Raaba","Street":"Apothekenstraße","HouseNumber":"1","PostalCode":"8074","AdditionalData":[{"value":"Österreich","key":"CountryName"},{"value":"Steiermark","key":"StateName"},{"value":"Graz-Umgebung","key":"CountyName"}]},"MapReference":{"ReferenceId":"62838985","Spot":0.95,"SideOfStreet":"right","CountryId":"20128885","StateId":"20134876","CountyId":"20135352","CityId":"20135476","DistrictId":"20220545","AddressId":"160603029","RoadLinkId":"27921406"}}},{"Relevance":1.0,"Distance":68.7,"MatchLevel":"houseNumber","MatchQuality":{"Country":1.0,"State":1.0,"County":1.0,"City":1.0,"District":1.0,"Street":[1.0],"HouseNumber":1.0,"PostalCode":1.0},"MatchType":"interpolated","Location":{"LocationId":"NT_L528-MMENnGUD3I0tlUWYB_zA","LocationType":"point","DisplayPosition":{"Latitude":47.03093,"Longitude":15.49601},"MapView":{"TopLeft":{"Latitude":47.0320542,"Longitude":15.4943607},"BottomRight":{"Latitude":47.0298058,"Longitude":15.4976593}},"Address":{"Label":"Am Anger 3, 8074 Raaba-Grambach, Österreich","Country":"AUT","State":"Steiermark","County":"Graz-Umgebung","City":"Raaba-Grambach","District":"Raaba","Street":"Am Anger","HouseNumber":"3","PostalCode":"8074","AdditionalData":[{"value":"Österreich","key":"CountryName"},{"value":"Steiermark","key":"StateName"},{"value":"Graz-Umgebung","key":"CountyName"}]},"MapReference":{"ReferenceId":"828666759","Spot":0.0,"SideOfStreet":"left","CountryId":"20128885","StateId":"20134876","CountyId":"20135352","CityId":"20135476","DistrictId":"20220545","AddressId":"161033069","RoadLinkId":"213555718"}}},{"Relevance":1.0,"Distance":73.9,"MatchLevel":"houseNumber","MatchQuality":{"Country":1.0,"State":1.0,"County":1.0,"City":1.0,"District":1.0,"Street":[1.0],"HouseNumber":1.0,"PostalCode":1.0},"MatchType":"interpolated","Location":{"LocationId":"NT_L528-MMENnGUD3I0tlUWYB_xMD","LocationType":"point","DisplayPosition":{"Latitude":47.03213,"Longitude":15.49564},"MapView":{"TopLeft":{"Latitude":47.0332542,"Longitude":15.4939907},"BottomRight":{"Latitude":47.0310058,"Longitude":15.4972893}},"Address":{"Label":"Am Anger 13, 8074 Raaba-Grambach, Österreich","Country":"AUT","State":"Steiermark","County":"Graz-Umgebung","City":"Raaba-Grambach","District":"Raaba","Street":"Am Anger","HouseNumber":"13","PostalCode":"8074","AdditionalData":[{"value":"Österreich","key":"CountryName"},{"value":"Steiermark","key":"StateName"},{"value":"Graz-Umgebung","key":"CountyName"}]},"MapReference":{"ReferenceId":"828666761","Spot":0.53,"SideOfStreet":"left","CountryId":"20128885","StateId":"20134876","CountyId":"20135352","CityId":"20135476","DistrictId":"20220545","AddressId":"161033066","RoadLinkId":"213555721"}}},{"Relevance":1.0,"Distance":75.5,"MatchLevel":"houseNumber","MatchQuality":{"Country":1.0,"State":1.0,"County":1.0,"City":1.0,"District":1.0,"Street":[1.0],"HouseNumber":1.0,"PostalCode":1.0},"MatchType":"interpolated","Location":{"LocationId":"NT_kFWwGXzGQNM61bu0sxAthD_xYD","LocationType":"point","DisplayPosition":{"Latitude":47.03187,"Longitude":15.49403},"MapView":{"TopLeft":{"Latitude":47.0329942,"Longitude":15.4923807},"BottomRight":{"Latitude":47.0307458,"Longitude":15.4956793}},"Address":{"Label":"Josef-Krainer-Straße 16, 8074 Raaba-Grambach, Österreich","Country":"AUT","State":"Steiermark","County":"Graz-Umgebung","City":"Raaba-Grambach","District":"Raaba","Street":"Josef-Krainer-Straße","HouseNumber":"16","PostalCode":"8074","AdditionalData":[{"value":"Österreich","key":"CountryName"},{"value":"Steiermark","key":"StateName"},{"value":"Graz-Umgebung","key":"CountyName"}]},"MapReference":{"ReferenceId":"62838987","Spot":0.59,"SideOfStreet":"right","CountryId":"20128885","StateId":"20134876","CountyId":"20135352","CityId":"20135476","DistrictId":"20220545","AddressId":"161281042","RoadLinkId":"27894521"}}},{"Relevance":1.0,"Distance":84.0,"MatchLevel":"houseNumber","MatchQuality":{"Country":1.0,"State":1.0,"County":1.0,"City":1.0,"District":1.0,"Street":[1.0],"HouseNumber":1.0,"PostalCode":1.0},"MatchType":"interpolated","Location":{"LocationId":"NT_L528-MMENnGUD3I0tlUWYB_0A","LocationType":"point","DisplayPosition":{"Latitude":47.03156,"Longitude":15.49607},"MapView":{"TopLeft":{"Latitude":47.0326842,"Longitude":15.4944207},"BottomRight":{"Latitude":47.0304358,"Longitude":15.4977193}},"Address":{"Label":"Am Anger 4, 8074 Raaba-Grambach, Österreich","Country":"AUT","State":"Steiermark","County":"Graz-Umgebung","City":"Raaba-Grambach","District":"Raaba","Street":"Am Anger","HouseNumber":"4","PostalCode":"8074","AdditionalData":[{"value":"Österreich","key":"CountryName"},{"value":"Steiermark","key":"StateName"},{"value":"Graz-Umgebung","key":"CountyName"}]},"MapReference":{"ReferenceId":"828666760","Spot":0.73,"SideOfStreet":"right","CountryId":"20128885","StateId":"20134876","CountyId":"20135352","CityId":"20135476","DistrictId":"20220545","AddressId":"728844322","RoadLinkId":"213555719"}}}]}]}}