{"Response":{"MetaInfo":{"Timestamp":"2020-03-28T11:53:59.001+0000","NextPageInformation":"2"},"View":[{"_type":"SearchResultsViewType","ViewId":0,"Result":[{"Relevance":1.0,"Distance":0.0,"Direction":0.0,"MatchLevel":"city","MatchQuality":{"Country":1.0,"State":1.0,"County":1.0,"City":1.0,"PostalCode":1.0},"Location":{"LocationId":"NT_7IqjxC4JSH.1E8yo26uFVA","LocationType":"point","DisplayPosition":{"Latitude":47.007692,"Longitude":-0.747673},"MapView":{"TopLeft":{"Latitude":47.04792,"Longitude":-0.83298},"BottomRight":{"Latitude":46.98402,"Longitude":-0.69846}},"Address":{"Label":"Maulévrier, Pays de la Loire, France","Country":"FRA","State":"Pays de la Loire","County":"Maine-et-Loire","City":"Maulévrier","PostalCode":"49360","AdditionalData":[{"value":"France","key":"CountryName"},{"value":"Pays de la Loire","key":"StateName"},{"value":"Maine-et-Loire","key":"CountyName"}]},"MapReference":{"ReferenceId":"558013956","SideOfStreet":"neither","CountryId":"20000001","StateId":"20068992","CountyId":"20070673","CityId":"20071226"}}},{"Relevance":1.0,"Distance":4.1,"MatchLevel":"houseNumber","MatchQuality":{"Country":1.0,"State":1.0,"County":1.0,"City":1.0,"Street":[1.0],"HouseNumber":1.0,"PostalCode":1.0},"MatchType":"interpolated","Location":{"LocationId":"NT_OWsdHI0s9jhfghEeqK39lD_0A","LocationType":"point","DisplayPosition":{"Latitude":47.00763,"Longitude":-0.74763},"MapView":{"TopLeft":{"Latitude":47.0087542,"Longitude":-0.7492786},"BottomRight":{"Latitude":47.0065058,"Longitude":-0.7459814}},"Address":{"Label":"4 Rue Joseph Foyer, 49360 Maulévrier, France","Country":"FRA","State":"Pays de la Loire","County":"Maine-et-Loire","City":"Maulévrier","Street":"Rue Joseph Foyer","HouseNumber":"4","PostalCode":"49360","AdditionalData":[{"value":"France","key":"CountryName"},{"value":"Pays de la Loire","key":"StateName"},{"value":"Maine-et-Loire","key":"CountyName"}]},"MapReference":{"ReferenceId":"758693464","Spot":0.53,"SideOfStreet":"right","CountryId":"20000001","StateId":"20068992","CountyId":"20070673","CityId":"20071226","AddressId":"572794561","RoadLinkId":"153354834"}}},{"Relevance":1.0,"Distance":35.6,"MatchLevel":"houseNumber","MatchQuality":{"Country":1.0,"State":1.0,"County":1.0,"City":1.0,"Street":[1.0],"HouseNumber":1.0,"PostalCode":1.0},"MatchType":"interpolated","Location":{"LocationId":"NT_.pKuWsZrgTrbwH2e1hW60D_3A","LocationType":"point","DisplayPosition":{"Latitude":47.008,"Longitude":-0.7478},"MapView":{"TopLeft":{"Latitude":47.0091242,"Longitude":-0.7494486},"BottomRight":{"Latitude":47.0068758,"Longitude":-0.7461514}},"Address":{"Label":"7 Place de la Halle, 49360 Maulévrier, France","Country":"FRA","State":"Pays de la Loire","County":"Maine-et-Loire","City":"Maulévrier","Street":"Place de la Halle","HouseNumber":"7","PostalCode":"49360","AdditionalData":[{"value":"France","key":"CountryName"},{"value":"Pays de la Loire","key":"StateName"},{"value":"Maine-et-Loire","key":"CountyName"}]},"MapReference":{"ReferenceId":"1047811400","Spot":0.88,"SideOfStreet":"right","CountryId":"20000001","StateId":"20068992","CountyId":"20070673","CityId":"20071226","AddressId":"323612950","RoadLinkId":"367969744"}}},{"Relevance":1.0,"Distance":40.5,"MatchLevel":"houseNumber","MatchQuality":{"Country":1.0,"State":1.0,"County":1.0,"City":1.0,"Street":[1.0],"HouseNumber":1.0,"PostalCode":1.0},"MatchType":"interpolated","Location":{"LocationId":"NT_.pKuWsZrgTrbwH2e1hW60D_yA","LocationType":"point","DisplayPosition":{"Latitude":47.00804,"Longitude":-0.74783},"MapView":{"TopLeft":{"Latitude":47.0091642,"Longitude":-0.7494786},"BottomRight":{"Latitude":47.0069158,"Longitude":-0.7461814}},"Address":{"Label":"2 Place de la Halle, 49360 Maulévrier, France","Country":"FRA","State":"Pays de la Loire","County":"Maine-et-Loire","City":"Maulévrier","Street":"Place de la Halle","HouseNumber":"2","PostalCode":"49360","AdditionalData":[{"value":"France","key":"CountryName"},{"value":"Pays de la Loire","key":"StateName"},{"value":"Maine-et-Loire","key":"CountyName"}]},"MapReference":{"ReferenceId":"1047811401","Spot":0.0,"SideOfStreet":"right","CountryId":"20000001","StateId":"20068992","CountyId":"20070673","CityId":"20071226","AddressId":"689771965","RoadLinkId":"367969745"}}},{"Relevance":1.0,"Distance":41.1,"MatchLevel":"street","MatchQuality":{"Country":1.0,"State":1.0,"County":1.0,"City":1.0,"Street":[1.0],"PostalCode":1.0},"Location":{"LocationId":"NT_W9fjfxpM9J0d8PFJiynw7B_l_1047811399_R","LocationType":"point","DisplayPosition":{"Latitude":47.0080547,"Longitude":-0.7477805},"MapView":{"TopLeft":{"Latitude":47.00812,"Longitude":-0.74783},"BottomRight":{"Latitude":47.00804,"Longitude":-0.74727}},"Address":{"Label":"Place du Pré de la Halle, 49360 Maulévrier, France","Country":"FRA","State":"Pays de la Loire","County":"Maine-et-Loire","City":"Maulévrier","Street":"Place du Pré de la Halle","PostalCode":"49360","AdditionalData":[{"value":"France","key":"CountryName"},{"value":"Pays de la Loire","key":"StateName"},{"value":"Maine-et-Loire","key":"CountyName"}]},"MapReference":{"ReferenceId":"1047811399","Spot":0.09,"SideOfStreet":"right","CountryId":"20000001","StateId":"20068992","CountyId":"20070673","CityId":"20071226"}}},{"Relevance":1.0,"Distance":43.4,"MatchLevel":"houseNumber","MatchQuality":{"Country":1.0,"State":1.0,"County":1.0,"City":1.0,"Street":[1.0],"HouseNumber":1.0,"PostalCode":1.0},"MatchType":"interpolated","Location":{"LocationId":"NT_OWsdHI0s9jhfghEeqK39lD_3A","LocationType":"point","DisplayPosition":{"Latitude":47.00764,"Longitude":-0.74824},"MapView":{"TopLeft":{"Latitude":47.0087642,"Longitude":-0.7498886},"BottomRight":{"Latitude":47.0065158,"Longitude":-0.7465914}},"Address":{"Label":"7 Rue Joseph Foyer, 49360 Maulévrier, France","Country":"FRA","State":"Pays de la Loire","County":"Maine-et-Loire","City":"Maulévrier","Street":"Rue Joseph Foyer","HouseNumber":"7","PostalCode":"49360","AdditionalData":[{"value":"France","key":"CountryName"},{"value":"Pays de la Loire","key":"StateName"},{"value":"Maine-et-Loire","key":"CountyName"}]},"MapReference":{"ReferenceId":"758693438","Spot":0.74,"SideOfStreet":"left","CountryId":"20000001","StateId":"20068992","CountyId":"20070673","CityId":"20071226","AddressId":"572926229","RoadLinkId":"153354790"}}},{"Relevance":1.0,"Distance":44.7,"MatchLevel":"houseNumber","MatchQuality":{"Country":1.0,"State":1.0,"County":1.0,"City":1.0,"Street":[1.0],"HouseNumber":1.0,"PostalCode":1.0},"MatchType":"interpolated","Location":{"LocationId":"NT_OWsdHI0s9jhfghEeqK39lD_yA","LocationType":"point","DisplayPosition":{"Latitude":47.00761,"Longitude":-0.74709},"MapView":{"TopLeft":{"Latitude":47.0087342,"Longitude":-0.7487386},"BottomRight":{"Latitude":47.0064858,"Longitude":-0.7454414}},"Address":{"Label":"2 Rue Joseph Foyer, 49360 Maulévrier, France","Country":"FRA","State":"Pays de la Loire","County":"Maine-et-Loire","City":"Maulévrier","Street":"Rue Joseph Foyer","HouseNumber":"2","PostalCode":"49360","AdditionalData":[{"value":"France","key":"CountryName"},{"value":"Pays de la Loire","key":"StateName"},{"value":"Maine-et-Loire","key":"CountyName"}]},"MapReference":{"ReferenceId":"758693463","Spot":0.55,"SideOfStreet":"right","CountryId":"20000001","StateId":"20068992","CountyId":"20070673","CityId":"20071226","AddressId":"323659776","RoadLinkId":"153354833"}}},{"Relevance":1.0,"Distance":55.3,"MatchLevel":"houseNumber","MatchQuality":{"Country":1.0,"State":1.0,"County":1.0,"City":1.0,"Street":[1.0],"HouseNumber":1.0,"PostalCode":1.0},"MatchType":"interpolated","Location":{"LocationId":"NT_OWsdHI0s9jhfghEeqK39lD_xED","LocationType":"point","DisplayPosition":{"Latitude":47.00765,"Longitude":-0.7484},"MapView":{"TopLeft":{"Latitude":47.0087742,"Longitude":-0.7500486},"BottomRight":{"Latitude":47.0065258,"Longitude":-0.7467514}},"Address":{"Label":"11 Rue Joseph Foyer, 49360 Maulévrier, France","Country":"FRA","State":"Pays de la Loire","County":"Maine-et-Loire","City":"Maulévrier","Street":"Rue Joseph Foyer","HouseNumber":"11","PostalCode":"49360","AdditionalData":[{"value":"France","key":"CountryName"},{"value":"Pays de la Loire","key":"StateName"},{"value":"Maine-et-Loire","key":"CountyName"}]},"MapReference":{"ReferenceId":"758693439","Spot":0.04,"SideOfStreet":"left","CountryId":"20000001","StateId":"20068992","CountyId":"20070673","CityId":"20071226","AddressId":"572788273","RoadLinkId":"153354791"}}},{"Relevance":1.0,"Distance":56.6,"MatchLevel":"street","MatchQuality":{"Country":1.0,"State":1.0,"County":1.0,"City":1.0,"Street":[1.0],"PostalCode":1.0},"Location":{"LocationId":"NT_W9fjfxpM9J0d8PFJiynw7B_l_1047811402_R","LocationType":"point","DisplayPosition":{"Latitude":47.00812,"Longitude":-0.74727},"MapView":{"TopLeft":{"Latitude":47.00813,"Longitude":-0.74727},"BottomRight":{"Latitude":47.00812,"Longitude":-0.74693}},"Address":{"Label":"Place du Pré de la Halle, 49360 Maulévrier, France","Country":"FRA","State":"Pays de la Loire","County":"Maine-et-Loire","City":"Maulévrier","Street":"Place du Pré de la Halle","PostalCode":"49360","AdditionalData":[{"value":"France","key":"CountryName"},{"value":"Pays de la Loire","key":"StateName"},{"value":"Maine-et-Loire","key":"CountyName"}]},"MapReference":{"ReferenceId":"1047811402","Spot":0.0,"SideOfStreet":"right","CountryId":"20000001","StateId":"20068992","CountyId":"20070673","CityId":"20071226"}}},{"Relevance":1.0,"Distance":67.6,"MatchLevel":"houseNumber","MatchQuality":{"Country":1.0,"State":1.0,"County":1.0,"City":1.0,"Street":[1.0],"HouseNumber":1.0,"PostalCode":1.0},"MatchType":"interpolated","Location":{"LocationId":"NT_W9fjfxpM9J0d8PFJiynw7B_xA","LocationType":"point","DisplayPosition":{"Latitude":47.00825,"Longitude":-0.7473},"MapView":{"TopLeft":{"Latitude":47.0093742,"Longitude":-0.7489486},"BottomRight":{"Latitude":47.0071258,"Longitude":-0.7456514}},"Address":{"Label":"1 Place du Pré de la Halle, 49360 Maulévrier, France","Country":"FRA","State":"Pays de la Loire","County":"Maine-et-Loire","City":"Maulévrier","Street":"Place du Pré de la Halle","HouseNumber":"1","PostalCode":"49360","AdditionalData":[{"value":"France","key":"CountryName"},{"value":"Pays de la Loire","key":"StateName"},{"value":"Maine-et-Loire","key":"CountyName"}]},"MapReference":{"ReferenceId":"1047811403","Spot":0.37,"SideOfStreet":"left","CountryId":"20000001","StateId":"20068992","CountyId":"20070673","CityId":"20071226","AddressId":"323647544","RoadLinkId":"367969747"}}}]}]}}