{"Response":{"MetaInfo":{"Timestamp":"2020-03-28T10:30:19.526+0000","NextPageInformation":"2"},"View":[{"_type":"SearchResultsViewType","ViewId":0,"Result":[{"Relevance":1.0,"Distance":0.0,"Direction":0.0,"MatchLevel":"district","MatchQuality":{"Country":1.0,"State":1.0,"County":1.0,"City":1.0,"District":1.0,"PostalCode":1.0},"Location":{"LocationId":"NT_yWJNw.t85wsDl0qTlYnUCA","LocationType":"point","DisplayPosition":{"Latitude":47.0365674,"Longitude":-0.9012061},"MapView":{"TopLeft":{"Latitude":47.04938,"Longitude":-0.92078},"BottomRight":{"Latitude":47.0224,"Longitude":-0.8812}},"Address":{"Label":"L'Audinière, Cholet, Pays de la Loire, France","Country":"FRA","State":"Pays de la Loire","County":"Maine-et-Loire","City":"Cholet","District":"L'Audinière","PostalCode":"49300","AdditionalData":[{"value":"France","key":"CountryName"},{"value":"Pays de la Loire","key":"StateName"},{"value":"Maine-et-Loire","key":"CountyName"}]},"MapReference":{"ReferenceId":"879929799","SideOfStreet":"neither","CountryId":"20000001","StateId":"20068992","CountyId":"20070673","CityId":"20070969"}}},{"Relevance":1.0,"Distance":11.6,"MatchLevel":"street","MatchQuality":{"Country":1.0,"State":1.0,"County":1.0,"City":1.0,"PostalCode":1.0},"Location":{"LocationId":"NT_dZavf44CWqgoqJx-87XkpC_l_1226020390_R","LocationType":"point","DisplayPosition":{"Latitude":47.0366715,"Longitude":-0.9012086},"MapView":{"TopLeft":{"Latitude":47.03684,"Longitude":-0.90127},"BottomRight":{"Latitude":47.03667,"Longitude":-0.90027}},"Address":{"Label":"49300 Cholet, France","Country":"FRA","State":"Pays de la Loire","County":"Maine-et-Loire","City":"Cholet","PostalCode":"49300","AdditionalData":[{"value":"France","key":"CountryName"},{"value":"Pays de la Loire","key":"StateName"},{"value":"Maine-et-Loire","key":"CountyName"}]},"MapReference":{"ReferenceId":"1226020390","Spot":0.06,"SideOfStreet":"right","CountryId":"20000001","StateId":"20068992","CountyId":"20070673","CityId":"20070969"}}},{"Relevance":1.0,"Distance":12.4,"MatchLevel":"street","MatchQuality":{"Country":1.0,"State":1.0,"County":1.0,"City":1.0,"PostalCode":1.0},"Location":{"LocationId":"NT_dZavf44CWqgoqJx-87XkpC_l_1226020381_R","LocationType":"point","DisplayPosition":{"Latitude":47.03667,"Longitude":-0.90127},"MapView":{"TopLeft":{"Latitude":47.03667,"Longitude":-0.90145},"BottomRight":{"Latitude":47.03667,"Longitude":-0.90127}},"Address":{"Label":"49300 Cholet, France","Country":"FRA","State":"Pays de la Loire","County":"Maine-et-Loire","City":"Cholet","PostalCode":"49300","AdditionalData":[{"value":"France","key":"CountryName"},{"value":"Pays de la Loire","key":"StateName"},{"value":"Maine-et-Loire","key":"CountyName"}]},"MapReference":{"ReferenceId":"1226020381","Spot":1.0,"SideOfStreet":"right","CountryId":"20000001","StateId":"20068992","CountyId":"20070673","CityId":"20070969"}}},{"Relevance":1.0,"Distance":12.4,"MatchLevel":"street","MatchQuality":{"Country":1.0,"State":1.0,"County":1.0,"City":1.0,"PostalCode":1.0},"Location":{"LocationId":"NT_dZavf44CWqgoqJx-87XkpC_l_1226020388_R","LocationType":"point","DisplayPosition":{"Latitude":47.03667,"Longitude":-0.90127},"MapView":{"TopLeft":{"Latitude":47.03681,"Longitude":-0.90128},"BottomRight":{"Latitude":47.03667,"Longitude":-0.90127}},"Address":{"Label":"49300 Cholet, France","Country":"FRA","State":"Pays de la Loire","County":"Maine-et-Loire","City":"Cholet","PostalCode":"49300","AdditionalData":[{"value":"France","key":"CountryName"},{"value":"Pays de la Loire","key":"StateName"},{"value":"Maine-et-Loire","key":"CountyName"}]},"MapReference":{"ReferenceId":"1226020388","Spot":0.0,"SideOfStreet":"right","CountryId":"20000001","StateId":"20068992","CountyId":"20070673","CityId":"20070969"}}},{"Relevance":1.0,"Distance":19.0,"MatchLevel":"street","MatchQuality":{"Country":1.0,"State":1.0,"County":1.0,"City":1.0,"PostalCode":1.0},"Location":{"LocationId":"NT_dZavf44CWqgoqJx-87XkpC_l_1226020343_R","LocationType":"point","DisplayPosition":{"Latitude":47.0364157,"Longitude":-0.9013221},"MapView":{"TopLeft":{"Latitude":47.03667,"Longitude":-0.90145},"BottomRight":{"Latitude":47.03633,"Longitude":-0.90121}},"Address":{"Label":"49300 Cholet, France","Country":"FRA","State":"Pays de la Loire","County":"Maine-et-Loire","City":"Cholet","PostalCode":"49300","AdditionalData":[{"value":"France","key":"CountryName"},{"value":"Pays de la Loire","key":"StateName"},{"value":"Maine-et-Loire","key":"CountyName"}]},"MapReference":{"ReferenceId":"1226020343","Spot":0.31,"SideOfStreet":"right","CountryId":"20000001","StateId":"20068992","CountyId":"20070673","CityId":"20070969"}}},{"Relevance":1.0,"Distance":21.7,"MatchLevel":"street","MatchQuality":{"Country":1.0,"State":1.0,"County":1.0,"City":1.0,"PostalCode":1.0},"Location":{"LocationId":"NT_dZavf44CWqgoqJx-87XkpC_l_1226020344_R","LocationType":"point","DisplayPosition":{"Latitude":47.03667,"Longitude":-0.90145},"MapView":{"TopLeft":{"Latitude":47.03705,"Longitude":-0.90147},"BottomRight":{"Latitude":47.03667,"Longitude":-0.90145}},"Address":{"Label":"49300 Cholet, France","Country":"FRA","State":"Pays de la Loire","County":"Maine-et-Loire","City":"Cholet","PostalCode":"49300","AdditionalData":[{"value":"France","key":"CountryName"},{"value":"Pays de la Loire","key":"StateName"},{"value":"Maine-et-Loire","key":"CountyName"}]},"MapReference":{"ReferenceId":"1226020344","Spot":0.0,"SideOfStreet":"right","CountryId":"20000001","StateId":"20068992","CountyId":"20070673","CityId":"20070969"}}},{"Relevance":1.0,"Distance":27.2,"MatchLevel":"street","MatchQuality":{"Country":1.0,"State":1.0,"County":1.0,"City":1.0,"PostalCode":1.0},"Location":{"LocationId":"NT_dZavf44CWqgoqJx-87XkpC_l_1226020392_R","LocationType":"point","DisplayPosition":{"Latitude":47.036812,"Longitude":-0.9012134},"MapView":{"TopLeft":{"Latitude":47.03684,"Longitude":-0.90128},"BottomRight":{"Latitude":47.03681,"Longitude":-0.90027}},"Address":{"Label":"49300 Cholet, France","Country":"FRA","State":"Pays de la Loire","County":"Maine-et-Loire","City":"Cholet","PostalCode":"49300","AdditionalData":[{"value":"France","key":"CountryName"},{"value":"Pays de la Loire","key":"StateName"},{"value":"Maine-et-Loire","key":"CountyName"}]},"MapReference":{"ReferenceId":"1226020392","Spot":0.07,"SideOfStreet":"right","CountryId":"20000001","StateId":"20068992","CountyId":"20070673","CityId":"20070969"}}},{"Relevance":1.0,"Distance":27.6,"MatchLevel":"street","MatchQuality":{"Country":1.0,"State":1.0,"County":1.0,"City":1.0,"PostalCode":1.0},"Location":{"LocationId":"NT_dZavf44CWqgoqJx-87XkpC_l_1226020389_R","LocationType":"point","DisplayPosition":{"Latitude":47.03681,"Longitude":-0.90128},"MapView":{"TopLeft":{"Latitude":47.03696,"Longitude":-0.90129},"BottomRight":{"Latitude":47.03681,"Longitude":-0.90128}},"Address":{"Label":"49300 Cholet, France","Country":"FRA","State":"Pays de la Loire","County":"Maine-et-Loire","City":"Cholet","PostalCode":"49300","AdditionalData":[{"value":"France","key":"CountryName"},{"value":"Pays de la Loire","key":"StateName"},{"value":"Maine-et-Loire","key":"CountyName"}]},"MapReference":{"ReferenceId":"1226020389","Spot":0.0,"SideOfStreet":"right","CountryId":"20000001","StateId":"20068992","CountyId":"20070673","CityId":"20070969"}}},{"Relevance":1.0,"Distance":43.9,"MatchLevel":"street","MatchQuality":{"Country":1.0,"State":1.0,"County":1.0,"City":1.0,"PostalCode":1.0},"Location":{"LocationId":"NT_dZavf44CWqgoqJx-87XkpC_l_1226020380_R","LocationType":"point","DisplayPosition":{"Latitude":47.0369621,"Longitude":-0.9012178},"MapView":{"TopLeft":{"Latitude":47.03699,"Longitude":-0.90129},"BottomRight":{"Latitude":47.03696,"Longitude":-0.90028}},"Address":{"Label":"49300 Cholet, France","Country":"FRA","State":"Pays de la Loire","County":"Maine-et-Loire","City":"Cholet","PostalCode":"49300","AdditionalData":[{"value":"France","key":"CountryName"},{"value":"Pays de la Loire","key":"StateName"},{"value":"Maine-et-Loire","key":"CountyName"}]},"MapReference":{"ReferenceId":"1226020380","Spot":0.07,"SideOfStreet":"right","CountryId":"20000001","StateId":"20068992","CountyId":"20070673","CityId":"20070969"}}},{"Relevance":1.0,"Distance":44.1,"MatchLevel":"street","MatchQuality":{"Country":1.0,"State":1.0,"County":1.0,"City":1.0,"PostalCode":1.0},"Location":{"LocationId":"NT_dZavf44CWqgoqJx-87XkpC_l_1070194143_R","LocationType":"point","DisplayPosition":{"Latitude":47.03696,"Longitude":-0.90129},"MapView":{"TopLeft":{"Latitude":47.03712,"Longitude":-0.90129},"BottomRight":{"Latitude":47.03696,"Longitude":-0.90126}},"Address":{"Label":"49300 Cholet, France","Country":"FRA","State":"Pays de la Loire","County":"Maine-et-Loire","City":"Cholet","PostalCode":"49300","AdditionalData":[{"value":"France","key":"CountryName"},{"value":"Pays de la Loire","key":"StateName"},{"value":"Maine-et-Loire","key":"CountyName"}]},"MapReference":{"ReferenceId":"1070194143","Spot":0.0,"SideOfStreet":"right","CountryId":"20000001","StateId":"20068992","CountyId":"20070673","CityId":"20070969"}}}]}]}}