{"Response":{"MetaInfo":{"Timestamp":"2020-03-28T11:37:22.516+0000","NextPageInformation":"2"},"View":[{"_type":"SearchResultsViewType","ViewId":0,"Result":[{"Relevance":1.0,"Distance":0.0,"Direction":0.0,"MatchLevel":"district","MatchQuality":{"Country":1.0,"State":1.0,"County":1.0,"City":1.0,"District":1.0,"PostalCode":1.0},"Location":{"LocationId":"NT_Fc.dbS7.wa9H0JV.d13TcC","LocationType":"point","DisplayPosition":{"Latitude":47.0471073,"Longitude":15.4148388},"MapView":{"TopLeft":{"Latitude":47.06107,"Longitude":15.38006},"BottomRight":{"Latitude":47.04328,"Longitude":15.41689}},"Address":{"Label":"Wetzelsdorf, Graz, Steiermark, Österreich","Country":"AUT","State":"Steiermark","County":"Graz","City":"Graz","District":"Wetzelsdorf","PostalCode":"8052","AdditionalData":[{"value":"Österreich","key":"CountryName"},{"value":"Steiermark","key":"StateName"},{"value":"Graz","key":"CountyName"}]},"MapReference":{"ReferenceId":"834108567","SideOfStreet":"neither","CountryId":"20128885","StateId":"20134876","CountyId":"20134877","CityId":"20134878"}}},{"Relevance":1.0,"Distance":9.0,"MatchLevel":"houseNumber","MatchQuality":{"Country":1.0,"State":1.0,"County":1.0,"City":1.0,"District":1.0,"Street":[1.0],"HouseNumber":1.0,"PostalCode":1.0},"MatchType":"interpolated","Location":{"LocationId":"NT_rWhCekg9oA-slXV9k2THLA_xUjM","LocationType":"point","DisplayPosition":{"Latitude":47.04712,"Longitude":15.41522},"MapView":{"TopLeft":{"Latitude":47.0482442,"Longitude":15.4135702},"BottomRight":{"Latitude":47.0459958,"Longitude":15.4168698}},"Address":{"Label":"Kärntner Straße 152, 8053 Graz, Österreich","Country":"AUT","State":"Steiermark","County":"Graz","City":"Graz","District":"Wetzelsdorf","Street":"Kärntner Straße","HouseNumber":"152","PostalCode":"8053","AdditionalData":[{"value":"Österreich","key":"CountryName"},{"value":"Steiermark","key":"StateName"},{"value":"Graz","key":"CountyName"}]},"MapReference":{"ReferenceId":"780587593","Spot":0.12,"SideOfStreet":"left","CountryId":"20128885","StateId":"20134876","CountyId":"20134877","CityId":"20134878","AddressId":"161007820","RoadLinkId":"173796541"}}},{"Relevance":1.0,"Distance":25.3,"MatchLevel":"houseNumber","MatchQuality":{"Country":1.0,"State":1.0,"County":1.0,"City":1.0,"District":1.0,"Street":[1.0],"HouseNumber":1.0,"PostalCode":1.0},"MatchType":"interpolated","Location":{"LocationId":"NT_rWhCekg9oA-slXV9k2THLA_xUDN","LocationType":"point","DisplayPosition":{"Latitude":47.04685,"Longitude":15.41515},"MapView":{"TopLeft":{"Latitude":47.0479742,"Longitude":15.4135002},"BottomRight":{"Latitude":47.0457258,"Longitude":15.4167998}},"Address":{"Label":"Kärntner Straße 154, 8053 Graz, Österreich","Country":"AUT","State":"Steiermark","County":"Graz","City":"Graz","District":"Wetzelsdorf","Street":"Kärntner Straße","HouseNumber":"154","PostalCode":"8053","AdditionalData":[{"value":"Österreich","key":"CountryName"},{"value":"Steiermark","key":"StateName"},{"value":"Graz","key":"CountyName"}]},"MapReference":{"ReferenceId":"572465561","Spot":0.27,"SideOfStreet":"left","CountryId":"20128885","StateId":"20134876","CountyId":"20134877","CityId":"20134878","AddressId":"161072286","RoadLinkId":"28750941"}}},{"Relevance":1.0,"Distance":28.7,"MatchLevel":"street","MatchQuality":{"Country":1.0,"State":1.0,"County":1.0,"City":1.0,"District":1.0,"Street":[1.0],"PostalCode":1.0},"Location":{"LocationId":"NT_iijDAAq8uRmlm1sTOvSh2A_l_780587592_L","LocationType":"point","DisplayPosition":{"Latitude":47.0470184,"Longitude":15.4151946},"MapView":{"TopLeft":{"Latitude":47.04704,"Longitude":15.41518},"BottomRight":{"Latitude":47.04696,"Longitude":15.4152}},"Address":{"Label":"Kärntner Straße, 8053 Graz, Österreich","Country":"AUT","State":"Steiermark","County":"Graz","City":"Graz","District":"Wetzelsdorf","Street":"Kärntner Straße","PostalCode":"8053","AdditionalData":[{"value":"Österreich","key":"CountryName"},{"value":"Steiermark","key":"StateName"},{"value":"Graz","key":"CountyName"}]},"MapReference":{"ReferenceId":"780587592","Spot":0.73,"SideOfStreet":"left","CountryId":"20128885","StateId":"20134876","CountyId":"20134877","CityId":"20134878"}}},{"Relevance":1.0,"Distance":30.6,"MatchLevel":"street","MatchQuality":{"Country":1.0,"State":1.0,"County":1.0,"City":1.0,"District":1.0,"Street":[1.0],"PostalCode":1.0},"Location":{"LocationId":"NT_T5acCZ0I9msvJd4ZdeZdeC_l_1197616003_R","LocationType":"point","DisplayPosition":{"Latitude":47.04696,"Longitude":15.41518},"MapView":{"TopLeft":{"Latitude":47.04696,"Longitude":15.41518},"BottomRight":{"Latitude":47.04688,"Longitude":15.41576}},"Address":{"Label":"Bäckerweg, 8053 Graz, Österreich","Country":"AUT","State":"Steiermark","County":"Graz","City":"Graz","District":"Straßgang","Street":"Bäckerweg","PostalCode":"8053","AdditionalData":[{"value":"Österreich","key":"CountryName"},{"value":"Steiermark","key":"StateName"},{"value":"Graz","key":"CountyName"}]},"MapReference":{"ReferenceId":"1197616003","Spot":1.0,"SideOfStreet":"right","CountryId":"20128885","StateId":"20134876","CountyId":"20134877","CityId":"20134878"}}},{"Relevance":1.0,"Distance":35.7,"MatchLevel":"houseNumber","MatchQuality":{"Country":1.0,"State":1.0,"County":1.0,"City":1.0,"District":1.0,"Street":[1.0],"HouseNumber":1.0,"PostalCode":1.0},"MatchType":"interpolated","Location":{"LocationId":"NT_wc9fWQZEYlhjjRvFuEFoGC_0A","LocationType":"point","DisplayPosition":{"Latitude":47.04674,"Longitude":15.41446},"MapView":{"TopLeft":{"Latitude":47.0478642,"Longitude":15.4128102},"BottomRight":{"Latitude":47.0456158,"Longitude":15.4161098}},"Address":{"Label":"Klusemannstraße 4, 8053 Graz, Österreich","Country":"AUT","State":"Steiermark","County":"Graz","City":"Graz","District":"Wetzelsdorf","Street":"Klusemannstraße","HouseNumber":"4","PostalCode":"8053","AdditionalData":[{"value":"Österreich","key":"CountryName"},{"value":"Steiermark","key":"StateName"},{"value":"Graz","key":"CountyName"}]},"MapReference":{"ReferenceId":"572465578","Spot":0.45,"SideOfStreet":"left","CountryId":"20128885","StateId":"20134876","CountyId":"20134877","CityId":"20134878","AddressId":"161070711","RoadLinkId":"28645871"}}},{"Relevance":1.0,"Distance":50.9,"MatchLevel":"houseNumber","MatchQuality":{"Country":1.0,"State":1.0,"County":1.0,"City":1.0,"District":1.0,"Street":[1.0],"HouseNumber":1.0,"PostalCode":1.0},"MatchType":"interpolated","Location":{"LocationId":"NT_maSfhKOUDluN-ZgsZV9-FA_xMD","LocationType":"point","DisplayPosition":{"Latitude":47.0475,"Longitude":15.41412},"MapView":{"TopLeft":{"Latitude":47.0486242,"Longitude":15.4124702},"BottomRight":{"Latitude":47.0463758,"Longitude":15.4157698}},"Address":{"Label":"Robert-Fuchs-Straße 13, 8053 Graz, Österreich","Country":"AUT","State":"Steiermark","County":"Graz","City":"Graz","District":"Wetzelsdorf","Street":"Robert-Fuchs-Straße","HouseNumber":"13","PostalCode":"8053","AdditionalData":[{"value":"Österreich","key":"CountryName"},{"value":"Steiermark","key":"StateName"},{"value":"Graz","key":"CountyName"}]},"MapReference":{"ReferenceId":"572465579","Spot":0.46,"SideOfStreet":"right","CountryId":"20128885","StateId":"20134876","CountyId":"20134877","CityId":"20134878","AddressId":"160956467","RoadLinkId":"29099097"}}},{"Relevance":1.0,"Distance":67.8,"MatchLevel":"houseNumber","MatchQuality":{"Country":1.0,"State":1.0,"County":1.0,"City":1.0,"District":1.0,"Street":[1.0],"HouseNumber":1.0,"PostalCode":1.0},"MatchType":"interpolated","Location":{"LocationId":"NT_4Y5t-XrI-qGYvwqteW9kqB_xUDO","LocationType":"point","DisplayPosition":{"Latitude":47.04646,"Longitude":15.41504},"MapView":{"TopLeft":{"Latitude":47.0475842,"Longitude":15.4133902},"BottomRight":{"Latitude":47.0453358,"Longitude":15.4166898}},"Address":{"Label":"Kärntner Straße 158, 8053 Graz, Österreich","Country":"AUT","State":"Steiermark","County":"Graz","City":"Graz","District":"Straßgang","Street":"Kärntner Straße","HouseNumber":"158","PostalCode":"8053","AdditionalData":[{"value":"Österreich","key":"CountryName"},{"value":"Steiermark","key":"StateName"},{"value":"Graz","key":"CountyName"}]},"MapReference":{"ReferenceId":"572465629","Spot":0.46,"SideOfStreet":"left","CountryId":"20128885","StateId":"20134876","CountyId":"20134877","CityId":"20134878","AddressId":"161008192","RoadLinkId":"28873340"}}},{"Relevance":1.0,"Distance":82.1,"MatchLevel":"houseNumber","MatchQuality":{"Country":1.0,"State":1.0,"County":1.0,"City":1.0,"District":1.0,"Street":[1.0],"HouseNumber":1.0,"PostalCode":1.0},"MatchType":"interpolated","Location":{"LocationId":"NT_T5acCZ0I9msvJd4ZdeZdeC_zA","LocationType":"point","DisplayPosition":{"Latitude":47.04686,"Longitude":15.41586},"MapView":{"TopLeft":{"Latitude":47.0479842,"Longitude":15.4142102},"BottomRight":{"Latitude":47.0457358,"Longitude":15.4175098}},"Address":{"Label":"Bäckerweg 3, 8053 Graz, Österreich","Country":"AUT","State":"Steiermark","County":"Graz","City":"Graz","District":"Straßgang","Street":"Bäckerweg","HouseNumber":"3","PostalCode":"8053","AdditionalData":[{"value":"Österreich","key":"CountryName"},{"value":"Steiermark","key":"StateName"},{"value":"Graz","key":"CountyName"}]},"MapReference":{"ReferenceId":"1197616002","Spot":0.96,"SideOfStreet":"right","CountryId":"20128885","StateId":"20134876","CountyId":"20134877","CityId":"20134878","AddressId":"160950486","RoadLinkId":"508436429"}}},{"Relevance":1.0,"Distance":91.2,"MatchLevel":"houseNumber","MatchQuality":{"Country":1.0,"State":1.0,"County":1.0,"City":1.0,"District":1.0,"Street":[1.0],"HouseNumber":1.0,"PostalCode":1.0},"MatchType":"interpolated","Location":{"LocationId":"NT_rWhCekg9oA-slXV9k2THLA_xQjN","LocationType":"point","DisplayPosition":{"Latitude":47.04788,"Longitude":15.41541},"MapView":{"TopLeft":{"Latitude":47.0490042,"Longitude":15.4137602},"BottomRight":{"Latitude":47.0467558,"Longitude":15.4170598}},"Address":{"Label":"Kärntner Straße 146, 8053 Graz, Österreich","Country":"AUT","State":"Steiermark","County":"Graz","City":"Graz","District":"Wetzelsdorf","Street":"Kärntner Straße","HouseNumber":"146","PostalCode":"8053","AdditionalData":[{"value":"Österreich","key":"CountryName"},{"value":"Steiermark","key":"StateName"},{"value":"Graz","key":"CountyName"}]},"MapReference":{"ReferenceId":"572465488","Spot":0.23,"SideOfStreet":"left","CountryId":"20128885","StateId":"20134876","CountyId":"20134877","CityId":"20134878","AddressId":"161007789","RoadLinkId":"28329619"}}}]}]}}