{"Response":{"MetaInfo":{"Timestamp":"2020-03-28T10:51:11.565+0000","NextPageInformation":"2"},"View":[{"_type":"SearchResultsViewType","ViewId":0,"Result":[{"Relevance":1.0,"Distance":0.0,"Direction":0.0,"MatchLevel":"district","MatchQuality":{"Country":1.0,"State":1.0,"County":1.0,"City":1.0,"District":1.0,"PostalCode":1.0},"Location":{"LocationId":"NT_7LJTu2bKWkLcSBDYJnZwhD","LocationType":"point","DisplayPosition":{"Latitude":47.0703163,"Longitude":15.4248782},"MapView":{"TopLeft":{"Latitude":47.07138,"Longitude":15.40929},"BottomRight":{"Latitude":47.0402,"Longitude":15.44309}},"Address":{"Label":"Gries, Graz, Steiermark, Österreich","Country":"AUT","State":"Steiermark","County":"Graz","City":"Graz","District":"Gries","PostalCode":"8020","AdditionalData":[{"value":"Österreich","key":"CountryName"},{"value":"Steiermark","key":"StateName"},{"value":"Graz","key":"CountyName"}]},"MapReference":{"ReferenceId":"572467755","SideOfStreet":"neither","CountryId":"20128885","StateId":"20134876","CountyId":"20134877","CityId":"20134878"}}},{"Relevance":1.0,"Distance":7.5,"MatchLevel":"houseNumber","MatchQuality":{"Country":1.0,"State":1.0,"County":1.0,"City":1.0,"District":1.0,"Street":[1.0],"HouseNumber":1.0,"PostalCode":1.0},"MatchType":"interpolated","Location":{"LocationId":"NT_UM4m7vjIHy5k9OuNRWcbyB_5A","LocationType":"point","DisplayPosition":{"Latitude":47.07055,"Longitude":15.42425},"MapView":{"TopLeft":{"Latitude":47.0716742,"Longitude":15.4225995},"BottomRight":{"Latitude":47.0694258,"Longitude":15.4259005}},"Address":{"Label":"Idlhofgasse 9, 8020 Graz, Österreich","Country":"AUT","State":"Steiermark","County":"Graz","City":"Graz","District":"Gries","Street":"Idlhofgasse","HouseNumber":"9","PostalCode":"8020","AdditionalData":[{"value":"Österreich","key":"CountryName"},{"value":"Steiermark","key":"StateName"},{"value":"Graz","key":"CountyName"}]},"MapReference":{"ReferenceId":"572463374","Spot":0.22,"SideOfStreet":"right","CountryId":"20128885","StateId":"20134876","CountyId":"20134877","CityId":"20134878","AddressId":"161015568","RoadLinkId":"27782909"}}},{"Relevance":1.0,"Distance":8.6,"MatchLevel":"houseNumber","MatchQuality":{"Country":1.0,"State":1.0,"County":1.0,"City":1.0,"District":1.0,"Street":[1.0],"HouseNumber":1.0,"PostalCode":1.0},"MatchType":"interpolated","Location":{"LocationId":"NT_sR1G88OuWCzL2l47.ErLKA_yMD","LocationType":"point","DisplayPosition":{"Latitude":47.07034,"Longitude":15.42477},"MapView":{"TopLeft":{"Latitude":47.0714642,"Longitude":15.4231195},"BottomRight":{"Latitude":47.0692158,"Longitude":15.4264205}},"Address":{"Label":"Niesenbergergasse 23, 8020 Graz, Österreich","Country":"AUT","State":"Steiermark","County":"Graz","City":"Graz","District":"Gries","Street":"Niesenbergergasse","HouseNumber":"23","PostalCode":"8020","AdditionalData":[{"value":"Österreich","key":"CountryName"},{"value":"Steiermark","key":"StateName"},{"value":"Graz","key":"CountyName"}]},"MapReference":{"ReferenceId":"62808832","Spot":0.25,"SideOfStreet":"right","CountryId":"20128885","StateId":"20134876","CountyId":"20134877","CityId":"20134878","AddressId":"161014695","RoadLinkId":"28424072"}}},{"Relevance":1.0,"Distance":42.0,"MatchLevel":"houseNumber","MatchQuality":{"Country":1.0,"State":1.0,"County":1.0,"City":1.0,"District":1.0,"Street":[1.0],"HouseNumber":1.0,"PostalCode":1.0},"MatchType":"interpolated","Location":{"LocationId":"NT_UM4m7vjIHy5k9OuNRWcbyB_xUD","LocationType":"point","DisplayPosition":{"Latitude":47.07013,"Longitude":15.42405},"MapView":{"TopLeft":{"Latitude":47.0712542,"Longitude":15.4223995},"BottomRight":{"Latitude":47.0690058,"Longitude":15.4257005}},"Address":{"Label":"Idlhofgasse 15, 8020 Graz, Österreich","Country":"AUT","State":"Steiermark","County":"Graz","City":"Graz","District":"Gries","Street":"Idlhofgasse","HouseNumber":"15","PostalCode":"8020","AdditionalData":[{"value":"Österreich","key":"CountryName"},{"value":"Steiermark","key":"StateName"},{"value":"Graz","key":"CountyName"}]},"MapReference":{"ReferenceId":"62808831","Spot":0.79,"SideOfStreet":"right","CountryId":"20128885","StateId":"20134876","CountyId":"20134877","CityId":"20134878","AddressId":"161015612","RoadLinkId":"28543126"}}},{"Relevance":1.0,"Distance":72.4,"MatchLevel":"houseNumber","MatchQuality":{"Country":1.0,"State":1.0,"County":1.0,"City":1.0,"District":1.0,"Street":[1.0],"HouseNumber":1.0,"PostalCode":1.0},"MatchType":"interpolated","Location":{"LocationId":"NT_.FZX.i9nuos68shMlxYY9B_0ETY","LocationType":"point","DisplayPosition":{"Latitude":47.07121,"Longitude":15.42504},"MapView":{"TopLeft":{"Latitude":47.0723342,"Longitude":15.4233895},"BottomRight":{"Latitude":47.0700858,"Longitude":15.4266905}},"Address":{"Label":"Annenstraße 41a, 8020 Graz, Österreich","Country":"AUT","State":"Steiermark","County":"Graz","City":"Graz","District":"Gries","Street":"Annenstraße","HouseNumber":"41a","PostalCode":"8020","AdditionalData":[{"value":"Österreich","key":"CountryName"},{"value":"Steiermark","key":"StateName"},{"value":"Graz","key":"CountyName"}]},"MapReference":{"ReferenceId":"572463292","Spot":0.9,"SideOfStreet":"left","CountryId":"20128885","StateId":"20134876","CountyId":"20134877","CityId":"20134878","AddressId":"411939528","RoadLinkId":"29144146"}}},{"Relevance":1.0,"Distance":73.5,"MatchLevel":"houseNumber","MatchQuality":{"Country":1.0,"State":1.0,"County":1.0,"City":1.0,"District":1.0,"Street":[1.0],"HouseNumber":1.0,"PostalCode":1.0},"MatchType":"interpolated","Location":{"LocationId":"NT_sR1G88OuWCzL2l47.ErLKA_zMD","LocationType":"point","DisplayPosition":{"Latitude":47.07036,"Longitude":15.42391},"MapView":{"TopLeft":{"Latitude":47.0714842,"Longitude":15.4222595},"BottomRight":{"Latitude":47.0692358,"Longitude":15.4255605}},"Address":{"Label":"Niesenbergergasse 33, 8020 Graz, Österreich","Country":"AUT","State":"Steiermark","County":"Graz","City":"Graz","District":"Gries","Street":"Niesenbergergasse","HouseNumber":"33","PostalCode":"8020","AdditionalData":[{"value":"Österreich","key":"CountryName"},{"value":"Steiermark","key":"StateName"},{"value":"Graz","key":"CountyName"}]},"MapReference":{"ReferenceId":"572463378","Spot":0.85,"SideOfStreet":"right","CountryId":"20128885","StateId":"20134876","CountyId":"20134877","CityId":"20134878","AddressId":"161014701","RoadLinkId":"28915782"}}},{"Relevance":1.0,"Distance":96.9,"MatchLevel":"houseNumber","MatchQuality":{"Country":1.0,"State":1.0,"County":1.0,"City":1.0,"District":1.0,"Street":[1.0],"HouseNumber":1.0,"PostalCode":1.0},"MatchType":"interpolated","Location":{"LocationId":"NT_.FZX.i9nuos68shMlxYY9B_0UD","LocationType":"point","DisplayPosition":{"Latitude":47.07124,"Longitude":15.42436},"MapView":{"TopLeft":{"Latitude":47.0723642,"Longitude":15.4227095},"BottomRight":{"Latitude":47.0701158,"Longitude":15.4260105}},"Address":{"Label":"Annenstraße 45, 8020 Graz, Österreich","Country":"AUT","State":"Steiermark","County":"Graz","City":"Graz","District":"Gries","Street":"Annenstraße","HouseNumber":"45","PostalCode":"8020","AdditionalData":[{"value":"Österreich","key":"CountryName"},{"value":"Steiermark","key":"StateName"},{"value":"Graz","key":"CountyName"}]},"MapReference":{"ReferenceId":"572463276","Spot":0.14,"SideOfStreet":"left","CountryId":"20128885","StateId":"20134876","CountyId":"20134877","CityId":"20134878","AddressId":"160937131","RoadLinkId":"28143829"}}},{"Relevance":1.0,"Distance":116.2,"MatchLevel":"houseNumber","MatchQuality":{"Country":1.0,"State":1.0,"County":1.0,"City":1.0,"District":1.0,"Street":[1.0],"HouseNumber":1.0,"PostalCode":1.0},"MatchType":"interpolated","Location":{"LocationId":"NT_0bc4deoQfFj2CjSefwIU-C_l_572463275_R_yA","LocationType":"point","DisplayPosition":{"Latitude":47.071361,"Longitude":15.4247},"MapView":{"TopLeft":{"Latitude":47.0724852,"Longitude":15.4230495},"BottomRight":{"Latitude":47.0702369,"Longitude":15.4263505}},"Address":{"Label":"Hans-Resel-Gasse 2, 8020 Graz, Österreich","Country":"AUT","State":"Steiermark","County":"Graz","City":"Graz","District":"Lend","Street":"Hans-Resel-Gasse","HouseNumber":"2","PostalCode":"8020","AdditionalData":[{"value":"Österreich","key":"CountryName"},{"value":"Steiermark","key":"StateName"},{"value":"Graz","key":"CountyName"}]},"MapReference":{"ReferenceId":"572463275","Spot":0.48,"SideOfStreet":"right","CountryId":"20128885","StateId":"20134876","CountyId":"20134877","CityId":"20134878"}}},{"Relevance":1.0,"Distance":133.9,"MatchLevel":"houseNumber","MatchQuality":{"Country":1.0,"State":1.0,"County":1.0,"City":1.0,"District":1.0,"Street":[1.0],"HouseNumber":1.0,"PostalCode":1.0},"MatchType":"interpolated","Location":{"LocationId":"NT_pZhoNGLWf6L.gnP16RLVwB_xA","LocationType":"point","DisplayPosition":{"Latitude":47.07154,"Longitude":15.42422},"MapView":{"TopLeft":{"Latitude":47.0726642,"Longitude":15.4225695},"BottomRight":{"Latitude":47.0704158,"Longitude":15.4258705}},"Address":{"Label":"Metahofgasse 1, 8020 Graz, Österreich","Country":"AUT","State":"Steiermark","County":"Graz","City":"Graz","District":"Lend","Street":"Metahofgasse","HouseNumber":"1","PostalCode":"8020","AdditionalData":[{"value":"Österreich","key":"CountryName"},{"value":"Steiermark","key":"StateName"},{"value":"Graz","key":"CountyName"}]},"MapReference":{"ReferenceId":"836685692","Spot":0.03,"SideOfStreet":"left","CountryId":"20128885","StateId":"20134876","CountyId":"20134877","CityId":"20134878","AddressId":"161015300","RoadLinkId":"219896355"}}},{"Relevance":1.0,"Distance":136.6,"MatchLevel":"houseNumber","MatchQuality":{"Country":1.0,"State":1.0,"County":1.0,"City":1.0,"District":1.0,"Street":[1.0],"HouseNumber":1.0,"PostalCode":1.0},"MatchType":"interpolated","Location":{"LocationId":"NT_4GLEFw5-IdAoSNT2TB7vTD_xA","LocationType":"point","DisplayPosition":{"Latitude":47.07151,"Longitude":15.42445},"MapView":{"TopLeft":{"Latitude":47.0726342,"Longitude":15.4227995},"BottomRight":{"Latitude":47.0703858,"Longitude":15.4261005}},"Address":{"Label":"Esperantoplatz 1, 8020 Graz, Österreich","Country":"AUT","State":"Steiermark","County":"Graz","City":"Graz","District":"Lend","Street":"Esperantoplatz","HouseNumber":"1","PostalCode":"8020","AdditionalData":[{"value":"Österreich","key":"CountryName"},{"value":"Steiermark","key":"StateName"},{"value":"Graz","key":"CountyName"}]},"MapReference":{"ReferenceId":"572467639","Spot":0.63,"SideOfStreet":"right","CountryId":"20128885","StateId":"20134876","CountyId":"20134877","CityId":"20134878","AddressId":"162124981","RoadLinkId":"28941287"}}}]}]}}