{"Response":{"MetaInfo":{"Timestamp":"2020-03-28T10:15:18.767+0000","NextPageInformation":"2"},"View":[{"_type":"SearchResultsViewType","ViewId":0,"Result":[{"Relevance":1.0,"Distance":0.0,"Direction":0.0,"MatchLevel":"district","MatchQuality":{"Country":1.0,"State":1.0,"County":1.0,"City":1.0,"District":1.0,"PostalCode":1.0},"Location":{"LocationId":"NT_7LJTu2bKWkLcSBDYJnZwhD","LocationType":"point","DisplayPosition":{"Latitude":47.0702748,"Longitude":15.41596},"MapView":{"TopLeft":{"Latitude":47.07138,"Longitude":15.40929},"BottomRight":{"Latitude":47.0402,"Longitude":15.44309}},"Address":{"Label":"Gries, Graz, Steiermark, Österreich","Country":"AUT","State":"Steiermark","County":"Graz","City":"Graz","District":"Gries","PostalCode":"8020","AdditionalData":[{"value":"Österreich","key":"CountryName"},{"value":"Steiermark","key":"StateName"},{"value":"Graz","key":"CountyName"}]},"MapReference":{"ReferenceId":"572467755","SideOfStreet":"neither","CountryId":"20128885","StateId":"20134876","CountyId":"20134877","CityId":"20134878"}}},{"Relevance":1.0,"Distance":14.7,"MatchLevel":"houseNumber","MatchQuality":{"Country":1.0,"State":1.0,"County":1.0,"City":1.0,"District":1.0,"Street":[1.0],"HouseNumber":1.0,"PostalCode":1.0},"MatchType":"interpolated","Location":{"LocationId":"NT_U8lJykrRiDBOdlr2uWB9NA_3A","LocationType":"point","DisplayPosition":{"Latitude":47.07084,"Longitude":15.41569},"MapView":{"TopLeft":{"Latitude":47.0719642,"Longitude":15.4140395},"BottomRight":{"Latitude":47.0697158,"Longitude":15.4173405}},"Address":{"Label":"Eggenberger Straße 7, 8020 Graz, Österreich","Country":"AUT","State":"Steiermark","County":"Graz","City":"Graz","District":"Gries","Street":"Eggenberger Straße","HouseNumber":"7","PostalCode":"8020","AdditionalData":[{"value":"Österreich","key":"CountryName"},{"value":"Steiermark","key":"StateName"},{"value":"Graz","key":"CountyName"}]},"MapReference":{"ReferenceId":"572586672","Spot":0.79,"SideOfStreet":"right","CountryId":"20128885","StateId":"20134876","CountyId":"20134877","CityId":"20134878","AddressId":"160949791","RoadLinkId":"27860714"}}},{"Relevance":1.0,"Distance":17.7,"MatchLevel":"houseNumber","MatchQuality":{"Country":1.0,"State":1.0,"County":1.0,"City":1.0,"District":1.0,"Street":[1.0],"HouseNumber":1.0,"PostalCode":1.0},"MatchType":"interpolated","Location":{"LocationId":"NT_U8lJykrRiDBOdlr2uWB9NA_zA","LocationType":"point","DisplayPosition":{"Latitude":47.07086,"Longitude":15.41588},"MapView":{"TopLeft":{"Latitude":47.0719842,"Longitude":15.4142295},"BottomRight":{"Latitude":47.0697358,"Longitude":15.4175305}},"Address":{"Label":"Eggenberger Straße 3, 8020 Graz, Österreich","Country":"AUT","State":"Steiermark","County":"Graz","City":"Graz","District":"Gries","Street":"Eggenberger Straße","HouseNumber":"3","PostalCode":"8020","AdditionalData":[{"value":"Österreich","key":"CountryName"},{"value":"Steiermark","key":"StateName"},{"value":"Graz","key":"CountyName"}]},"MapReference":{"ReferenceId":"772052172","Spot":0.04,"SideOfStreet":"right","CountryId":"20128885","StateId":"20134876","CountyId":"20134877","CityId":"20134878","AddressId":"160949693","RoadLinkId":"165636619"}}},{"Relevance":1.0,"Distance":46.5,"MatchLevel":"houseNumber","MatchQuality":{"Country":1.0,"State":1.0,"County":1.0,"City":1.0,"District":1.0,"Street":[1.0],"HouseNumber":1.0,"PostalCode":1.0},"MatchType":"interpolated","Location":{"LocationId":"NT_Mm0lCqTe3nBDT97NvX5ueB_xA","LocationType":"point","DisplayPosition":{"Latitude":47.07027,"Longitude":15.41499},"MapView":{"TopLeft":{"Latitude":47.0713942,"Longitude":15.4133395},"BottomRight":{"Latitude":47.0691458,"Longitude":15.4166405}},"Address":{"Label":"Köflacher Gasse 1, 8020 Graz, Österreich","Country":"AUT","State":"Steiermark","County":"Graz","City":"Graz","District":"Gries","Street":"Köflacher Gasse","HouseNumber":"1","PostalCode":"8020","AdditionalData":[{"value":"Österreich","key":"CountryName"},{"value":"Steiermark","key":"StateName"},{"value":"Graz","key":"CountyName"}]},"MapReference":{"ReferenceId":"726165143","Spot":0.55,"SideOfStreet":"right","CountryId":"20128885","StateId":"20134876","CountyId":"20134877","CityId":"20134878","AddressId":"161015785","RoadLinkId":"129185761"}}},{"Relevance":1.0,"Distance":73.5,"MatchLevel":"landmark","MatchQuality":{"Country":1.0,"State":1.0,"County":1.0,"City":1.0,"PostalCode":1.0,"Name":1.0},"Location":{"LocationId":"NT_r50HBDrOtQ-NOV3eiWwW9D","LocationType":"industrialComplex","Name":"Siemens Werk Graz","DisplayPosition":{"Latitude":47.06952,"Longitude":15.41233},"MapView":{"TopLeft":{"Latitude":47.07076,"Longitude":15.40929},"BottomRight":{"Latitude":47.06828,"Longitude":15.41522}},"Address":{"Label":"8010 Graz, Österreich","Country":"AUT","State":"Steiermark","County":"Graz","City":"Graz","PostalCode":"8010","AdditionalData":[{"value":"Österreich","key":"CountryName"},{"value":"Steiermark","key":"StateName"},{"value":"Graz","key":"CountyName"}]},"MapReference":{"CountryId":"20128885","StateId":"20134876","CountyId":"20134877","CityId":"20134878","PlaceId":"51098433"}}},{"Relevance":1.0,"Distance":83.2,"MatchLevel":"houseNumber","MatchQuality":{"Country":1.0,"State":1.0,"County":1.0,"City":1.0,"District":1.0,"Street":[1.0],"HouseNumber":1.0,"PostalCode":1.0},"MatchType":"interpolated","Location":{"LocationId":"NT_U8lJykrRiDBOdlr2uWB9NA_xMD","LocationType":"point","DisplayPosition":{"Latitude":47.07077,"Longitude":15.41499},"MapView":{"TopLeft":{"Latitude":47.0718942,"Longitude":15.4133395},"BottomRight":{"Latitude":47.0696458,"Longitude":15.4166405}},"Address":{"Label":"Eggenberger Straße 13, 8020 Graz, Österreich","Country":"AUT","State":"Steiermark","County":"Graz","City":"Graz","District":"Gries","Street":"Eggenberger Straße","HouseNumber":"13","PostalCode":"8020","AdditionalData":[{"value":"Österreich","key":"CountryName"},{"value":"Steiermark","key":"StateName"},{"value":"Graz","key":"CountyName"}]},"MapReference":{"ReferenceId":"572586671","Spot":0.58,"SideOfStreet":"right","CountryId":"20128885","StateId":"20134876","CountyId":"20134877","CityId":"20134878","AddressId":"160949788","RoadLinkId":"28983887"}}},{"Relevance":1.0,"Distance":95.0,"MatchLevel":"street","MatchQuality":{"Country":1.0,"State":1.0,"County":1.0,"City":1.0,"District":1.0,"Street":[1.0],"PostalCode":1.0},"Location":{"LocationId":"NT_UmOlFaDIAacitxsCCjBl4D_l_772052173_R","LocationType":"point","DisplayPosition":{"Latitude":47.07097,"Longitude":15.41669},"MapView":{"TopLeft":{"Latitude":47.071,"Longitude":15.41669},"BottomRight":{"Latitude":47.07097,"Longitude":15.41691}},"Address":{"Label":"Eggenberger Straße, 8020 Graz, Österreich","Country":"AUT","State":"Steiermark","County":"Graz","City":"Graz","District":"Gries","Street":"Eggenberger Straße","PostalCode":"8020","AdditionalData":[{"value":"Österreich","key":"CountryName"},{"value":"Steiermark","key":"StateName"},{"value":"Graz","key":"CountyName"}]},"MapReference":{"ReferenceId":"772052173","Spot":0.0,"SideOfStreet":"right","CountryId":"20128885","StateId":"20134876","CountyId":"20134877","CityId":"20134878"}}},{"Relevance":1.0,"Distance":105.3,"MatchLevel":"houseNumber","MatchQuality":{"Country":1.0,"State":1.0,"County":1.0,"City":1.0,"District":1.0,"Street":[1.0],"HouseNumber":1.0,"PostalCode":1.0},"MatchType":"interpolated","Location":{"LocationId":"NT_3RQfkRLQvCRQI2qLVnvCFD_yA","LocationType":"point","DisplayPosition":{"Latitude":47.07093,"Longitude":15.41478},"MapView":{"TopLeft":{"Latitude":47.0720542,"Longitude":15.4131295},"BottomRight":{"Latitude":47.0698058,"Longitude":15.4164305}},"Address":{"Label":"Waagner-Biro-Straße 2, 8020 Graz, Österreich","Country":"AUT","State":"Steiermark","County":"Graz","City":"Graz","District":"Lend","Street":"Waagner-Biro-Straße","HouseNumber":"2","PostalCode":"8020","AdditionalData":[{"value":"Österreich","key":"CountryName"},{"value":"Steiermark","key":"StateName"},{"value":"Graz","key":"CountyName"}]},"MapReference":{"ReferenceId":"572463325","Spot":0.08,"SideOfStreet":"right","CountryId":"20128885","StateId":"20134876","CountyId":"20134877","CityId":"20134878","AddressId":"160952984","RoadLinkId":"27925212"}}},{"Relevance":1.0,"Distance":106.6,"MatchLevel":"houseNumber","MatchQuality":{"Country":1.0,"State":1.0,"County":1.0,"City":1.0,"District":1.0,"Street":[1.0],"HouseNumber":1.0,"PostalCode":1.0},"MatchType":"interpolated","Location":{"LocationId":"NT_Mm0lCqTe3nBDT97NvX5ueB_5A","LocationType":"point","DisplayPosition":{"Latitude":47.06934,"Longitude":15.41522},"MapView":{"TopLeft":{"Latitude":47.0704642,"Longitude":15.4135695},"BottomRight":{"Latitude":47.0682158,"Longitude":15.4168705}},"Address":{"Label":"Köflacher Gasse 9, 8020 Graz, Österreich","Country":"AUT","State":"Steiermark","County":"Graz","City":"Graz","District":"Gries","Street":"Köflacher Gasse","HouseNumber":"9","PostalCode":"8020","AdditionalData":[{"value":"Österreich","key":"CountryName"},{"value":"Steiermark","key":"StateName"},{"value":"Graz","key":"CountyName"}]},"MapReference":{"ReferenceId":"726165142","Spot":0.15,"SideOfStreet":"right","CountryId":"20128885","StateId":"20134876","CountyId":"20134877","CityId":"20134878","AddressId":"728593350","RoadLinkId":"129185760"}}},{"Relevance":1.0,"Distance":108.1,"MatchLevel":"street","MatchQuality":{"Country":1.0,"State":1.0,"County":1.0,"City":1.0,"District":1.0,"Street":[1.0],"PostalCode":1.0},"Location":{"LocationId":"NT_UmOlFaDIAacitxsCCjBl4D_l_572467733_R","LocationType":"point","DisplayPosition":{"Latitude":47.071,"Longitude":15.41691},"MapView":{"TopLeft":{"Latitude":47.07106,"Longitude":15.41691},"BottomRight":{"Latitude":47.071,"Longitude":15.41733}},"Address":{"Label":"Eggenberger Straße, 8020 Graz, Österreich","Country":"AUT","State":"Steiermark","County":"Graz","City":"Graz","District":"Gries","Street":"Eggenberger Straße","PostalCode":"8020","AdditionalData":[{"value":"Österreich","key":"CountryName"},{"value":"Steiermark","key":"StateName"},{"value":"Graz","key":"CountyName"}]},"MapReference":{"ReferenceId":"572467733","Spot":0.0,"SideOfStreet":"right","CountryId":"20128885","StateId":"20134876","CountyId":"20134877","CityId":"20134878"}}}]}]}}