{"Response":{"MetaInfo":{"Timestamp":"2020-03-28T10:43:02.475+0000","NextPageInformation":"2"},"View":[{"_type":"SearchResultsViewType","ViewId":0,"Result":[{"Relevance":1.0,"Distance":0.0,"Direction":0.0,"MatchLevel":"district","MatchQuality":{"Country":1.0,"State":1.0,"County":1.0,"City":1.0,"District":1.0,"PostalCode":1.0},"Location":{"LocationId":"NT_GUWAeSJiSaE.cWdw52lCuC","LocationType":"point","DisplayPosition":{"Latitude":47.0291236,"Longitude":20.9648592},"MapView":{"TopLeft":{"Latitude":47.04471,"Longitude":20.93407},"BottomRight":{"Latitude":47.01805,"Longitude":20.98818}},"Address":{"Label":"Dévaványa, Békés, Magyarország","Country":"HUN","State":"Békés","County":"Gyomaendrődi Járás","City":"Dévaványa","District":"Dévaványa","PostalCode":"5510","AdditionalData":[{"value":"Magyarország","key":"CountryName"},{"value":"Békés","key":"StateName"},{"value":"Gyomaendrődi Járás","key":"CountyName"}]},"MapReference":{"ReferenceId":"708770393","SideOfStreet":"neither","CountryId":"20613038","StateId":"20613985","CountyId":"26677883","CityId":"22699564","DistrictId":"26677950"}}},{"Relevance":1.0,"Distance":4.7,"MatchLevel":"houseNumber","MatchQuality":{"Country":1.0,"State":1.0,"County":1.0,"City":1.0,"District":1.0,"Street":[1.0],"HouseNumber":1.0,"PostalCode":1.0},"MatchType":"interpolated","Location":{"LocationId":"NT_AZps7Ib.G.4aOFKBd3RN7A_xA","LocationType":"point","DisplayPosition":{"Latitude":47.0291,"Longitude":20.96515},"MapView":{"TopLeft":{"Latitude":47.0302242,"Longitude":20.9635008},"BottomRight":{"Latitude":47.0279758,"Longitude":20.9667992}},"Address":{"Label":"Eötvös utca 1, Dévaványa 5510, Magyarország","Country":"HUN","State":"Békés","County":"Gyomaendrődi Járás","City":"Dévaványa","District":"Dévaványa","Street":"Eötvös utca","HouseNumber":"1","PostalCode":"5510","AdditionalData":[{"value":"Magyarország","key":"CountryName"},{"value":"Békés","key":"StateName"},{"value":"Gyomaendrődi Járás","key":"CountyName"}]},"MapReference":{"ReferenceId":"1234267108","Spot":0.28,"SideOfStreet":"left","CountryId":"20613038","StateId":"20613985","CountyId":"26677883","CityId":"22699564","DistrictId":"26677950","AddressId":"355416319","RoadLinkId":"554617088"}}},{"Relevance":1.0,"Distance":26.5,"MatchLevel":"houseNumber","MatchQuality":{"Country":1.0,"State":1.0,"County":1.0,"City":1.0,"District":1.0,"Street":[1.0],"HouseNumber":1.0,"PostalCode":1.0},"MatchType":"interpolated","Location":{"LocationId":"NT_sgrY8EIuddY-L7Vkt20itD_5A","LocationType":"point","DisplayPosition":{"Latitude":47.02875,"Longitude":20.96497},"MapView":{"TopLeft":{"Latitude":47.0298742,"Longitude":20.9633208},"BottomRight":{"Latitude":47.0276258,"Longitude":20.9666192}},"Address":{"Label":"Széchenyi utca 9, Dévaványa 5510, Magyarország","Country":"HUN","State":"Békés","County":"Gyomaendrődi Járás","City":"Dévaványa","District":"Dévaványa","Street":"Széchenyi utca","HouseNumber":"9","PostalCode":"5510","AdditionalData":[{"value":"Magyarország","key":"CountryName"},{"value":"Békés","key":"StateName"},{"value":"Gyomaendrődi Járás","key":"CountyName"}]},"MapReference":{"ReferenceId":"708770373","Spot":0.86,"SideOfStreet":"left","CountryId":"20613038","StateId":"20613985","CountyId":"26677883","CityId":"22699564","DistrictId":"26677950","AddressId":"355215256","RoadLinkId":"114051714"}}},{"Relevance":1.0,"Distance":60.7,"MatchLevel":"houseNumber","MatchQuality":{"Country":1.0,"State":1.0,"County":1.0,"City":1.0,"District":1.0,"Street":[1.0],"HouseNumber":1.0,"PostalCode":1.0},"MatchType":"interpolated","Location":{"LocationId":"NT_sgrY8EIuddY-L7Vkt20itD_xED","LocationType":"point","DisplayPosition":{"Latitude":47.02893,"Longitude":20.96571},"MapView":{"TopLeft":{"Latitude":47.0300542,"Longitude":20.9640608},"BottomRight":{"Latitude":47.0278058,"Longitude":20.9673592}},"Address":{"Label":"Széchenyi utca 11, Dévaványa 5510, Magyarország","Country":"HUN","State":"Békés","County":"Gyomaendrődi Járás","City":"Dévaványa","District":"Dévaványa","Street":"Széchenyi utca","HouseNumber":"11","PostalCode":"5510","AdditionalData":[{"value":"Magyarország","key":"CountryName"},{"value":"Békés","key":"StateName"},{"value":"Gyomaendrődi Járás","key":"CountyName"}]},"MapReference":{"ReferenceId":"1234243783","Spot":0.62,"SideOfStreet":"left","CountryId":"20613038","StateId":"20613985","CountyId":"26677883","CityId":"22699564","DistrictId":"26677950","AddressId":"356671292","RoadLinkId":"554592655"}}},{"Relevance":1.0,"Distance":75.0,"MatchLevel":"houseNumber","MatchQuality":{"Country":1.0,"State":1.0,"County":1.0,"City":1.0,"District":1.0,"Street":[1.0],"HouseNumber":1.0,"PostalCode":1.0},"MatchType":"interpolated","Location":{"LocationId":"NT_cEuFDlqV.RIwtzWqK13R-C_yA","LocationType":"point","DisplayPosition":{"Latitude":47.02852,"Longitude":20.9653},"MapView":{"TopLeft":{"Latitude":47.0296442,"Longitude":20.9636508},"BottomRight":{"Latitude":47.0273958,"Longitude":20.9669492}},"Address":{"Label":"Kör utca 2, Dévaványa 5510, Magyarország","Country":"HUN","State":"Békés","County":"Gyomaendrődi Járás","City":"Dévaványa","District":"Dévaványa","Street":"Kör utca","HouseNumber":"2","PostalCode":"5510","AdditionalData":[{"value":"Magyarország","key":"CountryName"},{"value":"Békés","key":"StateName"},{"value":"Gyomaendrődi Járás","key":"CountyName"}]},"MapReference":{"ReferenceId":"708770384","Spot":0.57,"SideOfStreet":"left","CountryId":"20613038","StateId":"20613985","CountyId":"26677883","CityId":"22699564","DistrictId":"26677950","AddressId":"356206958","RoadLinkId":"114051727"}}},{"Relevance":1.0,"Distance":80.9,"MatchLevel":"houseNumber","MatchQuality":{"Country":1.0,"State":1.0,"County":1.0,"City":1.0,"District":1.0,"Street":[1.0],"HouseNumber":1.0,"PostalCode":1.0},"MatchType":"interpolated","Location":{"LocationId":"NT_pJn9NHTE1INdE77LylaOdB_yA","LocationType":"point","DisplayPosition":{"Latitude":47.02877,"Longitude":20.96372},"MapView":{"TopLeft":{"Latitude":47.0298942,"Longitude":20.9620708},"BottomRight":{"Latitude":47.0276458,"Longitude":20.9653692}},"Address":{"Label":"Tompa utca 2, Dévaványa 5510, Magyarország","Country":"HUN","State":"Békés","County":"Gyomaendrődi Járás","City":"Dévaványa","District":"Dévaványa","Street":"Tompa utca","HouseNumber":"2","PostalCode":"5510","AdditionalData":[{"value":"Magyarország","key":"CountryName"},{"value":"Békés","key":"StateName"},{"value":"Gyomaendrődi Járás","key":"CountyName"}]},"MapReference":{"ReferenceId":"708770374","Spot":0.1,"SideOfStreet":"right","CountryId":"20613038","StateId":"20613985","CountyId":"26677883","CityId":"22699564","DistrictId":"26677950","AddressId":"357365760","RoadLinkId":"114051715"}}},{"Relevance":1.0,"Distance":94.0,"MatchLevel":"houseNumber","MatchQuality":{"Country":1.0,"State":1.0,"County":1.0,"City":1.0,"District":1.0,"Street":[1.0],"HouseNumber":1.0,"PostalCode":1.0},"MatchType":"interpolated","Location":{"LocationId":"NT_snLeQD4JnvgZguc0liYlnC_xA","LocationType":"point","DisplayPosition":{"Latitude":47.02937,"Longitude":20.96629},"MapView":{"TopLeft":{"Latitude":47.0304942,"Longitude":20.9646408},"BottomRight":{"Latitude":47.0282458,"Longitude":20.9679392}},"Address":{"Label":"Dobó utca 1, Dévaványa 5510, Magyarország","Country":"HUN","State":"Békés","County":"Gyomaendrődi Járás","City":"Dévaványa","District":"Dévaványa","Street":"Dobó utca","HouseNumber":"1","PostalCode":"5510","AdditionalData":[{"value":"Magyarország","key":"CountryName"},{"value":"Békés","key":"StateName"},{"value":"Gyomaendrődi Járás","key":"CountyName"}]},"MapReference":{"ReferenceId":"708770349","Spot":0.09,"SideOfStreet":"left","CountryId":"20613038","StateId":"20613985","CountyId":"26677883","CityId":"22699564","DistrictId":"26677950","AddressId":"355048771","RoadLinkId":"114051687"}}},{"Relevance":1.0,"Distance":99.6,"MatchLevel":"houseNumber","MatchQuality":{"Country":1.0,"State":1.0,"County":1.0,"City":1.0,"District":1.0,"Street":[1.0],"HouseNumber":1.0,"PostalCode":1.0},"MatchType":"interpolated","Location":{"LocationId":"NT_sgrY8EIuddY-L7Vkt20itD_xQD","LocationType":"point","DisplayPosition":{"Latitude":47.02906,"Longitude":20.96617},"MapView":{"TopLeft":{"Latitude":47.0301842,"Longitude":20.9645208},"BottomRight":{"Latitude":47.0279358,"Longitude":20.9678192}},"Address":{"Label":"Széchenyi utca 14, Dévaványa 5510, Magyarország","Country":"HUN","State":"Békés","County":"Gyomaendrődi Járás","City":"Dévaványa","District":"Dévaványa","Street":"Széchenyi utca","HouseNumber":"14","PostalCode":"5510","AdditionalData":[{"value":"Magyarország","key":"CountryName"},{"value":"Békés","key":"StateName"},{"value":"Gyomaendrődi Járás","key":"CountyName"}]},"MapReference":{"ReferenceId":"1234243784","Spot":0.47,"SideOfStreet":"right","CountryId":"20613038","StateId":"20613985","CountyId":"26677883","CityId":"22699564","DistrictId":"26677950","AddressId":"356671290","RoadLinkId":"554592656"}}},{"Relevance":1.0,"Distance":104.2,"MatchLevel":"houseNumber","MatchQuality":{"Country":1.0,"State":1.0,"County":1.0,"City":1.0,"District":1.0,"Street":[1.0],"HouseNumber":1.0,"PostalCode":1.0},"MatchType":"interpolated","Location":{"LocationId":"NT_AZps7Ib.G.4aOFKBd3RN7A_5A","LocationType":"point","DisplayPosition":{"Latitude":47.03005,"Longitude":20.96513},"MapView":{"TopLeft":{"Latitude":47.0311742,"Longitude":20.9634808},"BottomRight":{"Latitude":47.0289258,"Longitude":20.9667792}},"Address":{"Label":"Eötvös utca 9, Dévaványa 5510, Magyarország","Country":"HUN","State":"Békés","County":"Gyomaendrődi Járás","City":"Dévaványa","District":"Dévaványa","Street":"Eötvös utca","HouseNumber":"9","PostalCode":"5510","AdditionalData":[{"value":"Magyarország","key":"CountryName"},{"value":"Békés","key":"StateName"},{"value":"Gyomaendrődi Járás","key":"CountyName"}]},"MapReference":{"ReferenceId":"1234267109","Spot":0.06,"SideOfStreet":"left","CountryId":"20613038","StateId":"20613985","CountyId":"26677883","CityId":"22699564","DistrictId":"26677950","AddressId":"355416311","RoadLinkId":"554617089"}}},{"Relevance":1.0,"Distance":106.2,"MatchLevel":"street","MatchQuality":{"Country":1.0,"State":1.0,"County":1.0,"City":1.0,"District":1.0,"Street":[1.0],"PostalCode":1.0},"Location":{"LocationId":"NT_QiFi3A4KuZy7s3Jpb2-GCC_l_708770406_L","LocationType":"point","DisplayPosition":{"Latitude":47.02834,"Longitude":20.96566},"MapView":{"TopLeft":{"Latitude":47.02834,"Longitude":20.96566},"BottomRight":{"Latitude":47.02791,"Longitude":20.96588}},"Address":{"Label":"Sirály utca, Dévaványa 5510, Magyarország","Country":"HUN","State":"Békés","County":"Gyomaendrődi Járás","City":"Dévaványa","District":"Dévaványa","Street":"Sirály utca","PostalCode":"5510","AdditionalData":[{"value":"Magyarország","key":"CountryName"},{"value":"Békés","key":"StateName"},{"value":"Gyomaendrődi Járás","key":"CountyName"}]},"MapReference":{"ReferenceId":"708770406","Spot":1.0,"SideOfStreet":"left","CountryId":"20613038","StateId":"20613985","CountyId":"26677883","CityId":"22699564","DistrictId":"26677950"}}}]}]}}