{"Response":{"MetaInfo":{"Timestamp":"2020-03-28T09:33:33.958+0000","NextPageInformation":"2"},"View":[{"_type":"SearchResultsViewType","ViewId":0,"Result":[{"Relevance":1.0,"Distance":0.0,"Direction":0.0,"MatchLevel":"district","MatchQuality":{"Country":1.0,"State":1.0,"County":1.0,"City":1.0,"District":1.0,"PostalCode":1.0},"Location":{"LocationId":"NT_CwIJVoj4S7SAAaJD3D4zCB","LocationType":"point","DisplayPosition":{"Latitude":47.0684512,"Longitude":15.5886571},"MapView":{"TopLeft":{"Latitude":47.08377,"Longitude":15.57504},"BottomRight":{"Latitude":47.06489,"Longitude":15.59758}},"Address":{"Label":"Laßnitzhöhe, Steiermark, Österreich","Country":"AUT","State":"Steiermark","County":"Graz-Umgebung","City":"Laßnitzhöhe","District":"Laßnitzhöhe","PostalCode":"8301","AdditionalData":[{"value":"Österreich","key":"CountryName"},{"value":"Steiermark","key":"StateName"},{"value":"Graz-Umgebung","key":"CountyName"}]},"MapReference":{"ReferenceId":"572480586","SideOfStreet":"neither","CountryId":"20128885","StateId":"20134876","CountyId":"20135352","CityId":"20135452","DistrictId":"20135454"}}},{"Relevance":1.0,"Distance":20.4,"MatchLevel":"houseNumber","MatchQuality":{"Country":1.0,"State":1.0,"County":1.0,"City":1.0,"District":1.0,"Street":[1.0],"HouseNumber":1.0,"PostalCode":1.0},"MatchType":"interpolated","Location":{"LocationId":"NT_5aJDz5zGr9XRzPlBeNPocC_l_572449865_R_xMTO","LocationType":"point","DisplayPosition":{"Latitude":47.0683211,"Longitude":15.5883353},"MapView":{"TopLeft":{"Latitude":47.0694453,"Longitude":15.5866849},"BottomRight":{"Latitude":47.067197,"Longitude":15.5899857}},"Address":{"Label":"Hauptstraße 139, 8301 Laßnitzhöhe, Österreich","Country":"AUT","State":"Steiermark","County":"Graz-Umgebung","City":"Laßnitzhöhe","District":"Laßnitzhöhe","Street":"Hauptstraße","HouseNumber":"139","PostalCode":"8301","AdditionalData":[{"value":"Österreich","key":"CountryName"},{"value":"Steiermark","key":"StateName"},{"value":"Graz-Umgebung","key":"CountyName"}]},"MapReference":{"ReferenceId":"572449865","Spot":0.49,"SideOfStreet":"right","CountryId":"20128885","StateId":"20134876","CountyId":"20135352","CityId":"20135452","DistrictId":"20135454"}}},{"Relevance":1.0,"Distance":23.3,"MatchLevel":"houseNumber","MatchQuality":{"Country":1.0,"State":1.0,"County":1.0,"City":1.0,"District":1.0,"Street":[1.0],"HouseNumber":1.0,"PostalCode":1.0},"MatchType":"interpolated","Location":{"LocationId":"NT_606ccBTb1nfQWeIofgZC7B_l_572491038_L_xQDM","LocationType":"point","DisplayPosition":{"Latitude":47.06824,"Longitude":15.5890408},"MapView":{"TopLeft":{"Latitude":47.0693641,"Longitude":15.5873903},"BottomRight":{"Latitude":47.0671158,"Longitude":15.5906912}},"Address":{"Label":"Pfrimerweg 140, 8301 Laßnitzhöhe, Österreich","Country":"AUT","State":"Steiermark","County":"Graz-Umgebung","City":"Laßnitzhöhe","District":"Laßnitzhöhe","Street":"Pfrimerweg","HouseNumber":"140","PostalCode":"8301","AdditionalData":[{"value":"Österreich","key":"CountryName"},{"value":"Steiermark","key":"StateName"},{"value":"Graz-Umgebung","key":"CountyName"}]},"MapReference":{"ReferenceId":"572491038","Spot":0.52,"SideOfStreet":"left","CountryId":"20128885","StateId":"20134876","CountyId":"20135352","CityId":"20135452","DistrictId":"20135454"}}},{"Relevance":1.0,"Distance":23.5,"MatchLevel":"houseNumber","MatchQuality":{"Country":1.0,"State":1.0,"County":1.0,"City":1.0,"District":1.0,"Street":[1.0],"HouseNumber":1.0,"PostalCode":1.0},"MatchType":"interpolated","Location":{"LocationId":"NT_1QUCESe9Z6RxDcMrwrs-EB_xQDM","LocationType":"point","DisplayPosition":{"Latitude":47.06825,"Longitude":15.58846},"MapView":{"TopLeft":{"Latitude":47.0693742,"Longitude":15.5868096},"BottomRight":{"Latitude":47.0671258,"Longitude":15.5901104}},"Address":{"Label":"Hauptstraße 140, 8301 Laßnitzhöhe, Österreich","Country":"AUT","State":"Steiermark","County":"Graz-Umgebung","City":"Laßnitzhöhe","District":"Laßnitzhöhe","Street":"Hauptstraße","HouseNumber":"140","PostalCode":"8301","AdditionalData":[{"value":"Österreich","key":"CountryName"},{"value":"Steiermark","key":"StateName"},{"value":"Graz-Umgebung","key":"CountyName"}]},"MapReference":{"ReferenceId":"880075650","Spot":0.41,"SideOfStreet":"right","CountryId":"20128885","StateId":"20134876","CountyId":"20135352","CityId":"20135452","DistrictId":"20135454","AddressId":"161000237","RoadLinkId":"248767472"}}},{"Relevance":1.0,"Distance":37.7,"MatchLevel":"street","MatchQuality":{"Country":1.0,"State":1.0,"County":1.0,"City":1.0,"District":1.0,"PostalCode":1.0},"Location":{"LocationId":"NT_j4g43NJ9DhkeR3xL9MVTyB_l_880075649_R","LocationType":"point","DisplayPosition":{"Latitude":47.06879,"Longitude":15.58865},"MapView":{"TopLeft":{"Latitude":47.06931,"Longitude":15.58865},"BottomRight":{"Latitude":47.06879,"Longitude":15.5892}},"Address":{"Label":"8301 Laßnitzhöhe, Österreich","Country":"AUT","State":"Steiermark","County":"Graz-Umgebung","City":"Laßnitzhöhe","District":"Laßnitzhöhe","PostalCode":"8301","AdditionalData":[{"value":"Österreich","key":"CountryName"},{"value":"Steiermark","key":"StateName"},{"value":"Graz-Umgebung","key":"CountyName"}]},"MapReference":{"ReferenceId":"880075649","Spot":0.0,"SideOfStreet":"right","CountryId":"20128885","StateId":"20134876","CountyId":"20135352","CityId":"20135452","DistrictId":"20135454"}}},{"Relevance":1.0,"Distance":37.7,"MatchLevel":"street","MatchQuality":{"Country":1.0,"State":1.0,"County":1.0,"City":1.0,"District":1.0,"PostalCode":1.0},"Location":{"LocationId":"NT_j4g43NJ9DhkeR3xL9MVTyB_l_880075648_L","LocationType":"point","DisplayPosition":{"Latitude":47.06879,"Longitude":15.58865},"MapView":{"TopLeft":{"Latitude":47.0688,"Longitude":15.58844},"BottomRight":{"Latitude":47.06879,"Longitude":15.58865}},"Address":{"Label":"8301 Laßnitzhöhe, Österreich","Country":"AUT","State":"Steiermark","County":"Graz-Umgebung","City":"Laßnitzhöhe","District":"Laßnitzhöhe","PostalCode":"8301","AdditionalData":[{"value":"Österreich","key":"CountryName"},{"value":"Steiermark","key":"StateName"},{"value":"Graz-Umgebung","key":"CountyName"}]},"MapReference":{"ReferenceId":"880075648","Spot":0.0,"SideOfStreet":"left","CountryId":"20128885","StateId":"20134876","CountyId":"20135352","CityId":"20135452","DistrictId":"20135454"}}},{"Relevance":1.0,"Distance":42.1,"MatchLevel":"houseNumber","MatchQuality":{"Country":1.0,"State":1.0,"County":1.0,"City":1.0,"District":1.0,"Street":[1.0],"HouseNumber":1.0,"PostalCode":1.0},"MatchType":"interpolated","Location":{"LocationId":"NT_1QUCESe9Z6RxDcMrwrs-EB_xMzNhB","LocationType":"point","DisplayPosition":{"Latitude":47.0688,"Longitude":15.58844},"MapView":{"TopLeft":{"Latitude":47.0699242,"Longitude":15.5867896},"BottomRight":{"Latitude":47.0676758,"Longitude":15.5900904}},"Address":{"Label":"Hauptstraße 137a, 8301 Laßnitzhöhe, Österreich","Country":"AUT","State":"Steiermark","County":"Graz-Umgebung","City":"Laßnitzhöhe","District":"Laßnitzhöhe","Street":"Hauptstraße","HouseNumber":"137a","PostalCode":"8301","AdditionalData":[{"value":"Österreich","key":"CountryName"},{"value":"Steiermark","key":"StateName"},{"value":"Graz-Umgebung","key":"CountyName"}]},"MapReference":{"ReferenceId":"572449866","Spot":0.0,"SideOfStreet":"left","CountryId":"20128885","StateId":"20134876","CountyId":"20135352","CityId":"20135452","DistrictId":"20135454","AddressId":"176925094","RoadLinkId":"28334220"}}},{"Relevance":1.0,"Distance":65.5,"MatchLevel":"street","MatchQuality":{"Country":1.0,"State":1.0,"County":1.0,"City":1.0,"PostalCode":1.0},"Location":{"LocationId":"NT_XS6VYfukUkC3GMZpl2hO0D_l_572449863_R","LocationType":"point","DisplayPosition":{"Latitude":47.06883,"Longitude":15.58932},"MapView":{"TopLeft":{"Latitude":47.06891,"Longitude":15.58932},"BottomRight":{"Latitude":47.06883,"Longitude":15.58976}},"Address":{"Label":"8301 Laßnitzhöhe, Österreich","Country":"AUT","State":"Steiermark","County":"Graz-Umgebung","City":"Laßnitzhöhe","PostalCode":"8301","AdditionalData":[{"value":"Österreich","key":"CountryName"},{"value":"Steiermark","key":"StateName"},{"value":"Graz-Umgebung","key":"CountyName"}]},"MapReference":{"ReferenceId":"572449863","Spot":0.0,"SideOfStreet":"right","CountryId":"20128885","StateId":"20134876","CountyId":"20135352","CityId":"20135452"}}},{"Relevance":1.0,"Distance":69.2,"MatchLevel":"street","MatchQuality":{"Country":1.0,"State":1.0,"County":1.0,"City":1.0,"District":1.0,"Street":[1.0],"PostalCode":1.0},"Location":{"LocationId":"NT_606ccBTb1nfQWeIofgZC7B_l_880075647_R","LocationType":"point","DisplayPosition":{"Latitude":47.0678302,"Longitude":15.588598},"MapView":{"TopLeft":{"Latitude":47.06785,"Longitude":15.58839},"BottomRight":{"Latitude":47.06783,"Longitude":15.5886}},"Address":{"Label":"Pfrimerweg, 8301 Laßnitzhöhe, Österreich","Country":"AUT","State":"Steiermark","County":"Graz-Umgebung","City":"Laßnitzhöhe","District":"Laßnitzhöhe","Street":"Pfrimerweg","PostalCode":"8301","AdditionalData":[{"value":"Österreich","key":"CountryName"},{"value":"Steiermark","key":"StateName"},{"value":"Graz-Umgebung","key":"CountyName"}]},"MapReference":{"ReferenceId":"880075647","Spot":0.01,"SideOfStreet":"right","CountryId":"20128885","StateId":"20134876","CountyId":"20135352","CityId":"20135452","DistrictId":"20135454"}}},{"Relevance":1.0,"Distance":69.8,"MatchLevel":"street","MatchQuality":{"Country":1.0,"State":1.0,"County":1.0,"City":1.0,"District":1.0,"Street":[1.0],"PostalCode":1.0},"Location":{"LocationId":"NT_606ccBTb1nfQWeIofgZC7B_l_880075646_L","LocationType":"point","DisplayPosition":{"Latitude":47.06785,"Longitude":15.58839},"MapView":{"TopLeft":{"Latitude":47.06785,"Longitude":15.58827},"BottomRight":{"Latitude":47.06785,"Longitude":15.58839}},"Address":{"Label":"Pfrimerweg, 8301 Laßnitzhöhe, Österreich","Country":"AUT","State":"Steiermark","County":"Graz-Umgebung","City":"Laßnitzhöhe","District":"Laßnitzhöhe","Street":"Pfrimerweg","PostalCode":"8301","AdditionalData":[{"value":"Österreich","key":"CountryName"},{"value":"Steiermark","key":"StateName"},{"value":"Graz-Umgebung","key":"CountyName"}]},"MapReference":{"ReferenceId":"880075646","Spot":1.0,"SideOfStreet":"left","CountryId":"20128885","StateId":"20134876","CountyId":"20135352","CityId":"20135452","DistrictId":"20135454"}}}]}]}}