{"Response":{"MetaInfo":{"Timestamp":"2020-03-28T11:37:27.058+0000","NextPageInformation":"2"},"View":[{"_type":"SearchResultsViewType","ViewId":0,"Result":[{"Relevance":1.0,"Distance":0.0,"Direction":0.0,"MatchLevel":"district","MatchQuality":{"Country":1.0,"State":1.0,"County":1.0,"City":1.0,"District":1.0,"PostalCode":1.0},"Location":{"LocationId":"NT_TDI2I08G8Rrz5SRZevFYuD","LocationType":"point","DisplayPosition":{"Latitude":47.0444352,"Longitude":15.4493451},"MapView":{"TopLeft":{"Latitude":47.04885,"Longitude":15.44258},"BottomRight":{"Latitude":47.01229,"Longitude":15.4889}},"Address":{"Label":"Liebenau, Graz, Steiermark, Österreich","Country":"AUT","State":"Steiermark","County":"Graz","City":"Graz","District":"Liebenau","PostalCode":"8041","AdditionalData":[{"value":"Österreich","key":"CountryName"},{"value":"Steiermark","key":"StateName"},{"value":"Graz","key":"CountyName"}]},"MapReference":{"ReferenceId":"833924722","SideOfStreet":"neither","CountryId":"20128885","StateId":"20134876","CountyId":"20134877","CityId":"20134878"}}},{"Relevance":1.0,"Distance":12.2,"MatchLevel":"houseNumber","MatchQuality":{"Country":1.0,"State":1.0,"County":1.0,"City":1.0,"District":1.0,"Street":[1.0],"HouseNumber":1.0,"PostalCode":1.0},"MatchType":"interpolated","Location":{"LocationId":"NT_5e6NZYxBVqKCY4MlULx0PA_yA","LocationType":"point","DisplayPosition":{"Latitude":47.04435,"Longitude":15.44945},"MapView":{"TopLeft":{"Latitude":47.0454742,"Longitude":15.4478003},"BottomRight":{"Latitude":47.0432258,"Longitude":15.4510997}},"Address":{"Label":"Ziehrerstraße 2, 8041 Graz, Österreich","Country":"AUT","State":"Steiermark","County":"Graz","City":"Graz","District":"Liebenau","Street":"Ziehrerstraße","HouseNumber":"2","PostalCode":"8041","AdditionalData":[{"value":"Österreich","key":"CountryName"},{"value":"Steiermark","key":"StateName"},{"value":"Graz","key":"CountyName"}]},"MapReference":{"ReferenceId":"746143302","Spot":0.43,"SideOfStreet":"left","CountryId":"20128885","StateId":"20134876","CountyId":"20134877","CityId":"20134878","AddressId":"160957869","RoadLinkId":"143633173"}}},{"Relevance":1.0,"Distance":13.9,"MatchLevel":"street","MatchQuality":{"Country":1.0,"State":1.0,"County":1.0,"City":1.0,"District":1.0,"Street":[1.0],"PostalCode":1.0},"Location":{"LocationId":"NT_aV10Wc1SMi0SIUBsjIRCsD_l_572468991_R","LocationType":"point","DisplayPosition":{"Latitude":47.0445586,"Longitude":15.4493143},"MapView":{"TopLeft":{"Latitude":47.04457,"Longitude":15.44903},"BottomRight":{"Latitude":47.04452,"Longitude":15.44936}},"Address":{"Label":"Eduard-Keil-Gasse, 8041 Graz, Österreich","Country":"AUT","State":"Steiermark","County":"Graz","City":"Graz","District":"Liebenau","Street":"Eduard-Keil-Gasse","PostalCode":"8041","AdditionalData":[{"value":"Österreich","key":"CountryName"},{"value":"Steiermark","key":"StateName"},{"value":"Graz","key":"CountyName"}]},"MapReference":{"ReferenceId":"572468991","Spot":0.86,"SideOfStreet":"right","CountryId":"20128885","StateId":"20134876","CountyId":"20134877","CityId":"20134878"}}},{"Relevance":1.0,"Distance":15.0,"MatchLevel":"street","MatchQuality":{"Country":1.0,"State":1.0,"County":1.0,"City":1.0,"District":1.0,"Street":[1.0],"PostalCode":1.0},"Location":{"LocationId":"NT_Jv3JKzAphz4HO0k.ZpT1DC_l_895302848_L","LocationType":"point","DisplayPosition":{"Latitude":47.04457,"Longitude":15.44936},"MapView":{"TopLeft":{"Latitude":47.04471,"Longitude":15.4493},"BottomRight":{"Latitude":47.04457,"Longitude":15.44936}},"Address":{"Label":"Kasernstraße, 8041 Graz, Österreich","Country":"AUT","State":"Steiermark","County":"Graz","City":"Graz","District":"Liebenau","Street":"Kasernstraße","PostalCode":"8041","AdditionalData":[{"value":"Österreich","key":"CountryName"},{"value":"Steiermark","key":"StateName"},{"value":"Graz","key":"CountyName"}]},"MapReference":{"ReferenceId":"895302848","Spot":0.0,"SideOfStreet":"left","CountryId":"20128885","StateId":"20134876","CountyId":"20134877","CityId":"20134878"}}},{"Relevance":1.0,"Distance":25.7,"MatchLevel":"street","MatchQuality":{"Country":1.0,"State":1.0,"County":1.0,"City":1.0,"District":1.0,"Street":[1.0],"PostalCode":1.0},"Location":{"LocationId":"NT_aV10Wc1SMi0SIUBsjIRCsD_l_572468992_R","LocationType":"point","DisplayPosition":{"Latitude":47.04452,"Longitude":15.44903},"MapView":{"TopLeft":{"Latitude":47.04452,"Longitude":15.44851},"BottomRight":{"Latitude":47.0445,"Longitude":15.44903}},"Address":{"Label":"Eduard-Keil-Gasse, 8041 Graz, Österreich","Country":"AUT","State":"Steiermark","County":"Graz","City":"Graz","District":"Liebenau","Street":"Eduard-Keil-Gasse","PostalCode":"8041","AdditionalData":[{"value":"Österreich","key":"CountryName"},{"value":"Steiermark","key":"StateName"},{"value":"Graz","key":"CountyName"}]},"MapReference":{"ReferenceId":"572468992","Spot":1.0,"SideOfStreet":"right","CountryId":"20128885","StateId":"20134876","CountyId":"20134877","CityId":"20134878"}}},{"Relevance":1.0,"Distance":29.0,"MatchLevel":"houseNumber","MatchQuality":{"Country":1.0,"State":1.0,"County":1.0,"City":1.0,"District":1.0,"Street":[1.0],"HouseNumber":1.0,"PostalCode":1.0},"MatchType":"interpolated","Location":{"LocationId":"NT_aV10Wc1SMi0SIUBsjIRCsD_ycD","LocationType":"point","DisplayPosition":{"Latitude":47.04466,"Longitude":15.44954},"MapView":{"TopLeft":{"Latitude":47.0457842,"Longitude":15.4478903},"BottomRight":{"Latitude":47.0435358,"Longitude":15.4511897}},"Address":{"Label":"Eduard-Keil-Gasse 27, 8041 Graz, Österreich","Country":"AUT","State":"Steiermark","County":"Graz","City":"Graz","District":"Liebenau","Street":"Eduard-Keil-Gasse","HouseNumber":"27","PostalCode":"8041","AdditionalData":[{"value":"Österreich","key":"CountryName"},{"value":"Steiermark","key":"StateName"},{"value":"Graz","key":"CountyName"}]},"MapReference":{"ReferenceId":"572465771","Spot":0.12,"SideOfStreet":"right","CountryId":"20128885","StateId":"20134876","CountyId":"20134877","CityId":"20134878","AddressId":"160941980","RoadLinkId":"28995344"}}},{"Relevance":1.0,"Distance":31.0,"MatchLevel":"street","MatchQuality":{"Country":1.0,"State":1.0,"County":1.0,"City":1.0,"District":1.0,"Street":[1.0],"PostalCode":1.0},"Location":{"LocationId":"NT_nOkbtVzRqKww-TRbD2R4oC_l_746143303_L","LocationType":"point","DisplayPosition":{"Latitude":47.04417,"Longitude":15.44947},"MapView":{"TopLeft":{"Latitude":47.04425,"Longitude":15.44947},"BottomRight":{"Latitude":47.04385,"Longitude":15.45045}},"Address":{"Label":"Vaterdorfstraße, 8041 Graz, Österreich","Country":"AUT","State":"Steiermark","County":"Graz","City":"Graz","District":"Liebenau","Street":"Vaterdorfstraße","PostalCode":"8041","AdditionalData":[{"value":"Österreich","key":"CountryName"},{"value":"Steiermark","key":"StateName"},{"value":"Graz","key":"CountyName"}]},"MapReference":{"ReferenceId":"746143303","Spot":0.0,"SideOfStreet":"left","CountryId":"20128885","StateId":"20134876","CountyId":"20134877","CityId":"20134878"}}},{"Relevance":1.0,"Distance":32.8,"MatchLevel":"houseNumber","MatchQuality":{"Country":1.0,"State":1.0,"County":1.0,"City":1.0,"District":1.0,"Street":[1.0],"HouseNumber":1.0,"PostalCode":1.0},"MatchType":"interpolated","Location":{"LocationId":"NT_5e6NZYxBVqKCY4MlULx0PA_2A","LocationType":"point","DisplayPosition":{"Latitude":47.04414,"Longitude":15.44947},"MapView":{"TopLeft":{"Latitude":47.0452642,"Longitude":15.4478203},"BottomRight":{"Latitude":47.0430158,"Longitude":15.4511197}},"Address":{"Label":"Ziehrerstraße 6, 8041 Graz, Österreich","Country":"AUT","State":"Steiermark","County":"Graz","City":"Graz","District":"Liebenau","Street":"Ziehrerstraße","HouseNumber":"6","PostalCode":"8041","AdditionalData":[{"value":"Österreich","key":"CountryName"},{"value":"Steiermark","key":"StateName"},{"value":"Graz","key":"CountyName"}]},"MapReference":{"ReferenceId":"746143301","Spot":0.93,"SideOfStreet":"left","CountryId":"20128885","StateId":"20134876","CountyId":"20134877","CityId":"20134878","AddressId":"160957855","RoadLinkId":"143633172"}}},{"Relevance":1.0,"Distance":53.6,"MatchLevel":"houseNumber","MatchQuality":{"Country":1.0,"State":1.0,"County":1.0,"City":1.0,"District":1.0,"Street":[1.0],"HouseNumber":1.0,"PostalCode":1.0},"MatchType":"interpolated","Location":{"LocationId":"NT_Jv3JKzAphz4HO0k.ZpT1DC_5kD","LocationType":"point","DisplayPosition":{"Latitude":47.04491,"Longitude":15.44922},"MapView":{"TopLeft":{"Latitude":47.0460342,"Longitude":15.4475703},"BottomRight":{"Latitude":47.0437858,"Longitude":15.4508697}},"Address":{"Label":"Kasernstraße 99, 8041 Graz, Österreich","Country":"AUT","State":"Steiermark","County":"Graz","City":"Graz","District":"Liebenau","Street":"Kasernstraße","HouseNumber":"99","PostalCode":"8041","AdditionalData":[{"value":"Österreich","key":"CountryName"},{"value":"Steiermark","key":"StateName"},{"value":"Graz","key":"CountyName"}]},"MapReference":{"ReferenceId":"895302849","Spot":0.4,"SideOfStreet":"right","CountryId":"20128885","StateId":"20134876","CountyId":"20134877","CityId":"20134878","AddressId":"161071513","RoadLinkId":"257833172"}}},{"Relevance":1.0,"Distance":63.7,"MatchLevel":"street","MatchQuality":{"Country":1.0,"State":1.0,"County":1.0,"City":1.0,"District":1.0,"Street":[1.0],"PostalCode":1.0},"Location":{"LocationId":"NT_aV10Wc1SMi0SIUBsjIRCsD_l_572465779_R","LocationType":"point","DisplayPosition":{"Latitude":47.0445,"Longitude":15.44851},"MapView":{"TopLeft":{"Latitude":47.0445,"Longitude":15.44827},"BottomRight":{"Latitude":47.04448,"Longitude":15.44851}},"Address":{"Label":"Eduard-Keil-Gasse, 8041 Graz, Österreich","Country":"AUT","State":"Steiermark","County":"Graz","City":"Graz","District":"Liebenau","Street":"Eduard-Keil-Gasse","PostalCode":"8041","AdditionalData":[{"value":"Österreich","key":"CountryName"},{"value":"Steiermark","key":"StateName"},{"value":"Graz","key":"CountyName"}]},"MapReference":{"ReferenceId":"572465779","Spot":1.0,"SideOfStreet":"right","CountryId":"20128885","StateId":"20134876","CountyId":"20134877","CityId":"20134878"}}}]}]}}