{"Response":{"MetaInfo":{"Timestamp":"2020-03-28T11:14:44.300+0000","NextPageInformation":"2"},"View":[{"_type":"SearchResultsViewType","ViewId":0,"Result":[{"Relevance":1.0,"Distance":0.0,"Direction":0.0,"MatchLevel":"city","MatchQuality":{"Country":1.0,"State":1.0,"County":1.0,"City":1.0,"PostalCode":1.0},"Location":{"LocationId":"NT_9jAdvrmahs4X82eg8qlEHD","LocationType":"point","DisplayPosition":{"Latitude":47.0972953,"Longitude":5.5066357},"MapView":{"TopLeft":{"Latitude":47.12568,"Longitude":5.4527},"BottomRight":{"Latitude":47.022,"Longitude":5.5516}},"Address":{"Label":"Dole, Bourgogne-Franche-Comté, France","Country":"FRA","State":"Bourgogne-Franche-Comté","County":"Jura","City":"Dole","PostalCode":"39100","AdditionalData":[{"value":"France","key":"CountryName"},{"value":"Bourgogne-Franche-Comté","key":"StateName"},{"value":"Jura","key":"CountyName"}]},"MapReference":{"ReferenceId":"566299101","SideOfStreet":"neither","CountryId":"20000001","StateId":"20013306","CountyId":"20015084","CityId":"20015639"}}},{"Relevance":1.0,"Distance":1.5,"MatchLevel":"street","MatchQuality":{"Country":1.0,"State":1.0,"County":1.0,"City":1.0,"Street":[1.0],"PostalCode":1.0},"Location":{"LocationId":"NT_qxdALb.gb6Mz2AvvDif3sA_l_708926930_L","LocationType":"point","DisplayPosition":{"Latitude":47.0972834,"Longitude":5.5066272},"MapView":{"TopLeft":{"Latitude":47.09731,"Longitude":5.50659},"BottomRight":{"Latitude":47.09723,"Longitude":5.50708}},"Address":{"Label":"Rue Jean Heberling, 39100 Dole, France","Country":"FRA","State":"Bourgogne-Franche-Comté","County":"Jura","City":"Dole","Street":"Rue Jean Heberling","PostalCode":"39100","AdditionalData":[{"value":"France","key":"CountryName"},{"value":"Bourgogne-Franche-Comté","key":"StateName"},{"value":"Jura","key":"CountyName"}]},"MapReference":{"ReferenceId":"708926930","Spot":0.91,"SideOfStreet":"neither","CountryId":"20000001","StateId":"20013306","CountyId":"20015084","CityId":"20015639"}}},{"Relevance":1.0,"Distance":3.0,"MatchLevel":"street","MatchQuality":{"Country":1.0,"State":1.0,"County":1.0,"City":1.0,"PostalCode":1.0},"Location":{"LocationId":"NT_uDXziUgOuNfQIu2hoemRsA_l_708926929_L","LocationType":"point","DisplayPosition":{"Latitude":47.0973217,"Longitude":5.5066275},"MapView":{"TopLeft":{"Latitude":47.0975,"Longitude":5.50659},"BottomRight":{"Latitude":47.09731,"Longitude":5.5072}},"Address":{"Label":"39100 Dole, France","Country":"FRA","State":"Bourgogne-Franche-Comté","County":"Jura","City":"Dole","PostalCode":"39100","AdditionalData":[{"value":"France","key":"CountryName"},{"value":"Bourgogne-Franche-Comté","key":"StateName"},{"value":"Jura","key":"CountyName"}]},"MapReference":{"ReferenceId":"708926929","Spot":0.06,"SideOfStreet":"neither","CountryId":"20000001","StateId":"20013306","CountyId":"20015084","CityId":"20015639"}}},{"Relevance":1.0,"Distance":3.8,"MatchLevel":"street","MatchQuality":{"Country":1.0,"State":1.0,"County":1.0,"City":1.0,"Street":[1.0],"PostalCode":1.0},"Location":{"LocationId":"NT_qxdALb.gb6Mz2AvvDif3sA_l_708926928_R","LocationType":"point","DisplayPosition":{"Latitude":47.09731,"Longitude":5.50659},"MapView":{"TopLeft":{"Latitude":47.09731,"Longitude":5.506},"BottomRight":{"Latitude":47.09703,"Longitude":5.50659}},"Address":{"Label":"Rue Jean Heberling, 39100 Dole, France","Country":"FRA","State":"Bourgogne-Franche-Comté","County":"Jura","City":"Dole","Street":"Rue Jean Heberling","PostalCode":"39100","AdditionalData":[{"value":"France","key":"CountryName"},{"value":"Bourgogne-Franche-Comté","key":"StateName"},{"value":"Jura","key":"CountyName"}]},"MapReference":{"ReferenceId":"708926928","Spot":1.0,"SideOfStreet":"right","CountryId":"20000001","StateId":"20013306","CountyId":"20015084","CityId":"20015639"}}},{"Relevance":1.0,"Distance":40.7,"MatchLevel":"houseNumber","MatchQuality":{"Country":1.0,"State":1.0,"County":1.0,"City":1.0,"Street":[1.0],"HouseNumber":1.0,"PostalCode":1.0},"MatchType":"interpolated","Location":{"LocationId":"NT_qxdALb.gb6Mz2AvvDif3sA_ycD","LocationType":"point","DisplayPosition":{"Latitude":47.09693,"Longitude":5.5066},"MapView":{"TopLeft":{"Latitude":47.0980542,"Longitude":5.5049487},"BottomRight":{"Latitude":47.0958058,"Longitude":5.5082513}},"Address":{"Label":"27 Rue Jean Heberling, 39100 Dole, France","Country":"FRA","State":"Bourgogne-Franche-Comté","County":"Jura","City":"Dole","Street":"Rue Jean Heberling","HouseNumber":"27","PostalCode":"39100","AdditionalData":[{"value":"France","key":"CountryName"},{"value":"Bourgogne-Franche-Comté","key":"StateName"},{"value":"Jura","key":"CountyName"}]},"MapReference":{"ReferenceId":"566297176","Spot":0.43,"SideOfStreet":"right","CountryId":"20000001","StateId":"20013306","CountyId":"20015084","CityId":"20015639","AddressId":"317349410","RoadLinkId":"44699296"}}},{"Relevance":1.0,"Distance":48.4,"MatchLevel":"street","MatchQuality":{"Country":1.0,"State":1.0,"County":1.0,"City":1.0,"Street":[1.0],"PostalCode":1.0},"Location":{"LocationId":"NT_qxdALb.gb6Mz2AvvDif3sA_l_708926927_L","LocationType":"point","DisplayPosition":{"Latitude":47.0975,"Longitude":5.5072},"MapView":{"TopLeft":{"Latitude":47.09761,"Longitude":5.5072},"BottomRight":{"Latitude":47.0975,"Longitude":5.5075}},"Address":{"Label":"Rue Jean Heberling, 39100 Dole, France","Country":"FRA","State":"Bourgogne-Franche-Comté","County":"Jura","City":"Dole","Street":"Rue Jean Heberling","PostalCode":"39100","AdditionalData":[{"value":"France","key":"CountryName"},{"value":"Bourgogne-Franche-Comté","key":"StateName"},{"value":"Jura","key":"CountyName"}]},"MapReference":{"ReferenceId":"708926927","Spot":0.0,"SideOfStreet":"left","CountryId":"20000001","StateId":"20013306","CountyId":"20015084","CityId":"20015639"}}},{"Relevance":1.0,"Distance":51.7,"MatchLevel":"houseNumber","MatchQuality":{"Country":1.0,"State":1.0,"County":1.0,"City":1.0,"Street":[1.0],"HouseNumber":1.0,"PostalCode":1.0},"MatchType":"interpolated","Location":{"LocationId":"NT_qxdALb.gb6Mz2AvvDif3sA_l_708926931_R_ycD","LocationType":"point","DisplayPosition":{"Latitude":47.0973248,"Longitude":5.5073174},"MapView":{"TopLeft":{"Latitude":47.098449,"Longitude":5.5056661},"BottomRight":{"Latitude":47.0962007,"Longitude":5.5089687}},"Address":{"Label":"27 Rue Jean Heberling, 39100 Dole, France","Country":"FRA","State":"Bourgogne-Franche-Comté","County":"Jura","City":"Dole","Street":"Rue Jean Heberling","HouseNumber":"27","PostalCode":"39100","AdditionalData":[{"value":"France","key":"CountryName"},{"value":"Bourgogne-Franche-Comté","key":"StateName"},{"value":"Jura","key":"CountyName"}]},"MapReference":{"ReferenceId":"708926931","Spot":0.55,"SideOfStreet":"right","CountryId":"20000001","StateId":"20013306","CountyId":"20015084","CityId":"20015639"}}},{"Relevance":1.0,"Distance":54.3,"MatchLevel":"houseNumber","MatchQuality":{"Country":1.0,"State":1.0,"County":1.0,"City":1.0,"Street":[1.0],"HouseNumber":1.0,"PostalCode":1.0},"MatchType":"interpolated","Location":{"LocationId":"NT_qxdALb.gb6Mz2AvvDif3sA_yQD","LocationType":"point","DisplayPosition":{"Latitude":47.09724,"Longitude":5.50586},"MapView":{"TopLeft":{"Latitude":47.0983642,"Longitude":5.5042087},"BottomRight":{"Latitude":47.0961158,"Longitude":5.5075113}},"Address":{"Label":"24 Rue Jean Heberling, 39100 Dole, France","Country":"FRA","State":"Bourgogne-Franche-Comté","County":"Jura","City":"Dole","Street":"Rue Jean Heberling","HouseNumber":"24","PostalCode":"39100","AdditionalData":[{"value":"France","key":"CountryName"},{"value":"Bourgogne-Franche-Comté","key":"StateName"},{"value":"Jura","key":"CountyName"}]},"MapReference":{"ReferenceId":"566297173","Spot":0.3,"SideOfStreet":"right","CountryId":"20000001","StateId":"20013306","CountyId":"20015084","CityId":"20015639","AddressId":"371034021","RoadLinkId":"44150415"}}},{"Relevance":1.0,"Distance":58.3,"MatchLevel":"houseNumber","MatchQuality":{"Country":1.0,"State":1.0,"County":1.0,"City":1.0,"Street":[1.0],"HouseNumber":1.0,"PostalCode":1.0},"MatchType":"interpolated","Location":{"LocationId":"NT_qxdALb.gb6Mz2AvvDif3sA_yUD","LocationType":"point","DisplayPosition":{"Latitude":47.09681,"Longitude":5.50629},"MapView":{"TopLeft":{"Latitude":47.0979342,"Longitude":5.5046387},"BottomRight":{"Latitude":47.0956858,"Longitude":5.5079413}},"Address":{"Label":"25 Rue Jean Heberling, 39100 Dole, France","Country":"FRA","State":"Bourgogne-Franche-Comté","County":"Jura","City":"Dole","Street":"Rue Jean Heberling","HouseNumber":"25","PostalCode":"39100","AdditionalData":[{"value":"France","key":"CountryName"},{"value":"Bourgogne-Franche-Comté","key":"StateName"},{"value":"Jura","key":"CountyName"}]},"MapReference":{"ReferenceId":"566297179","Spot":0.19,"SideOfStreet":"right","CountryId":"20000001","StateId":"20013306","CountyId":"20015084","CityId":"20015639","AddressId":"317367397","RoadLinkId":"44459009"}}},{"Relevance":1.0,"Distance":71.1,"MatchLevel":"houseNumber","MatchQuality":{"Country":1.0,"State":1.0,"County":1.0,"City":1.0,"Street":[1.0],"HouseNumber":1.0,"PostalCode":1.0},"MatchType":"interpolated","Location":{"LocationId":"NT_qxdALb.gb6Mz2AvvDif3sA_xUD","LocationType":"point","DisplayPosition":{"Latitude":47.09668,"Longitude":5.50638},"MapView":{"TopLeft":{"Latitude":47.0978042,"Longitude":5.5047287},"BottomRight":{"Latitude":47.0955558,"Longitude":5.5080313}},"Address":{"Label":"15 Rue Jean Heberling, 39100 Dole, France","Country":"FRA","State":"Bourgogne-Franche-Comté","County":"Jura","City":"Dole","Street":"Rue Jean Heberling","HouseNumber":"15","PostalCode":"39100","AdditionalData":[{"value":"France","key":"CountryName"},{"value":"Bourgogne-Franche-Comté","key":"StateName"},{"value":"Jura","key":"CountyName"}]},"MapReference":{"ReferenceId":"566297174","Spot":0.72,"SideOfStreet":"left","CountryId":"20000001","StateId":"20013306","CountyId":"20015084","CityId":"20015639","AddressId":"317330752","RoadLinkId":"44554852"}}}]}]}}