{"Response":{"MetaInfo":{"Timestamp":"2020-03-28T10:30:39.065+0000","NextPageInformation":"2"},"View":[{"_type":"SearchResultsViewType","ViewId":0,"Result":[{"Relevance":1.0,"Distance":0.0,"Direction":0.0,"MatchLevel":"city","MatchQuality":{"Country":1.0,"State":1.0,"County":1.0,"City":1.0,"PostalCode":1.0},"Location":{"LocationId":"NT_ILEUYFAYlXbcGY7OTGJ10A","LocationType":"point","DisplayPosition":{"Latitude":47.049243,"Longitude":6.488475},"MapView":{"TopLeft":{"Latitude":47.0787,"Longitude":6.44483},"BottomRight":{"Latitude":47.03225,"Longitude":6.52158}},"Address":{"Label":"Gilley, Bourgogne-Franche-Comté, France","Country":"FRA","State":"Bourgogne-Franche-Comté","County":"Doubs","City":"Gilley","PostalCode":"25650","AdditionalData":[{"value":"France","key":"CountryName"},{"value":"Bourgogne-Franche-Comté","key":"StateName"},{"value":"Doubs","key":"CountyName"}]},"MapReference":{"ReferenceId":"841008048","SideOfStreet":"neither","CountryId":"20000001","StateId":"20013306","CountyId":"20013307","CityId":"20014055"}}},{"Relevance":1.0,"Distance":18.4,"MatchLevel":"houseNumber","MatchQuality":{"Country":1.0,"State":1.0,"County":1.0,"City":1.0,"Street":[1.0],"HouseNumber":1.0,"PostalCode":1.0},"MatchType":"interpolated","Location":{"LocationId":"NT_Kjgvkzs-o33KJQPBp1htCC_yYD","LocationType":"point","DisplayPosition":{"Latitude":47.0494,"Longitude":6.48862},"MapView":{"TopLeft":{"Latitude":47.0505242,"Longitude":6.4869702},"BottomRight":{"Latitude":47.0482758,"Longitude":6.4902698}},"Address":{"Label":"26 Rue des Fauvettes, 25650 Gilley, France","Country":"FRA","State":"Bourgogne-Franche-Comté","County":"Doubs","City":"Gilley","Street":"Rue des Fauvettes","HouseNumber":"26","PostalCode":"25650","AdditionalData":[{"value":"France","key":"CountryName"},{"value":"Bourgogne-Franche-Comté","key":"StateName"},{"value":"Doubs","key":"CountyName"}]},"MapReference":{"ReferenceId":"984225403","Spot":0.74,"SideOfStreet":"right","CountryId":"20000001","StateId":"20013306","CountyId":"20013307","CityId":"20014055","AddressId":"383317818","RoadLinkId":"315409328"}}},{"Relevance":1.0,"Distance":71.6,"MatchLevel":"houseNumber","MatchQuality":{"Country":1.0,"State":1.0,"County":1.0,"City":1.0,"Street":[1.0],"HouseNumber":1.0,"PostalCode":1.0},"MatchType":"interpolated","Location":{"LocationId":"NT_Kjgvkzs-o33KJQPBp1htCC_xgD","LocationType":"point","DisplayPosition":{"Latitude":47.04856,"Longitude":6.48856},"MapView":{"TopLeft":{"Latitude":47.0496842,"Longitude":6.4869102},"BottomRight":{"Latitude":47.0474358,"Longitude":6.4902098}},"Address":{"Label":"18 Rue des Fauvettes, 25650 Gilley, France","Country":"FRA","State":"Bourgogne-Franche-Comté","County":"Doubs","City":"Gilley","Street":"Rue des Fauvettes","HouseNumber":"18","PostalCode":"25650","AdditionalData":[{"value":"France","key":"CountryName"},{"value":"Bourgogne-Franche-Comté","key":"StateName"},{"value":"Doubs","key":"CountyName"}]},"MapReference":{"ReferenceId":"759114691","Spot":0.03,"SideOfStreet":"left","CountryId":"20000001","StateId":"20013306","CountyId":"20013307","CityId":"20014055","AddressId":"379263064","RoadLinkId":"153706511"}}},{"Relevance":1.0,"Distance":79.3,"MatchLevel":"street","MatchQuality":{"Country":1.0,"State":1.0,"County":1.0,"City":1.0,"PostalCode":1.0},"Location":{"LocationId":"NT_xNdNG0keOPlQ2fF8YgS4WB_l_985166736_R","LocationType":"point","DisplayPosition":{"Latitude":47.04853,"Longitude":6.4885},"MapView":{"TopLeft":{"Latitude":47.04853,"Longitude":6.4885},"BottomRight":{"Latitude":47.04806,"Longitude":6.48875}},"Address":{"Label":"25650 Gilley, France","Country":"FRA","State":"Bourgogne-Franche-Comté","County":"Doubs","City":"Gilley","PostalCode":"25650","AdditionalData":[{"value":"France","key":"CountryName"},{"value":"Bourgogne-Franche-Comté","key":"StateName"},{"value":"Doubs","key":"CountyName"}]},"MapReference":{"ReferenceId":"985166736","Spot":1.0,"SideOfStreet":"right","CountryId":"20000001","StateId":"20013306","CountyId":"20013307","CityId":"20014055"}}},{"Relevance":1.0,"Distance":84.2,"MatchLevel":"houseNumber","MatchQuality":{"Country":1.0,"State":1.0,"County":1.0,"City":1.0,"Street":[1.0],"HouseNumber":1.0,"PostalCode":1.0},"MatchType":"interpolated","Location":{"LocationId":"NT_T-Li2BCm1hh7YHuXQvMkoA_xA","LocationType":"point","DisplayPosition":{"Latitude":47.05002,"Longitude":6.48846},"MapView":{"TopLeft":{"Latitude":47.0511442,"Longitude":6.4868101},"BottomRight":{"Latitude":47.0488958,"Longitude":6.4901099}},"Address":{"Label":"1 Rue des Bouvreuils, 25650 Gilley, France","Country":"FRA","State":"Bourgogne-Franche-Comté","County":"Doubs","City":"Gilley","Street":"Rue des Bouvreuils","HouseNumber":"1","PostalCode":"25650","AdditionalData":[{"value":"France","key":"CountryName"},{"value":"Bourgogne-Franche-Comté","key":"StateName"},{"value":"Doubs","key":"CountyName"}]},"MapReference":{"ReferenceId":"579035250","Spot":0.36,"SideOfStreet":"right","CountryId":"20000001","StateId":"20013306","CountyId":"20013307","CityId":"20014055","AddressId":"379302177","RoadLinkId":"43845318"}}},{"Relevance":1.0,"Distance":88.8,"MatchLevel":"street","MatchQuality":{"Country":1.0,"State":1.0,"County":1.0,"City":1.0,"Street":[1.0],"PostalCode":1.0},"Location":{"LocationId":"NT_4iLTCVj.V3vdAxVQ.YiBqD_l_759124100_R","LocationType":"point","DisplayPosition":{"Latitude":47.04991,"Longitude":6.48783},"MapView":{"TopLeft":{"Latitude":47.04991,"Longitude":6.48679},"BottomRight":{"Latitude":47.0495,"Longitude":6.48783}},"Address":{"Label":"Rue du Prelet, 25650 Gilley, France","Country":"FRA","State":"Bourgogne-Franche-Comté","County":"Doubs","City":"Gilley","Street":"Rue du Prelet","PostalCode":"25650","AdditionalData":[{"value":"France","key":"CountryName"},{"value":"Bourgogne-Franche-Comté","key":"StateName"},{"value":"Doubs","key":"CountyName"}]},"MapReference":{"ReferenceId":"759124100","Spot":1.0,"SideOfStreet":"right","CountryId":"20000001","StateId":"20013306","CountyId":"20013307","CityId":"20014055"}}},{"Relevance":1.0,"Distance":95.7,"MatchLevel":"houseNumber","MatchQuality":{"Country":1.0,"State":1.0,"County":1.0,"City":1.0,"Street":[1.0],"HouseNumber":1.0,"PostalCode":1.0},"MatchType":"interpolated","Location":{"LocationId":"NT_TELy9It9NFhP3Xt7E73NHC_xA","LocationType":"point","DisplayPosition":{"Latitude":47.04998,"Longitude":6.48919},"MapView":{"TopLeft":{"Latitude":47.0511042,"Longitude":6.4875401},"BottomRight":{"Latitude":47.0488558,"Longitude":6.4908399}},"Address":{"Label":"1 Rue des Hirondelles, 25650 Gilley, France","Country":"FRA","State":"Bourgogne-Franche-Comté","County":"Doubs","City":"Gilley","Street":"Rue des Hirondelles","HouseNumber":"1","PostalCode":"25650","AdditionalData":[{"value":"France","key":"CountryName"},{"value":"Bourgogne-Franche-Comté","key":"StateName"},{"value":"Doubs","key":"CountyName"}]},"MapReference":{"ReferenceId":"984225405","Spot":0.55,"SideOfStreet":"left","CountryId":"20000001","StateId":"20013306","CountyId":"20013307","CityId":"20014055","AddressId":"379291656","RoadLinkId":"315409330"}}},{"Relevance":1.0,"Distance":131.6,"MatchLevel":"houseNumber","MatchQuality":{"Country":1.0,"State":1.0,"County":1.0,"City":1.0,"Street":[1.0],"HouseNumber":1.0,"PostalCode":1.0},"MatchType":"interpolated","Location":{"LocationId":"NT_sTNL0k1oZfsnHQqABC88uA_ycD","LocationType":"point","DisplayPosition":{"Latitude":47.04804,"Longitude":6.48843},"MapView":{"TopLeft":{"Latitude":47.0491642,"Longitude":6.4867802},"BottomRight":{"Latitude":47.0469158,"Longitude":6.4900798}},"Address":{"Label":"27 Avenue Jean de Lattre, 25650 Gilley, France","Country":"FRA","State":"Bourgogne-Franche-Comté","County":"Doubs","City":"Gilley","Street":"Avenue Jean de Lattre","HouseNumber":"27","PostalCode":"25650","AdditionalData":[{"value":"France","key":"CountryName"},{"value":"Bourgogne-Franche-Comté","key":"StateName"},{"value":"Doubs","key":"CountyName"}]},"MapReference":{"ReferenceId":"579035218","Spot":0.88,"SideOfStreet":"left","CountryId":"20000001","StateId":"20013306","CountyId":"20013307","CityId":"20014055","AddressId":"317347828","RoadLinkId":"44368402"}}},{"Relevance":1.0,"Distance":132.3,"MatchLevel":"houseNumber","MatchQuality":{"Country":1.0,"State":1.0,"County":1.0,"City":1.0,"Street":[1.0],"HouseNumber":1.0,"PostalCode":1.0},"MatchType":"interpolated","Location":{"LocationId":"NT_sTNL0k1oZfsnHQqABC88uA_ykD","LocationType":"point","DisplayPosition":{"Latitude":47.04808,"Longitude":6.48901},"MapView":{"TopLeft":{"Latitude":47.0492042,"Longitude":6.4873602},"BottomRight":{"Latitude":47.0469558,"Longitude":6.4906598}},"Address":{"Label":"29 Avenue Jean de Lattre, 25650 Gilley, France","Country":"FRA","State":"Bourgogne-Franche-Comté","County":"Doubs","City":"Gilley","Street":"Avenue Jean de Lattre","HouseNumber":"29","PostalCode":"25650","AdditionalData":[{"value":"France","key":"CountryName"},{"value":"Bourgogne-Franche-Comté","key":"StateName"},{"value":"Doubs","key":"CountyName"}]},"MapReference":{"ReferenceId":"579035231","Spot":0.12,"SideOfStreet":"left","CountryId":"20000001","StateId":"20013306","CountyId":"20013307","CityId":"20014055","AddressId":"317286816","RoadLinkId":"44984060"}}},{"Relevance":1.0,"Distance":133.7,"MatchLevel":"houseNumber","MatchQuality":{"Country":1.0,"State":1.0,"County":1.0,"City":1.0,"Street":[1.0],"HouseNumber":1.0,"PostalCode":1.0},"MatchType":"interpolated","Location":{"LocationId":"NT_TELy9It9NFhP3Xt7E73NHC_3A","LocationType":"point","DisplayPosition":{"Latitude":47.04966,"Longitude":6.49013},"MapView":{"TopLeft":{"Latitude":47.0507842,"Longitude":6.4884801},"BottomRight":{"Latitude":47.0485358,"Longitude":6.4917799}},"Address":{"Label":"7 Rue des Hirondelles, 25650 Gilley, France","Country":"FRA","State":"Bourgogne-Franche-Comté","County":"Doubs","City":"Gilley","Street":"Rue des Hirondelles","HouseNumber":"7","PostalCode":"25650","AdditionalData":[{"value":"France","key":"CountryName"},{"value":"Bourgogne-Franche-Comté","key":"StateName"},{"value":"Doubs","key":"CountyName"}]},"MapReference":{"ReferenceId":"984225404","Spot":0.93,"SideOfStreet":"right","CountryId":"20000001","StateId":"20013306","CountyId":"20013307","CityId":"20014055","AddressId":"590330632","RoadLinkId":"315409329"}}}]}]}}