{"Response":{"MetaInfo":{"Timestamp":"2020-03-28T11:35:25.063+0000","NextPageInformation":"2"},"View":[{"_type":"SearchResultsViewType","ViewId":0,"Result":[{"Relevance":1.0,"Distance":0.0,"Direction":0.0,"MatchLevel":"district","MatchQuality":{"Country":1.0,"County":1.0,"City":1.0,"District":1.0,"PostalCode":1.0},"Location":{"LocationId":"NT_TPsKepGJbXOO82u4iCyyHC","LocationType":"point","DisplayPosition":{"Latitude":47.1307568,"Longitude":27.6137204},"MapView":{"TopLeft":{"Latitude":47.21156,"Longitude":27.5191},"BottomRight":{"Latitude":47.10509,"Longitude":27.67767}},"Address":{"Label":"Iași, România","Country":"ROU","County":"Iași","City":"Iași","District":"Iași","PostalCode":"700280","AdditionalData":[{"value":"România","key":"CountryName"},{"value":"Iași","key":"CountyName"}]},"MapReference":{"ReferenceId":"1156219365","SideOfStreet":"neither","CountryId":"20656215","CountyId":"20660417","CityId":"20660511","DistrictId":"20660512"}}},{"Relevance":1.0,"Distance":4.8,"MatchLevel":"houseNumber","MatchQuality":{"Country":1.0,"County":1.0,"City":1.0,"District":1.0,"Street":[1.0],"HouseNumber":1.0,"PostalCode":1.0},"MatchType":"interpolated","Location":{"LocationId":"NT_OHpt.uQCd6oa2zQC9D3AxB_zkTQ","LocationType":"point","DisplayPosition":{"Latitude":47.13079,"Longitude":27.61376},"MapView":{"TopLeft":{"Latitude":47.1319142,"Longitude":27.6121076},"BottomRight":{"Latitude":47.1296658,"Longitude":27.6154124}},"Address":{"Label":"Șoseaua Bucium 39A, 700280 Iași, România","Country":"ROU","County":"Iași","City":"Iași","District":"Iași","Street":"Șoseaua Bucium","HouseNumber":"39A","PostalCode":"700280","AdditionalData":[{"value":"România","key":"CountryName"},{"value":"Iași","key":"CountyName"}]},"MapReference":{"ReferenceId":"1157672062","Spot":0.23,"SideOfStreet":"right","CountryId":"20656215","CountyId":"20660417","CityId":"20660511","DistrictId":"20660512","AddressId":"686793197","RoadLinkId":"464039551"}}},{"Relevance":1.0,"Distance":6.5,"MatchLevel":"street","MatchQuality":{"Country":1.0,"County":1.0,"City":1.0,"District":1.0},"Location":{"LocationId":"NT_OSAmLpK7G-1jcuv8pxyiWB_l_1157672063_L","LocationType":"point","DisplayPosition":{"Latitude":47.1307012,"Longitude":27.6137451},"MapView":{"TopLeft":{"Latitude":47.13073,"Longitude":27.61372},"BottomRight":{"Latitude":47.13069,"Longitude":27.61381}},"Address":{"Label":"Iași, România","Country":"ROU","County":"Iași","City":"Iași","District":"Iași","AdditionalData":[{"value":"România","key":"CountryName"},{"value":"Iași","key":"CountyName"}]},"MapReference":{"ReferenceId":"1157672063","Spot":0.28,"SideOfStreet":"left","CountryId":"20656215","CountyId":"20660417","CityId":"20660511","DistrictId":"20660512"}}},{"Relevance":1.0,"Distance":7.4,"MatchLevel":"street","MatchQuality":{"Country":1.0,"County":1.0,"City":1.0,"District":1.0},"Location":{"LocationId":"NT_OSAmLpK7G-1jcuv8pxyiWB_l_1157672066_L","LocationType":"point","DisplayPosition":{"Latitude":47.13069,"Longitude":27.61372},"MapView":{"TopLeft":{"Latitude":47.13069,"Longitude":27.61366},"BottomRight":{"Latitude":47.13066,"Longitude":27.61372}},"Address":{"Label":"Iași, România","Country":"ROU","County":"Iași","City":"Iași","District":"Iași","AdditionalData":[{"value":"România","key":"CountryName"},{"value":"Iași","key":"CountyName"}]},"MapReference":{"ReferenceId":"1157672066","Spot":1.0,"SideOfStreet":"left","CountryId":"20656215","CountyId":"20660417","CityId":"20660511","DistrictId":"20660512"}}},{"Relevance":1.0,"Distance":11.0,"MatchLevel":"houseNumber","MatchQuality":{"Country":1.0,"County":1.0,"City":1.0,"District":1.0,"Street":[1.0],"HouseNumber":1.0,"PostalCode":1.0},"MatchType":"interpolated","Location":{"LocationId":"NT_OHpt.uQCd6oa2zQC9D3AxB_zkD","LocationType":"point","DisplayPosition":{"Latitude":47.1307,"Longitude":27.61384},"MapView":{"TopLeft":{"Latitude":47.1318242,"Longitude":27.6121876},"BottomRight":{"Latitude":47.1295758,"Longitude":27.6154924}},"Address":{"Label":"Șoseaua Bucium 39, 700280 Iași, România","Country":"ROU","County":"Iași","City":"Iași","District":"Iași","Street":"Șoseaua Bucium","HouseNumber":"39","PostalCode":"700280","AdditionalData":[{"value":"România","key":"CountryName"},{"value":"Iași","key":"CountyName"}]},"MapReference":{"ReferenceId":"1157672061","Spot":0.82,"SideOfStreet":"right","CountryId":"20656215","CountyId":"20660417","CityId":"20660511","DistrictId":"20660512","AddressId":"686793199","RoadLinkId":"464039550"}}},{"Relevance":1.0,"Distance":11.7,"MatchLevel":"street","MatchQuality":{"Country":1.0,"County":1.0,"City":1.0,"District":1.0},"Location":{"LocationId":"NT_OSAmLpK7G-1jcuv8pxyiWB_l_1157672065_R","LocationType":"point","DisplayPosition":{"Latitude":47.13066,"Longitude":27.61366},"MapView":{"TopLeft":{"Latitude":47.13079,"Longitude":27.61274},"BottomRight":{"Latitude":47.13066,"Longitude":27.61366}},"Address":{"Label":"Iași, România","Country":"ROU","County":"Iași","City":"Iași","District":"Iași","AdditionalData":[{"value":"România","key":"CountryName"},{"value":"Iași","key":"CountyName"}]},"MapReference":{"ReferenceId":"1157672065","Spot":0.0,"SideOfStreet":"right","CountryId":"20656215","CountyId":"20660417","CityId":"20660511","DistrictId":"20660512"}}},{"Relevance":1.0,"Distance":11.7,"MatchLevel":"street","MatchQuality":{"Country":1.0,"County":1.0,"City":1.0,"District":1.0},"Location":{"LocationId":"NT_OSAmLpK7G-1jcuv8pxyiWB_l_1157672064_R","LocationType":"point","DisplayPosition":{"Latitude":47.13066,"Longitude":27.61366},"MapView":{"TopLeft":{"Latitude":47.13066,"Longitude":27.6135},"BottomRight":{"Latitude":47.12868,"Longitude":27.61401}},"Address":{"Label":"Iași, România","Country":"ROU","County":"Iași","City":"Iași","District":"Iași","AdditionalData":[{"value":"România","key":"CountryName"},{"value":"Iași","key":"CountyName"}]},"MapReference":{"ReferenceId":"1157672064","Spot":1.0,"SideOfStreet":"right","CountryId":"20656215","CountyId":"20660417","CityId":"20660511","DistrictId":"20660512"}}},{"Relevance":1.0,"Distance":33.3,"MatchLevel":"houseNumber","MatchQuality":{"Country":1.0,"County":1.0,"City":1.0,"District":1.0,"Street":[1.0],"HouseNumber":1.0,"PostalCode":1.0},"MatchType":"interpolated","Location":{"LocationId":"NT_OHpt.uQCd6oa2zQC9D3AxB_0ED","LocationType":"point","DisplayPosition":{"Latitude":47.13052,"Longitude":27.61399},"MapView":{"TopLeft":{"Latitude":47.1316442,"Longitude":27.6123376},"BottomRight":{"Latitude":47.1293958,"Longitude":27.6156424}},"Address":{"Label":"Șoseaua Bucium 41, 700280 Iași, România","Country":"ROU","County":"Iași","City":"Iași","District":"Iași","Street":"Șoseaua Bucium","HouseNumber":"41","PostalCode":"700280","AdditionalData":[{"value":"România","key":"CountryName"},{"value":"Iași","key":"CountyName"}]},"MapReference":{"ReferenceId":"905946330","Spot":0.89,"SideOfStreet":"right","CountryId":"20656215","CountyId":"20660417","CityId":"20660511","DistrictId":"20660512","AddressId":"686792001","RoadLinkId":"266850189"}}},{"Relevance":1.0,"Distance":36.6,"MatchLevel":"houseNumber","MatchQuality":{"Country":1.0,"County":1.0,"City":1.0,"District":1.0,"Street":[1.0],"HouseNumber":1.0,"PostalCode":1.0},"MatchType":"interpolated","Location":{"LocationId":"NT_OHpt.uQCd6oa2zQC9D3AxB_zUD","LocationType":"point","DisplayPosition":{"Latitude":47.13105,"Longitude":27.61354},"MapView":{"TopLeft":{"Latitude":47.1321742,"Longitude":27.6118876},"BottomRight":{"Latitude":47.1299258,"Longitude":27.6151924}},"Address":{"Label":"Șoseaua Bucium 35, 700280 Iași, România","Country":"ROU","County":"Iași","City":"Iași","District":"Iași","Street":"Șoseaua Bucium","HouseNumber":"35","PostalCode":"700280","AdditionalData":[{"value":"România","key":"CountryName"},{"value":"Iași","key":"CountyName"}]},"MapReference":{"ReferenceId":"905250327","Spot":0.41,"SideOfStreet":"right","CountryId":"20656215","CountyId":"20660417","CityId":"20660511","DistrictId":"20660512","AddressId":"686793415","RoadLinkId":"266424532"}}},{"Relevance":1.0,"Distance":46.6,"MatchLevel":"street","MatchQuality":{"Country":1.0,"County":1.0,"City":1.0,"District":1.0,"Street":[1.0]},"Location":{"LocationId":"NT_VLVqGTg0Q-INSh4LBSLk0C_l_905250328_R","LocationType":"point","DisplayPosition":{"Latitude":47.13114,"Longitude":27.61347},"MapView":{"TopLeft":{"Latitude":47.13119,"Longitude":27.61344},"BottomRight":{"Latitude":47.13114,"Longitude":27.61347}},"Address":{"Label":"Șoseaua Bucium, Iași, România","Country":"ROU","County":"Iași","City":"Iași","District":"Iași","Street":"Șoseaua Bucium","AdditionalData":[{"value":"România","key":"CountryName"},{"value":"Iași","key":"CountyName"}]},"MapReference":{"ReferenceId":"905250328","Spot":0.0,"SideOfStreet":"right","CountryId":"20656215","CountyId":"20660417","CityId":"20660511","DistrictId":"20660512"}}}]}]}}