{"Response":{"MetaInfo":{"Timestamp":"2020-03-28T11:53:05.874+0000","NextPageInformation":"2"},"View":[{"_type":"SearchResultsViewType","ViewId":0,"Result":[{"Relevance":1.0,"Distance":0.0,"Direction":0.0,"MatchLevel":"city","MatchQuality":{"Country":1.0,"State":1.0,"County":1.0,"City":1.0,"PostalCode":1.0},"Location":{"LocationId":"NT_k5falA6hJdS434oqCsOe9C","LocationType":"point","DisplayPosition":{"Latitude":47.1128605,"Longitude":0.6203821},"MapView":{"TopLeft":{"Latitude":47.14528,"Longitude":0.58435},"BottomRight":{"Latitude":47.07437,"Longitude":0.71394}},"Address":{"Label":"Sainte-Maure-de-Touraine, Centre-Val de Loire, France","Country":"FRA","State":"Centre-Val de Loire","County":"Indre-et-Loire","City":"Sainte-Maure-de-Touraine","PostalCode":"37800","AdditionalData":[{"value":"France","key":"CountryName"},{"value":"Centre-Val de Loire","key":"StateName"},{"value":"Indre-et-Loire","key":"CountyName"}]},"MapReference":{"ReferenceId":"549766003","SideOfStreet":"neither","CountryId":"20000001","StateId":"20002113","CountyId":"20067264","CityId":"20067941"}}},{"Relevance":1.0,"Distance":3.5,"MatchLevel":"houseNumber","MatchQuality":{"Country":1.0,"State":1.0,"County":1.0,"City":1.0,"Street":[1.0],"HouseNumber":1.0,"PostalCode":1.0},"MatchType":"interpolated","Location":{"LocationId":"NT_1hYSY1TQ0QOPxV5uRqChaB_5cD","LocationType":"point","DisplayPosition":{"Latitude":47.11282,"Longitude":0.62038},"MapView":{"TopLeft":{"Latitude":47.1139442,"Longitude":0.6187282},"BottomRight":{"Latitude":47.1116958,"Longitude":0.6220318}},"Address":{"Label":"97 Rue Docteur Patry, 37800 Sainte-Maure-de-Touraine, France","Country":"FRA","State":"Centre-Val de Loire","County":"Indre-et-Loire","City":"Sainte-Maure-de-Touraine","Street":"Rue Docteur Patry","HouseNumber":"97","PostalCode":"37800","AdditionalData":[{"value":"France","key":"CountryName"},{"value":"Centre-Val de Loire","key":"StateName"},{"value":"Indre-et-Loire","key":"CountyName"}]},"MapReference":{"ReferenceId":"556731578","Spot":0.42,"SideOfStreet":"left","CountryId":"20000001","StateId":"20002113","CountyId":"20067264","CityId":"20067941","AddressId":"318758390","RoadLinkId":"144334163"}}},{"Relevance":1.0,"Distance":29.6,"MatchLevel":"houseNumber","MatchQuality":{"Country":1.0,"State":1.0,"County":1.0,"City":1.0,"Street":[1.0],"HouseNumber":1.0,"PostalCode":1.0},"MatchType":"interpolated","Location":{"LocationId":"NT_tdV.Idl78jXsq3C53CvN4A_ygD","LocationType":"point","DisplayPosition":{"Latitude":47.11294,"Longitude":0.62099},"MapView":{"TopLeft":{"Latitude":47.1140642,"Longitude":0.6193382},"BottomRight":{"Latitude":47.1118158,"Longitude":0.6226418}},"Address":{"Label":"28 Place du Maréchal Leclerc, 37800 Sainte-Maure-de-Touraine, France","Country":"FRA","State":"Centre-Val de Loire","County":"Indre-et-Loire","City":"Sainte-Maure-de-Touraine","Street":"Place du Maréchal Leclerc","HouseNumber":"28","PostalCode":"37800","AdditionalData":[{"value":"France","key":"CountryName"},{"value":"Centre-Val de Loire","key":"StateName"},{"value":"Indre-et-Loire","key":"CountyName"}]},"MapReference":{"ReferenceId":"556740155","Spot":1.0,"SideOfStreet":"left","CountryId":"20000001","StateId":"20002113","CountyId":"20067264","CityId":"20067941","AddressId":"570658864","RoadLinkId":"52661039"}}},{"Relevance":1.0,"Distance":33.5,"MatchLevel":"houseNumber","MatchQuality":{"Country":1.0,"State":1.0,"County":1.0,"City":1.0,"Street":[1.0],"HouseNumber":1.0,"PostalCode":1.0},"MatchType":"interpolated","Location":{"LocationId":"NT_CnGKTXt-wTFXN5mjxU06pD_l_556740153_R_xA","LocationType":"point","DisplayPosition":{"Latitude":47.1129612,"Longitude":0.6207995},"MapView":{"TopLeft":{"Latitude":47.1140853,"Longitude":0.6191477},"BottomRight":{"Latitude":47.111837,"Longitude":0.6224514}},"Address":{"Label":"1 Place de l'Aumône, 37800 Sainte-Maure-de-Touraine, France","Country":"FRA","State":"Centre-Val de Loire","County":"Indre-et-Loire","City":"Sainte-Maure-de-Touraine","Street":"Place de l'Aumône","HouseNumber":"1","PostalCode":"37800","AdditionalData":[{"value":"France","key":"CountryName"},{"value":"Centre-Val de Loire","key":"StateName"},{"value":"Indre-et-Loire","key":"CountyName"}]},"MapReference":{"ReferenceId":"556740153","Spot":0.53,"SideOfStreet":"right","CountryId":"20000001","StateId":"20002113","CountyId":"20067264","CityId":"20067941"}}},{"Relevance":1.0,"Distance":35.6,"MatchLevel":"houseNumber","MatchQuality":{"Country":1.0,"State":1.0,"County":1.0,"City":1.0,"Street":[1.0],"HouseNumber":1.0,"PostalCode":1.0},"MatchType":"interpolated","Location":{"LocationId":"NT_1hYSY1TQ0QOPxV5uRqChaB_5ED","LocationType":"point","DisplayPosition":{"Latitude":47.11259,"Longitude":0.62013},"MapView":{"TopLeft":{"Latitude":47.1137142,"Longitude":0.6184782},"BottomRight":{"Latitude":47.1114658,"Longitude":0.6217818}},"Address":{"Label":"91 Rue Docteur Patry, 37800 Sainte-Maure-de-Touraine, France","Country":"FRA","State":"Centre-Val de Loire","County":"Indre-et-Loire","City":"Sainte-Maure-de-Touraine","Street":"Rue Docteur Patry","HouseNumber":"91","PostalCode":"37800","AdditionalData":[{"value":"France","key":"CountryName"},{"value":"Centre-Val de Loire","key":"StateName"},{"value":"Indre-et-Loire","key":"CountyName"}]},"MapReference":{"ReferenceId":"556731577","Spot":0.76,"SideOfStreet":"left","CountryId":"20000001","StateId":"20002113","CountyId":"20067264","CityId":"20067941","AddressId":"318989497","RoadLinkId":"52879370"}}},{"Relevance":1.0,"Distance":37.4,"MatchLevel":"houseNumber","MatchQuality":{"Country":1.0,"State":1.0,"County":1.0,"City":1.0,"Street":[1.0],"HouseNumber":1.0,"PostalCode":1.0},"MatchType":"interpolated","Location":{"LocationId":"NT_tdV.Idl78jXsq3C53CvN4A_xA","LocationType":"point","DisplayPosition":{"Latitude":47.11294,"Longitude":0.62099},"MapView":{"TopLeft":{"Latitude":47.1140642,"Longitude":0.6193382},"BottomRight":{"Latitude":47.1118158,"Longitude":0.6226418}},"Address":{"Label":"1 Place du Maréchal Leclerc, 37800 Sainte-Maure-de-Touraine, France","Country":"FRA","State":"Centre-Val de Loire","County":"Indre-et-Loire","City":"Sainte-Maure-de-Touraine","Street":"Place du Maréchal Leclerc","HouseNumber":"1","PostalCode":"37800","AdditionalData":[{"value":"France","key":"CountryName"},{"value":"Centre-Val de Loire","key":"StateName"},{"value":"Indre-et-Loire","key":"CountyName"}]},"MapReference":{"ReferenceId":"556741389","Spot":0.0,"SideOfStreet":"left","CountryId":"20000001","StateId":"20002113","CountyId":"20067264","CityId":"20067941","AddressId":"318575627","RoadLinkId":"52809907"}}},{"Relevance":1.0,"Distance":52.4,"MatchLevel":"houseNumber","MatchQuality":{"Country":1.0,"State":1.0,"County":1.0,"City":1.0,"Street":[1.0],"HouseNumber":1.0,"PostalCode":1.0},"MatchType":"interpolated","Location":{"LocationId":"NT_VAzs7plq-HODfw-ndG6rkC_xIjMyA","LocationType":"point","DisplayPosition":{"Latitude":47.1132,"Longitude":0.62088},"MapView":{"TopLeft":{"Latitude":47.1143242,"Longitude":0.6192282},"BottomRight":{"Latitude":47.1120758,"Longitude":0.6225318}},"Address":{"Label":"1222 Impasse du Ha-Ha, 37800 Sainte-Maure-de-Touraine, France","Country":"FRA","State":"Centre-Val de Loire","County":"Indre-et-Loire","City":"Sainte-Maure-de-Touraine","Street":"Impasse du Ha-Ha","HouseNumber":"1222","PostalCode":"37800","AdditionalData":[{"value":"France","key":"CountryName"},{"value":"Centre-Val de Loire","key":"StateName"},{"value":"Indre-et-Loire","key":"CountyName"}]},"MapReference":{"ReferenceId":"556741388","Spot":0.78,"SideOfStreet":"left","CountryId":"20000001","StateId":"20002113","CountyId":"20067264","CityId":"20067941","AddressId":"570598750","RoadLinkId":"53509332"}}},{"Relevance":1.0,"Distance":61.8,"MatchLevel":"houseNumber","MatchQuality":{"Country":1.0,"State":1.0,"County":1.0,"City":1.0,"Street":[1.0],"HouseNumber":1.0,"PostalCode":1.0},"MatchType":"interpolated","Location":{"LocationId":"NT_VAzs7plq-HODfw-ndG6rkC_xIjM0A","LocationType":"point","DisplayPosition":{"Latitude":47.11327,"Longitude":0.62096},"MapView":{"TopLeft":{"Latitude":47.1143942,"Longitude":0.6193082},"BottomRight":{"Latitude":47.1121458,"Longitude":0.6226118}},"Address":{"Label":"1224 Impasse du Ha-Ha, 37800 Sainte-Maure-de-Touraine, France","Country":"FRA","State":"Centre-Val de Loire","County":"Indre-et-Loire","City":"Sainte-Maure-de-Touraine","Street":"Impasse du Ha-Ha","HouseNumber":"1224","PostalCode":"37800","AdditionalData":[{"value":"France","key":"CountryName"},{"value":"Centre-Val de Loire","key":"StateName"},{"value":"Indre-et-Loire","key":"CountyName"}]},"MapReference":{"ReferenceId":"556741387","Spot":0.05,"SideOfStreet":"left","CountryId":"20000001","StateId":"20002113","CountyId":"20067264","CityId":"20067941","AddressId":"570570377","RoadLinkId":"52905248"}}},{"Relevance":1.0,"Distance":61.8,"MatchLevel":"street","MatchQuality":{"Country":1.0,"State":1.0,"County":1.0,"City":1.0,"PostalCode":1.0},"Location":{"LocationId":"NT_ef0hNF9aUK.xH37LRIz9CD_l_556741391_L","LocationType":"point","DisplayPosition":{"Latitude":47.11326,"Longitude":0.62095},"MapView":{"TopLeft":{"Latitude":47.11326,"Longitude":0.62095},"BottomRight":{"Latitude":47.11313,"Longitude":0.62117}},"Address":{"Label":"37800 Sainte-Maure-de-Touraine, France","Country":"FRA","State":"Centre-Val de Loire","County":"Indre-et-Loire","City":"Sainte-Maure-de-Touraine","PostalCode":"37800","AdditionalData":[{"value":"France","key":"CountryName"},{"value":"Centre-Val de Loire","key":"StateName"},{"value":"Indre-et-Loire","key":"CountyName"}]},"MapReference":{"ReferenceId":"556741391","Spot":1.0,"SideOfStreet":"left","CountryId":"20000001","StateId":"20002113","CountyId":"20067264","CityId":"20067941"}}},{"Relevance":1.0,"Distance":65.5,"MatchLevel":"houseNumber","MatchQuality":{"Country":1.0,"State":1.0,"County":1.0,"City":1.0,"Street":[1.0],"HouseNumber":1.0,"PostalCode":1.0},"MatchType":"interpolated","Location":{"LocationId":"NT_tdV.Idl78jXsq3C53CvN4A_1A","LocationType":"point","DisplayPosition":{"Latitude":47.11313,"Longitude":0.62117},"MapView":{"TopLeft":{"Latitude":47.1142542,"Longitude":0.6195182},"BottomRight":{"Latitude":47.1120058,"Longitude":0.6228218}},"Address":{"Label":"5 Place du Maréchal Leclerc, 37800 Sainte-Maure-de-Touraine, France","Country":"FRA","State":"Centre-Val de Loire","County":"Indre-et-Loire","City":"Sainte-Maure-de-Touraine","Street":"Place du Maréchal Leclerc","HouseNumber":"5","PostalCode":"37800","AdditionalData":[{"value":"France","key":"CountryName"},{"value":"Centre-Val de Loire","key":"StateName"},{"value":"Indre-et-Loire","key":"CountyName"}]},"MapReference":{"ReferenceId":"556741390","Spot":0.0,"SideOfStreet":"left","CountryId":"20000001","StateId":"20002113","CountyId":"20067264","CityId":"20067941","AddressId":"318769209","RoadLinkId":"53512266"}}}]}]}}