{"Response":{"MetaInfo":{"Timestamp":"2020-03-28T10:42:42.459+0000","NextPageInformation":"2"},"View":[{"_type":"SearchResultsViewType","ViewId":0,"Result":[{"Relevance":1.0,"Distance":0.0,"Direction":0.0,"MatchLevel":"district","MatchQuality":{"Country":1.0,"State":1.0,"County":1.0,"City":1.0,"District":1.0,"PostalCode":1.0},"Location":{"LocationId":"NT_7ZnYKdimvVNMpAbTZ1ogFC","LocationType":"point","DisplayPosition":{"Latitude":47.1865481,"Longitude":20.0062609},"MapView":{"TopLeft":{"Latitude":47.21608,"Longitude":19.98028},"BottomRight":{"Latitude":47.17035,"Longitude":20.03929}},"Address":{"Label":"Abony, Pest, Magyarország","Country":"HUN","State":"Pest","County":"Ceglédi Járás","City":"Abony","District":"Abony","PostalCode":"2740","AdditionalData":[{"value":"Magyarország","key":"CountryName"},{"value":"Pest","key":"StateName"},{"value":"Ceglédi Járás","key":"CountyName"}]},"MapReference":{"ReferenceId":"583914259","SideOfStreet":"neither","CountryId":"20613038","StateId":"20619051","CountyId":"26678484","CityId":"20619085","DistrictId":"26678592"}}},{"Relevance":1.0,"Distance":6.2,"MatchLevel":"houseNumber","MatchQuality":{"Country":1.0,"State":1.0,"County":1.0,"City":1.0,"District":1.0,"Street":[1.0],"HouseNumber":1.0,"PostalCode":1.0},"MatchType":"interpolated","Location":{"LocationId":"NT_3MJUYw0f-PjWAH6jkc77CB_yA","LocationType":"point","DisplayPosition":{"Latitude":47.18662,"Longitude":20.00622},"MapView":{"TopLeft":{"Latitude":47.1877442,"Longitude":20.0045659},"BottomRight":{"Latitude":47.1854958,"Longitude":20.0078741}},"Address":{"Label":"Arany János utca 2, Abony 2740, Magyarország","Country":"HUN","State":"Pest","County":"Ceglédi Járás","City":"Abony","District":"Abony","Street":"Arany János utca","HouseNumber":"2","PostalCode":"2740","AdditionalData":[{"value":"Magyarország","key":"CountryName"},{"value":"Pest","key":"StateName"},{"value":"Ceglédi Járás","key":"CountyName"}]},"MapReference":{"ReferenceId":"598156703","Spot":0.89,"SideOfStreet":"right","CountryId":"20613038","StateId":"20619051","CountyId":"26678484","CityId":"20619085","DistrictId":"26678592","AddressId":"355191301","RoadLinkId":"60397066"}}},{"Relevance":1.0,"Distance":18.7,"MatchLevel":"houseNumber","MatchQuality":{"Country":1.0,"State":1.0,"County":1.0,"City":1.0,"District":1.0,"Street":[1.0],"HouseNumber":1.0,"PostalCode":1.0},"MatchType":"interpolated","Location":{"LocationId":"NT_nI.X-LScisxSGQozmiVwZC_3A","LocationType":"point","DisplayPosition":{"Latitude":47.18644,"Longitude":20.00646},"MapView":{"TopLeft":{"Latitude":47.1875642,"Longitude":20.0048059},"BottomRight":{"Latitude":47.1853158,"Longitude":20.0081141}},"Address":{"Label":"Kálvin utca 7, Abony 2740, Magyarország","Country":"HUN","State":"Pest","County":"Ceglédi Járás","City":"Abony","District":"Abony","Street":"Kálvin utca","HouseNumber":"7","PostalCode":"2740","AdditionalData":[{"value":"Magyarország","key":"CountryName"},{"value":"Pest","key":"StateName"},{"value":"Ceglédi Járás","key":"CountyName"}]},"MapReference":{"ReferenceId":"598157179","Spot":0.9,"SideOfStreet":"left","CountryId":"20613038","StateId":"20619051","CountyId":"26678484","CityId":"20619085","DistrictId":"26678592","AddressId":"356468690","RoadLinkId":"60699550"}}},{"Relevance":1.0,"Distance":20.2,"MatchLevel":"houseNumber","MatchQuality":{"Country":1.0,"State":1.0,"County":1.0,"City":1.0,"District":1.0,"Street":[1.0],"HouseNumber":1.0,"PostalCode":1.0},"MatchType":"interpolated","Location":{"LocationId":"NT_nI.X-LScisxSGQozmiVwZC_1A","LocationType":"point","DisplayPosition":{"Latitude":47.18673,"Longitude":20.00626},"MapView":{"TopLeft":{"Latitude":47.1878542,"Longitude":20.0046059},"BottomRight":{"Latitude":47.1856058,"Longitude":20.0079141}},"Address":{"Label":"Kálvin utca 5, Abony 2740, Magyarország","Country":"HUN","State":"Pest","County":"Ceglédi Járás","City":"Abony","District":"Abony","Street":"Kálvin utca","HouseNumber":"5","PostalCode":"2740","AdditionalData":[{"value":"Magyarország","key":"CountryName"},{"value":"Pest","key":"StateName"},{"value":"Ceglédi Járás","key":"CountyName"}]},"MapReference":{"ReferenceId":"598156652","Spot":0.08,"SideOfStreet":"left","CountryId":"20613038","StateId":"20619051","CountyId":"26678484","CityId":"20619085","DistrictId":"26678592","AddressId":"357457751","RoadLinkId":"60321049"}}},{"Relevance":1.0,"Distance":52.2,"MatchLevel":"houseNumber","MatchQuality":{"Country":1.0,"State":1.0,"County":1.0,"City":1.0,"District":1.0,"Street":[1.0],"HouseNumber":1.0,"PostalCode":1.0},"MatchType":"interpolated","Location":{"LocationId":"NT_HQ-hV2Ye6NLUDW.VywntlB_xA","LocationType":"point","DisplayPosition":{"Latitude":47.18642,"Longitude":20.00545},"MapView":{"TopLeft":{"Latitude":47.1875442,"Longitude":20.0037959},"BottomRight":{"Latitude":47.1852958,"Longitude":20.0071041}},"Address":{"Label":"Dorottya utca 1, Abony 2740, Magyarország","Country":"HUN","State":"Pest","County":"Ceglédi Járás","City":"Abony","District":"Abony","Street":"Dorottya utca","HouseNumber":"1","PostalCode":"2740","AdditionalData":[{"value":"Magyarország","key":"CountryName"},{"value":"Pest","key":"StateName"},{"value":"Ceglédi Járás","key":"CountyName"}]},"MapReference":{"ReferenceId":"598156704","Spot":0.09,"SideOfStreet":"right","CountryId":"20613038","StateId":"20619051","CountyId":"26678484","CityId":"20619085","DistrictId":"26678592","AddressId":"356511084","RoadLinkId":"60823815"}}},{"Relevance":1.0,"Distance":72.5,"MatchLevel":"houseNumber","MatchQuality":{"Country":1.0,"State":1.0,"County":1.0,"City":1.0,"District":1.0,"Street":[1.0],"HouseNumber":1.0,"PostalCode":1.0},"MatchType":"interpolated","Location":{"LocationId":"NT_3MJUYw0f-PjWAH6jkc77CB_2A","LocationType":"point","DisplayPosition":{"Latitude":47.18629,"Longitude":20.00538},"MapView":{"TopLeft":{"Latitude":47.1874142,"Longitude":20.0037259},"BottomRight":{"Latitude":47.1851658,"Longitude":20.0070341}},"Address":{"Label":"Arany János utca 6, Abony 2740, Magyarország","Country":"HUN","State":"Pest","County":"Ceglédi Járás","City":"Abony","District":"Abony","Street":"Arany János utca","HouseNumber":"6","PostalCode":"2740","AdditionalData":[{"value":"Magyarország","key":"CountryName"},{"value":"Pest","key":"StateName"},{"value":"Ceglédi Járás","key":"CountyName"}]},"MapReference":{"ReferenceId":"598156766","Spot":0.84,"SideOfStreet":"right","CountryId":"20613038","StateId":"20619051","CountyId":"26678484","CityId":"20619085","DistrictId":"26678592","AddressId":"356324188","RoadLinkId":"60552266"}}},{"Relevance":1.0,"Distance":96.0,"MatchLevel":"houseNumber","MatchQuality":{"Country":1.0,"State":1.0,"County":1.0,"City":1.0,"District":1.0,"Street":[1.0],"HouseNumber":1.0,"PostalCode":1.0},"MatchType":"interpolated","Location":{"LocationId":"NT_.pqmKtZvjp.OJECr1ufuZC_zA","LocationType":"point","DisplayPosition":{"Latitude":47.1875,"Longitude":20.00667},"MapView":{"TopLeft":{"Latitude":47.1886242,"Longitude":20.0050159},"BottomRight":{"Latitude":47.1863758,"Longitude":20.0083241}},"Address":{"Label":"Báthory István utca 3, Abony 2740, Magyarország","Country":"HUN","State":"Pest","County":"Ceglédi Járás","City":"Abony","District":"Abony","Street":"Báthory István utca","HouseNumber":"3","PostalCode":"2740","AdditionalData":[{"value":"Magyarország","key":"CountryName"},{"value":"Pest","key":"StateName"},{"value":"Ceglédi Járás","key":"CountyName"}]},"MapReference":{"ReferenceId":"598156540","Spot":0.51,"SideOfStreet":"left","CountryId":"20613038","StateId":"20619051","CountyId":"26678484","CityId":"20619085","DistrictId":"26678592","AddressId":"356107957","RoadLinkId":"60803308"}}},{"Relevance":1.0,"Distance":112.8,"MatchLevel":"houseNumber","MatchQuality":{"Country":1.0,"State":1.0,"County":1.0,"City":1.0,"District":1.0,"Street":[1.0],"HouseNumber":1.0,"PostalCode":1.0},"MatchType":"interpolated","Location":{"LocationId":"NT_Mr9C4s.OuG9hcBz4QRQCLC_4A","LocationType":"point","DisplayPosition":{"Latitude":47.18628,"Longitude":20.00462},"MapView":{"TopLeft":{"Latitude":47.1874042,"Longitude":20.0029659},"BottomRight":{"Latitude":47.1851558,"Longitude":20.0062741}},"Address":{"Label":"Vasút út 8, Abony 2740, Magyarország","Country":"HUN","State":"Pest","County":"Ceglédi Járás","City":"Abony","District":"Abony","Street":"Vasút út","HouseNumber":"8","PostalCode":"2740","AdditionalData":[{"value":"Magyarország","key":"CountryName"},{"value":"Pest","key":"StateName"},{"value":"Ceglédi Járás","key":"CountyName"}]},"MapReference":{"ReferenceId":"598156767","Spot":0.55,"SideOfStreet":"right","CountryId":"20613038","StateId":"20619051","CountyId":"26678484","CityId":"20619085","DistrictId":"26678592","AddressId":"355102176","RoadLinkId":"60579820"}}},{"Relevance":1.0,"Distance":117.0,"MatchLevel":"houseNumber","MatchQuality":{"Country":1.0,"State":1.0,"County":1.0,"City":1.0,"District":1.0,"Street":[1.0],"HouseNumber":1.0,"PostalCode":1.0},"MatchType":"interpolated","Location":{"LocationId":"NT_Mr9C4s.OuG9hcBz4QRQCLC_xAD","LocationType":"point","DisplayPosition":{"Latitude":47.18597,"Longitude":20.00473},"MapView":{"TopLeft":{"Latitude":47.1870942,"Longitude":20.0030759},"BottomRight":{"Latitude":47.1848458,"Longitude":20.0063841}},"Address":{"Label":"Vasút út 10, Abony 2740, Magyarország","Country":"HUN","State":"Pest","County":"Ceglédi Járás","City":"Abony","District":"Abony","Street":"Vasút út","HouseNumber":"10","PostalCode":"2740","AdditionalData":[{"value":"Magyarország","key":"CountryName"},{"value":"Pest","key":"StateName"},{"value":"Ceglédi Járás","key":"CountyName"}]},"MapReference":{"ReferenceId":"598156875","Spot":0.91,"SideOfStreet":"right","CountryId":"20613038","StateId":"20619051","CountyId":"26678484","CityId":"20619085","DistrictId":"26678592","AddressId":"357508478","RoadLinkId":"60656330"}}},{"Relevance":1.0,"Distance":120.9,"MatchLevel":"houseNumber","MatchQuality":{"Country":1.0,"State":1.0,"County":1.0,"City":1.0,"District":1.0,"Street":[1.0],"HouseNumber":1.0,"PostalCode":1.0},"MatchType":"interpolated","Location":{"LocationId":"NT_Mr9C4s.OuG9hcBz4QRQCLC_2A","LocationType":"point","DisplayPosition":{"Latitude":47.18663,"Longitude":20.00449},"MapView":{"TopLeft":{"Latitude":47.1877542,"Longitude":20.0028359},"BottomRight":{"Latitude":47.1855058,"Longitude":20.0061441}},"Address":{"Label":"Vasút út 6, Abony 2740, Magyarország","Country":"HUN","State":"Pest","County":"Ceglédi Járás","City":"Abony","District":"Abony","Street":"Vasút út","HouseNumber":"6","PostalCode":"2740","AdditionalData":[{"value":"Magyarország","key":"CountryName"},{"value":"Pest","key":"StateName"},{"value":"Ceglédi Járás","key":"CountyName"}]},"MapReference":{"ReferenceId":"913253230","Spot":0.08,"SideOfStreet":"right","CountryId":"20613038","StateId":"20619051","CountyId":"26678484","CityId":"20619085","DistrictId":"26678592","AddressId":"355272600","RoadLinkId":"271004962"}}}]}]}}