{"Response":{"MetaInfo":{"Timestamp":"2020-03-28T11:53:22.720+0000","NextPageInformation":"2"},"View":[{"_type":"SearchResultsViewType","ViewId":0,"Result":[{"Relevance":1.0,"Distance":0.0,"Direction":0.0,"MatchLevel":"city","MatchQuality":{"Country":1.0,"State":1.0,"County":1.0,"City":1.0,"PostalCode":1.0},"Location":{"LocationId":"NT_vQcTT2s0wK.AdSmSMaD2LC","LocationType":"point","DisplayPosition":{"Latitude":47.198382,"Longitude":2.568813},"MapView":{"TopLeft":{"Latitude":47.21716,"Longitude":2.5312},"BottomRight":{"Latitude":47.1688,"Longitude":2.59367}},"Address":{"Label":"Les Aix-d'Angillon, Centre-Val de Loire, France","Country":"FRA","State":"Centre-Val de Loire","County":"Cher","City":"Les Aix-d'Angillon","PostalCode":"18220","AdditionalData":[{"value":"France","key":"CountryName"},{"value":"Centre-Val de Loire","key":"StateName"},{"value":"Cher","key":"CountyName"}]},"MapReference":{"ReferenceId":"580540941","SideOfStreet":"neither","CountryId":"20000001","StateId":"20002113","CountyId":"20011167","CityId":"20059329"}}},{"Relevance":1.0,"Distance":20.8,"MatchLevel":"houseNumber","MatchQuality":{"Country":1.0,"State":1.0,"County":1.0,"City":1.0,"Street":[1.0],"HouseNumber":1.0,"PostalCode":1.0},"MatchType":"interpolated","Location":{"LocationId":"NT_RSQoHp5sBpqr2yfySuCjpB_3A","LocationType":"point","DisplayPosition":{"Latitude":47.19886,"Longitude":2.56908},"MapView":{"TopLeft":{"Latitude":47.1999842,"Longitude":2.5674255},"BottomRight":{"Latitude":47.1977358,"Longitude":2.5707345}},"Address":{"Label":"7 Rue des Écoles, 18220 Les Aix-d'Angillon, France","Country":"FRA","State":"Centre-Val de Loire","County":"Cher","City":"Les Aix-d'Angillon","Street":"Rue des Écoles","HouseNumber":"7","PostalCode":"18220","AdditionalData":[{"value":"France","key":"CountryName"},{"value":"Centre-Val de Loire","key":"StateName"},{"value":"Cher","key":"CountyName"}]},"MapReference":{"ReferenceId":"580540961","Spot":0.78,"SideOfStreet":"left","CountryId":"20000001","StateId":"20002113","CountyId":"20011167","CityId":"20059329","AddressId":"318797546","RoadLinkId":"52990233"}}},{"Relevance":1.0,"Distance":77.1,"MatchLevel":"houseNumber","MatchQuality":{"Country":1.0,"State":1.0,"County":1.0,"City":1.0,"Street":[1.0],"HouseNumber":1.0,"PostalCode":1.0},"MatchType":"interpolated","Location":{"LocationId":"NT_dxCInlw1L2t5jy-5UgkTuC_l_580540987_L_zA","LocationType":"point","DisplayPosition":{"Latitude":47.19864,"Longitude":2.56985},"MapView":{"TopLeft":{"Latitude":47.1997642,"Longitude":2.5681955},"BottomRight":{"Latitude":47.1975159,"Longitude":2.5715045}},"Address":{"Label":"3 Rue du Chapître, 18220 Les Aix-d'Angillon, France","Country":"FRA","State":"Centre-Val de Loire","County":"Cher","City":"Les Aix-d'Angillon","Street":"Rue du Chapître","HouseNumber":"3","PostalCode":"18220","AdditionalData":[{"value":"France","key":"CountryName"},{"value":"Centre-Val de Loire","key":"StateName"},{"value":"Cher","key":"CountyName"}]},"MapReference":{"ReferenceId":"580540987","Spot":0.51,"SideOfStreet":"left","CountryId":"20000001","StateId":"20002113","CountyId":"20011167","CityId":"20059329"}}},{"Relevance":1.0,"Distance":89.9,"MatchLevel":"street","MatchQuality":{"Country":1.0,"State":1.0,"County":1.0,"City":1.0,"Street":[1.0],"PostalCode":1.0},"Location":{"LocationId":"NT_fKaqbPZEBI2dWwHfdMChiA_l_580539320_R","LocationType":"point","DisplayPosition":{"Latitude":47.1976547,"Longitude":2.5682935},"MapView":{"TopLeft":{"Latitude":47.19778,"Longitude":2.56804},"BottomRight":{"Latitude":47.1969,"Longitude":2.56912}},"Address":{"Label":"Rue des Sports, 18220 Les Aix-d'Angillon, France","Country":"FRA","State":"Centre-Val de Loire","County":"Cher","City":"Les Aix-d'Angillon","Street":"Rue des Sports","PostalCode":"18220","AdditionalData":[{"value":"France","key":"CountryName"},{"value":"Centre-Val de Loire","key":"StateName"},{"value":"Cher","key":"CountyName"}]},"MapReference":{"ReferenceId":"580539320","Spot":0.8,"SideOfStreet":"right","CountryId":"20000001","StateId":"20002113","CountyId":"20011167","CityId":"20059329"}}},{"Relevance":1.0,"Distance":92.4,"MatchLevel":"houseNumber","MatchQuality":{"Country":1.0,"State":1.0,"County":1.0,"City":1.0,"Street":[1.0],"HouseNumber":1.0,"PostalCode":1.0},"MatchType":"interpolated","Location":{"LocationId":"NT_fKaqbPZEBI2dWwHfdMChiA_0A","LocationType":"point","DisplayPosition":{"Latitude":47.19804,"Longitude":2.56764},"MapView":{"TopLeft":{"Latitude":47.1991642,"Longitude":2.5659855},"BottomRight":{"Latitude":47.1969158,"Longitude":2.5692945}},"Address":{"Label":"4 Rue des Sports, 18220 Les Aix-d'Angillon, France","Country":"FRA","State":"Centre-Val de Loire","County":"Cher","City":"Les Aix-d'Angillon","Street":"Rue des Sports","HouseNumber":"4","PostalCode":"18220","AdditionalData":[{"value":"France","key":"CountryName"},{"value":"Centre-Val de Loire","key":"StateName"},{"value":"Cher","key":"CountyName"}]},"MapReference":{"ReferenceId":"580539321","Spot":0.59,"SideOfStreet":"right","CountryId":"20000001","StateId":"20002113","CountyId":"20011167","CityId":"20059329","AddressId":"570691631","RoadLinkId":"53356707"}}},{"Relevance":1.0,"Distance":92.9,"MatchLevel":"houseNumber","MatchQuality":{"Country":1.0,"State":1.0,"County":1.0,"City":1.0,"Street":[1.0],"HouseNumber":1.0,"PostalCode":1.0},"MatchType":"interpolated","Location":{"LocationId":"NT_sSra2MXsJfwJi9h8nSM4GB_xcD","LocationType":"point","DisplayPosition":{"Latitude":47.19918,"Longitude":2.56971},"MapView":{"TopLeft":{"Latitude":47.2003042,"Longitude":2.5680555},"BottomRight":{"Latitude":47.1980558,"Longitude":2.5713645}},"Address":{"Label":"17 Place Nationale, 18220 Les Aix-d'Angillon, France","Country":"FRA","State":"Centre-Val de Loire","County":"Cher","City":"Les Aix-d'Angillon","Street":"Place Nationale","HouseNumber":"17","PostalCode":"18220","AdditionalData":[{"value":"France","key":"CountryName"},{"value":"Centre-Val de Loire","key":"StateName"},{"value":"Cher","key":"CountyName"}]},"MapReference":{"ReferenceId":"580540318","Spot":0.7,"SideOfStreet":"left","CountryId":"20000001","StateId":"20002113","CountyId":"20011167","CityId":"20059329","AddressId":"318756956","RoadLinkId":"53479853"}}},{"Relevance":1.0,"Distance":103.5,"MatchLevel":"houseNumber","MatchQuality":{"Country":1.0,"State":1.0,"County":1.0,"City":1.0,"Street":[1.0],"HouseNumber":1.0,"PostalCode":1.0},"MatchType":"interpolated","Location":{"LocationId":"NT_dxCInlw1L2t5jy-5UgkTuC_l_580540986_R_4A","LocationType":"point","DisplayPosition":{"Latitude":47.19872,"Longitude":2.57009},"MapView":{"TopLeft":{"Latitude":47.1998442,"Longitude":2.5684355},"BottomRight":{"Latitude":47.1975959,"Longitude":2.5717445}},"Address":{"Label":"8 Rue du Chapître, 18220 Les Aix-d'Angillon, France","Country":"FRA","State":"Centre-Val de Loire","County":"Cher","City":"Les Aix-d'Angillon","Street":"Rue du Chapître","HouseNumber":"8","PostalCode":"18220","AdditionalData":[{"value":"France","key":"CountryName"},{"value":"Centre-Val de Loire","key":"StateName"},{"value":"Cher","key":"CountyName"}]},"MapReference":{"ReferenceId":"580540986","Spot":0.23,"SideOfStreet":"right","CountryId":"20000001","StateId":"20002113","CountyId":"20011167","CityId":"20059329"}}},{"Relevance":1.0,"Distance":105.2,"MatchLevel":"houseNumber","MatchQuality":{"Country":1.0,"State":1.0,"County":1.0,"City":1.0,"Street":[1.0],"HouseNumber":1.0,"PostalCode":1.0},"MatchType":"interpolated","Location":{"LocationId":"NT_dxCInlw1L2t5jy-5UgkTuC_4A","LocationType":"point","DisplayPosition":{"Latitude":47.19856,"Longitude":2.57018},"MapView":{"TopLeft":{"Latitude":47.1996842,"Longitude":2.5685255},"BottomRight":{"Latitude":47.1974358,"Longitude":2.5718345}},"Address":{"Label":"8 Rue du Chapître, 18220 Les Aix-d'Angillon, France","Country":"FRA","State":"Centre-Val de Loire","County":"Cher","City":"Les Aix-d'Angillon","Street":"Rue du Chapître","HouseNumber":"8","PostalCode":"18220","AdditionalData":[{"value":"France","key":"CountryName"},{"value":"Centre-Val de Loire","key":"StateName"},{"value":"Cher","key":"CountyName"}]},"MapReference":{"ReferenceId":"580540985","Spot":0.74,"SideOfStreet":"right","CountryId":"20000001","StateId":"20002113","CountyId":"20011167","CityId":"20059329","AddressId":"318617640","RoadLinkId":"53405322"}}},{"Relevance":1.0,"Distance":105.5,"MatchLevel":"houseNumber","MatchQuality":{"Country":1.0,"State":1.0,"County":1.0,"City":1.0,"Street":[1.0],"HouseNumber":1.0,"PostalCode":1.0},"MatchType":"interpolated","Location":{"LocationId":"NT_lCya7LQgNyhOqxszhVeeIC_xUD","LocationType":"point","DisplayPosition":{"Latitude":47.19841,"Longitude":2.57055},"MapView":{"TopLeft":{"Latitude":47.1995342,"Longitude":2.5688955},"BottomRight":{"Latitude":47.1972858,"Longitude":2.5722045}},"Address":{"Label":"15 Rue de l'Église, 18220 Les Aix-d'Angillon, France","Country":"FRA","State":"Centre-Val de Loire","County":"Cher","City":"Les Aix-d'Angillon","Street":"Rue de l'Église","HouseNumber":"15","PostalCode":"18220","AdditionalData":[{"value":"France","key":"CountryName"},{"value":"Centre-Val de Loire","key":"StateName"},{"value":"Cher","key":"CountyName"}]},"MapReference":{"ReferenceId":"772832521","Spot":0.76,"SideOfStreet":"left","CountryId":"20000001","StateId":"20002113","CountyId":"20011167","CityId":"20059329","AddressId":"370923022","RoadLinkId":"166439054"}}},{"Relevance":1.0,"Distance":108.5,"MatchLevel":"street","MatchQuality":{"Country":1.0,"State":1.0,"County":1.0,"City":1.0,"Street":[1.0],"PostalCode":1.0},"Location":{"LocationId":"NT_o8mJj1DxN-8Cxp6Ob0u3kC_l_580540317_L","LocationType":"point","DisplayPosition":{"Latitude":47.1992783,"Longitude":2.5693806},"MapView":{"TopLeft":{"Latitude":47.19958,"Longitude":2.56876},"BottomRight":{"Latitude":47.19919,"Longitude":2.56952}},"Address":{"Label":"Rue de la Chaussée, 18220 Les Aix-d'Angillon, France","Country":"FRA","State":"Centre-Val de Loire","County":"Cher","City":"Les Aix-d'Angillon","Street":"Rue de la Chaussée","PostalCode":"18220","AdditionalData":[{"value":"France","key":"CountryName"},{"value":"Centre-Val de Loire","key":"StateName"},{"value":"Cher","key":"CountyName"}]},"MapReference":{"ReferenceId":"580540317","Spot":0.19,"SideOfStreet":"left","CountryId":"20000001","StateId":"20002113","CountyId":"20011167","CityId":"20059329"}}}]}]}}