{"Response":{"MetaInfo":{"Timestamp":"2020-03-28T10:00:05.578+0000","NextPageInformation":"2"},"View":[{"_type":"SearchResultsViewType","ViewId":0,"Result":[{"Relevance":1.0,"Distance":0.0,"Direction":0.0,"MatchLevel":"district","MatchQuality":{"Country":1.0,"County":1.0,"City":1.0,"District":1.0,"PostalCode":1.0},"Location":{"LocationId":"NT_TPsKepGJbXOO82u4iCyyHC","LocationType":"point","DisplayPosition":{"Latitude":47.1600497,"Longitude":27.6112758},"MapView":{"TopLeft":{"Latitude":47.21156,"Longitude":27.5191},"BottomRight":{"Latitude":47.10509,"Longitude":27.67767}},"Address":{"Label":"Iași, România","Country":"ROU","County":"Iași","City":"Iași","District":"Iași","PostalCode":"700309","AdditionalData":[{"value":"România","key":"CountryName"},{"value":"Iași","key":"CountyName"}]},"MapReference":{"ReferenceId":"1156219365","SideOfStreet":"neither","CountryId":"20656215","CountyId":"20660417","CityId":"20660511","DistrictId":"20660512"}}},{"Relevance":1.0,"Distance":7.8,"MatchLevel":"houseNumber","MatchQuality":{"Country":1.0,"County":1.0,"City":1.0,"District":1.0,"Street":[1.0],"HouseNumber":1.0},"MatchType":"interpolated","Location":{"LocationId":"NT_w9u98tF9kGih.Oa3.XGQ9D_l_1150703615_R_xQD","LocationType":"point","DisplayPosition":{"Latitude":47.159992,"Longitude":27.6112},"MapView":{"TopLeft":{"Latitude":47.1611162,"Longitude":27.6095467},"BottomRight":{"Latitude":47.1588679,"Longitude":27.6128533}},"Address":{"Label":"Strada Hanciuc 14, Iași, România","Country":"ROU","County":"Iași","City":"Iași","District":"Iași","Street":"Strada Hanciuc","HouseNumber":"14","AdditionalData":[{"value":"România","key":"CountryName"},{"value":"Iași","key":"CountyName"}]},"MapReference":{"ReferenceId":"1150703615","Spot":0.51,"SideOfStreet":"right","CountryId":"20656215","CountyId":"20660417","CityId":"20660511","DistrictId":"20660512"}}},{"Relevance":1.0,"Distance":11.7,"MatchLevel":"houseNumber","MatchQuality":{"Country":1.0,"County":1.0,"City":1.0,"District":1.0,"Street":[1.0],"HouseNumber":1.0},"MatchType":"interpolated","Location":{"LocationId":"NT_SJjRCXXzDpDJ81O1qG0BDB_l_943596894_R_3gD","LocationType":"point","DisplayPosition":{"Latitude":47.16015,"Longitude":27.6114216},"MapView":{"TopLeft":{"Latitude":47.1612742,"Longitude":27.6097683},"BottomRight":{"Latitude":47.1590258,"Longitude":27.6130749}},"Address":{"Label":"Strada Vasile Lupu 78, Iași, România","Country":"ROU","County":"Iași","City":"Iași","District":"Iași","Street":"Strada Vasile Lupu","HouseNumber":"78","AdditionalData":[{"value":"România","key":"CountryName"},{"value":"Iași","key":"CountyName"}]},"MapReference":{"ReferenceId":"943596894","Spot":0.53,"SideOfStreet":"right","CountryId":"20656215","CountyId":"20660417","CityId":"20660511","DistrictId":"20660512"}}},{"Relevance":1.0,"Distance":18.3,"MatchLevel":"street","MatchQuality":{"Country":1.0,"County":1.0,"City":1.0,"District":1.0,"PostalCode":1.0},"Location":{"LocationId":"NT_jWl.qw9d5V.Sy5PkFNzrmA_l_1150819798_R","LocationType":"point","DisplayPosition":{"Latitude":47.15999,"Longitude":27.61105},"MapView":{"TopLeft":{"Latitude":47.16004,"Longitude":27.61082},"BottomRight":{"Latitude":47.15979,"Longitude":27.61105}},"Address":{"Label":"700349 Iași, România","Country":"ROU","County":"Iași","City":"Iași","District":"Iași","PostalCode":"700349","AdditionalData":[{"value":"România","key":"CountryName"},{"value":"Iași","key":"CountyName"}]},"MapReference":{"ReferenceId":"1150819798","Spot":0.45,"SideOfStreet":"right","CountryId":"20656215","CountyId":"20660417","CityId":"20660511","DistrictId":"20660512"}}},{"Relevance":1.0,"Distance":23.7,"MatchLevel":"street","MatchQuality":{"Country":1.0,"County":1.0,"City":1.0,"District":1.0,"PostalCode":1.0},"Location":{"LocationId":"NT_jWl.qw9d5V.Sy5PkFNzrmA_l_1150819791_L","LocationType":"point","DisplayPosition":{"Latitude":47.1598365,"Longitude":27.611291},"MapView":{"TopLeft":{"Latitude":47.15984,"Longitude":27.6112},"BottomRight":{"Latitude":47.15983,"Longitude":27.61134}},"Address":{"Label":"700349 Iași, România","Country":"ROU","County":"Iași","City":"Iași","District":"Iași","PostalCode":"700349","AdditionalData":[{"value":"România","key":"CountryName"},{"value":"Iași","key":"CountyName"}]},"MapReference":{"ReferenceId":"1150819791","Spot":0.65,"SideOfStreet":"left","CountryId":"20656215","CountyId":"20660417","CityId":"20660511","DistrictId":"20660512"}}},{"Relevance":1.0,"Distance":23.8,"MatchLevel":"street","MatchQuality":{"Country":1.0,"County":1.0,"City":1.0,"District":1.0,"PostalCode":1.0},"Location":{"LocationId":"NT_jWl.qw9d5V.Sy5PkFNzrmA_l_1150819792_L","LocationType":"point","DisplayPosition":{"Latitude":47.15984,"Longitude":27.61134},"MapView":{"TopLeft":{"Latitude":47.15985,"Longitude":27.61134},"BottomRight":{"Latitude":47.15984,"Longitude":27.61178}},"Address":{"Label":"700349 Iași, România","Country":"ROU","County":"Iași","City":"Iași","District":"Iași","PostalCode":"700349","AdditionalData":[{"value":"România","key":"CountryName"},{"value":"Iași","key":"CountyName"}]},"MapReference":{"ReferenceId":"1150819792","Spot":0.0,"SideOfStreet":"left","CountryId":"20656215","CountyId":"20660417","CityId":"20660511","DistrictId":"20660512"}}},{"Relevance":1.0,"Distance":25.1,"MatchLevel":"street","MatchQuality":{"Country":1.0,"County":1.0,"City":1.0,"District":1.0,"Street":[1.0]},"Location":{"LocationId":"NT_w9u98tF9kGih.Oa3.XGQ9D_l_1150819794_R","LocationType":"point","DisplayPosition":{"Latitude":47.15983,"Longitude":27.6112},"MapView":{"TopLeft":{"Latitude":47.15983,"Longitude":27.6112},"BottomRight":{"Latitude":47.15979,"Longitude":27.6112}},"Address":{"Label":"Strada Hanciuc, Iași, România","Country":"ROU","County":"Iași","City":"Iași","District":"Iași","Street":"Strada Hanciuc","AdditionalData":[{"value":"România","key":"CountryName"},{"value":"Iași","key":"CountyName"}]},"MapReference":{"ReferenceId":"1150819794","Spot":1.0,"SideOfStreet":"right","CountryId":"20656215","CountyId":"20660417","CityId":"20660511","DistrictId":"20660512"}}},{"Relevance":1.0,"Distance":29.4,"MatchLevel":"street","MatchQuality":{"Country":1.0,"County":1.0,"City":1.0,"District":1.0,"PostalCode":1.0},"Location":{"LocationId":"NT_jWl.qw9d5V.Sy5PkFNzrmA_l_1150819795_L","LocationType":"point","DisplayPosition":{"Latitude":47.15979,"Longitude":27.6112},"MapView":{"TopLeft":{"Latitude":47.15979,"Longitude":27.61105},"BottomRight":{"Latitude":47.15979,"Longitude":27.6112}},"Address":{"Label":"700349 Iași, România","Country":"ROU","County":"Iași","City":"Iași","District":"Iași","PostalCode":"700349","AdditionalData":[{"value":"România","key":"CountryName"},{"value":"Iași","key":"CountyName"}]},"MapReference":{"ReferenceId":"1150819795","Spot":1.0,"SideOfStreet":"left","CountryId":"20656215","CountyId":"20660417","CityId":"20660511","DistrictId":"20660512"}}},{"Relevance":1.0,"Distance":33.5,"MatchLevel":"street","MatchQuality":{"Country":1.0,"County":1.0,"City":1.0,"District":1.0,"PostalCode":1.0},"Location":{"LocationId":"NT_jWl.qw9d5V.Sy5PkFNzrmA_l_1150819796_L","LocationType":"point","DisplayPosition":{"Latitude":47.15979,"Longitude":27.61105},"MapView":{"TopLeft":{"Latitude":47.15979,"Longitude":27.61082},"BottomRight":{"Latitude":47.15978,"Longitude":27.61105}},"Address":{"Label":"700349 Iași, România","Country":"ROU","County":"Iași","City":"Iași","District":"Iași","PostalCode":"700349","AdditionalData":[{"value":"România","key":"CountryName"},{"value":"Iași","key":"CountyName"}]},"MapReference":{"ReferenceId":"1150819796","Spot":1.0,"SideOfStreet":"left","CountryId":"20656215","CountyId":"20660417","CityId":"20660511","DistrictId":"20660512"}}},{"Relevance":1.0,"Distance":34.5,"MatchLevel":"street","MatchQuality":{"Country":1.0,"County":1.0,"City":1.0,"District":1.0,"PostalCode":1.0},"Location":{"LocationId":"NT_jWl.qw9d5V.Sy5PkFNzrmA_l_1150819797_R","LocationType":"point","DisplayPosition":{"Latitude":47.16004,"Longitude":27.61082},"MapView":{"TopLeft":{"Latitude":47.16004,"Longitude":27.61082},"BottomRight":{"Latitude":47.15978,"Longitude":27.61082}},"Address":{"Label":"700349 Iași, România","Country":"ROU","County":"Iași","City":"Iași","District":"Iași","PostalCode":"700349","AdditionalData":[{"value":"România","key":"CountryName"},{"value":"Iași","key":"CountyName"}]},"MapReference":{"ReferenceId":"1150819797","Spot":1.0,"SideOfStreet":"right","CountryId":"20656215","CountyId":"20660417","CityId":"20660511","DistrictId":"20660512"}}}]}]}}