{"Response":{"MetaInfo":{"Timestamp":"2020-03-28T11:35:16.959+0000","NextPageInformation":"2"},"View":[{"_type":"SearchResultsViewType","ViewId":0,"Result":[{"Relevance":1.0,"Distance":0.0,"Direction":0.0,"MatchLevel":"district","MatchQuality":{"Country":1.0,"County":1.0,"City":1.0,"District":1.0,"PostalCode":1.0},"Location":{"LocationId":"NT_TPsKepGJbXOO82u4iCyyHC","LocationType":"point","DisplayPosition":{"Latitude":47.1800168,"Longitude":27.5681719},"MapView":{"TopLeft":{"Latitude":47.21156,"Longitude":27.5191},"BottomRight":{"Latitude":47.10509,"Longitude":27.67767}},"Address":{"Label":"Iași, România","Country":"ROU","County":"Iași","City":"Iași","District":"Iași","PostalCode":"700503","AdditionalData":[{"value":"România","key":"CountryName"},{"value":"Iași","key":"CountyName"}]},"MapReference":{"ReferenceId":"1156219365","SideOfStreet":"neither","CountryId":"20656215","CountyId":"20660417","CityId":"20660511","DistrictId":"20660512"}}},{"Relevance":1.0,"Distance":21.1,"MatchLevel":"street","MatchQuality":{"Country":1.0,"County":1.0,"City":1.0,"District":1.0,"Street":[1.0]},"Location":{"LocationId":"NT_OlieXgy9can.aNWsuMa22C_l_946163853_R","LocationType":"point","DisplayPosition":{"Latitude":47.1798682,"Longitude":27.5679977},"MapView":{"TopLeft":{"Latitude":47.1801,"Longitude":27.5678},"BottomRight":{"Latitude":47.17976,"Longitude":27.56809}},"Address":{"Label":"Bulevardul Carol I, Iași, România","Country":"ROU","County":"Iași","City":"Iași","District":"Iași","Street":"Bulevardul Carol I","AdditionalData":[{"value":"România","key":"CountryName"},{"value":"Iași","key":"CountyName"}]},"MapReference":{"ReferenceId":"946163853","Spot":0.32,"SideOfStreet":"right","CountryId":"20656215","CountyId":"20660417","CityId":"20660511","DistrictId":"20660512"}}},{"Relevance":1.0,"Distance":36.4,"MatchLevel":"houseNumber","MatchQuality":{"Country":1.0,"County":1.0,"City":1.0,"District":1.0,"Street":[1.0],"HouseNumber":1.0,"PostalCode":1.0},"MatchType":"interpolated","Location":{"LocationId":"NT_zp82vcwOOy9A4LbaHTUCmB_1ID","LocationType":"point","DisplayPosition":{"Latitude":47.1802,"Longitude":27.56772},"MapView":{"TopLeft":{"Latitude":47.1813242,"Longitude":27.5660661},"BottomRight":{"Latitude":47.1790758,"Longitude":27.5693739}},"Address":{"Label":"Bulevardul Carol I 52, 700503 Iași, România","Country":"ROU","County":"Iași","City":"Iași","District":"Iași","Street":"Bulevardul Carol I","HouseNumber":"52","PostalCode":"700503","AdditionalData":[{"value":"România","key":"CountryName"},{"value":"Iași","key":"CountyName"}]},"MapReference":{"ReferenceId":"946163854","Spot":0.36,"SideOfStreet":"right","CountryId":"20656215","CountyId":"20660417","CityId":"20660511","DistrictId":"20660512","AddressId":"686796284","RoadLinkId":"294362290"}}},{"Relevance":1.0,"Distance":51.7,"MatchLevel":"houseNumber","MatchQuality":{"Country":1.0,"County":1.0,"City":1.0,"District":1.0,"Street":[1.0],"HouseNumber":1.0,"PostalCode":1.0},"MatchType":"interpolated","Location":{"LocationId":"NT_zp82vcwOOy9A4LbaHTUCmB_1AD","LocationType":"point","DisplayPosition":{"Latitude":47.17953,"Longitude":27.56829},"MapView":{"TopLeft":{"Latitude":47.1806542,"Longitude":27.5666361},"BottomRight":{"Latitude":47.1784058,"Longitude":27.5699439}},"Address":{"Label":"Bulevardul Carol I 50, 700503 Iași, România","Country":"ROU","County":"Iași","City":"Iași","District":"Iași","Street":"Bulevardul Carol I","HouseNumber":"50","PostalCode":"700503","AdditionalData":[{"value":"România","key":"CountryName"},{"value":"Iași","key":"CountyName"}]},"MapReference":{"ReferenceId":"946163852","Spot":0.61,"SideOfStreet":"right","CountryId":"20656215","CountyId":"20660417","CityId":"20660511","DistrictId":"20660512","AddressId":"686796283","RoadLinkId":"294362287"}}},{"Relevance":1.0,"Distance":78.7,"MatchLevel":"street","MatchQuality":{"Country":1.0,"County":1.0,"City":1.0,"District":1.0},"Location":{"LocationId":"NT_OSAmLpK7G-1jcuv8pxyiWB_l_920723175_L","LocationType":"point","DisplayPosition":{"Latitude":47.18022,"Longitude":27.56917},"MapView":{"TopLeft":{"Latitude":47.18022,"Longitude":27.56917},"BottomRight":{"Latitude":47.17953,"Longitude":27.56976}},"Address":{"Label":"Iași, România","Country":"ROU","County":"Iași","City":"Iași","District":"Iași","AdditionalData":[{"value":"România","key":"CountryName"},{"value":"Iași","key":"CountyName"}]},"MapReference":{"ReferenceId":"920723175","Spot":1.0,"SideOfStreet":"left","CountryId":"20656215","CountyId":"20660417","CityId":"20660511","DistrictId":"20660512"}}},{"Relevance":1.0,"Distance":83.8,"MatchLevel":"houseNumber","MatchQuality":{"Country":1.0,"County":1.0,"City":1.0,"District":1.0,"Street":[1.0],"HouseNumber":1.0,"PostalCode":1.0},"MatchType":"interpolated","Location":{"LocationId":"NT_zp82vcwOOy9A4LbaHTUCmB_1QD","LocationType":"point","DisplayPosition":{"Latitude":47.18057,"Longitude":27.5674},"MapView":{"TopLeft":{"Latitude":47.1816942,"Longitude":27.5657461},"BottomRight":{"Latitude":47.1794458,"Longitude":27.5690539}},"Address":{"Label":"Bulevardul Carol I 54, 700503 Iași, România","Country":"ROU","County":"Iași","City":"Iași","District":"Iași","Street":"Bulevardul Carol I","HouseNumber":"54","PostalCode":"700503","AdditionalData":[{"value":"România","key":"CountryName"},{"value":"Iași","key":"CountyName"}]},"MapReference":{"ReferenceId":"946163855","Spot":0.62,"SideOfStreet":"right","CountryId":"20656215","CountyId":"20660417","CityId":"20660511","DistrictId":"20660512","AddressId":"686796293","RoadLinkId":"294362292"}}},{"Relevance":1.0,"Distance":97.2,"MatchLevel":"houseNumber","MatchQuality":{"Country":1.0,"County":1.0,"City":1.0,"District":1.0,"Street":[1.0],"HouseNumber":1.0},"MatchType":"interpolated","Location":{"LocationId":"NT_OlieXgy9can.aNWsuMa22C_l_946163851_R_0gD","LocationType":"point","DisplayPosition":{"Latitude":47.1791314,"Longitude":27.5686338},"MapView":{"TopLeft":{"Latitude":47.1802555,"Longitude":27.5669799},"BottomRight":{"Latitude":47.1780072,"Longitude":27.5702877}},"Address":{"Label":"Bulevardul Carol I 48, Iași, România","Country":"ROU","County":"Iași","City":"Iași","District":"Iași","Street":"Bulevardul Carol I","HouseNumber":"48","AdditionalData":[{"value":"România","key":"CountryName"},{"value":"Iași","key":"CountyName"}]},"MapReference":{"ReferenceId":"946163851","Spot":0.52,"SideOfStreet":"right","CountryId":"20656215","CountyId":"20660417","CityId":"20660511","DistrictId":"20660512"}}},{"Relevance":1.0,"Distance":109.7,"MatchLevel":"street","MatchQuality":{"Country":1.0,"County":1.0,"City":1.0,"District":1.0,"Street":[1.0],"PostalCode":1.0},"Location":{"LocationId":"NT_74XAQFP4CRS5c23o5O964C_l_788024778_L","LocationType":"point","DisplayPosition":{"Latitude":47.17909,"Longitude":27.56867},"MapView":{"TopLeft":{"Latitude":47.17953,"Longitude":27.56867},"BottomRight":{"Latitude":47.17909,"Longitude":27.56976}},"Address":{"Label":"Strada Oastei, 700478 Iași, România","Country":"ROU","County":"Iași","City":"Iași","District":"Iași","Street":"Strada Oastei","PostalCode":"700478","AdditionalData":[{"value":"România","key":"CountryName"},{"value":"Iași","key":"CountyName"}]},"MapReference":{"ReferenceId":"788024778","Spot":0.0,"SideOfStreet":"left","CountryId":"20656215","CountyId":"20660417","CityId":"20660511","DistrictId":"20660512"}}},{"Relevance":1.0,"Distance":109.7,"MatchLevel":"street","MatchQuality":{"Country":1.0,"County":1.0,"City":1.0,"District":1.0,"Street":[1.0]},"Location":{"LocationId":"NT_OlieXgy9can.aNWsuMa22C_l_788024774_R","LocationType":"point","DisplayPosition":{"Latitude":47.17909,"Longitude":27.56867},"MapView":{"TopLeft":{"Latitude":47.17909,"Longitude":27.56867},"BottomRight":{"Latitude":47.17901,"Longitude":27.56873}},"Address":{"Label":"Bulevardul Carol I, Iași, România","Country":"ROU","County":"Iași","City":"Iași","District":"Iași","Street":"Bulevardul Carol I","AdditionalData":[{"value":"România","key":"CountryName"},{"value":"Iași","key":"CountyName"}]},"MapReference":{"ReferenceId":"788024774","Spot":1.0,"SideOfStreet":"right","CountryId":"20656215","CountyId":"20660417","CityId":"20660511","DistrictId":"20660512"}}},{"Relevance":1.0,"Distance":111.3,"MatchLevel":"street","MatchQuality":{"Country":1.0,"County":1.0,"City":1.0,"District":1.0},"Location":{"LocationId":"NT_OSAmLpK7G-1jcuv8pxyiWB_l_1155377238_L","LocationType":"point","DisplayPosition":{"Latitude":47.18084,"Longitude":27.56901},"MapView":{"TopLeft":{"Latitude":47.18084,"Longitude":27.56901},"BottomRight":{"Latitude":47.18058,"Longitude":27.56983}},"Address":{"Label":"Iași, România","Country":"ROU","County":"Iași","City":"Iași","District":"Iași","AdditionalData":[{"value":"România","key":"CountryName"},{"value":"Iași","key":"CountyName"}]},"MapReference":{"ReferenceId":"1155377238","Spot":1.0,"SideOfStreet":"left","CountryId":"20656215","CountyId":"20660417","CityId":"20660511","DistrictId":"20660512"}}}]}]}}