{"Response":{"MetaInfo":{"Timestamp":"2020-03-28T11:35:07.607+0000","NextPageInformation":"2"},"View":[{"_type":"SearchResultsViewType","ViewId":0,"Result":[{"Relevance":1.0,"Distance":0.0,"Direction":0.0,"MatchLevel":"district","MatchQuality":{"Country":1.0,"County":1.0,"City":1.0,"District":1.0,"PostalCode":1.0},"Location":{"LocationId":"NT_uTfJVAplJFqDpu8bXIE1pC","LocationType":"point","DisplayPosition":{"Latitude":47.184443,"Longitude":24.1847276},"MapView":{"TopLeft":{"Latitude":47.19435,"Longitude":24.13268},"BottomRight":{"Latitude":47.16408,"Longitude":24.20505}},"Address":{"Label":"Beclean, România","Country":"ROU","County":"Bistrița-Năsăud","City":"Beclean","District":"Beclean","PostalCode":"425100","AdditionalData":[{"value":"România","key":"CountryName"},{"value":"Bistrița-Năsăud","key":"CountyName"}]},"MapReference":{"ReferenceId":"877484818","SideOfStreet":"neither","CountryId":"20656215","CountyId":"20657493","CityId":"23756199","DistrictId":"23758127"}}},{"Relevance":1.0,"Distance":49.4,"MatchLevel":"houseNumber","MatchQuality":{"Country":1.0,"County":1.0,"City":1.0,"District":1.0,"Street":[1.0],"HouseNumber":1.0,"PostalCode":1.0},"MatchType":"interpolated","Location":{"LocationId":"NT_Csk10iGHV2CJFRab37ovqC_yAD","LocationType":"point","DisplayPosition":{"Latitude":47.18482,"Longitude":24.1843},"MapView":{"TopLeft":{"Latitude":47.1859442,"Longitude":24.1826459},"BottomRight":{"Latitude":47.1836958,"Longitude":24.1859541}},"Address":{"Label":"Strada Petru Maior 20, 425100 Beclean, România","Country":"ROU","County":"Bistrița-Năsăud","City":"Beclean","District":"Beclean","Street":"Strada Petru Maior","HouseNumber":"20","PostalCode":"425100","AdditionalData":[{"value":"România","key":"CountryName"},{"value":"Bistrița-Năsăud","key":"CountyName"}]},"MapReference":{"ReferenceId":"833508138","Spot":0.04,"SideOfStreet":"right","CountryId":"20656215","CountyId":"20657493","CityId":"23756199","DistrictId":"23758127","AddressId":"685926114","RoadLinkId":"216815581"}}},{"Relevance":1.0,"Distance":54.9,"MatchLevel":"street","MatchQuality":{"Country":1.0,"County":1.0,"City":1.0,"District":1.0,"Street":[1.0],"PostalCode":1.0},"Location":{"LocationId":"NT_xTtbI76zJ2-Ck3hoMKOZuA_l_833508137_L","LocationType":"point","DisplayPosition":{"Latitude":47.18479,"Longitude":24.18421},"MapView":{"TopLeft":{"Latitude":47.18521,"Longitude":24.18358},"BottomRight":{"Latitude":47.18478,"Longitude":24.18421}},"Address":{"Label":"Strada Octavian Goga, 425100 Beclean, România","Country":"ROU","County":"Bistrița-Năsăud","City":"Beclean","District":"Beclean","Street":"Strada Octavian Goga","PostalCode":"425100","AdditionalData":[{"value":"România","key":"CountryName"},{"value":"Bistrița-Năsăud","key":"CountyName"}]},"MapReference":{"ReferenceId":"833508137","Spot":0.0,"SideOfStreet":"left","CountryId":"20656215","CountyId":"20657493","CityId":"23756199","DistrictId":"23758127"}}},{"Relevance":1.0,"Distance":106.3,"MatchLevel":"houseNumber","MatchQuality":{"Country":1.0,"County":1.0,"City":1.0,"District":1.0,"Street":[1.0],"HouseNumber":1.0,"PostalCode":1.0},"MatchType":"interpolated","Location":{"LocationId":"NT_39DhVwGuiZsI4OSHw7J2XA_zID","LocationType":"point","DisplayPosition":{"Latitude":47.18537,"Longitude":24.18422},"MapView":{"TopLeft":{"Latitude":47.1864942,"Longitude":24.1825659},"BottomRight":{"Latitude":47.1842458,"Longitude":24.1858741}},"Address":{"Label":"Strada Mihai Viteazul 32, 425100 Beclean, România","Country":"ROU","County":"Bistrița-Năsăud","City":"Beclean","District":"Beclean","Street":"Strada Mihai Viteazul","HouseNumber":"32","PostalCode":"425100","AdditionalData":[{"value":"România","key":"CountryName"},{"value":"Bistrița-Năsăud","key":"CountyName"}]},"MapReference":{"ReferenceId":"833508136","Spot":0.26,"SideOfStreet":"right","CountryId":"20656215","CountyId":"20657493","CityId":"23756199","DistrictId":"23758127","AddressId":"685926109","RoadLinkId":"216815579"}}},{"Relevance":1.0,"Distance":108.6,"MatchLevel":"street","MatchQuality":{"Country":1.0,"County":1.0,"City":1.0,"District":1.0,"PostalCode":1.0},"Location":{"LocationId":"NT_Vk1cLRPmJh9JcUSKx5ss6D_l_1240024842_L","LocationType":"point","DisplayPosition":{"Latitude":47.1837,"Longitude":24.18566},"MapView":{"TopLeft":{"Latitude":47.1837,"Longitude":24.18566},"BottomRight":{"Latitude":47.18304,"Longitude":24.18604}},"Address":{"Label":"425100 Beclean, România","Country":"ROU","County":"Bistrița-Năsăud","City":"Beclean","District":"Beclean","PostalCode":"425100","AdditionalData":[{"value":"România","key":"CountryName"},{"value":"Bistrița-Năsăud","key":"CountyName"}]},"MapReference":{"ReferenceId":"1240024842","Spot":1.0,"SideOfStreet":"left","CountryId":"20656215","CountyId":"20657493","CityId":"23756199","DistrictId":"23758127"}}},{"Relevance":1.0,"Distance":126.7,"MatchLevel":"houseNumber","MatchQuality":{"Country":1.0,"County":1.0,"City":1.0,"District":1.0,"Street":[1.0],"HouseNumber":1.0,"PostalCode":1.0},"MatchType":"interpolated","Location":{"LocationId":"NT_39DhVwGuiZsI4OSHw7J2XA_ygD","LocationType":"point","DisplayPosition":{"Latitude":47.18515,"Longitude":24.18337},"MapView":{"TopLeft":{"Latitude":47.1862742,"Longitude":24.1817159},"BottomRight":{"Latitude":47.1840258,"Longitude":24.1850241}},"Address":{"Label":"Strada Mihai Viteazul 28, 425100 Beclean, România","Country":"ROU","County":"Bistrița-Năsăud","City":"Beclean","District":"Beclean","Street":"Strada Mihai Viteazul","HouseNumber":"28","PostalCode":"425100","AdditionalData":[{"value":"România","key":"CountryName"},{"value":"Bistrița-Năsăud","key":"CountyName"}]},"MapReference":{"ReferenceId":"833508124","Spot":0.96,"SideOfStreet":"right","CountryId":"20656215","CountyId":"20657493","CityId":"23756199","DistrictId":"23758127","AddressId":"685922504","RoadLinkId":"216815567"}}},{"Relevance":1.0,"Distance":146.0,"MatchLevel":"houseNumber","MatchQuality":{"Country":1.0,"County":1.0,"City":1.0,"District":1.0,"Street":[1.0],"HouseNumber":1.0,"PostalCode":1.0},"MatchType":"interpolated","Location":{"LocationId":"NT_Csk10iGHV2CJFRab37ovqC_xgD","LocationType":"point","DisplayPosition":{"Latitude":47.1843,"Longitude":24.18279},"MapView":{"TopLeft":{"Latitude":47.1854242,"Longitude":24.181136},"BottomRight":{"Latitude":47.1831758,"Longitude":24.184444}},"Address":{"Label":"Strada Petru Maior 18, 425100 Beclean, România","Country":"ROU","County":"Bistrița-Năsăud","City":"Beclean","District":"Beclean","Street":"Strada Petru Maior","HouseNumber":"18","PostalCode":"425100","AdditionalData":[{"value":"România","key":"CountryName"},{"value":"Bistrița-Năsăud","key":"CountyName"}]},"MapReference":{"ReferenceId":"957785712","Spot":0.59,"SideOfStreet":"right","CountryId":"20656215","CountyId":"20657493","CityId":"23756199","DistrictId":"23758127","AddressId":"685926429","RoadLinkId":"300754506"}}},{"Relevance":1.0,"Distance":147.3,"MatchLevel":"street","MatchQuality":{"Country":1.0,"County":1.0,"City":1.0,"District":1.0,"PostalCode":1.0},"Location":{"LocationId":"NT_Vk1cLRPmJh9JcUSKx5ss6D_l_833508139_L","LocationType":"point","DisplayPosition":{"Latitude":47.1851942,"Longitude":24.1863325},"MapView":{"TopLeft":{"Latitude":47.18561,"Longitude":24.18608},"BottomRight":{"Latitude":47.18505,"Longitude":24.1864}},"Address":{"Label":"425100 Beclean, România","Country":"ROU","County":"Bistrița-Năsăud","City":"Beclean","District":"Beclean","PostalCode":"425100","AdditionalData":[{"value":"România","key":"CountryName"},{"value":"Bistrița-Năsăud","key":"CountyName"}]},"MapReference":{"ReferenceId":"833508139","Spot":0.24,"SideOfStreet":"left","CountryId":"20656215","CountyId":"20657493","CityId":"23756199","DistrictId":"23758127"}}},{"Relevance":1.0,"Distance":168.2,"MatchLevel":"houseNumber","MatchQuality":{"Country":1.0,"County":1.0,"City":1.0,"District":1.0,"Street":[1.0],"HouseNumber":1.0,"PostalCode":1.0},"MatchType":"interpolated","Location":{"LocationId":"NT_x4Z9PewxiXFWIBkbqgCWPA_2MD","LocationType":"point","DisplayPosition":{"Latitude":47.1829,"Longitude":24.18558},"MapView":{"TopLeft":{"Latitude":47.1840242,"Longitude":24.183926},"BottomRight":{"Latitude":47.1817758,"Longitude":24.187234}},"Address":{"Label":"Strada 1 Decembrie 1918 63, 425100 Beclean, România","Country":"ROU","County":"Bistrița-Năsăud","City":"Beclean","District":"Beclean","Street":"Strada 1 Decembrie 1918","HouseNumber":"63","PostalCode":"425100","AdditionalData":[{"value":"România","key":"CountryName"},{"value":"Bistrița-Năsăud","key":"CountyName"}]},"MapReference":{"ReferenceId":"877484821","Spot":0.28,"SideOfStreet":"left","CountryId":"20656215","CountyId":"20657493","CityId":"23756199","DistrictId":"23758127","AddressId":"772601243","RoadLinkId":"247534169"}}},{"Relevance":1.0,"Distance":177.0,"MatchLevel":"houseNumber","MatchQuality":{"Country":1.0,"County":1.0,"City":1.0,"District":1.0,"Street":[1.0],"HouseNumber":1.0,"PostalCode":1.0},"MatchType":"interpolated","Location":{"LocationId":"NT_xTtbI76zJ2-Ck3hoMKOZuA_0ED","LocationType":"point","DisplayPosition":{"Latitude":47.18571,"Longitude":24.1833},"MapView":{"TopLeft":{"Latitude":47.1868342,"Longitude":24.1816459},"BottomRight":{"Latitude":47.1845858,"Longitude":24.1849541}},"Address":{"Label":"Strada Octavian Goga 41, 425100 Beclean, România","Country":"ROU","County":"Bistrița-Năsăud","City":"Beclean","District":"Beclean","Street":"Strada Octavian Goga","HouseNumber":"41","PostalCode":"425100","AdditionalData":[{"value":"România","key":"CountryName"},{"value":"Bistrița-Năsăud","key":"CountyName"}]},"MapReference":{"ReferenceId":"957788510","Spot":0.37,"SideOfStreet":"right","CountryId":"20656215","CountyId":"20657493","CityId":"23756199","DistrictId":"23758127","AddressId":"685926126","RoadLinkId":"300757431"}}}]}]}}