{"Response":{"MetaInfo":{"Timestamp":"2020-03-28T11:35:08.080+0000","NextPageInformation":"2"},"View":[{"_type":"SearchResultsViewType","ViewId":0,"Result":[{"Relevance":1.0,"Distance":0.0,"Direction":0.0,"MatchLevel":"district","MatchQuality":{"Country":1.0,"County":1.0,"City":1.0,"District":1.0,"PostalCode":1.0},"Location":{"LocationId":"NT_uTfJVAplJFqDpu8bXIE1pC","LocationType":"point","DisplayPosition":{"Latitude":47.1841093,"Longitude":24.1863074},"MapView":{"TopLeft":{"Latitude":47.19435,"Longitude":24.13268},"BottomRight":{"Latitude":47.16408,"Longitude":24.20505}},"Address":{"Label":"Beclean, România","Country":"ROU","County":"Bistrița-Năsăud","City":"Beclean","District":"Beclean","PostalCode":"425100","AdditionalData":[{"value":"România","key":"CountryName"},{"value":"Bistrița-Năsăud","key":"CountyName"}]},"MapReference":{"ReferenceId":"877484818","SideOfStreet":"neither","CountryId":"20656215","CountyId":"20657493","CityId":"23756199","DistrictId":"23758127"}}},{"Relevance":1.0,"Distance":66.8,"MatchLevel":"street","MatchQuality":{"Country":1.0,"County":1.0,"City":1.0,"District":1.0,"PostalCode":1.0},"Location":{"LocationId":"NT_Vk1cLRPmJh9JcUSKx5ss6D_l_1240024842_R","LocationType":"point","DisplayPosition":{"Latitude":47.1837,"Longitude":24.18566},"MapView":{"TopLeft":{"Latitude":47.1837,"Longitude":24.18566},"BottomRight":{"Latitude":47.18304,"Longitude":24.18604}},"Address":{"Label":"425100 Beclean, România","Country":"ROU","County":"Bistrița-Năsăud","City":"Beclean","District":"Beclean","PostalCode":"425100","AdditionalData":[{"value":"România","key":"CountryName"},{"value":"Bistrița-Năsăud","key":"CountyName"}]},"MapReference":{"ReferenceId":"1240024842","Spot":1.0,"SideOfStreet":"right","CountryId":"20656215","CountyId":"20657493","CityId":"23756199","DistrictId":"23758127"}}},{"Relevance":1.0,"Distance":96.2,"MatchLevel":"houseNumber","MatchQuality":{"Country":1.0,"County":1.0,"City":1.0,"District":1.0,"Street":[1.0],"HouseNumber":1.0,"PostalCode":1.0},"MatchType":"interpolated","Location":{"LocationId":"NT_Q1zj.hNDqXOVyHQvX4dYsD_2UD","LocationType":"point","DisplayPosition":{"Latitude":47.18317,"Longitude":24.18668},"MapView":{"TopLeft":{"Latitude":47.1842942,"Longitude":24.185026},"BottomRight":{"Latitude":47.1820458,"Longitude":24.188334}},"Address":{"Label":"Piața Libertății 65, 425100 Beclean, România","Country":"ROU","County":"Bistrița-Năsăud","City":"Beclean","District":"Beclean","Street":"Piața Libertății","HouseNumber":"65","PostalCode":"425100","AdditionalData":[{"value":"România","key":"CountryName"},{"value":"Bistrița-Năsăud","key":"CountyName"}]},"MapReference":{"ReferenceId":"877484822","Spot":0.67,"SideOfStreet":"left","CountryId":"20656215","CountyId":"20657493","CityId":"23756199","DistrictId":"23758127","AddressId":"772601210","RoadLinkId":"485998292"}}},{"Relevance":1.0,"Distance":100.4,"MatchLevel":"houseNumber","MatchQuality":{"Country":1.0,"County":1.0,"City":1.0,"District":1.0,"Street":[1.0],"HouseNumber":1.0,"PostalCode":1.0},"MatchType":"interpolated","Location":{"LocationId":"NT_cWkfvpixP.JkVFzBUeWeIB_xA","LocationType":"point","DisplayPosition":{"Latitude":47.18336,"Longitude":24.18713},"MapView":{"TopLeft":{"Latitude":47.1844842,"Longitude":24.185476},"BottomRight":{"Latitude":47.1822358,"Longitude":24.188784}},"Address":{"Label":"Strada Nicolae Bălcescu 1, 425100 Beclean, România","Country":"ROU","County":"Bistrița-Năsăud","City":"Beclean","District":"Beclean","Street":"Strada Nicolae Bălcescu","HouseNumber":"1","PostalCode":"425100","AdditionalData":[{"value":"România","key":"CountryName"},{"value":"Bistrița-Năsăud","key":"CountyName"}]},"MapReference":{"ReferenceId":"801533453","Spot":0.36,"SideOfStreet":"left","CountryId":"20656215","CountyId":"20657493","CityId":"23756199","DistrictId":"23758127","AddressId":"685923880","RoadLinkId":"216815629"}}},{"Relevance":1.0,"Distance":100.7,"MatchLevel":"houseNumber","MatchQuality":{"Country":1.0,"County":1.0,"City":1.0,"District":1.0,"Street":[1.0],"HouseNumber":1.0,"PostalCode":1.0},"MatchType":"interpolated","Location":{"LocationId":"NT_cWkfvpixP.JkVFzBUeWeIB_3A","LocationType":"point","DisplayPosition":{"Latitude":47.18371,"Longitude":24.18753},"MapView":{"TopLeft":{"Latitude":47.1848342,"Longitude":24.185876},"BottomRight":{"Latitude":47.1825858,"Longitude":24.189184}},"Address":{"Label":"Strada Nicolae Bălcescu 7, 425100 Beclean, România","Country":"ROU","County":"Bistrița-Năsăud","City":"Beclean","District":"Beclean","Street":"Strada Nicolae Bălcescu","HouseNumber":"7","PostalCode":"425100","AdditionalData":[{"value":"România","key":"CountryName"},{"value":"Bistrița-Năsăud","key":"CountyName"}]},"MapReference":{"ReferenceId":"833507137","Spot":0.08,"SideOfStreet":"left","CountryId":"20656215","CountyId":"20657493","CityId":"23756199","DistrictId":"23758127","AddressId":"685922332","RoadLinkId":"216814564"}}},{"Relevance":1.0,"Distance":104.8,"MatchLevel":"street","MatchQuality":{"Country":1.0,"County":1.0,"City":1.0,"District":1.0,"PostalCode":1.0},"Location":{"LocationId":"NT_Vk1cLRPmJh9JcUSKx5ss6D_l_833508139_L","LocationType":"point","DisplayPosition":{"Latitude":47.18505,"Longitude":24.1864},"MapView":{"TopLeft":{"Latitude":47.18561,"Longitude":24.18608},"BottomRight":{"Latitude":47.18505,"Longitude":24.1864}},"Address":{"Label":"425100 Beclean, România","Country":"ROU","County":"Bistrița-Năsăud","City":"Beclean","District":"Beclean","PostalCode":"425100","AdditionalData":[{"value":"România","key":"CountryName"},{"value":"Bistrița-Năsăud","key":"CountyName"}]},"MapReference":{"ReferenceId":"833508139","Spot":0.0,"SideOfStreet":"left","CountryId":"20656215","CountyId":"20657493","CityId":"23756199","DistrictId":"23758127"}}},{"Relevance":1.0,"Distance":114.6,"MatchLevel":"houseNumber","MatchQuality":{"Country":1.0,"County":1.0,"City":1.0,"District":1.0,"Street":[1.0],"HouseNumber":1.0,"PostalCode":1.0},"MatchType":"interpolated","Location":{"LocationId":"NT_Q1zj.hNDqXOVyHQvX4dYsD_1QD","LocationType":"point","DisplayPosition":{"Latitude":47.1832,"Longitude":24.18702},"MapView":{"TopLeft":{"Latitude":47.1843242,"Longitude":24.185366},"BottomRight":{"Latitude":47.1820758,"Longitude":24.188674}},"Address":{"Label":"Piața Libertății 54, 425100 Beclean, România","Country":"ROU","County":"Bistrița-Năsăud","City":"Beclean","District":"Beclean","Street":"Piața Libertății","HouseNumber":"54","PostalCode":"425100","AdditionalData":[{"value":"România","key":"CountryName"},{"value":"Bistrița-Năsăud","key":"CountyName"}]},"MapReference":{"ReferenceId":"877488402","Spot":0.08,"SideOfStreet":"right","CountryId":"20656215","CountyId":"20657493","CityId":"23756199","DistrictId":"23758127","AddressId":"722162262","RoadLinkId":"486002999"}}},{"Relevance":1.0,"Distance":131.2,"MatchLevel":"houseNumber","MatchQuality":{"Country":1.0,"County":1.0,"City":1.0,"District":1.0,"Street":[1.0],"HouseNumber":1.0,"PostalCode":1.0},"MatchType":"interpolated","Location":{"LocationId":"NT_xTtbI76zJ2-Ck3hoMKOZuA_1AD","LocationType":"point","DisplayPosition":{"Latitude":47.18501,"Longitude":24.18749},"MapView":{"TopLeft":{"Latitude":47.1861342,"Longitude":24.1858359},"BottomRight":{"Latitude":47.1838858,"Longitude":24.1891441}},"Address":{"Label":"Strada Octavian Goga 50, 425100 Beclean, România","Country":"ROU","County":"Bistrița-Năsăud","City":"Beclean","District":"Beclean","Street":"Strada Octavian Goga","HouseNumber":"50","PostalCode":"425100","AdditionalData":[{"value":"România","key":"CountryName"},{"value":"Bistrița-Năsăud","key":"CountyName"}]},"MapReference":{"ReferenceId":"833508140","Spot":0.61,"SideOfStreet":"left","CountryId":"20656215","CountyId":"20657493","CityId":"23756199","DistrictId":"23758127","AddressId":"722154505","RoadLinkId":"486002651"}}},{"Relevance":1.0,"Distance":138.7,"MatchLevel":"houseNumber","MatchQuality":{"Country":1.0,"County":1.0,"City":1.0,"District":1.0,"Street":[1.0],"HouseNumber":1.0,"PostalCode":1.0},"MatchType":"interpolated","Location":{"LocationId":"NT_x4Z9PewxiXFWIBkbqgCWPA_2MD","LocationType":"point","DisplayPosition":{"Latitude":47.1829,"Longitude":24.18558},"MapView":{"TopLeft":{"Latitude":47.1840242,"Longitude":24.183926},"BottomRight":{"Latitude":47.1817758,"Longitude":24.187234}},"Address":{"Label":"Strada 1 Decembrie 1918 63, 425100 Beclean, România","Country":"ROU","County":"Bistrița-Năsăud","City":"Beclean","District":"Beclean","Street":"Strada 1 Decembrie 1918","HouseNumber":"63","PostalCode":"425100","AdditionalData":[{"value":"România","key":"CountryName"},{"value":"Bistrița-Năsăud","key":"CountyName"}]},"MapReference":{"ReferenceId":"877484821","Spot":0.28,"SideOfStreet":"left","CountryId":"20656215","CountyId":"20657493","CityId":"23756199","DistrictId":"23758127","AddressId":"772601243","RoadLinkId":"247534169"}}},{"Relevance":1.0,"Distance":139.5,"MatchLevel":"houseNumber","MatchQuality":{"Country":1.0,"County":1.0,"City":1.0,"District":1.0,"Street":[1.0],"HouseNumber":1.0,"PostalCode":1.0},"MatchType":"interpolated","Location":{"LocationId":"NT_8UB6TSbK-YuRzf3JnQIw7B_2cD","LocationType":"point","DisplayPosition":{"Latitude":47.1832,"Longitude":24.18761},"MapView":{"TopLeft":{"Latitude":47.1843242,"Longitude":24.185956},"BottomRight":{"Latitude":47.1820758,"Longitude":24.189264}},"Address":{"Label":"DN17 67, 425100 Beclean, România","Country":"ROU","County":"Bistrița-Năsăud","City":"Beclean","District":"Beclean","Street":"DN17","HouseNumber":"67","PostalCode":"425100","AdditionalData":[{"value":"România","key":"CountryName"},{"value":"Bistrița-Năsăud","key":"CountyName"}]},"MapReference":{"ReferenceId":"905248623","Spot":0.68,"SideOfStreet":"right","CountryId":"20656215","CountyId":"20657493","CityId":"23756199","DistrictId":"23758127","AddressId":"755718235","RoadLinkId":"266422617"}}}]}]}}