{"Response":{"MetaInfo":{"Timestamp":"2020-03-28T10:27:30.886+0000","NextPageInformation":"2"},"View":[{"_type":"SearchResultsViewType","ViewId":0,"Result":[{"Relevance":1.0,"Distance":0.0,"Direction":0.0,"MatchLevel":"city","MatchQuality":{"Country":1.0,"State":1.0,"County":1.0,"City":1.0,"PostalCode":1.0},"Location":{"LocationId":"NT_dMeZn81--qt0wO2OG5wVuD","LocationType":"point","DisplayPosition":{"Latitude":47.1641837,"Longitude":-1.2662084},"MapView":{"TopLeft":{"Latitude":47.21934,"Longitude":-1.34065},"BottomRight":{"Latitude":47.13324,"Longitude":-1.18817}},"Address":{"Label":"Vallet, Pays de la Loire, France","Country":"FRA","State":"Pays de la Loire","County":"Loire-Atlantique","City":"Vallet","PostalCode":"44330","AdditionalData":[{"value":"France","key":"CountryName"},{"value":"Pays de la Loire","key":"StateName"},{"value":"Loire-Atlantique","key":"CountyName"}]},"MapReference":{"ReferenceId":"547158434","SideOfStreet":"neither","CountryId":"20000001","StateId":"20068992","CountyId":"20068993","CityId":"20069622"}}},{"Relevance":1.0,"Distance":24.8,"MatchLevel":"houseNumber","MatchQuality":{"Country":1.0,"State":1.0,"County":1.0,"City":1.0,"Street":[1.0],"HouseNumber":1.0,"PostalCode":1.0},"MatchType":"interpolated","Location":{"LocationId":"NT_bU3PZaRGVoGCaLhOVc6HOC_yA","LocationType":"point","DisplayPosition":{"Latitude":47.16439,"Longitude":-1.26602},"MapView":{"TopLeft":{"Latitude":47.1655142,"Longitude":-1.2676734},"BottomRight":{"Latitude":47.1632658,"Longitude":-1.2643666}},"Address":{"Label":"2 Route des Dorices, 44330 Vallet, France","Country":"FRA","State":"Pays de la Loire","County":"Loire-Atlantique","City":"Vallet","Street":"Route des Dorices","HouseNumber":"2","PostalCode":"44330","AdditionalData":[{"value":"France","key":"CountryName"},{"value":"Pays de la Loire","key":"StateName"},{"value":"Loire-Atlantique","key":"CountyName"}]},"MapReference":{"ReferenceId":"547158070","Spot":0.32,"SideOfStreet":"right","CountryId":"20000001","StateId":"20068992","CountyId":"20068993","CityId":"20069622","AddressId":"572860696","RoadLinkId":"47021209"}}},{"Relevance":1.0,"Distance":30.4,"MatchLevel":"houseNumber","MatchQuality":{"Country":1.0,"State":1.0,"County":1.0,"City":1.0,"Street":[1.0],"HouseNumber":1.0,"PostalCode":1.0},"MatchType":"interpolated","Location":{"LocationId":"NT_apkK3lr3OGP8j7p4biE8hA_yAD","LocationType":"point","DisplayPosition":{"Latitude":47.16391,"Longitude":-1.2664},"MapView":{"TopLeft":{"Latitude":47.1650342,"Longitude":-1.2680534},"BottomRight":{"Latitude":47.1627858,"Longitude":-1.2647466}},"Address":{"Label":"20 Boulevard Évariste Dejoie, 44330 Vallet, France","Country":"FRA","State":"Pays de la Loire","County":"Loire-Atlantique","City":"Vallet","Street":"Boulevard Évariste Dejoie","HouseNumber":"20","PostalCode":"44330","AdditionalData":[{"value":"France","key":"CountryName"},{"value":"Pays de la Loire","key":"StateName"},{"value":"Loire-Atlantique","key":"CountyName"}]},"MapReference":{"ReferenceId":"547102405","Spot":0.79,"SideOfStreet":"right","CountryId":"20000001","StateId":"20068992","CountyId":"20068993","CityId":"20069622","AddressId":"572797906","RoadLinkId":"46662455"}}},{"Relevance":1.0,"Distance":36.4,"MatchLevel":"houseNumber","MatchQuality":{"Country":1.0,"State":1.0,"County":1.0,"City":1.0,"Street":[1.0],"HouseNumber":1.0,"PostalCode":1.0},"MatchType":"interpolated","Location":{"LocationId":"NT_apkK3lr3OGP8j7p4biE8hA_yID","LocationType":"point","DisplayPosition":{"Latitude":47.16413,"Longitude":-1.26671},"MapView":{"TopLeft":{"Latitude":47.1652542,"Longitude":-1.2683634},"BottomRight":{"Latitude":47.1630058,"Longitude":-1.2650566}},"Address":{"Label":"22 Boulevard Évariste Dejoie, 44330 Vallet, France","Country":"FRA","State":"Pays de la Loire","County":"Loire-Atlantique","City":"Vallet","Street":"Boulevard Évariste Dejoie","HouseNumber":"22","PostalCode":"44330","AdditionalData":[{"value":"France","key":"CountryName"},{"value":"Pays de la Loire","key":"StateName"},{"value":"Loire-Atlantique","key":"CountyName"}]},"MapReference":{"ReferenceId":"547158051","Spot":0.33,"SideOfStreet":"right","CountryId":"20000001","StateId":"20068992","CountyId":"20068993","CityId":"20069622","AddressId":"323325684","RoadLinkId":"47120941"}}},{"Relevance":1.0,"Distance":61.6,"MatchLevel":"houseNumber","MatchQuality":{"Country":1.0,"State":1.0,"County":1.0,"City":1.0,"Street":[1.0],"HouseNumber":1.0,"PostalCode":1.0},"MatchType":"interpolated","Location":{"LocationId":"NT_apkK3lr3OGP8j7p4biE8hA_yYD","LocationType":"point","DisplayPosition":{"Latitude":47.16435,"Longitude":-1.26701},"MapView":{"TopLeft":{"Latitude":47.1654742,"Longitude":-1.2686634},"BottomRight":{"Latitude":47.1632258,"Longitude":-1.2653566}},"Address":{"Label":"26 Boulevard Évariste Dejoie, 44330 Vallet, France","Country":"FRA","State":"Pays de la Loire","County":"Loire-Atlantique","City":"Vallet","Street":"Boulevard Évariste Dejoie","HouseNumber":"26","PostalCode":"44330","AdditionalData":[{"value":"France","key":"CountryName"},{"value":"Pays de la Loire","key":"StateName"},{"value":"Loire-Atlantique","key":"CountyName"}]},"MapReference":{"ReferenceId":"547158052","Spot":0.04,"SideOfStreet":"right","CountryId":"20000001","StateId":"20068992","CountyId":"20068993","CityId":"20069622","AddressId":"323856056","RoadLinkId":"46588485"}}},{"Relevance":1.0,"Distance":94.6,"MatchLevel":"street","MatchQuality":{"Country":1.0,"State":1.0,"County":1.0,"City":1.0,"Street":[1.0],"PostalCode":1.0},"Location":{"LocationId":"NT_apkK3lr3OGP8j7p4biE8hA_l_547158115_R","LocationType":"point","DisplayPosition":{"Latitude":47.1634,"Longitude":-1.26572},"MapView":{"TopLeft":{"Latitude":47.1634,"Longitude":-1.26572},"BottomRight":{"Latitude":47.16307,"Longitude":-1.26526}},"Address":{"Label":"Boulevard Évariste Dejoie, 44330 Vallet, France","Country":"FRA","State":"Pays de la Loire","County":"Loire-Atlantique","City":"Vallet","Street":"Boulevard Évariste Dejoie","PostalCode":"44330","AdditionalData":[{"value":"France","key":"CountryName"},{"value":"Pays de la Loire","key":"StateName"},{"value":"Loire-Atlantique","key":"CountyName"}]},"MapReference":{"ReferenceId":"547158115","Spot":1.0,"SideOfStreet":"right","CountryId":"20000001","StateId":"20068992","CountyId":"20068993","CityId":"20069622"}}},{"Relevance":1.0,"Distance":127.8,"MatchLevel":"houseNumber","MatchQuality":{"Country":1.0,"State":1.0,"County":1.0,"City":1.0,"Street":[1.0],"HouseNumber":1.0,"PostalCode":1.0},"MatchType":"interpolated","Location":{"LocationId":"NT_sZL8euyT8x7abfhEVh7gQD_0A","LocationType":"point","DisplayPosition":{"Latitude":47.16338,"Longitude":-1.265},"MapView":{"TopLeft":{"Latitude":47.1645042,"Longitude":-1.2666534},"BottomRight":{"Latitude":47.1622558,"Longitude":-1.2633466}},"Address":{"Label":"4 Rue du Chêne Verdet, 44330 Vallet, France","Country":"FRA","State":"Pays de la Loire","County":"Loire-Atlantique","City":"Vallet","Street":"Rue du Chêne Verdet","HouseNumber":"4","PostalCode":"44330","AdditionalData":[{"value":"France","key":"CountryName"},{"value":"Pays de la Loire","key":"StateName"},{"value":"Loire-Atlantique","key":"CountyName"}]},"MapReference":{"ReferenceId":"547158635","Spot":0.32,"SideOfStreet":"right","CountryId":"20000001","StateId":"20068992","CountyId":"20068993","CityId":"20069622","AddressId":"323430702","RoadLinkId":"46483112"}}},{"Relevance":1.0,"Distance":143.1,"MatchLevel":"houseNumber","MatchQuality":{"Country":1.0,"State":1.0,"County":1.0,"City":1.0,"Street":[1.0],"HouseNumber":1.0,"PostalCode":1.0},"MatchType":"interpolated","Location":{"LocationId":"NT_sZL8euyT8x7abfhEVh7gQD_xQD","LocationType":"point","DisplayPosition":{"Latitude":47.1641,"Longitude":-1.26432},"MapView":{"TopLeft":{"Latitude":47.1652242,"Longitude":-1.2659734},"BottomRight":{"Latitude":47.1629758,"Longitude":-1.2626666}},"Address":{"Label":"14 Rue du Chêne Verdet, 44330 Vallet, France","Country":"FRA","State":"Pays de la Loire","County":"Loire-Atlantique","City":"Vallet","Street":"Rue du Chêne Verdet","HouseNumber":"14","PostalCode":"44330","AdditionalData":[{"value":"France","key":"CountryName"},{"value":"Pays de la Loire","key":"StateName"},{"value":"Loire-Atlantique","key":"CountyName"}]},"MapReference":{"ReferenceId":"547158643","Spot":0.46,"SideOfStreet":"right","CountryId":"20000001","StateId":"20068992","CountyId":"20068993","CityId":"20069622","AddressId":"323480142","RoadLinkId":"47153983"}}},{"Relevance":1.0,"Distance":143.1,"MatchLevel":"street","MatchQuality":{"Country":1.0,"State":1.0,"County":1.0,"City":1.0,"Street":[1.0],"PostalCode":1.0},"Location":{"LocationId":"NT_apkK3lr3OGP8j7p4biE8hA_l_547158116_R","LocationType":"point","DisplayPosition":{"Latitude":47.16307,"Longitude":-1.26526},"MapView":{"TopLeft":{"Latitude":47.16307,"Longitude":-1.26526},"BottomRight":{"Latitude":47.16303,"Longitude":-1.26521}},"Address":{"Label":"Boulevard Évariste Dejoie, 44330 Vallet, France","Country":"FRA","State":"Pays de la Loire","County":"Loire-Atlantique","City":"Vallet","Street":"Boulevard Évariste Dejoie","PostalCode":"44330","AdditionalData":[{"value":"France","key":"CountryName"},{"value":"Pays de la Loire","key":"StateName"},{"value":"Loire-Atlantique","key":"CountyName"}]},"MapReference":{"ReferenceId":"547158116","Spot":1.0,"SideOfStreet":"right","CountryId":"20000001","StateId":"20068992","CountyId":"20068993","CityId":"20069622"}}},{"Relevance":1.0,"Distance":148.8,"MatchLevel":"street","MatchQuality":{"Country":1.0,"State":1.0,"County":1.0,"City":1.0,"Street":[1.0],"PostalCode":1.0},"Location":{"LocationId":"NT_1OxvnwtutSeGIVrUH4HWOC_l_547158117_L","LocationType":"point","DisplayPosition":{"Latitude":47.16303,"Longitude":-1.26521},"MapView":{"TopLeft":{"Latitude":47.16303,"Longitude":-1.26552},"BottomRight":{"Latitude":47.16263,"Longitude":-1.26521}},"Address":{"Label":"Rue Paimparay, 44330 Vallet, France","Country":"FRA","State":"Pays de la Loire","County":"Loire-Atlantique","City":"Vallet","Street":"Rue Paimparay","PostalCode":"44330","AdditionalData":[{"value":"France","key":"CountryName"},{"value":"Pays de la Loire","key":"StateName"},{"value":"Loire-Atlantique","key":"CountyName"}]},"MapReference":{"ReferenceId":"547158117","Spot":1.0,"SideOfStreet":"left","CountryId":"20000001","StateId":"20068992","CountyId":"20068993","CityId":"20069622"}}}]}]}}