{"Response":{"MetaInfo":{"Timestamp":"2020-03-28T11:48:14.637+0000","NextPageInformation":"2"},"View":[{"_type":"SearchResultsViewType","ViewId":0,"Result":[{"Relevance":1.0,"Distance":0.0,"Direction":0.0,"MatchLevel":"city","MatchQuality":{"Country":1.0,"State":1.0,"County":1.0,"City":1.0,"PostalCode":1.0},"Location":{"LocationId":"NT_dMeZn81--qt0wO2OG5wVuD","LocationType":"point","DisplayPosition":{"Latitude":47.1666613,"Longitude":-1.2696438},"MapView":{"TopLeft":{"Latitude":47.21934,"Longitude":-1.34065},"BottomRight":{"Latitude":47.13324,"Longitude":-1.18817}},"Address":{"Label":"Vallet, Pays de la Loire, France","Country":"FRA","State":"Pays de la Loire","County":"Loire-Atlantique","City":"Vallet","PostalCode":"44330","AdditionalData":[{"value":"France","key":"CountryName"},{"value":"Pays de la Loire","key":"StateName"},{"value":"Loire-Atlantique","key":"CountyName"}]},"MapReference":{"ReferenceId":"547158434","SideOfStreet":"neither","CountryId":"20000001","StateId":"20068992","CountyId":"20068993","CityId":"20069622"}}},{"Relevance":1.0,"Distance":27.2,"MatchLevel":"houseNumber","MatchQuality":{"Country":1.0,"State":1.0,"County":1.0,"City":1.0,"Street":[1.0],"HouseNumber":1.0,"PostalCode":1.0},"MatchType":"interpolated","Location":{"LocationId":"NT_-XadLgktejlHqHUU4XhCWD_5A","LocationType":"point","DisplayPosition":{"Latitude":47.1664,"Longitude":-1.26945},"MapView":{"TopLeft":{"Latitude":47.1675242,"Longitude":-1.2711035},"BottomRight":{"Latitude":47.1652758,"Longitude":-1.2677965}},"Address":{"Label":"9 Boulevard d'Alcester, 44330 Vallet, France","Country":"FRA","State":"Pays de la Loire","County":"Loire-Atlantique","City":"Vallet","Street":"Boulevard d'Alcester","HouseNumber":"9","PostalCode":"44330","AdditionalData":[{"value":"France","key":"CountryName"},{"value":"Pays de la Loire","key":"StateName"},{"value":"Loire-Atlantique","key":"CountyName"}]},"MapReference":{"ReferenceId":"1144690135","Spot":0.21,"SideOfStreet":"left","CountryId":"20000001","StateId":"20068992","CountyId":"20068993","CityId":"20069622","AddressId":"572826594","RoadLinkId":"449903487"}}},{"Relevance":1.0,"Distance":38.8,"MatchLevel":"houseNumber","MatchQuality":{"Country":1.0,"State":1.0,"County":1.0,"City":1.0,"Street":[1.0],"HouseNumber":1.0,"PostalCode":1.0},"MatchType":"interpolated","Location":{"LocationId":"NT_PQGuPgRPtJsJ5aTfypqoqA_4A","LocationType":"point","DisplayPosition":{"Latitude":47.16708,"Longitude":-1.26958},"MapView":{"TopLeft":{"Latitude":47.1682042,"Longitude":-1.2712335},"BottomRight":{"Latitude":47.1659558,"Longitude":-1.2679265}},"Address":{"Label":"8 Rue des Fauvettes, 44330 Vallet, France","Country":"FRA","State":"Pays de la Loire","County":"Loire-Atlantique","City":"Vallet","Street":"Rue des Fauvettes","HouseNumber":"8","PostalCode":"44330","AdditionalData":[{"value":"France","key":"CountryName"},{"value":"Pays de la Loire","key":"StateName"},{"value":"Loire-Atlantique","key":"CountyName"}]},"MapReference":{"ReferenceId":"995662718","Spot":0.19,"SideOfStreet":"left","CountryId":"20000001","StateId":"20068992","CountyId":"20068993","CityId":"20069622","AddressId":"381300383","RoadLinkId":"323354938"}}},{"Relevance":1.0,"Distance":39.5,"MatchLevel":"houseNumber","MatchQuality":{"Country":1.0,"State":1.0,"County":1.0,"City":1.0,"Street":[1.0],"HouseNumber":1.0,"PostalCode":1.0},"MatchType":"interpolated","Location":{"LocationId":"NT_-XadLgktejlHqHUU4XhCWD_3A","LocationType":"point","DisplayPosition":{"Latitude":47.16628,"Longitude":-1.26969},"MapView":{"TopLeft":{"Latitude":47.1674042,"Longitude":-1.2713435},"BottomRight":{"Latitude":47.1651558,"Longitude":-1.2680365}},"Address":{"Label":"7 Boulevard d'Alcester, 44330 Vallet, France","Country":"FRA","State":"Pays de la Loire","County":"Loire-Atlantique","City":"Vallet","Street":"Boulevard d'Alcester","HouseNumber":"7","PostalCode":"44330","AdditionalData":[{"value":"France","key":"CountryName"},{"value":"Pays de la Loire","key":"StateName"},{"value":"Loire-Atlantique","key":"CountyName"}]},"MapReference":{"ReferenceId":"57142420","Spot":0.98,"SideOfStreet":"left","CountryId":"20000001","StateId":"20068992","CountyId":"20068993","CityId":"20069622","AddressId":"572854550","RoadLinkId":"46477325"}}},{"Relevance":1.0,"Distance":65.6,"MatchLevel":"houseNumber","MatchQuality":{"Country":1.0,"State":1.0,"County":1.0,"City":1.0,"Street":[1.0],"HouseNumber":1.0,"PostalCode":1.0},"MatchType":"interpolated","Location":{"LocationId":"NT_PQGuPgRPtJsJ5aTfypqoqA_yA","LocationType":"point","DisplayPosition":{"Latitude":47.16709,"Longitude":-1.27033},"MapView":{"TopLeft":{"Latitude":47.1682142,"Longitude":-1.2719835},"BottomRight":{"Latitude":47.1659658,"Longitude":-1.2686765}},"Address":{"Label":"2 Rue des Fauvettes, 44330 Vallet, France","Country":"FRA","State":"Pays de la Loire","County":"Loire-Atlantique","City":"Vallet","Street":"Rue des Fauvettes","HouseNumber":"2","PostalCode":"44330","AdditionalData":[{"value":"France","key":"CountryName"},{"value":"Pays de la Loire","key":"StateName"},{"value":"Loire-Atlantique","key":"CountyName"}]},"MapReference":{"ReferenceId":"995662716","Spot":0.57,"SideOfStreet":"right","CountryId":"20000001","StateId":"20068992","CountyId":"20068993","CityId":"20069622","AddressId":"381300378","RoadLinkId":"323354936"}}},{"Relevance":1.0,"Distance":68.9,"MatchLevel":"houseNumber","MatchQuality":{"Country":1.0,"State":1.0,"County":1.0,"City":1.0,"Street":[1.0],"HouseNumber":1.0,"PostalCode":1.0},"MatchType":"interpolated","Location":{"LocationId":"NT_ANdLqDz1sqtQDwutYeQcMA_4A","LocationType":"point","DisplayPosition":{"Latitude":47.16604,"Longitude":-1.26937},"MapView":{"TopLeft":{"Latitude":47.1671642,"Longitude":-1.2710235},"BottomRight":{"Latitude":47.1649158,"Longitude":-1.2677165}},"Address":{"Label":"8 Boulevard de l'Europe, 44330 Vallet, France","Country":"FRA","State":"Pays de la Loire","County":"Loire-Atlantique","City":"Vallet","Street":"Boulevard de l'Europe","HouseNumber":"8","PostalCode":"44330","AdditionalData":[{"value":"France","key":"CountryName"},{"value":"Pays de la Loire","key":"StateName"},{"value":"Loire-Atlantique","key":"CountyName"}]},"MapReference":{"ReferenceId":"57142423","Spot":0.78,"SideOfStreet":"right","CountryId":"20000001","StateId":"20068992","CountyId":"20068993","CityId":"20069622","AddressId":"381365093","RoadLinkId":"47816790"}}},{"Relevance":1.0,"Distance":77.7,"MatchLevel":"houseNumber","MatchQuality":{"Country":1.0,"State":1.0,"County":1.0,"City":1.0,"Street":[1.0],"HouseNumber":1.0,"PostalCode":1.0},"MatchType":"interpolated","Location":{"LocationId":"NT_PQGuPgRPtJsJ5aTfypqoqA_xQD","LocationType":"point","DisplayPosition":{"Latitude":47.16738,"Longitude":-1.26966},"MapView":{"TopLeft":{"Latitude":47.1685042,"Longitude":-1.2713135},"BottomRight":{"Latitude":47.1662558,"Longitude":-1.2680065}},"Address":{"Label":"14 Rue des Fauvettes, 44330 Vallet, France","Country":"FRA","State":"Pays de la Loire","County":"Loire-Atlantique","City":"Vallet","Street":"Rue des Fauvettes","HouseNumber":"14","PostalCode":"44330","AdditionalData":[{"value":"France","key":"CountryName"},{"value":"Pays de la Loire","key":"StateName"},{"value":"Loire-Atlantique","key":"CountyName"}]},"MapReference":{"ReferenceId":"995662717","Spot":0.39,"SideOfStreet":"right","CountryId":"20000001","StateId":"20068992","CountyId":"20068993","CityId":"20069622","AddressId":"381300382","RoadLinkId":"323354937"}}},{"Relevance":1.0,"Distance":89.6,"MatchLevel":"houseNumber","MatchQuality":{"Country":1.0,"State":1.0,"County":1.0,"City":1.0,"Street":[1.0],"HouseNumber":1.0,"PostalCode":1.0},"MatchType":"interpolated","Location":{"LocationId":"NT_UkMjpD7P3n7fhJaKxWeilC_l_547158684_R_xAD","LocationType":"point","DisplayPosition":{"Latitude":47.16681,"Longitude":-1.27094},"MapView":{"TopLeft":{"Latitude":47.1679342,"Longitude":-1.2725935},"BottomRight":{"Latitude":47.1656859,"Longitude":-1.2692865}},"Address":{"Label":"10 Rue des Mésanges, 44330 Vallet, France","Country":"FRA","State":"Pays de la Loire","County":"Loire-Atlantique","City":"Vallet","Street":"Rue des Mésanges","HouseNumber":"10","PostalCode":"44330","AdditionalData":[{"value":"France","key":"CountryName"},{"value":"Pays de la Loire","key":"StateName"},{"value":"Loire-Atlantique","key":"CountyName"}]},"MapReference":{"ReferenceId":"547158684","Spot":0.46,"SideOfStreet":"right","CountryId":"20000001","StateId":"20068992","CountyId":"20068993","CityId":"20069622"}}},{"Relevance":1.0,"Distance":104.6,"MatchLevel":"houseNumber","MatchQuality":{"Country":1.0,"State":1.0,"County":1.0,"City":1.0,"Street":[1.0],"HouseNumber":1.0,"PostalCode":1.0},"MatchType":"interpolated","Location":{"LocationId":"NT_PQGuPgRPtJsJ5aTfypqoqA_xUD","LocationType":"point","DisplayPosition":{"Latitude":47.16755,"Longitude":-1.26919},"MapView":{"TopLeft":{"Latitude":47.1686742,"Longitude":-1.2708435},"BottomRight":{"Latitude":47.1664258,"Longitude":-1.2675365}},"Address":{"Label":"15 Rue des Fauvettes, 44330 Vallet, France","Country":"FRA","State":"Pays de la Loire","County":"Loire-Atlantique","City":"Vallet","Street":"Rue des Fauvettes","HouseNumber":"15","PostalCode":"44330","AdditionalData":[{"value":"France","key":"CountryName"},{"value":"Pays de la Loire","key":"StateName"},{"value":"Loire-Atlantique","key":"CountyName"}]},"MapReference":{"ReferenceId":"1047807032","Spot":1.0,"SideOfStreet":"left","CountryId":"20000001","StateId":"20068992","CountyId":"20068993","CityId":"20069622","AddressId":"572849022","RoadLinkId":"367965389"}}},{"Relevance":1.0,"Distance":108.5,"MatchLevel":"street","MatchQuality":{"Country":1.0,"State":1.0,"County":1.0,"City":1.0,"Street":[1.0],"PostalCode":1.0},"Location":{"LocationId":"NT_PQGuPgRPtJsJ5aTfypqoqA_l_547158682_L","LocationType":"point","DisplayPosition":{"Latitude":47.16696,"Longitude":-1.27101},"MapView":{"TopLeft":{"Latitude":47.16701,"Longitude":-1.27154},"BottomRight":{"Latitude":47.16696,"Longitude":-1.27101}},"Address":{"Label":"Rue des Fauvettes, 44330 Vallet, France","Country":"FRA","State":"Pays de la Loire","County":"Loire-Atlantique","City":"Vallet","Street":"Rue des Fauvettes","PostalCode":"44330","AdditionalData":[{"value":"France","key":"CountryName"},{"value":"Pays de la Loire","key":"StateName"},{"value":"Loire-Atlantique","key":"CountyName"}]},"MapReference":{"ReferenceId":"547158682","Spot":0.0,"SideOfStreet":"left","CountryId":"20000001","StateId":"20068992","CountyId":"20068993","CityId":"20069622"}}}]}]}}