{"Response":{"MetaInfo":{"Timestamp":"2020-03-28T10:43:15.305+0000","NextPageInformation":"2"},"View":[{"_type":"SearchResultsViewType","ViewId":0,"Result":[{"Relevance":1.0,"Distance":0.0,"Direction":0.0,"MatchLevel":"district","MatchQuality":{"Country":1.0,"State":1.0,"County":1.0,"City":1.0,"District":1.0,"PostalCode":1.0},"Location":{"LocationId":"NT_N3tLsWKztm1pUePOnAMp9D","LocationType":"point","DisplayPosition":{"Latitude":47.1730648,"Longitude":19.7931872},"MapView":{"TopLeft":{"Latitude":47.20084,"Longitude":19.768},"BottomRight":{"Latitude":47.1514,"Longitude":19.83498}},"Address":{"Label":"Cegléd, Pest, Magyarország","Country":"HUN","State":"Pest","County":"Ceglédi Járás","City":"Cegléd","District":"Cegléd","PostalCode":"2700","AdditionalData":[{"value":"Magyarország","key":"CountryName"},{"value":"Pest","key":"StateName"},{"value":"Ceglédi Járás","key":"CountyName"}]},"MapReference":{"ReferenceId":"709615929","SideOfStreet":"neither","CountryId":"20613038","StateId":"20619051","CountyId":"26678484","CityId":"20619131","DistrictId":"26678593"}}},{"Relevance":1.0,"Distance":4.0,"MatchLevel":"houseNumber","MatchQuality":{"Country":1.0,"State":1.0,"County":1.0,"City":1.0,"District":1.0,"Street":[1.0],"HouseNumber":1.0,"PostalCode":1.0},"MatchType":"interpolated","Location":{"LocationId":"NT_mePVll1ZM6A2Iv4Ju38UbD_xgD","LocationType":"point","DisplayPosition":{"Latitude":47.173,"Longitude":19.79313},"MapView":{"TopLeft":{"Latitude":47.1741242,"Longitude":19.7914763},"BottomRight":{"Latitude":47.1718758,"Longitude":19.7947837}},"Address":{"Label":"Pesti út 18, Cegléd 2700, Magyarország","Country":"HUN","State":"Pest","County":"Ceglédi Járás","City":"Cegléd","District":"Cegléd","Street":"Pesti út","HouseNumber":"18","PostalCode":"2700","AdditionalData":[{"value":"Magyarország","key":"CountryName"},{"value":"Pest","key":"StateName"},{"value":"Ceglédi Járás","key":"CountyName"}]},"MapReference":{"ReferenceId":"906122955","Spot":0.86,"SideOfStreet":"right","CountryId":"20613038","StateId":"20619051","CountyId":"26678484","CityId":"20619131","DistrictId":"26678593","AddressId":"356988077","RoadLinkId":"266971307"}}},{"Relevance":1.0,"Distance":15.7,"MatchLevel":"houseNumber","MatchQuality":{"Country":1.0,"State":1.0,"County":1.0,"City":1.0,"District":1.0,"Street":[1.0],"HouseNumber":1.0,"PostalCode":1.0},"MatchType":"interpolated","Location":{"LocationId":"NT_mePVll1ZM6A2Iv4Ju38UbD_yAD","LocationType":"point","DisplayPosition":{"Latitude":47.17312,"Longitude":19.79297},"MapView":{"TopLeft":{"Latitude":47.1742442,"Longitude":19.7913163},"BottomRight":{"Latitude":47.1719958,"Longitude":19.7946237}},"Address":{"Label":"Pesti út 20, Cegléd 2700, Magyarország","Country":"HUN","State":"Pest","County":"Ceglédi Járás","City":"Cegléd","District":"Cegléd","Street":"Pesti út","HouseNumber":"20","PostalCode":"2700","AdditionalData":[{"value":"Magyarország","key":"CountryName"},{"value":"Pest","key":"StateName"},{"value":"Ceglédi Járás","key":"CountyName"}]},"MapReference":{"ReferenceId":"598159629","Spot":0.1,"SideOfStreet":"right","CountryId":"20613038","StateId":"20619051","CountyId":"26678484","CityId":"20619131","DistrictId":"26678593","AddressId":"355560200","RoadLinkId":"60772570"}}},{"Relevance":1.0,"Distance":23.3,"MatchLevel":"houseNumber","MatchQuality":{"Country":1.0,"State":1.0,"County":1.0,"City":1.0,"District":1.0,"Street":[1.0],"HouseNumber":1.0,"PostalCode":1.0},"MatchType":"interpolated","Location":{"LocationId":"NT_VJiNdIki6vexy-jjt-LAuD_zA","LocationType":"point","DisplayPosition":{"Latitude":47.17336,"Longitude":19.79344},"MapView":{"TopLeft":{"Latitude":47.1744842,"Longitude":19.7917863},"BottomRight":{"Latitude":47.1722358,"Longitude":19.7950937}},"Address":{"Label":"Gubody utca 3, Cegléd 2700, Magyarország","Country":"HUN","State":"Pest","County":"Ceglédi Járás","City":"Cegléd","District":"Cegléd","Street":"Gubody utca","HouseNumber":"3","PostalCode":"2700","AdditionalData":[{"value":"Magyarország","key":"CountryName"},{"value":"Pest","key":"StateName"},{"value":"Ceglédi Járás","key":"CountyName"}]},"MapReference":{"ReferenceId":"598159687","Spot":0.5,"SideOfStreet":"left","CountryId":"20613038","StateId":"20619051","CountyId":"26678484","CityId":"20619131","DistrictId":"26678593","AddressId":"355966342","RoadLinkId":"60326901"}}},{"Relevance":1.0,"Distance":23.4,"MatchLevel":"houseNumber","MatchQuality":{"Country":1.0,"State":1.0,"County":1.0,"City":1.0,"District":1.0,"Street":[1.0],"HouseNumber":1.0,"PostalCode":1.0},"MatchType":"interpolated","Location":{"LocationId":"NT_sGb4wdYU2B0.-TTd6OQbMD_yA","LocationType":"point","DisplayPosition":{"Latitude":47.17298,"Longitude":19.7929},"MapView":{"TopLeft":{"Latitude":47.1741042,"Longitude":19.7912463},"BottomRight":{"Latitude":47.1718558,"Longitude":19.7945537}},"Address":{"Label":"Dorottya utca 2, Cegléd 2700, Magyarország","Country":"HUN","State":"Pest","County":"Ceglédi Járás","City":"Cegléd","District":"Cegléd","Street":"Dorottya utca","HouseNumber":"2","PostalCode":"2700","AdditionalData":[{"value":"Magyarország","key":"CountryName"},{"value":"Pest","key":"StateName"},{"value":"Ceglédi Járás","key":"CountyName"}]},"MapReference":{"ReferenceId":"598159866","Spot":0.87,"SideOfStreet":"right","CountryId":"20613038","StateId":"20619051","CountyId":"26678484","CityId":"20619131","DistrictId":"26678593","AddressId":"357486720","RoadLinkId":"60522032"}}},{"Relevance":1.0,"Distance":70.1,"MatchLevel":"houseNumber","MatchQuality":{"Country":1.0,"State":1.0,"County":1.0,"City":1.0,"District":1.0,"Street":[1.0],"HouseNumber":1.0,"PostalCode":1.0},"MatchType":"interpolated","Location":{"LocationId":"NT_9Jwhf2tzE053BNwzwmz7NC_yA","LocationType":"point","DisplayPosition":{"Latitude":47.17248,"Longitude":19.7938},"MapView":{"TopLeft":{"Latitude":47.1736042,"Longitude":19.7921463},"BottomRight":{"Latitude":47.1713558,"Longitude":19.7954537}},"Address":{"Label":"Szent Imre herceg utca 2, Cegléd 2700, Magyarország","Country":"HUN","State":"Pest","County":"Ceglédi Járás","City":"Cegléd","District":"Cegléd","Street":"Szent Imre herceg utca","HouseNumber":"2","PostalCode":"2700","AdditionalData":[{"value":"Magyarország","key":"CountryName"},{"value":"Pest","key":"StateName"},{"value":"Ceglédi Járás","key":"CountyName"}]},"MapReference":{"ReferenceId":"598159820","Spot":0.03,"SideOfStreet":"left","CountryId":"20613038","StateId":"20619051","CountyId":"26678484","CityId":"20619131","DistrictId":"26678593","AddressId":"357480297","RoadLinkId":"60391045"}}},{"Relevance":1.0,"Distance":76.8,"MatchLevel":"houseNumber","MatchQuality":{"Country":1.0,"State":1.0,"County":1.0,"City":1.0,"District":1.0,"Street":[1.0],"HouseNumber":1.0,"PostalCode":1.0},"MatchType":"interpolated","Location":{"LocationId":"NT_mePVll1ZM6A2Iv4Ju38UbD_xID","LocationType":"point","DisplayPosition":{"Latitude":47.17249,"Longitude":19.79375},"MapView":{"TopLeft":{"Latitude":47.1736142,"Longitude":19.7920963},"BottomRight":{"Latitude":47.1713658,"Longitude":19.7954037}},"Address":{"Label":"Pesti út 12, Cegléd 2700, Magyarország","Country":"HUN","State":"Pest","County":"Ceglédi Járás","City":"Cegléd","District":"Cegléd","Street":"Pesti út","HouseNumber":"12","PostalCode":"2700","AdditionalData":[{"value":"Magyarország","key":"CountryName"},{"value":"Pest","key":"StateName"},{"value":"Ceglédi Járás","key":"CountyName"}]},"MapReference":{"ReferenceId":"906122954","Spot":0.25,"SideOfStreet":"right","CountryId":"20613038","StateId":"20619051","CountyId":"26678484","CityId":"20619131","DistrictId":"26678593","AddressId":"357576223","RoadLinkId":"266971306"}}},{"Relevance":1.0,"Distance":86.6,"MatchLevel":"houseNumber","MatchQuality":{"Country":1.0,"State":1.0,"County":1.0,"City":1.0,"District":1.0,"Street":[1.0],"HouseNumber":1.0,"PostalCode":1.0},"MatchType":"interpolated","Location":{"LocationId":"NT_mePVll1ZM6A2Iv4Ju38UbD_l_598159849_L_4A","LocationType":"point","DisplayPosition":{"Latitude":47.172425,"Longitude":19.79384},"MapView":{"TopLeft":{"Latitude":47.1735492,"Longitude":19.7921863},"BottomRight":{"Latitude":47.1713009,"Longitude":19.7954937}},"Address":{"Label":"Pesti út 8, Cegléd 2700, Magyarország","Country":"HUN","State":"Pest","County":"Ceglédi Járás","City":"Cegléd","District":"Cegléd","Street":"Pesti út","HouseNumber":"8","PostalCode":"2700","AdditionalData":[{"value":"Magyarország","key":"CountryName"},{"value":"Pest","key":"StateName"},{"value":"Ceglédi Járás","key":"CountyName"}]},"MapReference":{"ReferenceId":"598159849","Spot":0.5,"SideOfStreet":"left","CountryId":"20613038","StateId":"20619051","CountyId":"26678484","CityId":"20619131","DistrictId":"26678593"}}},{"Relevance":1.0,"Distance":88.3,"MatchLevel":"houseNumber","MatchQuality":{"Country":1.0,"State":1.0,"County":1.0,"City":1.0,"District":1.0,"Street":[1.0],"HouseNumber":1.0,"PostalCode":1.0},"MatchType":"interpolated","Location":{"LocationId":"NT_if5KVsG5anGFrQSR1VwYHD_yA","LocationType":"point","DisplayPosition":{"Latitude":47.17367,"Longitude":19.79243},"MapView":{"TopLeft":{"Latitude":47.1747942,"Longitude":19.7907763},"BottomRight":{"Latitude":47.1725458,"Longitude":19.7940837}},"Address":{"Label":"Mária utca 2, Cegléd 2700, Magyarország","Country":"HUN","State":"Pest","County":"Ceglédi Járás","City":"Cegléd","District":"Cegléd","Street":"Mária utca","HouseNumber":"2","PostalCode":"2700","AdditionalData":[{"value":"Magyarország","key":"CountryName"},{"value":"Pest","key":"StateName"},{"value":"Ceglédi Járás","key":"CountyName"}]},"MapReference":{"ReferenceId":"598159502","Spot":0.52,"SideOfStreet":"left","CountryId":"20613038","StateId":"20619051","CountyId":"26678484","CityId":"20619131","DistrictId":"26678593","AddressId":"356317992","RoadLinkId":"60566450"}}},{"Relevance":1.0,"Distance":93.3,"MatchLevel":"street","MatchQuality":{"Country":1.0,"State":1.0,"County":1.0,"City":1.0,"District":1.0,"Street":[1.0],"PostalCode":1.0},"Location":{"LocationId":"NT_mePVll1ZM6A2Iv4Ju38UbD_l_905885495_R","LocationType":"point","DisplayPosition":{"Latitude":47.17238,"Longitude":19.7939},"MapView":{"TopLeft":{"Latitude":47.17238,"Longitude":19.7939},"BottomRight":{"Latitude":47.17231,"Longitude":19.79398}},"Address":{"Label":"Pesti út, Cegléd 2700, Magyarország","Country":"HUN","State":"Pest","County":"Ceglédi Járás","City":"Cegléd","District":"Cegléd","Street":"Pesti út","PostalCode":"2700","AdditionalData":[{"value":"Magyarország","key":"CountryName"},{"value":"Pest","key":"StateName"},{"value":"Ceglédi Járás","key":"CountyName"}]},"MapReference":{"ReferenceId":"905885495","Spot":1.0,"SideOfStreet":"right","CountryId":"20613038","StateId":"20619051","CountyId":"26678484","CityId":"20619131","DistrictId":"26678593"}}}]}]}}