{"Response":{"MetaInfo":{"Timestamp":"2020-03-28T11:35:31.705+0000","NextPageInformation":"2"},"View":[{"_type":"SearchResultsViewType","ViewId":0,"Result":[{"Relevance":1.0,"Distance":0.0,"Direction":0.0,"MatchLevel":"district","MatchQuality":{"Country":1.0,"County":1.0,"City":1.0,"District":1.0,"PostalCode":1.0},"Location":{"LocationId":"NT_LutGrB2Xc.Y4cb.1od4DnD","LocationType":"point","DisplayPosition":{"Latitude":47.1929082,"Longitude":23.0503571},"MapView":{"TopLeft":{"Latitude":47.22732,"Longitude":23.00616},"BottomRight":{"Latitude":47.15298,"Longitude":23.12772}},"Address":{"Label":"Zalău, România","Country":"ROU","County":"Sălaj","City":"Zalău","District":"Zalău","PostalCode":"450090","AdditionalData":[{"value":"România","key":"CountryName"},{"value":"Sălaj","key":"CountyName"}]},"MapReference":{"ReferenceId":"1231401257","SideOfStreet":"neither","CountryId":"20656215","CountyId":"20662042","CityId":"20662166","DistrictId":"20662167"}}},{"Relevance":1.0,"Distance":2.6,"MatchLevel":"street","MatchQuality":{"Country":1.0,"County":1.0,"City":1.0,"District":1.0,"Street":[1.0],"PostalCode":1.0},"Location":{"LocationId":"NT_94NHVBnEN3qesV0j0xez1B_l_809485498_L","LocationType":"point","DisplayPosition":{"Latitude":47.1929313,"Longitude":23.05036},"MapView":{"TopLeft":{"Latitude":47.19347,"Longitude":23.05029},"BottomRight":{"Latitude":47.19293,"Longitude":23.05178}},"Address":{"Label":"Strada Dumbrava, 450090 Zalău, România","Country":"ROU","County":"Sălaj","City":"Zalău","District":"Zalău","Street":"Strada Dumbrava","PostalCode":"450090","AdditionalData":[{"value":"România","key":"CountryName"},{"value":"Sălaj","key":"CountyName"}]},"MapReference":{"ReferenceId":"809485498","Spot":0.04,"SideOfStreet":"neither","CountryId":"20656215","CountyId":"20662042","CityId":"20662166","DistrictId":"20662167"}}},{"Relevance":1.0,"Distance":5.1,"MatchLevel":"street","MatchQuality":{"Country":1.0,"County":1.0,"City":1.0,"District":1.0,"PostalCode":1.0},"Location":{"LocationId":"NT_fnJcx7pQbRe-ZRdBMixLvC_l_1111233263_R","LocationType":"point","DisplayPosition":{"Latitude":47.1929082,"Longitude":23.05029},"MapView":{"TopLeft":{"Latitude":47.19294,"Longitude":23.05016},"BottomRight":{"Latitude":47.19277,"Longitude":23.05029}},"Address":{"Label":"450090 Zalău, România","Country":"ROU","County":"Sălaj","City":"Zalău","District":"Zalău","PostalCode":"450090","AdditionalData":[{"value":"România","key":"CountryName"},{"value":"Sălaj","key":"CountyName"}]},"MapReference":{"ReferenceId":"1111233263","Spot":0.87,"SideOfStreet":"right","CountryId":"20656215","CountyId":"20662042","CityId":"20662166","DistrictId":"20662167"}}},{"Relevance":1.0,"Distance":6.2,"MatchLevel":"street","MatchQuality":{"Country":1.0,"County":1.0,"City":1.0,"District":1.0,"Street":[1.0],"PostalCode":1.0},"Location":{"LocationId":"NT_94NHVBnEN3qesV0j0xez1B_l_1110239908_R","LocationType":"point","DisplayPosition":{"Latitude":47.19294,"Longitude":23.05029},"MapView":{"TopLeft":{"Latitude":47.19319,"Longitude":23.05012},"BottomRight":{"Latitude":47.19294,"Longitude":23.05029}},"Address":{"Label":"Strada Dumbrava, 450090 Zalău, România","Country":"ROU","County":"Sălaj","City":"Zalău","District":"Zalău","Street":"Strada Dumbrava","PostalCode":"450090","AdditionalData":[{"value":"România","key":"CountryName"},{"value":"Sălaj","key":"CountyName"}]},"MapReference":{"ReferenceId":"1110239908","Spot":0.0,"SideOfStreet":"right","CountryId":"20656215","CountyId":"20662042","CityId":"20662166","DistrictId":"20662167"}}},{"Relevance":1.0,"Distance":48.2,"MatchLevel":"houseNumber","MatchQuality":{"Country":1.0,"County":1.0,"City":1.0,"District":1.0,"Street":[1.0],"HouseNumber":1.0,"PostalCode":1.0},"MatchType":"interpolated","Location":{"LocationId":"NT_sDiSF5kdZNDh6CN-RvLWuB_0YD","LocationType":"point","DisplayPosition":{"Latitude":47.19299,"Longitude":23.04973},"MapView":{"TopLeft":{"Latitude":47.1941142,"Longitude":23.0480757},"BottomRight":{"Latitude":47.1918658,"Longitude":23.0513843}},"Address":{"Label":"Strada Dumbrava 46, 450117 Zalău, România","Country":"ROU","County":"Sălaj","City":"Zalău","District":"Zalău","Street":"Strada Dumbrava","HouseNumber":"46","PostalCode":"450117","AdditionalData":[{"value":"România","key":"CountryName"},{"value":"Sălaj","key":"CountyName"}]},"MapReference":{"ReferenceId":"1111233262","Spot":0.75,"SideOfStreet":"left","CountryId":"20656215","CountyId":"20662042","CityId":"20662166","DistrictId":"20662167","AddressId":"687004443","RoadLinkId":"421554427"}}},{"Relevance":1.0,"Distance":67.4,"MatchLevel":"street","MatchQuality":{"Country":1.0,"County":1.0,"City":1.0,"District":1.0,"Street":[1.0],"PostalCode":1.0},"Location":{"LocationId":"NT_94NHVBnEN3qesV0j0xez1B_l_1110239904_R","LocationType":"point","DisplayPosition":{"Latitude":47.1923895,"Longitude":23.0498945},"MapView":{"TopLeft":{"Latitude":47.19267,"Longitude":23.04958},"BottomRight":{"Latitude":47.19215,"Longitude":23.04998}},"Address":{"Label":"Strada Dumbrava, 450090 Zalău, România","Country":"ROU","County":"Sălaj","City":"Zalău","District":"Zalău","Street":"Strada Dumbrava","PostalCode":"450090","AdditionalData":[{"value":"România","key":"CountryName"},{"value":"Sălaj","key":"CountyName"}]},"MapReference":{"ReferenceId":"1110239904","Spot":0.41,"SideOfStreet":"right","CountryId":"20656215","CountyId":"20662042","CityId":"20662166","DistrictId":"20662167"}}},{"Relevance":1.0,"Distance":81.2,"MatchLevel":"houseNumber","MatchQuality":{"Country":1.0,"County":1.0,"City":1.0,"District":1.0,"Street":[1.0],"HouseNumber":1.0,"PostalCode":1.0},"MatchType":"interpolated","Location":{"LocationId":"NT_sDiSF5kdZNDh6CN-RvLWuB_0QD","LocationType":"point","DisplayPosition":{"Latitude":47.19334,"Longitude":23.04949},"MapView":{"TopLeft":{"Latitude":47.1944642,"Longitude":23.0478357},"BottomRight":{"Latitude":47.1922158,"Longitude":23.0511443}},"Address":{"Label":"Strada Dumbrava 44, 450117 Zalău, România","Country":"ROU","County":"Sălaj","City":"Zalău","District":"Zalău","Street":"Strada Dumbrava","HouseNumber":"44","PostalCode":"450117","AdditionalData":[{"value":"România","key":"CountryName"},{"value":"Sălaj","key":"CountyName"}]},"MapReference":{"ReferenceId":"996457272","Spot":0.2,"SideOfStreet":"left","CountryId":"20656215","CountyId":"20662042","CityId":"20662166","DistrictId":"20662167","AddressId":"687005429","RoadLinkId":"324172650"}}},{"Relevance":1.0,"Distance":88.3,"MatchLevel":"street","MatchQuality":{"Country":1.0,"County":1.0,"City":1.0,"District":1.0,"Street":[1.0],"PostalCode":1.0},"Location":{"LocationId":"NT_94NHVBnEN3qesV0j0xez1B_l_1110239902_R","LocationType":"point","DisplayPosition":{"Latitude":47.19212,"Longitude":23.05021},"MapView":{"TopLeft":{"Latitude":47.19215,"Longitude":23.04991},"BottomRight":{"Latitude":47.19212,"Longitude":23.05021}},"Address":{"Label":"Strada Dumbrava, 450090 Zalău, România","Country":"ROU","County":"Sălaj","City":"Zalău","District":"Zalău","Street":"Strada Dumbrava","PostalCode":"450090","AdditionalData":[{"value":"România","key":"CountryName"},{"value":"Sălaj","key":"CountyName"}]},"MapReference":{"ReferenceId":"1110239902","Spot":0.0,"SideOfStreet":"right","CountryId":"20656215","CountyId":"20662042","CityId":"20662166","DistrictId":"20662167"}}},{"Relevance":1.0,"Distance":88.3,"MatchLevel":"street","MatchQuality":{"Country":1.0,"County":1.0,"City":1.0,"District":1.0,"PostalCode":1.0},"Location":{"LocationId":"NT_fnJcx7pQbRe-ZRdBMixLvC_l_1111233261_L","LocationType":"point","DisplayPosition":{"Latitude":47.19212,"Longitude":23.05021},"MapView":{"TopLeft":{"Latitude":47.19212,"Longitude":23.04991},"BottomRight":{"Latitude":47.19139,"Longitude":23.05021}},"Address":{"Label":"450090 Zalău, România","Country":"ROU","County":"Sălaj","City":"Zalău","District":"Zalău","PostalCode":"450090","AdditionalData":[{"value":"România","key":"CountryName"},{"value":"Sălaj","key":"CountyName"}]},"MapReference":{"ReferenceId":"1111233261","Spot":1.0,"SideOfStreet":"left","CountryId":"20656215","CountyId":"20662042","CityId":"20662166","DistrictId":"20662167"}}},{"Relevance":1.0,"Distance":89.9,"MatchLevel":"houseNumber","MatchQuality":{"Country":1.0,"County":1.0,"City":1.0,"District":1.0,"Street":[1.0],"HouseNumber":1.0,"PostalCode":1.0},"MatchType":"interpolated","Location":{"LocationId":"NT_sDiSF5kdZNDh6CN-RvLWuB_yAD","LocationType":"point","DisplayPosition":{"Latitude":47.19208,"Longitude":23.05076},"MapView":{"TopLeft":{"Latitude":47.1932042,"Longitude":23.0491057},"BottomRight":{"Latitude":47.1909558,"Longitude":23.0524143}},"Address":{"Label":"Strada Dumbrava 20, 450117 Zalău, România","Country":"ROU","County":"Sălaj","City":"Zalău","District":"Zalău","Street":"Strada Dumbrava","HouseNumber":"20","PostalCode":"450117","AdditionalData":[{"value":"România","key":"CountryName"},{"value":"Sălaj","key":"CountyName"}]},"MapReference":{"ReferenceId":"996458449","Spot":0.1,"SideOfStreet":"right","CountryId":"20656215","CountyId":"20662042","CityId":"20662166","DistrictId":"20662167","AddressId":"687005430","RoadLinkId":"324174882"}}}]}]}}