{"Response":{"MetaInfo":{"Timestamp":"2020-03-28T10:15:19.701+0000","NextPageInformation":"2"},"View":[{"_type":"SearchResultsViewType","ViewId":0,"Result":[{"Relevance":1.0,"Distance":0.0,"Direction":0.0,"MatchLevel":"district","MatchQuality":{"Country":1.0,"State":1.0,"County":1.0,"City":1.0,"District":1.0,"PostalCode":1.0},"Location":{"LocationId":"NT_bvdU0VzXhVufHVpp9JYXoB","LocationType":"point","DisplayPosition":{"Latitude":47.1309087,"Longitude":13.8104647},"MapView":{"TopLeft":{"Latitude":47.13772,"Longitude":13.79874},"BottomRight":{"Latitude":47.1203,"Longitude":13.81872}},"Address":{"Label":"Tamsweg, Salzburg, Österreich","Country":"AUT","State":"Salzburg","County":"Tamsweg","City":"Tamsweg","District":"Tamsweg","PostalCode":"5580","AdditionalData":[{"value":"Österreich","key":"CountryName"},{"value":"Salzburg","key":"StateName"},{"value":"Tamsweg","key":"CountyName"}]},"MapReference":{"ReferenceId":"833407409","SideOfStreet":"neither","CountryId":"20128885","StateId":"20134400","CountyId":"20134716","CityId":"20134744","DistrictId":"20134747"}}},{"Relevance":1.0,"Distance":19.8,"MatchLevel":"houseNumber","MatchQuality":{"Country":1.0,"State":1.0,"County":1.0,"City":1.0,"District":1.0,"Street":[1.0],"HouseNumber":1.0,"PostalCode":1.0},"MatchType":"interpolated","Location":{"LocationId":"NT_-SCphMXgL-LQbvW9EvKTVB_xA","LocationType":"point","DisplayPosition":{"Latitude":47.13059,"Longitude":13.81025},"MapView":{"TopLeft":{"Latitude":47.1317142,"Longitude":13.8085976},"BottomRight":{"Latitude":47.1294658,"Longitude":13.8119024}},"Address":{"Label":"Josef-Ehrenreich-Straße 1, 5580 Tamsweg, Österreich","Country":"AUT","State":"Salzburg","County":"Tamsweg","City":"Tamsweg","District":"Tamsweg","Street":"Josef-Ehrenreich-Straße","HouseNumber":"1","PostalCode":"5580","AdditionalData":[{"value":"Österreich","key":"CountryName"},{"value":"Salzburg","key":"StateName"},{"value":"Tamsweg","key":"CountyName"}]},"MapReference":{"ReferenceId":"563677754","Spot":0.17,"SideOfStreet":"left","CountryId":"20128885","StateId":"20134400","CountyId":"20134716","CityId":"20134744","DistrictId":"20134747","AddressId":"162163912","RoadLinkId":"28977394"}}},{"Relevance":1.0,"Distance":46.6,"MatchLevel":"houseNumber","MatchQuality":{"Country":1.0,"State":1.0,"County":1.0,"City":1.0,"District":1.0,"Street":[1.0],"HouseNumber":1.0,"PostalCode":1.0},"MatchType":"interpolated","Location":{"LocationId":"NT_q2X63LCWwVFgIj72moeggC_xA","LocationType":"point","DisplayPosition":{"Latitude":47.1307,"Longitude":13.80993},"MapView":{"TopLeft":{"Latitude":47.1318242,"Longitude":13.8082776},"BottomRight":{"Latitude":47.1295758,"Longitude":13.8115824}},"Address":{"Label":"Wöltinger Straße 1, 5580 Tamsweg, Österreich","Country":"AUT","State":"Salzburg","County":"Tamsweg","City":"Tamsweg","District":"Tamsweg","Street":"Wöltinger Straße","HouseNumber":"1","PostalCode":"5580","AdditionalData":[{"value":"Österreich","key":"CountryName"},{"value":"Salzburg","key":"StateName"},{"value":"Tamsweg","key":"CountyName"}]},"MapReference":{"ReferenceId":"563677685","Spot":0.1,"SideOfStreet":"left","CountryId":"20128885","StateId":"20134400","CountyId":"20134716","CityId":"20134744","DistrictId":"20134747","AddressId":"161220985","RoadLinkId":"162772344"}}},{"Relevance":1.0,"Distance":53.5,"MatchLevel":"street","MatchQuality":{"Country":1.0,"State":1.0,"County":1.0,"City":1.0,"District":1.0,"Street":[1.0],"PostalCode":1.0},"Location":{"LocationId":"NT_YTQP3Ko93tYC6d2krhl67C_l_833413428_R","LocationType":"point","DisplayPosition":{"Latitude":47.13061,"Longitude":13.80991},"MapView":{"TopLeft":{"Latitude":47.13061,"Longitude":13.80986},"BottomRight":{"Latitude":47.13022,"Longitude":13.80991}},"Address":{"Label":"Wöltinger Straße, 5580 Tamsweg, Österreich","Country":"AUT","State":"Salzburg","County":"Tamsweg","City":"Tamsweg","District":"Tamsweg","Street":"Wöltinger Straße","PostalCode":"5580","AdditionalData":[{"value":"Österreich","key":"CountryName"},{"value":"Salzburg","key":"StateName"},{"value":"Tamsweg","key":"CountyName"}]},"MapReference":{"ReferenceId":"833413428","Spot":1.0,"SideOfStreet":"right","CountryId":"20128885","StateId":"20134400","CountyId":"20134716","CityId":"20134744","DistrictId":"20134747"}}},{"Relevance":1.0,"Distance":56.3,"MatchLevel":"houseNumber","MatchQuality":{"Country":1.0,"State":1.0,"County":1.0,"City":1.0,"District":1.0,"Street":[1.0],"HouseNumber":1.0,"PostalCode":1.0},"MatchType":"interpolated","Location":{"LocationId":"NT_KVTEU-YoN-PGlKMGIJ4cFD_0A","LocationType":"point","DisplayPosition":{"Latitude":47.13118,"Longitude":13.80905},"MapView":{"TopLeft":{"Latitude":47.1323042,"Longitude":13.8073976},"BottomRight":{"Latitude":47.1300558,"Longitude":13.8107024}},"Address":{"Label":"Johann-Kopfmüller-Straße 4, 5580 Tamsweg, Österreich","Country":"AUT","State":"Salzburg","County":"Tamsweg","City":"Tamsweg","District":"Tamsweg","Street":"Johann-Kopfmüller-Straße","HouseNumber":"4","PostalCode":"5580","AdditionalData":[{"value":"Österreich","key":"CountryName"},{"value":"Salzburg","key":"StateName"},{"value":"Tamsweg","key":"CountyName"}]},"MapReference":{"ReferenceId":"563677717","Spot":0.41,"SideOfStreet":"right","CountryId":"20128885","StateId":"20134400","CountyId":"20134716","CityId":"20134744","DistrictId":"20134747","AddressId":"160518088","RoadLinkId":"28231549"}}},{"Relevance":1.0,"Distance":64.6,"MatchLevel":"houseNumber","MatchQuality":{"Country":1.0,"State":1.0,"County":1.0,"City":1.0,"District":1.0,"Street":[1.0],"HouseNumber":1.0,"PostalCode":1.0},"MatchType":"interpolated","Location":{"LocationId":"NT_N8U4ABMluNRRnAkkanWpnA_xID","LocationType":"point","DisplayPosition":{"Latitude":47.1311,"Longitude":13.81206},"MapView":{"TopLeft":{"Latitude":47.1322242,"Longitude":13.8104076},"BottomRight":{"Latitude":47.1299758,"Longitude":13.8137124}},"Address":{"Label":"Am Göra 12, 5580 Tamsweg, Österreich","Country":"AUT","State":"Salzburg","County":"Tamsweg","City":"Tamsweg","District":"Tamsweg","Street":"Am Göra","HouseNumber":"12","PostalCode":"5580","AdditionalData":[{"value":"Österreich","key":"CountryName"},{"value":"Salzburg","key":"StateName"},{"value":"Tamsweg","key":"CountyName"}]},"MapReference":{"ReferenceId":"563685797","Spot":0.0,"SideOfStreet":"left","CountryId":"20128885","StateId":"20134400","CountyId":"20134716","CityId":"20134744","DistrictId":"20134747","AddressId":"161387970","RoadLinkId":"28198728"}}},{"Relevance":1.0,"Distance":70.7,"MatchLevel":"street","MatchQuality":{"Country":1.0,"State":1.0,"County":1.0,"City":1.0,"District":1.0,"Street":[1.0],"PostalCode":1.0},"Location":{"LocationId":"NT_q2X63LCWwVFgIj72moeggC_l_762585435_R","LocationType":"point","DisplayPosition":{"Latitude":47.13152,"Longitude":13.81021},"MapView":{"TopLeft":{"Latitude":47.13212,"Longitude":13.81006},"BottomRight":{"Latitude":47.13152,"Longitude":13.81021}},"Address":{"Label":"Wöltinger Straße, 5580 Tamsweg, Österreich","Country":"AUT","State":"Salzburg","County":"Tamsweg","City":"Tamsweg","District":"Tamsweg","Street":"Wöltinger Straße","PostalCode":"5580","AdditionalData":[{"value":"Österreich","key":"CountryName"},{"value":"Salzburg","key":"StateName"},{"value":"Tamsweg","key":"CountyName"}]},"MapReference":{"ReferenceId":"762585435","Spot":0.0,"SideOfStreet":"right","CountryId":"20128885","StateId":"20134400","CountyId":"20134716","CityId":"20134744","DistrictId":"20134747"}}},{"Relevance":1.0,"Distance":85.4,"MatchLevel":"houseNumber","MatchQuality":{"Country":1.0,"State":1.0,"County":1.0,"City":1.0,"District":1.0,"Street":[1.0],"HouseNumber":1.0,"PostalCode":1.0},"MatchType":"interpolated","Location":{"LocationId":"NT_ILwmsgI9ry-LYqipWJs2YA_4A","LocationType":"point","DisplayPosition":{"Latitude":47.13027,"Longitude":13.80959},"MapView":{"TopLeft":{"Latitude":47.1313942,"Longitude":13.8079376},"BottomRight":{"Latitude":47.1291458,"Longitude":13.8112424}},"Address":{"Label":"Zinsgasse 8, 5580 Tamsweg, Österreich","Country":"AUT","State":"Salzburg","County":"Tamsweg","City":"Tamsweg","District":"Tamsweg","Street":"Zinsgasse","HouseNumber":"8","PostalCode":"5580","AdditionalData":[{"value":"Österreich","key":"CountryName"},{"value":"Salzburg","key":"StateName"},{"value":"Tamsweg","key":"CountyName"}]},"MapReference":{"ReferenceId":"563677682","Spot":0.26,"SideOfStreet":"right","CountryId":"20128885","StateId":"20134400","CountyId":"20134716","CityId":"20134744","DistrictId":"20134747","AddressId":"161160588","RoadLinkId":"28104357"}}},{"Relevance":1.0,"Distance":89.2,"MatchLevel":"street","MatchQuality":{"Country":1.0,"State":1.0,"County":1.0,"City":1.0,"District":1.0,"Street":[1.0],"PostalCode":1.0},"Location":{"LocationId":"NT_YTQP3Ko93tYC6d2krhl67C_l_833413427_R","LocationType":"point","DisplayPosition":{"Latitude":47.13022,"Longitude":13.80986},"MapView":{"TopLeft":{"Latitude":47.13022,"Longitude":13.80985},"BottomRight":{"Latitude":47.13013,"Longitude":13.80986}},"Address":{"Label":"Wöltinger Straße, 5580 Tamsweg, Österreich","Country":"AUT","State":"Salzburg","County":"Tamsweg","City":"Tamsweg","District":"Tamsweg","Street":"Wöltinger Straße","PostalCode":"5580","AdditionalData":[{"value":"Österreich","key":"CountryName"},{"value":"Salzburg","key":"StateName"},{"value":"Tamsweg","key":"CountyName"}]},"MapReference":{"ReferenceId":"833413427","Spot":1.0,"SideOfStreet":"right","CountryId":"20128885","StateId":"20134400","CountyId":"20134716","CityId":"20134744","DistrictId":"20134747"}}},{"Relevance":1.0,"Distance":106.6,"MatchLevel":"houseNumber","MatchQuality":{"Country":1.0,"State":1.0,"County":1.0,"City":1.0,"District":1.0,"Street":[1.0],"HouseNumber":1.0,"PostalCode":1.0},"MatchType":"interpolated","Location":{"LocationId":"NT_ILwmsgI9ry-LYqipWJs2YA_0A","LocationType":"point","DisplayPosition":{"Latitude":47.12983,"Longitude":13.81012},"MapView":{"TopLeft":{"Latitude":47.1309542,"Longitude":13.8084677},"BottomRight":{"Latitude":47.1287058,"Longitude":13.8117723}},"Address":{"Label":"Zinsgasse 4, 5580 Tamsweg, Österreich","Country":"AUT","State":"Salzburg","County":"Tamsweg","City":"Tamsweg","District":"Tamsweg","Street":"Zinsgasse","HouseNumber":"4","PostalCode":"5580","AdditionalData":[{"value":"Österreich","key":"CountryName"},{"value":"Salzburg","key":"StateName"},{"value":"Tamsweg","key":"CountyName"}]},"MapReference":{"ReferenceId":"563699389","Spot":0.47,"SideOfStreet":"right","CountryId":"20128885","StateId":"20134400","CountyId":"20134716","CityId":"20134744","DistrictId":"20134747","AddressId":"161220531","RoadLinkId":"28865335"}}}]}]}}