{"Response":{"MetaInfo":{"Timestamp":"2020-03-28T11:37:42.066+0000","NextPageInformation":"2"},"View":[{"_type":"SearchResultsViewType","ViewId":0,"Result":[{"Relevance":1.0,"Distance":0.0,"Direction":0.0,"MatchLevel":"district","MatchQuality":{"Country":1.0,"State":1.0,"County":1.0,"City":1.0,"District":1.0,"PostalCode":1.0},"Location":{"LocationId":"NT_I9lvIPh1szzgcwVtWg4Q1C","LocationType":"point","DisplayPosition":{"Latitude":47.2949063,"Longitude":11.5861147},"MapView":{"TopLeft":{"Latitude":47.29986,"Longitude":11.5791},"BottomRight":{"Latitude":47.28574,"Longitude":11.60136}},"Address":{"Label":"Wattens, Tirol, Österreich","Country":"AUT","State":"Tirol","County":"Innsbruck-Land","City":"Wattens","District":"Wattens","PostalCode":"6112","AdditionalData":[{"value":"Österreich","key":"CountryName"},{"value":"Tirol","key":"StateName"},{"value":"Innsbruck-Land","key":"CountyName"}]},"MapReference":{"ReferenceId":"874817011","SideOfStreet":"neither","CountryId":"20128885","StateId":"20136826","CountyId":"20136934","CityId":"20137152","DistrictId":"20137154"}}},{"Relevance":1.0,"Distance":17.0,"MatchLevel":"houseNumber","MatchQuality":{"Country":1.0,"State":1.0,"County":1.0,"City":1.0,"District":1.0,"Street":[1.0],"HouseNumber":1.0,"PostalCode":1.0},"MatchType":"interpolated","Location":{"LocationId":"NT_BxAn3q.EeCxRD8YgooDyZB_xID","LocationType":"point","DisplayPosition":{"Latitude":47.29459,"Longitude":11.58624},"MapView":{"TopLeft":{"Latitude":47.2957142,"Longitude":11.5845825},"BottomRight":{"Latitude":47.2934658,"Longitude":11.5878975}},"Address":{"Label":"Dr.-Karl-Stainer-Straße 12, 6112 Wattens, Österreich","Country":"AUT","State":"Tirol","County":"Innsbruck-Land","City":"Wattens","District":"Wattens","Street":"Dr.-Karl-Stainer-Straße","HouseNumber":"12","PostalCode":"6112","AdditionalData":[{"value":"Österreich","key":"CountryName"},{"value":"Tirol","key":"StateName"},{"value":"Innsbruck-Land","key":"CountyName"}]},"MapReference":{"ReferenceId":"69665717","Spot":0.21,"SideOfStreet":"right","CountryId":"20128885","StateId":"20136826","CountyId":"20136934","CityId":"20137152","DistrictId":"20137154","AddressId":"161075477","RoadLinkId":"29026214"}}},{"Relevance":1.0,"Distance":17.2,"MatchLevel":"houseNumber","MatchQuality":{"Country":1.0,"State":1.0,"County":1.0,"City":1.0,"District":1.0,"Street":[1.0],"HouseNumber":1.0,"PostalCode":1.0},"MatchType":"interpolated","Location":{"LocationId":"NT_cl-5t2.KU2c2hNNa5V11hA_zA","LocationType":"point","DisplayPosition":{"Latitude":47.29504,"Longitude":11.58648},"MapView":{"TopLeft":{"Latitude":47.2961642,"Longitude":11.5848225},"BottomRight":{"Latitude":47.2939158,"Longitude":11.5881375}},"Address":{"Label":"Karwendelstraße 3, 6112 Wattens, Österreich","Country":"AUT","State":"Tirol","County":"Innsbruck-Land","City":"Wattens","District":"Wattens","Street":"Karwendelstraße","HouseNumber":"3","PostalCode":"6112","AdditionalData":[{"value":"Österreich","key":"CountryName"},{"value":"Tirol","key":"StateName"},{"value":"Innsbruck-Land","key":"CountyName"}]},"MapReference":{"ReferenceId":"69665714","Spot":0.61,"SideOfStreet":"left","CountryId":"20128885","StateId":"20136826","CountyId":"20136934","CityId":"20137152","DistrictId":"20137154","AddressId":"161073607","RoadLinkId":"28747720"}}},{"Relevance":1.0,"Distance":61.4,"MatchLevel":"houseNumber","MatchQuality":{"Country":1.0,"State":1.0,"County":1.0,"City":1.0,"District":1.0,"Street":[1.0],"HouseNumber":1.0,"PostalCode":1.0},"MatchType":"interpolated","Location":{"LocationId":"NT_Qn0MjeW1CwXGDQ4rA7u2qC_xAD","LocationType":"point","DisplayPosition":{"Latitude":47.29391,"Longitude":11.58592},"MapView":{"TopLeft":{"Latitude":47.2950342,"Longitude":11.5842625},"BottomRight":{"Latitude":47.2927858,"Longitude":11.5875775}},"Address":{"Label":"Dr.-Karl-Stainer-Siedlung 10, 6112 Wattens, Österreich","Country":"AUT","State":"Tirol","County":"Innsbruck-Land","City":"Wattens","District":"Wattens","Street":"Dr.-Karl-Stainer-Siedlung","HouseNumber":"10","PostalCode":"6112","AdditionalData":[{"value":"Österreich","key":"CountryName"},{"value":"Tirol","key":"StateName"},{"value":"Innsbruck-Land","key":"CountyName"}]},"MapReference":{"ReferenceId":"69669819","Spot":0.46,"SideOfStreet":"left","CountryId":"20128885","StateId":"20136826","CountyId":"20136934","CityId":"20137152","DistrictId":"20137154","AddressId":"161075490","RoadLinkId":"28410344"}}},{"Relevance":1.0,"Distance":74.6,"MatchLevel":"houseNumber","MatchQuality":{"Country":1.0,"State":1.0,"County":1.0,"City":1.0,"District":1.0,"Street":[1.0],"HouseNumber":1.0,"PostalCode":1.0},"MatchType":"interpolated","Location":{"LocationId":"NT_Qn0MjeW1CwXGDQ4rA7u2qC_yA","LocationType":"point","DisplayPosition":{"Latitude":47.29439,"Longitude":11.58679},"MapView":{"TopLeft":{"Latitude":47.2955142,"Longitude":11.5851325},"BottomRight":{"Latitude":47.2932658,"Longitude":11.5884475}},"Address":{"Label":"Dr.-Karl-Stainer-Siedlung 2, 6112 Wattens, Österreich","Country":"AUT","State":"Tirol","County":"Innsbruck-Land","City":"Wattens","District":"Wattens","Street":"Dr.-Karl-Stainer-Siedlung","HouseNumber":"2","PostalCode":"6112","AdditionalData":[{"value":"Österreich","key":"CountryName"},{"value":"Tirol","key":"StateName"},{"value":"Innsbruck-Land","key":"CountyName"}]},"MapReference":{"ReferenceId":"69669817","Spot":0.79,"SideOfStreet":"left","CountryId":"20128885","StateId":"20136826","CountyId":"20136934","CityId":"20137152","DistrictId":"20137154","AddressId":"161138823","RoadLinkId":"28337617"}}},{"Relevance":1.0,"Distance":78.8,"MatchLevel":"houseNumber","MatchQuality":{"Country":1.0,"State":1.0,"County":1.0,"City":1.0,"District":1.0,"Street":[1.0],"HouseNumber":1.0,"PostalCode":1.0},"MatchType":"interpolated","Location":{"LocationId":"NT_0qBzzycGl1bRpjMLaM7jxD_xMD","LocationType":"point","DisplayPosition":{"Latitude":47.29517,"Longitude":11.58477},"MapView":{"TopLeft":{"Latitude":47.2962942,"Longitude":11.5831125},"BottomRight":{"Latitude":47.2940458,"Longitude":11.5864275}},"Address":{"Label":"Rudolf-Steinacher-Straße 13, 6112 Wattens, Österreich","Country":"AUT","State":"Tirol","County":"Innsbruck-Land","City":"Wattens","District":"Wattens","Street":"Rudolf-Steinacher-Straße","HouseNumber":"13","PostalCode":"6112","AdditionalData":[{"value":"Österreich","key":"CountryName"},{"value":"Tirol","key":"StateName"},{"value":"Innsbruck-Land","key":"CountyName"}]},"MapReference":{"ReferenceId":"69665703","Spot":0.65,"SideOfStreet":"right","CountryId":"20128885","StateId":"20136826","CountyId":"20136934","CityId":"20137152","DistrictId":"20137154","AddressId":"161135162","RoadLinkId":"29156559"}}},{"Relevance":1.0,"Distance":80.5,"MatchLevel":"houseNumber","MatchQuality":{"Country":1.0,"State":1.0,"County":1.0,"City":1.0,"District":1.0,"Street":[1.0],"HouseNumber":1.0,"PostalCode":1.0},"MatchType":"interpolated","Location":{"LocationId":"NT_cl-5t2.KU2c2hNNa5V11hA_xED","LocationType":"point","DisplayPosition":{"Latitude":47.29564,"Longitude":11.58635},"MapView":{"TopLeft":{"Latitude":47.2967642,"Longitude":11.5846925},"BottomRight":{"Latitude":47.2945158,"Longitude":11.5880075}},"Address":{"Label":"Karwendelstraße 11, 6112 Wattens, Österreich","Country":"AUT","State":"Tirol","County":"Innsbruck-Land","City":"Wattens","District":"Wattens","Street":"Karwendelstraße","HouseNumber":"11","PostalCode":"6112","AdditionalData":[{"value":"Österreich","key":"CountryName"},{"value":"Tirol","key":"StateName"},{"value":"Innsbruck-Land","key":"CountyName"}]},"MapReference":{"ReferenceId":"69665659","Spot":0.35,"SideOfStreet":"left","CountryId":"20128885","StateId":"20136826","CountyId":"20136934","CityId":"20137152","DistrictId":"20137154","AddressId":"161137898","RoadLinkId":"28193497"}}},{"Relevance":1.0,"Distance":82.3,"MatchLevel":"houseNumber","MatchQuality":{"Country":1.0,"State":1.0,"County":1.0,"City":1.0,"District":1.0,"Street":[1.0],"HouseNumber":1.0,"PostalCode":1.0},"MatchType":"interpolated","Location":{"LocationId":"NT_B.bxvQ.zhkdMSBSbC18JwD_xMD","LocationType":"point","DisplayPosition":{"Latitude":47.29544,"Longitude":11.58687},"MapView":{"TopLeft":{"Latitude":47.2965642,"Longitude":11.5852125},"BottomRight":{"Latitude":47.2943158,"Longitude":11.5885275}},"Address":{"Label":"Peter-Rosegger-Straße 13, 6112 Wattens, Österreich","Country":"AUT","State":"Tirol","County":"Innsbruck-Land","City":"Wattens","District":"Wattens","Street":"Peter-Rosegger-Straße","HouseNumber":"13","PostalCode":"6112","AdditionalData":[{"value":"Österreich","key":"CountryName"},{"value":"Tirol","key":"StateName"},{"value":"Innsbruck-Land","key":"CountyName"}]},"MapReference":{"ReferenceId":"69665658","Spot":0.19,"SideOfStreet":"right","CountryId":"20128885","StateId":"20136826","CountyId":"20136934","CityId":"20137152","DistrictId":"20137154","AddressId":"161135476","RoadLinkId":"28907266"}}},{"Relevance":1.0,"Distance":89.7,"MatchLevel":"houseNumber","MatchQuality":{"Country":1.0,"State":1.0,"County":1.0,"City":1.0,"District":1.0,"Street":[1.0],"HouseNumber":1.0,"PostalCode":1.0},"MatchType":"interpolated","Location":{"LocationId":"NT_0qBzzycGl1bRpjMLaM7jxD_1A","LocationType":"point","DisplayPosition":{"Latitude":47.29573,"Longitude":11.58523},"MapView":{"TopLeft":{"Latitude":47.2968542,"Longitude":11.5835725},"BottomRight":{"Latitude":47.2946058,"Longitude":11.5868875}},"Address":{"Label":"Rudolf-Steinacher-Straße 5, 6112 Wattens, Österreich","Country":"AUT","State":"Tirol","County":"Innsbruck-Land","City":"Wattens","District":"Wattens","Street":"Rudolf-Steinacher-Straße","HouseNumber":"5","PostalCode":"6112","AdditionalData":[{"value":"Österreich","key":"CountryName"},{"value":"Tirol","key":"StateName"},{"value":"Innsbruck-Land","key":"CountyName"}]},"MapReference":{"ReferenceId":"69665657","Spot":0.89,"SideOfStreet":"right","CountryId":"20128885","StateId":"20136826","CountyId":"20136934","CityId":"20137152","DistrictId":"20137154","AddressId":"161078116","RoadLinkId":"28559109"}}},{"Relevance":1.0,"Distance":94.9,"MatchLevel":"houseNumber","MatchQuality":{"Country":1.0,"State":1.0,"County":1.0,"City":1.0,"District":1.0,"Street":[1.0],"HouseNumber":1.0,"PostalCode":1.0},"MatchType":"interpolated","Location":{"LocationId":"NT_BxAn3q.EeCxRD8YgooDyZB_0A","LocationType":"point","DisplayPosition":{"Latitude":47.29464,"Longitude":11.58739},"MapView":{"TopLeft":{"Latitude":47.2957642,"Longitude":11.5857325},"BottomRight":{"Latitude":47.2935158,"Longitude":11.5890475}},"Address":{"Label":"Dr.-Karl-Stainer-Straße 4, 6112 Wattens, Österreich","Country":"AUT","State":"Tirol","County":"Innsbruck-Land","City":"Wattens","District":"Wattens","Street":"Dr.-Karl-Stainer-Straße","HouseNumber":"4","PostalCode":"6112","AdditionalData":[{"value":"Österreich","key":"CountryName"},{"value":"Tirol","key":"StateName"},{"value":"Innsbruck-Land","key":"CountyName"}]},"MapReference":{"ReferenceId":"69665713","Spot":0.27,"SideOfStreet":"left","CountryId":"20128885","StateId":"20136826","CountyId":"20136934","CityId":"20137152","DistrictId":"20137154","AddressId":"161138808","RoadLinkId":"28706571"}}}]}]}}