{"Response":{"MetaInfo":{"Timestamp":"2020-03-28T10:51:22.539+0000","NextPageInformation":"2"},"View":[{"_type":"SearchResultsViewType","ViewId":0,"Result":[{"Relevance":1.0,"Distance":0.0,"Direction":0.0,"MatchLevel":"city","MatchQuality":{"Country":1.0,"State":1.0,"County":1.0,"City":1.0,"PostalCode":1.0},"Location":{"LocationId":"NT_KFqLk9w-80kGkcgApWymhD","LocationType":"point","DisplayPosition":{"Latitude":47.2624375,"Longitude":9.6482046},"MapView":{"TopLeft":{"Latitude":47.30703,"Longitude":9.57584},"BottomRight":{"Latitude":47.2389,"Longitude":9.68782}},"Address":{"Label":"Rankweil, Vorarlberg, Österreich","Country":"AUT","State":"Vorarlberg","County":"Feldkirch","City":"Rankweil","PostalCode":"6830","AdditionalData":[{"value":"Österreich","key":"CountryName"},{"value":"Vorarlberg","key":"StateName"},{"value":"Feldkirch","key":"CountyName"}]},"MapReference":{"ReferenceId":"841878923","SideOfStreet":"neither","CountryId":"20128885","StateId":"20137807","CountyId":"20138049","CityId":"20138092"}}},{"Relevance":1.0,"Distance":18.9,"MatchLevel":"houseNumber","MatchQuality":{"Country":1.0,"State":1.0,"County":1.0,"City":1.0,"Street":[1.0],"HouseNumber":1.0,"PostalCode":1.0},"MatchType":"interpolated","Location":{"LocationId":"NT_gmNqC7L6K716u8rg2LMfHB_1A","LocationType":"point","DisplayPosition":{"Latitude":47.26234,"Longitude":9.64572},"MapView":{"TopLeft":{"Latitude":47.2634642,"Longitude":9.6440635},"BottomRight":{"Latitude":47.2612158,"Longitude":9.6473765}},"Address":{"Label":"Valdunastraße 5, 6830 Rankweil, Österreich","Country":"AUT","State":"Vorarlberg","County":"Feldkirch","City":"Rankweil","Street":"Valdunastraße","HouseNumber":"5","PostalCode":"6830","AdditionalData":[{"value":"Österreich","key":"CountryName"},{"value":"Vorarlberg","key":"StateName"},{"value":"Feldkirch","key":"CountyName"}]},"MapReference":{"ReferenceId":"704048828","Spot":0.48,"SideOfStreet":"right","CountryId":"20128885","StateId":"20137807","CountyId":"20138049","CityId":"20138092","AddressId":"213707977","RoadLinkId":"77756395"}}},{"Relevance":1.0,"Distance":109.8,"MatchLevel":"houseNumber","MatchQuality":{"Country":1.0,"State":1.0,"County":1.0,"City":1.0,"Street":[1.0],"HouseNumber":1.0,"PostalCode":1.0},"MatchType":"interpolated","Location":{"LocationId":"NT_gmNqC7L6K716u8rg2LMfHB_xYD","LocationType":"point","DisplayPosition":{"Latitude":47.26146,"Longitude":9.64841},"MapView":{"TopLeft":{"Latitude":47.2625842,"Longitude":9.6467536},"BottomRight":{"Latitude":47.2603358,"Longitude":9.6500664}},"Address":{"Label":"Valdunastraße 16, 6830 Rankweil, Österreich","Country":"AUT","State":"Vorarlberg","County":"Feldkirch","City":"Rankweil","Street":"Valdunastraße","HouseNumber":"16","PostalCode":"6830","AdditionalData":[{"value":"Österreich","key":"CountryName"},{"value":"Vorarlberg","key":"StateName"},{"value":"Feldkirch","key":"CountyName"}]},"MapReference":{"ReferenceId":"704048827","Spot":0.99,"SideOfStreet":"left","CountryId":"20128885","StateId":"20137807","CountyId":"20138049","CityId":"20138092","AddressId":"161206041","RoadLinkId":"77756394"}}},{"Relevance":1.0,"Distance":220.8,"MatchLevel":"street","MatchQuality":{"Country":1.0,"State":1.0,"County":1.0,"City":1.0,"Street":[1.0],"PostalCode":1.0},"Location":{"LocationId":"NT_zAaQAD7pcRB3gUvlwXIjIC_l_759255627_R","LocationType":"point","DisplayPosition":{"Latitude":47.26118,"Longitude":9.64594},"MapView":{"TopLeft":{"Latitude":47.26178,"Longitude":9.64531},"BottomRight":{"Latitude":47.26118,"Longitude":9.64594}},"Address":{"Label":"Walgaustraße, 6830 Rankweil, Österreich","Country":"AUT","State":"Vorarlberg","County":"Feldkirch","City":"Rankweil","Street":"Walgaustraße","PostalCode":"6830","AdditionalData":[{"value":"Österreich","key":"CountryName"},{"value":"Vorarlberg","key":"StateName"},{"value":"Feldkirch","key":"CountyName"}]},"MapReference":{"ReferenceId":"759255627","Spot":0.0,"SideOfStreet":"right","CountryId":"20128885","StateId":"20137807","CountyId":"20138049","CityId":"20138092"}}},{"Relevance":1.0,"Distance":229.2,"MatchLevel":"street","MatchQuality":{"Country":1.0,"State":1.0,"County":1.0,"City":1.0,"Street":[1.0],"PostalCode":1.0},"Location":{"LocationId":"NT_zAaQAD7pcRB3gUvlwXIjIC_l_759255626_R","LocationType":"point","DisplayPosition":{"Latitude":47.26086,"Longitude":9.64625},"MapView":{"TopLeft":{"Latitude":47.26118,"Longitude":9.6455},"BottomRight":{"Latitude":47.25681,"Longitude":9.64652}},"Address":{"Label":"Walgaustraße, 6830 Rankweil, Österreich","Country":"AUT","State":"Vorarlberg","County":"Feldkirch","City":"Rankweil","Street":"Walgaustraße","PostalCode":"6830","AdditionalData":[{"value":"Österreich","key":"CountryName"},{"value":"Vorarlberg","key":"StateName"},{"value":"Feldkirch","key":"CountyName"}]},"MapReference":{"ReferenceId":"759255626","Spot":0.91,"SideOfStreet":"right","CountryId":"20128885","StateId":"20137807","CountyId":"20138049","CityId":"20138092"}}},{"Relevance":1.0,"Distance":246.0,"MatchLevel":"houseNumber","MatchQuality":{"Country":1.0,"State":1.0,"County":1.0,"City":1.0,"Street":[1.0],"HouseNumber":1.0,"PostalCode":1.0},"MatchType":"interpolated","Location":{"LocationId":"NT_qN-zHoXB7TksKn0yzu.ABC_yMD","LocationType":"point","DisplayPosition":{"Latitude":47.26299,"Longitude":9.64454},"MapView":{"TopLeft":{"Latitude":47.2641142,"Longitude":9.6428835},"BottomRight":{"Latitude":47.2618658,"Longitude":9.6461965}},"Address":{"Label":"Walgaustraße 23, 6830 Rankweil, Österreich","Country":"AUT","State":"Vorarlberg","County":"Feldkirch","City":"Rankweil","Street":"Walgaustraße","HouseNumber":"23","PostalCode":"6830","AdditionalData":[{"value":"Österreich","key":"CountryName"},{"value":"Vorarlberg","key":"StateName"},{"value":"Feldkirch","key":"CountyName"}]},"MapReference":{"ReferenceId":"759255628","Spot":0.62,"SideOfStreet":"right","CountryId":"20128885","StateId":"20137807","CountyId":"20138049","CityId":"20138092","AddressId":"161204964","RoadLinkId":"153818343"}}},{"Relevance":1.0,"Distance":336.9,"MatchLevel":"street","MatchQuality":{"Country":1.0,"State":1.0,"County":1.0,"City":1.0,"Street":[1.0],"PostalCode":1.0},"Location":{"LocationId":"NT_qN-zHoXB7TksKn0yzu.ABC_l_759255629_R","LocationType":"point","DisplayPosition":{"Latitude":47.26383,"Longitude":9.64424},"MapView":{"TopLeft":{"Latitude":47.26442,"Longitude":9.64384},"BottomRight":{"Latitude":47.26383,"Longitude":9.64424}},"Address":{"Label":"Walgaustraße, 6830 Rankweil, Österreich","Country":"AUT","State":"Vorarlberg","County":"Feldkirch","City":"Rankweil","Street":"Walgaustraße","PostalCode":"6830","AdditionalData":[{"value":"Österreich","key":"CountryName"},{"value":"Vorarlberg","key":"StateName"},{"value":"Feldkirch","key":"CountyName"}]},"MapReference":{"ReferenceId":"759255629","Spot":0.0,"SideOfStreet":"right","CountryId":"20128885","StateId":"20137807","CountyId":"20138049","CityId":"20138092"}}},{"Relevance":1.0,"Distance":396.3,"MatchLevel":"street","MatchQuality":{"Country":1.0,"State":1.0,"County":1.0,"City":1.0,"Street":[1.0],"PostalCode":1.0},"Location":{"LocationId":"NT_qN-zHoXB7TksKn0yzu.ABC_l_841874579_R","LocationType":"point","DisplayPosition":{"Latitude":47.26442,"Longitude":9.64384},"MapView":{"TopLeft":{"Latitude":47.26484,"Longitude":9.64347},"BottomRight":{"Latitude":47.26442,"Longitude":9.64384}},"Address":{"Label":"Walgaustraße, 6830 Rankweil, Österreich","Country":"AUT","State":"Vorarlberg","County":"Feldkirch","City":"Rankweil","Street":"Walgaustraße","PostalCode":"6830","AdditionalData":[{"value":"Österreich","key":"CountryName"},{"value":"Vorarlberg","key":"StateName"},{"value":"Feldkirch","key":"CountyName"}]},"MapReference":{"ReferenceId":"841874579","Spot":0.0,"SideOfStreet":"right","CountryId":"20128885","StateId":"20137807","CountyId":"20138049","CityId":"20138092"}}},{"Relevance":1.0,"Distance":446.1,"MatchLevel":"street","MatchQuality":{"Country":1.0,"State":1.0,"County":1.0,"City":1.0,"Street":[1.0],"PostalCode":1.0},"Location":{"LocationId":"NT_qN-zHoXB7TksKn0yzu.ABC_l_841874580_R","LocationType":"point","DisplayPosition":{"Latitude":47.26484,"Longitude":9.64347},"MapView":{"TopLeft":{"Latitude":47.26492,"Longitude":9.6434},"BottomRight":{"Latitude":47.26484,"Longitude":9.64347}},"Address":{"Label":"Walgaustraße, 6830 Rankweil, Österreich","Country":"AUT","State":"Vorarlberg","County":"Feldkirch","City":"Rankweil","Street":"Walgaustraße","PostalCode":"6830","AdditionalData":[{"value":"Österreich","key":"CountryName"},{"value":"Vorarlberg","key":"StateName"},{"value":"Feldkirch","key":"CountyName"}]},"MapReference":{"ReferenceId":"841874580","Spot":0.0,"SideOfStreet":"right","CountryId":"20128885","StateId":"20137807","CountyId":"20138049","CityId":"20138092"}}},{"Relevance":1.0,"Distance":495.5,"MatchLevel":"houseNumber","MatchQuality":{"Country":1.0,"State":1.0,"County":1.0,"City":1.0,"Street":[1.0],"HouseNumber":1.0,"PostalCode":1.0},"MatchType":"interpolated","Location":{"LocationId":"NT_qN-zHoXB7TksKn0yzu.ABC_yID","LocationType":"point","DisplayPosition":{"Latitude":47.26524,"Longitude":9.6431},"MapView":{"TopLeft":{"Latitude":47.2663642,"Longitude":9.6414434},"BottomRight":{"Latitude":47.2641158,"Longitude":9.6447566}},"Address":{"Label":"Walgaustraße 22, 6830 Rankweil, Österreich","Country":"AUT","State":"Vorarlberg","County":"Feldkirch","City":"Rankweil","Street":"Walgaustraße","HouseNumber":"22","PostalCode":"6830","AdditionalData":[{"value":"Österreich","key":"CountryName"},{"value":"Vorarlberg","key":"StateName"},{"value":"Feldkirch","key":"CountyName"}]},"MapReference":{"ReferenceId":"69277885","Spot":0.42,"SideOfStreet":"left","CountryId":"20128885","StateId":"20137807","CountyId":"20138049","CityId":"20138092","AddressId":"161204978","RoadLinkId":"27934209"}}}]}]}}