{"Response":{"MetaInfo":{"Timestamp":"2020-03-28T11:46:48.642+0000","NextPageInformation":"2"},"View":[{"_type":"SearchResultsViewType","ViewId":0,"Result":[{"Relevance":1.0,"Distance":-35.8,"MatchLevel":"landmark","MatchQuality":{"Country":1.0,"State":1.0,"County":1.0,"City":1.0,"Street":[1.0],"PostalCode":1.0,"Name":1.0},"Location":{"LocationId":"NT_SAJ30rvlKdwOJ66eISyy8D_p_LG33S4ZHu.jit9oNv230GA","LocationType":"shoppingCentre","Name":"Ctre. Ccial. d'École-Valentin","DisplayPosition":{"Latitude":47.28412,"Longitude":5.99339},"MapView":{"TopLeft":{"Latitude":47.28424,"Longitude":5.991},"BottomRight":{"Latitude":47.27978,"Longitude":5.99554}},"Address":{"Label":"Chemin de l'Étang, 25480 École-Valentin, France","Country":"FRA","State":"Bourgogne-Franche-Comté","County":"Doubs","City":"École-Valentin","Street":"Chemin de l'Étang","PostalCode":"25480","AdditionalData":[{"value":"France","key":"CountryName"},{"value":"Bourgogne-Franche-Comté","key":"StateName"},{"value":"Doubs","key":"CountyName"}]},"MapReference":{"CountryId":"20000001","StateId":"20013306","CountyId":"20013307","CityId":"20013884","PlaceId":"51472659"}}},{"Relevance":1.0,"Distance":0.0,"Direction":0.0,"MatchLevel":"city","MatchQuality":{"Country":1.0,"State":1.0,"County":1.0,"City":1.0,"PostalCode":1.0},"Location":{"LocationId":"NT_LwHOSjtUcWTH72NsgbKNcC","LocationType":"point","DisplayPosition":{"Latitude":47.2821832,"Longitude":5.9917418},"MapView":{"TopLeft":{"Latitude":47.2851,"Longitude":5.96931},"BottomRight":{"Latitude":47.26352,"Longitude":6.00593}},"Address":{"Label":"École-Valentin, Bourgogne-Franche-Comté, France","Country":"FRA","State":"Bourgogne-Franche-Comté","County":"Doubs","City":"École-Valentin","PostalCode":"25480","AdditionalData":[{"value":"France","key":"CountryName"},{"value":"Bourgogne-Franche-Comté","key":"StateName"},{"value":"Doubs","key":"CountyName"}]},"MapReference":{"ReferenceId":"63505017","SideOfStreet":"neither","CountryId":"20000001","StateId":"20013306","CountyId":"20013307","CityId":"20013884"}}},{"Relevance":1.0,"Distance":28.9,"MatchLevel":"street","MatchQuality":{"Country":1.0,"State":1.0,"County":1.0,"City":1.0,"PostalCode":1.0},"Location":{"LocationId":"NT_UNKUkSU7OJfLJEMzW4N94A_l_926432538_L","LocationType":"point","DisplayPosition":{"Latitude":47.28244,"Longitude":5.9918},"MapView":{"TopLeft":{"Latitude":47.28287,"Longitude":5.99175},"BottomRight":{"Latitude":47.28237,"Longitude":5.99227}},"Address":{"Label":"25480 École-Valentin, France","Country":"FRA","State":"Bourgogne-Franche-Comté","County":"Doubs","City":"École-Valentin","PostalCode":"25480","AdditionalData":[{"value":"France","key":"CountryName"},{"value":"Bourgogne-Franche-Comté","key":"StateName"},{"value":"Doubs","key":"CountyName"}]},"MapReference":{"ReferenceId":"926432538","Spot":0.52,"SideOfStreet":"left","CountryId":"20000001","StateId":"20013306","CountyId":"20013307","CityId":"20013884"}}},{"Relevance":1.0,"Distance":35.9,"MatchLevel":"street","MatchQuality":{"Country":1.0,"State":1.0,"County":1.0,"City":1.0,"PostalCode":1.0},"Location":{"LocationId":"NT_UNKUkSU7OJfLJEMzW4N94A_l_1245367732_R","LocationType":"point","DisplayPosition":{"Latitude":47.28214,"Longitude":5.99127},"MapView":{"TopLeft":{"Latitude":47.28229,"Longitude":5.99105},"BottomRight":{"Latitude":47.28214,"Longitude":5.99127}},"Address":{"Label":"25480 École-Valentin, France","Country":"FRA","State":"Bourgogne-Franche-Comté","County":"Doubs","City":"École-Valentin","PostalCode":"25480","AdditionalData":[{"value":"France","key":"CountryName"},{"value":"Bourgogne-Franche-Comté","key":"StateName"},{"value":"Doubs","key":"CountyName"}]},"MapReference":{"ReferenceId":"1245367732","Spot":0.0,"SideOfStreet":"right","CountryId":"20000001","StateId":"20013306","CountyId":"20013307","CityId":"20013884"}}},{"Relevance":1.0,"Distance":35.9,"MatchLevel":"street","MatchQuality":{"Country":1.0,"State":1.0,"County":1.0,"City":1.0,"PostalCode":1.0},"Location":{"LocationId":"NT_UNKUkSU7OJfLJEMzW4N94A_l_1245367729_R","LocationType":"point","DisplayPosition":{"Latitude":47.28214,"Longitude":5.99127},"MapView":{"TopLeft":{"Latitude":47.28214,"Longitude":5.99124},"BottomRight":{"Latitude":47.28207,"Longitude":5.99127}},"Address":{"Label":"25480 École-Valentin, France","Country":"FRA","State":"Bourgogne-Franche-Comté","County":"Doubs","City":"École-Valentin","PostalCode":"25480","AdditionalData":[{"value":"France","key":"CountryName"},{"value":"Bourgogne-Franche-Comté","key":"StateName"},{"value":"Doubs","key":"CountyName"}]},"MapReference":{"ReferenceId":"1245367729","Spot":1.0,"SideOfStreet":"right","CountryId":"20000001","StateId":"20013306","CountyId":"20013307","CityId":"20013884"}}},{"Relevance":1.0,"Distance":39.9,"MatchLevel":"street","MatchQuality":{"Country":1.0,"State":1.0,"County":1.0,"City":1.0,"PostalCode":1.0},"Location":{"LocationId":"NT_UNKUkSU7OJfLJEMzW4N94A_l_1245367733_R","LocationType":"point","DisplayPosition":{"Latitude":47.28207,"Longitude":5.99124},"MapView":{"TopLeft":{"Latitude":47.28207,"Longitude":5.99105},"BottomRight":{"Latitude":47.28199,"Longitude":5.99124}},"Address":{"Label":"25480 École-Valentin, France","Country":"FRA","State":"Bourgogne-Franche-Comté","County":"Doubs","City":"École-Valentin","PostalCode":"25480","AdditionalData":[{"value":"France","key":"CountryName"},{"value":"Bourgogne-Franche-Comté","key":"StateName"},{"value":"Doubs","key":"CountyName"}]},"MapReference":{"ReferenceId":"1245367733","Spot":1.0,"SideOfStreet":"right","CountryId":"20000001","StateId":"20013306","CountyId":"20013307","CityId":"20013884"}}},{"Relevance":1.0,"Distance":40.1,"MatchLevel":"houseNumber","MatchQuality":{"Country":1.0,"State":1.0,"County":1.0,"City":1.0,"Street":[1.0],"HouseNumber":1.0,"PostalCode":1.0},"MatchType":"interpolated","Location":{"LocationId":"NT_5IX-vnq4ZEGvItcPWN5HrA_0kD","LocationType":"point","DisplayPosition":{"Latitude":47.28193,"Longitude":5.99214},"MapView":{"TopLeft":{"Latitude":47.2830542,"Longitude":5.9904829},"BottomRight":{"Latitude":47.2808058,"Longitude":5.9937971}},"Address":{"Label":"49 Rue de Châtillon, 25480 École-Valentin, France","Country":"FRA","State":"Bourgogne-Franche-Comté","County":"Doubs","City":"École-Valentin","Street":"Rue de Châtillon","HouseNumber":"49","PostalCode":"25480","AdditionalData":[{"value":"France","key":"CountryName"},{"value":"Bourgogne-Franche-Comté","key":"StateName"},{"value":"Doubs","key":"CountyName"}]},"MapReference":{"ReferenceId":"926432544","Spot":0.75,"SideOfStreet":"left","CountryId":"20000001","StateId":"20013306","CountyId":"20013307","CityId":"20013884","AddressId":"689766160","RoadLinkId":"293477258"}}},{"Relevance":1.0,"Distance":44.9,"MatchLevel":"street","MatchQuality":{"Country":1.0,"State":1.0,"County":1.0,"City":1.0,"Street":[1.0],"PostalCode":1.0},"Location":{"LocationId":"NT_5IX-vnq4ZEGvItcPWN5HrA_l_926432543_L","LocationType":"point","DisplayPosition":{"Latitude":47.28237,"Longitude":5.99227},"MapView":{"TopLeft":{"Latitude":47.28302,"Longitude":5.99227},"BottomRight":{"Latitude":47.28237,"Longitude":5.99249}},"Address":{"Label":"Rue de Châtillon, 25480 École-Valentin, France","Country":"FRA","State":"Bourgogne-Franche-Comté","County":"Doubs","City":"École-Valentin","Street":"Rue de Châtillon","PostalCode":"25480","AdditionalData":[{"value":"France","key":"CountryName"},{"value":"Bourgogne-Franche-Comté","key":"StateName"},{"value":"Doubs","key":"CountyName"}]},"MapReference":{"ReferenceId":"926432543","Spot":0.0,"SideOfStreet":"left","CountryId":"20000001","StateId":"20013306","CountyId":"20013307","CityId":"20013884"}}},{"Relevance":1.0,"Distance":53.5,"MatchLevel":"street","MatchQuality":{"Country":1.0,"State":1.0,"County":1.0,"City":1.0,"Street":[1.0],"PostalCode":1.0},"Location":{"LocationId":"NT_FLVWeRtIyV.BObC-72HRHA_l_1245367731_R","LocationType":"point","DisplayPosition":{"Latitude":47.28229,"Longitude":5.99105},"MapView":{"TopLeft":{"Latitude":47.28252,"Longitude":5.991},"BottomRight":{"Latitude":47.28229,"Longitude":5.99105}},"Address":{"Label":"Rue Ariane 2, 25480 École-Valentin, France","Country":"FRA","State":"Bourgogne-Franche-Comté","County":"Doubs","City":"École-Valentin","Street":"Rue Ariane 2","PostalCode":"25480","AdditionalData":[{"value":"France","key":"CountryName"},{"value":"Bourgogne-Franche-Comté","key":"StateName"},{"value":"Doubs","key":"CountyName"}]},"MapReference":{"ReferenceId":"1245367731","Spot":0.0,"SideOfStreet":"right","CountryId":"20000001","StateId":"20013306","CountyId":"20013307","CityId":"20013884"}}},{"Relevance":1.0,"Distance":53.5,"MatchLevel":"street","MatchQuality":{"Country":1.0,"State":1.0,"County":1.0,"City":1.0,"PostalCode":1.0},"Location":{"LocationId":"NT_UNKUkSU7OJfLJEMzW4N94A_l_1245367735_R","LocationType":"point","DisplayPosition":{"Latitude":47.28229,"Longitude":5.99105},"MapView":{"TopLeft":{"Latitude":47.28229,"Longitude":5.99083},"BottomRight":{"Latitude":47.28207,"Longitude":5.99105}},"Address":{"Label":"25480 École-Valentin, France","Country":"FRA","State":"Bourgogne-Franche-Comté","County":"Doubs","City":"École-Valentin","PostalCode":"25480","AdditionalData":[{"value":"France","key":"CountryName"},{"value":"Bourgogne-Franche-Comté","key":"StateName"},{"value":"Doubs","key":"CountyName"}]},"MapReference":{"ReferenceId":"1245367735","Spot":1.0,"SideOfStreet":"right","CountryId":"20000001","StateId":"20013306","CountyId":"20013307","CityId":"20013884"}}}]}]}}