{"Response":{"MetaInfo":{"Timestamp":"2020-03-28T12:02:34.628+0000","NextPageInformation":"2"},"View":[{"_type":"SearchResultsViewType","ViewId":0,"Result":[{"Relevance":1.0,"Distance":0.0,"Direction":0.0,"MatchLevel":"district","MatchQuality":{"Country":1.0,"State":1.0,"County":1.0,"City":1.0,"District":1.0,"PostalCode":1.0},"Location":{"LocationId":"NT_rBYy6E1d.EpvDxvaZBF8ZC","LocationType":"point","DisplayPosition":{"Latitude":47.2613459,"Longitude":17.8695922},"MapView":{"TopLeft":{"Latitude":47.27739,"Longitude":17.85341},"BottomRight":{"Latitude":47.24991,"Longitude":17.89063}},"Address":{"Label":"Zirc, Veszprém, Magyarország","Country":"HUN","State":"Veszprém","County":"Zirci Járás","City":"Zirc","District":"Zirc","PostalCode":"8420","AdditionalData":[{"value":"Magyarország","key":"CountryName"},{"value":"Veszprém","key":"StateName"},{"value":"Zirci Járás","key":"CountyName"}]},"MapReference":{"ReferenceId":"1205860486","SideOfStreet":"neither","CountryId":"20613038","StateId":"20622272","CountyId":"26680462","CityId":"20622967","DistrictId":"26680644"}}},{"Relevance":1.0,"Distance":3.6,"MatchLevel":"houseNumber","MatchQuality":{"Country":1.0,"State":1.0,"County":1.0,"City":1.0,"District":1.0,"Street":[1.0],"HouseNumber":1.0,"PostalCode":1.0},"MatchType":"interpolated","Location":{"LocationId":"NT_MxkQwEFdvat2mzl4eJtY2D_4A","LocationType":"point","DisplayPosition":{"Latitude":47.26125,"Longitude":17.8696},"MapView":{"TopLeft":{"Latitude":47.2623742,"Longitude":17.8679436},"BottomRight":{"Latitude":47.2601258,"Longitude":17.8712564}},"Address":{"Label":"József Attila utca 8, Zirc 8420, Magyarország","Country":"HUN","State":"Veszprém","County":"Zirci Járás","City":"Zirc","District":"Zirc","Street":"József Attila utca","HouseNumber":"8","PostalCode":"8420","AdditionalData":[{"value":"Magyarország","key":"CountryName"},{"value":"Veszprém","key":"StateName"},{"value":"Zirci Járás","key":"CountyName"}]},"MapReference":{"ReferenceId":"1176094933","Spot":0.32,"SideOfStreet":"left","CountryId":"20613038","StateId":"20622272","CountyId":"26680462","CityId":"20622967","DistrictId":"26680644","AddressId":"355074143","RoadLinkId":"483681045"}}},{"Relevance":1.0,"Distance":32.0,"MatchLevel":"houseNumber","MatchQuality":{"Country":1.0,"State":1.0,"County":1.0,"City":1.0,"District":1.0,"Street":[1.0],"HouseNumber":1.0,"PostalCode":1.0},"MatchType":"interpolated","Location":{"LocationId":"NT_BoJCw2YyyMSHelsN8fOTbA_yA","LocationType":"point","DisplayPosition":{"Latitude":47.26122,"Longitude":17.86897},"MapView":{"TopLeft":{"Latitude":47.2623442,"Longitude":17.8673136},"BottomRight":{"Latitude":47.2600958,"Longitude":17.8706264}},"Address":{"Label":"Bajcsy-Zsilinszky utca 2, Zirc 8420, Magyarország","Country":"HUN","State":"Veszprém","County":"Zirci Járás","City":"Zirc","District":"Zirc","Street":"Bajcsy-Zsilinszky utca","HouseNumber":"2","PostalCode":"8420","AdditionalData":[{"value":"Magyarország","key":"CountryName"},{"value":"Veszprém","key":"StateName"},{"value":"Zirci Járás","key":"CountyName"}]},"MapReference":{"ReferenceId":"598412564","Spot":0.08,"SideOfStreet":"right","CountryId":"20613038","StateId":"20622272","CountyId":"26680462","CityId":"20622967","DistrictId":"26680644","AddressId":"357497487","RoadLinkId":"60573775"}}},{"Relevance":1.0,"Distance":33.8,"MatchLevel":"houseNumber","MatchQuality":{"Country":1.0,"State":1.0,"County":1.0,"City":1.0,"District":1.0,"Street":[1.0],"HouseNumber":1.0,"PostalCode":1.0},"MatchType":"interpolated","Location":{"LocationId":"NT_MxkQwEFdvat2mzl4eJtY2D_xAD","LocationType":"point","DisplayPosition":{"Latitude":47.26117,"Longitude":17.86917},"MapView":{"TopLeft":{"Latitude":47.2622942,"Longitude":17.8675136},"BottomRight":{"Latitude":47.2600458,"Longitude":17.8708264}},"Address":{"Label":"József Attila utca 10, Zirc 8420, Magyarország","Country":"HUN","State":"Veszprém","County":"Zirci Járás","City":"Zirc","District":"Zirc","Street":"József Attila utca","HouseNumber":"10","PostalCode":"8420","AdditionalData":[{"value":"Magyarország","key":"CountryName"},{"value":"Veszprém","key":"StateName"},{"value":"Zirci Járás","key":"CountyName"}]},"MapReference":{"ReferenceId":"1176094932","Spot":1.0,"SideOfStreet":"left","CountryId":"20613038","StateId":"20622272","CountyId":"26680462","CityId":"20622967","DistrictId":"26680644","AddressId":"357513879","RoadLinkId":"483681044"}}},{"Relevance":1.0,"Distance":35.3,"MatchLevel":"houseNumber","MatchQuality":{"Country":1.0,"State":1.0,"County":1.0,"City":1.0,"District":1.0,"Street":[1.0],"HouseNumber":1.0,"PostalCode":1.0},"MatchType":"interpolated","Location":{"LocationId":"NT_5qmZPmta6VRsSLOSSj9-vD_xA","LocationType":"point","DisplayPosition":{"Latitude":47.26104,"Longitude":17.86919},"MapView":{"TopLeft":{"Latitude":47.2621642,"Longitude":17.8675336},"BottomRight":{"Latitude":47.2599158,"Longitude":17.8708464}},"Address":{"Label":"Luksz Sándor utca 1, Zirc 8420, Magyarország","Country":"HUN","State":"Veszprém","County":"Zirci Járás","City":"Zirc","District":"Zirc","Street":"Luksz Sándor utca","HouseNumber":"1","PostalCode":"8420","AdditionalData":[{"value":"Magyarország","key":"CountryName"},{"value":"Veszprém","key":"StateName"},{"value":"Zirci Járás","key":"CountyName"}]},"MapReference":{"ReferenceId":"598412680","Spot":0.93,"SideOfStreet":"right","CountryId":"20613038","StateId":"20622272","CountyId":"26680462","CityId":"20622967","DistrictId":"26680644","AddressId":"355396690","RoadLinkId":"60811881"}}},{"Relevance":1.0,"Distance":55.0,"MatchLevel":"houseNumber","MatchQuality":{"Country":1.0,"State":1.0,"County":1.0,"City":1.0,"District":1.0,"Street":[1.0],"HouseNumber":1.0,"PostalCode":1.0},"MatchType":"interpolated","Location":{"LocationId":"NT_MxkQwEFdvat2mzl4eJtY2D_xID","LocationType":"point","DisplayPosition":{"Latitude":47.26114,"Longitude":17.86893},"MapView":{"TopLeft":{"Latitude":47.2622642,"Longitude":17.8672736},"BottomRight":{"Latitude":47.2600158,"Longitude":17.8705864}},"Address":{"Label":"József Attila utca 12, Zirc 8420, Magyarország","Country":"HUN","State":"Veszprém","County":"Zirci Járás","City":"Zirc","District":"Zirc","Street":"József Attila utca","HouseNumber":"12","PostalCode":"8420","AdditionalData":[{"value":"Magyarország","key":"CountryName"},{"value":"Veszprém","key":"StateName"},{"value":"Zirci Járás","key":"CountyName"}]},"MapReference":{"ReferenceId":"598412574","Spot":0.92,"SideOfStreet":"left","CountryId":"20613038","StateId":"20622272","CountyId":"26680462","CityId":"20622967","DistrictId":"26680644","AddressId":"357487010","RoadLinkId":"60412982"}}},{"Relevance":1.0,"Distance":63.5,"MatchLevel":"houseNumber","MatchQuality":{"Country":1.0,"State":1.0,"County":1.0,"City":1.0,"District":1.0,"Street":[1.0],"HouseNumber":1.0,"PostalCode":1.0},"MatchType":"interpolated","Location":{"LocationId":"NT_aO4J3cgIx-bSil7ZNHLR8A_yA","LocationType":"point","DisplayPosition":{"Latitude":47.26134,"Longitude":17.87057},"MapView":{"TopLeft":{"Latitude":47.2624642,"Longitude":17.8689136},"BottomRight":{"Latitude":47.2602158,"Longitude":17.8722264}},"Address":{"Label":"Reguly Antal utca 2, Zirc 8420, Magyarország","Country":"HUN","State":"Veszprém","County":"Zirci Járás","City":"Zirc","District":"Zirc","Street":"Reguly Antal utca","HouseNumber":"2","PostalCode":"8420","AdditionalData":[{"value":"Magyarország","key":"CountryName"},{"value":"Veszprém","key":"StateName"},{"value":"Zirci Járás","key":"CountyName"}]},"MapReference":{"ReferenceId":"598412598","Spot":0.88,"SideOfStreet":"left","CountryId":"20613038","StateId":"20622272","CountyId":"26680462","CityId":"20622967","DistrictId":"26680644","AddressId":"357505182","RoadLinkId":"60562481"}}},{"Relevance":1.0,"Distance":84.0,"MatchLevel":"houseNumber","MatchQuality":{"Country":1.0,"State":1.0,"County":1.0,"City":1.0,"District":1.0,"Street":[1.0],"HouseNumber":1.0,"PostalCode":1.0},"MatchType":"interpolated","Location":{"LocationId":"NT_b3CpkXArlgBVFEiIdRP5DB_0A","LocationType":"point","DisplayPosition":{"Latitude":47.26217,"Longitude":17.86915},"MapView":{"TopLeft":{"Latitude":47.2632942,"Longitude":17.8674935},"BottomRight":{"Latitude":47.2610458,"Longitude":17.8708065}},"Address":{"Label":"Vak Bottyán utca 4, Zirc 8420, Magyarország","Country":"HUN","State":"Veszprém","County":"Zirci Járás","City":"Zirc","District":"Zirc","Street":"Vak Bottyán utca","HouseNumber":"4","PostalCode":"8420","AdditionalData":[{"value":"Magyarország","key":"CountryName"},{"value":"Veszprém","key":"StateName"},{"value":"Zirci Járás","key":"CountyName"}]},"MapReference":{"ReferenceId":"598412496","Spot":0.3,"SideOfStreet":"right","CountryId":"20613038","StateId":"20622272","CountyId":"26680462","CityId":"20622967","DistrictId":"26680644","AddressId":"355794004","RoadLinkId":"60621111"}}},{"Relevance":1.0,"Distance":100.0,"MatchLevel":"houseNumber","MatchQuality":{"Country":1.0,"State":1.0,"County":1.0,"City":1.0,"District":1.0,"Street":[1.0],"HouseNumber":1.0,"PostalCode":1.0},"MatchType":"interpolated","Location":{"LocationId":"NT_MxkQwEFdvat2mzl4eJtY2D_yA","LocationType":"point","DisplayPosition":{"Latitude":47.26158,"Longitude":17.87095},"MapView":{"TopLeft":{"Latitude":47.2627042,"Longitude":17.8692936},"BottomRight":{"Latitude":47.2604558,"Longitude":17.8726064}},"Address":{"Label":"József Attila utca 2, Zirc 8420, Magyarország","Country":"HUN","State":"Veszprém","County":"Zirci Járás","City":"Zirc","District":"Zirc","Street":"József Attila utca","HouseNumber":"2","PostalCode":"8420","AdditionalData":[{"value":"Magyarország","key":"CountryName"},{"value":"Veszprém","key":"StateName"},{"value":"Zirci Járás","key":"CountyName"}]},"MapReference":{"ReferenceId":"598412546","Spot":0.5,"SideOfStreet":"left","CountryId":"20613038","StateId":"20622272","CountyId":"26680462","CityId":"20622967","DistrictId":"26680644","AddressId":"355124651","RoadLinkId":"60372178"}}},{"Relevance":1.0,"Distance":110.1,"MatchLevel":"houseNumber","MatchQuality":{"Country":1.0,"State":1.0,"County":1.0,"City":1.0,"District":1.0,"Street":[1.0],"HouseNumber":1.0,"PostalCode":1.0},"MatchType":"interpolated","Location":{"LocationId":"NT_aO4J3cgIx-bSil7ZNHLR8A_xAD","LocationType":"point","DisplayPosition":{"Latitude":47.26078,"Longitude":17.87097},"MapView":{"TopLeft":{"Latitude":47.2619042,"Longitude":17.8693136},"BottomRight":{"Latitude":47.2596558,"Longitude":17.8726264}},"Address":{"Label":"Reguly Antal utca 10, Zirc 8420, Magyarország","Country":"HUN","State":"Veszprém","County":"Zirci Járás","City":"Zirc","District":"Zirc","Street":"Reguly Antal utca","HouseNumber":"10","PostalCode":"8420","AdditionalData":[{"value":"Magyarország","key":"CountryName"},{"value":"Veszprém","key":"StateName"},{"value":"Zirci Járás","key":"CountyName"}]},"MapReference":{"ReferenceId":"598412633","Spot":0.98,"SideOfStreet":"left","CountryId":"20613038","StateId":"20622272","CountyId":"26680462","CityId":"20622967","DistrictId":"26680644","AddressId":"356326696","RoadLinkId":"60713224"}}}]}]}}