{"Response":{"MetaInfo":{"Timestamp":"2020-03-28T11:50:36.104+0000","NextPageInformation":"2"},"View":[{"_type":"SearchResultsViewType","ViewId":0,"Result":[{"Relevance":1.0,"Distance":0.0,"Direction":0.0,"MatchLevel":"city","MatchQuality":{"Country":1.0,"State":1.0,"County":1.0,"City":1.0,"PostalCode":1.0},"Location":{"LocationId":"NT_tDuHI1R7naYqbsJSson4EC","LocationType":"point","DisplayPosition":{"Latitude":47.279941,"Longitude":5.003318},"MapView":{"TopLeft":{"Latitude":47.29697,"Longitude":4.93851},"BottomRight":{"Latitude":47.26307,"Longitude":5.03628}},"Address":{"Label":"Marsannay-la-Côte, Bourgogne-Franche-Comté, France","Country":"FRA","State":"Bourgogne-Franche-Comté","County":"Côte-d'Or","City":"Marsannay-la-Côte","PostalCode":"21160","AdditionalData":[{"value":"France","key":"CountryName"},{"value":"Bourgogne-Franche-Comté","key":"StateName"},{"value":"Côte-d'Or","key":"CountyName"}]},"MapReference":{"ReferenceId":"58872772","SideOfStreet":"neither","CountryId":"20000001","StateId":"20013306","CountyId":"20011170","CityId":"20012335"}}},{"Relevance":1.0,"Distance":10.0,"MatchLevel":"houseNumber","MatchQuality":{"Country":1.0,"State":1.0,"County":1.0,"City":1.0,"Street":[1.0],"HouseNumber":1.0,"PostalCode":1.0},"MatchType":"interpolated","Location":{"LocationId":"NT_EavQwSHT22e-yc2NpAmgxD_xAD","LocationType":"point","DisplayPosition":{"Latitude":47.28004,"Longitude":5.00332},"MapView":{"TopLeft":{"Latitude":47.2811642,"Longitude":5.001663},"BottomRight":{"Latitude":47.2789158,"Longitude":5.004977}},"Address":{"Label":"10 Place du Marché, 21160 Marsannay-la-Côte, France","Country":"FRA","State":"Bourgogne-Franche-Comté","County":"Côte-d'Or","City":"Marsannay-la-Côte","Street":"Place du Marché","HouseNumber":"10","PostalCode":"21160","AdditionalData":[{"value":"France","key":"CountryName"},{"value":"Bourgogne-Franche-Comté","key":"StateName"},{"value":"Côte-d'Or","key":"CountyName"}]},"MapReference":{"ReferenceId":"58872722","Spot":0.68,"SideOfStreet":"right","CountryId":"20000001","StateId":"20013306","CountyId":"20011170","CityId":"20012335","AddressId":"673512597","RoadLinkId":"52873646"}}},{"Relevance":1.0,"Distance":15.9,"MatchLevel":"houseNumber","MatchQuality":{"Country":1.0,"State":1.0,"County":1.0,"City":1.0,"Street":[1.0],"HouseNumber":1.0,"PostalCode":1.0},"MatchType":"interpolated","Location":{"LocationId":"NT_QmNzAKkJnXKWFcABbEcaHB_3A","LocationType":"point","DisplayPosition":{"Latitude":47.27978,"Longitude":5.00367},"MapView":{"TopLeft":{"Latitude":47.2809042,"Longitude":5.002013},"BottomRight":{"Latitude":47.2786558,"Longitude":5.005327}},"Address":{"Label":"7 Le Petit Forum, 21160 Marsannay-la-Côte, France","Country":"FRA","State":"Bourgogne-Franche-Comté","County":"Côte-d'Or","City":"Marsannay-la-Côte","Street":"Le Petit Forum","HouseNumber":"7","PostalCode":"21160","AdditionalData":[{"value":"France","key":"CountryName"},{"value":"Bourgogne-Franche-Comté","key":"StateName"},{"value":"Côte-d'Or","key":"CountyName"}]},"MapReference":{"ReferenceId":"58864114","Spot":1.0,"SideOfStreet":"left","CountryId":"20000001","StateId":"20013306","CountyId":"20011170","CityId":"20012335","AddressId":"673543145","RoadLinkId":"53474168"}}},{"Relevance":1.0,"Distance":32.0,"MatchLevel":"houseNumber","MatchQuality":{"Country":1.0,"State":1.0,"County":1.0,"City":1.0,"Street":[1.0],"HouseNumber":1.0,"PostalCode":1.0},"MatchType":"interpolated","Location":{"LocationId":"NT_FQS1ugLpqe4AApVZt1MJqA_1ED","LocationType":"point","DisplayPosition":{"Latitude":47.28004,"Longitude":5.00292},"MapView":{"TopLeft":{"Latitude":47.2811642,"Longitude":5.001263},"BottomRight":{"Latitude":47.2789158,"Longitude":5.004577}},"Address":{"Label":"51 Avenue Marguerite de Salin, 21160 Marsannay-la-Côte, France","Country":"FRA","State":"Bourgogne-Franche-Comté","County":"Côte-d'Or","City":"Marsannay-la-Côte","Street":"Avenue Marguerite de Salin","HouseNumber":"51","PostalCode":"21160","AdditionalData":[{"value":"France","key":"CountryName"},{"value":"Bourgogne-Franche-Comté","key":"StateName"},{"value":"Côte-d'Or","key":"CountyName"}]},"MapReference":{"ReferenceId":"58864110","Spot":0.74,"SideOfStreet":"left","CountryId":"20000001","StateId":"20013306","CountyId":"20011170","CityId":"20012335","AddressId":"673543590","RoadLinkId":"53609877"}}},{"Relevance":1.0,"Distance":37.4,"MatchLevel":"street","MatchQuality":{"Country":1.0,"State":1.0,"County":1.0,"City":1.0,"Street":[1.0],"PostalCode":1.0},"Location":{"LocationId":"NT_FQS1ugLpqe4AApVZt1MJqA_l_584885532_R","LocationType":"point","DisplayPosition":{"Latitude":47.28024,"Longitude":5.00309},"MapView":{"TopLeft":{"Latitude":47.28043,"Longitude":5.00309},"BottomRight":{"Latitude":47.28024,"Longitude":5.0032}},"Address":{"Label":"Avenue Marguerite de Salin, 21160 Marsannay-la-Côte, France","Country":"FRA","State":"Bourgogne-Franche-Comté","County":"Côte-d'Or","City":"Marsannay-la-Côte","Street":"Avenue Marguerite de Salin","PostalCode":"21160","AdditionalData":[{"value":"France","key":"CountryName"},{"value":"Bourgogne-Franche-Comté","key":"StateName"},{"value":"Côte-d'Or","key":"CountyName"}]},"MapReference":{"ReferenceId":"584885532","Spot":0.0,"SideOfStreet":"right","CountryId":"20000001","StateId":"20013306","CountyId":"20011170","CityId":"20012335"}}},{"Relevance":1.0,"Distance":46.3,"MatchLevel":"street","MatchQuality":{"Country":1.0,"State":1.0,"County":1.0,"City":1.0,"Street":[1.0],"PostalCode":1.0},"Location":{"LocationId":"NT_2zj7wJhwhPxz16zq0ADAPB_l_584885534_L","LocationType":"point","DisplayPosition":{"Latitude":47.2803479,"Longitude":5.0034511},"MapView":{"TopLeft":{"Latitude":47.28043,"Longitude":5.0032},"BottomRight":{"Latitude":47.28008,"Longitude":5.00427}},"Address":{"Label":"Esplanade de la Déclaration des Droits de l'Homme, 21160 Marsannay-la-Côte, France","Country":"FRA","State":"Bourgogne-Franche-Comté","County":"Côte-d'Or","City":"Marsannay-la-Côte","Street":"Esplanade de la Déclaration des Droits de l'Homme","PostalCode":"21160","AdditionalData":[{"value":"France","key":"CountryName"},{"value":"Bourgogne-Franche-Comté","key":"StateName"},{"value":"Côte-d'Or","key":"CountyName"}]},"MapReference":{"ReferenceId":"584885534","Spot":0.77,"SideOfStreet":"left","CountryId":"20000001","StateId":"20013306","CountyId":"20011170","CityId":"20012335"}}},{"Relevance":1.0,"Distance":55.1,"MatchLevel":"street","MatchQuality":{"Country":1.0,"State":1.0,"County":1.0,"City":1.0,"Street":[1.0],"PostalCode":1.0},"Location":{"LocationId":"NT_FQS1ugLpqe4AApVZt1MJqA_l_584885533_R","LocationType":"point","DisplayPosition":{"Latitude":47.28043,"Longitude":5.0032},"MapView":{"TopLeft":{"Latitude":47.28065,"Longitude":5.0032},"BottomRight":{"Latitude":47.28043,"Longitude":5.00337}},"Address":{"Label":"Avenue Marguerite de Salin, 21160 Marsannay-la-Côte, France","Country":"FRA","State":"Bourgogne-Franche-Comté","County":"Côte-d'Or","City":"Marsannay-la-Côte","Street":"Avenue Marguerite de Salin","PostalCode":"21160","AdditionalData":[{"value":"France","key":"CountryName"},{"value":"Bourgogne-Franche-Comté","key":"StateName"},{"value":"Côte-d'Or","key":"CountyName"}]},"MapReference":{"ReferenceId":"584885533","Spot":0.0,"SideOfStreet":"right","CountryId":"20000001","StateId":"20013306","CountyId":"20011170","CityId":"20012335"}}},{"Relevance":1.0,"Distance":61.4,"MatchLevel":"street","MatchQuality":{"Country":1.0,"State":1.0,"County":1.0,"City":1.0,"Street":[1.0],"PostalCode":1.0},"Location":{"LocationId":"NT_B-BsfIkCG6SqXSN1zQZyyA_l_1090215183_L","LocationType":"point","DisplayPosition":{"Latitude":47.2795357,"Longitude":5.0038712},"MapView":{"TopLeft":{"Latitude":47.28008,"Longitude":5.00353},"BottomRight":{"Latitude":47.27907,"Longitude":5.00427}},"Address":{"Label":"Rue Claus Sluter, 21160 Marsannay-la-Côte, France","Country":"FRA","State":"Bourgogne-Franche-Comté","County":"Côte-d'Or","City":"Marsannay-la-Côte","Street":"Rue Claus Sluter","PostalCode":"21160","AdditionalData":[{"value":"France","key":"CountryName"},{"value":"Bourgogne-Franche-Comté","key":"StateName"},{"value":"Côte-d'Or","key":"CountyName"}]},"MapReference":{"ReferenceId":"1090215183","Spot":0.46,"SideOfStreet":"left","CountryId":"20000001","StateId":"20013306","CountyId":"20011170","CityId":"20012335"}}},{"Relevance":1.0,"Distance":63.8,"MatchLevel":"houseNumber","MatchQuality":{"Country":1.0,"State":1.0,"County":1.0,"City":1.0,"Street":[1.0],"HouseNumber":1.0,"PostalCode":1.0},"MatchType":"interpolated","Location":{"LocationId":"NT_QmNzAKkJnXKWFcABbEcaHB_l_58864113_L_xA","LocationType":"point","DisplayPosition":{"Latitude":47.2792656,"Longitude":5.0032756},"MapView":{"TopLeft":{"Latitude":47.2803897,"Longitude":5.0016186},"BottomRight":{"Latitude":47.2781414,"Longitude":5.0049326}},"Address":{"Label":"1 Le Petit Forum, 21160 Marsannay-la-Côte, France","Country":"FRA","State":"Bourgogne-Franche-Comté","County":"Côte-d'Or","City":"Marsannay-la-Côte","Street":"Le Petit Forum","HouseNumber":"1","PostalCode":"21160","AdditionalData":[{"value":"France","key":"CountryName"},{"value":"Bourgogne-Franche-Comté","key":"StateName"},{"value":"Côte-d'Or","key":"CountyName"}]},"MapReference":{"ReferenceId":"58864113","Spot":0.5,"SideOfStreet":"left","CountryId":"20000001","StateId":"20013306","CountyId":"20011170","CityId":"20012335"}}},{"Relevance":1.0,"Distance":78.9,"MatchLevel":"street","MatchQuality":{"Country":1.0,"State":1.0,"County":1.0,"City":1.0,"Street":[1.0],"PostalCode":1.0},"Location":{"LocationId":"NT_FQS1ugLpqe4AApVZt1MJqA_l_58864026_R","LocationType":"point","DisplayPosition":{"Latitude":47.28065,"Longitude":5.00337},"MapView":{"TopLeft":{"Latitude":47.28094,"Longitude":5.00337},"BottomRight":{"Latitude":47.28065,"Longitude":5.00363}},"Address":{"Label":"Avenue Marguerite de Salin, 21160 Marsannay-la-Côte, France","Country":"FRA","State":"Bourgogne-Franche-Comté","County":"Côte-d'Or","City":"Marsannay-la-Côte","Street":"Avenue Marguerite de Salin","PostalCode":"21160","AdditionalData":[{"value":"France","key":"CountryName"},{"value":"Bourgogne-Franche-Comté","key":"StateName"},{"value":"Côte-d'Or","key":"CountyName"}]},"MapReference":{"ReferenceId":"58864026","Spot":0.0,"SideOfStreet":"right","CountryId":"20000001","StateId":"20013306","CountyId":"20011170","CityId":"20012335"}}}]}]}}