{"Response":{"MetaInfo":{"Timestamp":"2020-03-28T11:14:58.630+0000","NextPageInformation":"2"},"View":[{"_type":"SearchResultsViewType","ViewId":0,"Result":[{"Relevance":1.0,"Distance":-53.3,"MatchLevel":"landmark","MatchQuality":{"Country":1.0,"State":1.0,"County":1.0,"City":1.0,"District":1.0,"PostalCode":1.0,"Name":1.0},"Location":{"LocationId":"NT_yGp7a2bmRUHF4NG7bdM53A_p_m6-d7CotC7uSaHepv9zg4B","LocationType":"hospital","Name":"CHU de Nantes","DisplayPosition":{"Latitude":47.21206,"Longitude":-1.55447},"MapView":{"TopLeft":{"Latitude":47.21222,"Longitude":-1.55584},"BottomRight":{"Latitude":47.20874,"Longitude":-1.55}},"Address":{"Label":"44000 Nantes, France","Country":"FRA","State":"Pays de la Loire","County":"Loire-Atlantique","City":"Nantes","District":"Centre-Ville","PostalCode":"44000","AdditionalData":[{"value":"France","key":"CountryName"},{"value":"Pays de la Loire","key":"StateName"},{"value":"Loire-Atlantique","key":"CountyName"}]},"MapReference":{"CountryId":"20000001","StateId":"20068992","CountyId":"20068993","CityId":"20069319","PlaceId":"51259179"}}},{"Relevance":1.0,"Distance":0.0,"Direction":0.0,"MatchLevel":"district","MatchQuality":{"Country":1.0,"State":1.0,"County":1.0,"City":1.0,"District":1.0,"PostalCode":1.0},"Location":{"LocationId":"NT_ipuDpwiMZcdU8dEHLgv.3B","LocationType":"point","DisplayPosition":{"Latitude":47.2093611,"Longitude":-1.5515118},"MapView":{"TopLeft":{"Latitude":47.22167,"Longitude":-1.57417},"BottomRight":{"Latitude":47.20713,"Longitude":-1.53555}},"Address":{"Label":"Centre-Ville, Nantes, Pays de la Loire, France","Country":"FRA","State":"Pays de la Loire","County":"Loire-Atlantique","City":"Nantes","District":"Centre-Ville","PostalCode":"44000","AdditionalData":[{"value":"France","key":"CountryName"},{"value":"Pays de la Loire","key":"StateName"},{"value":"Loire-Atlantique","key":"CountyName"}]},"MapReference":{"ReferenceId":"568445393","SideOfStreet":"neither","CountryId":"20000001","StateId":"20068992","CountyId":"20068993","CityId":"20069319"}}},{"Relevance":1.0,"Distance":49.2,"MatchLevel":"houseNumber","MatchQuality":{"Country":1.0,"State":1.0,"County":1.0,"City":1.0,"District":1.0,"Street":[1.0],"HouseNumber":1.0,"PostalCode":1.0},"MatchType":"interpolated","Location":{"LocationId":"NT_cFWNEwIznrpyawd99WWdAB_zA","LocationType":"point","DisplayPosition":{"Latitude":47.2089,"Longitude":-1.55172},"MapView":{"TopLeft":{"Latitude":47.2100242,"Longitude":-1.5533748},"BottomRight":{"Latitude":47.2077758,"Longitude":-1.5500652}},"Address":{"Label":"3 Quai Moncousu, 44000 Nantes, France","Country":"FRA","State":"Pays de la Loire","County":"Loire-Atlantique","City":"Nantes","District":"Centre-Ville","Street":"Quai Moncousu","HouseNumber":"3","PostalCode":"44000","AdditionalData":[{"value":"France","key":"CountryName"},{"value":"Pays de la Loire","key":"StateName"},{"value":"Loire-Atlantique","key":"CountyName"}]},"MapReference":{"ReferenceId":"716622447","Spot":0.02,"SideOfStreet":"right","CountryId":"20000001","StateId":"20068992","CountyId":"20068993","CityId":"20069319","AddressId":"572845757","RoadLinkId":"121582549"}}},{"Relevance":1.0,"Distance":53.3,"MatchLevel":"houseNumber","MatchQuality":{"Country":1.0,"State":1.0,"County":1.0,"City":1.0,"District":1.0,"Street":[1.0],"HouseNumber":1.0,"PostalCode":1.0},"MatchType":"interpolated","Location":{"LocationId":"NT_cFWNEwIznrpyawd99WWdAB_2A","LocationType":"point","DisplayPosition":{"Latitude":47.20886,"Longitude":-1.55138},"MapView":{"TopLeft":{"Latitude":47.2099842,"Longitude":-1.5530348},"BottomRight":{"Latitude":47.2077358,"Longitude":-1.5497252}},"Address":{"Label":"6 Quai Moncousu, 44000 Nantes, France","Country":"FRA","State":"Pays de la Loire","County":"Loire-Atlantique","City":"Nantes","District":"Centre-Ville","Street":"Quai Moncousu","HouseNumber":"6","PostalCode":"44000","AdditionalData":[{"value":"France","key":"CountryName"},{"value":"Pays de la Loire","key":"StateName"},{"value":"Loire-Atlantique","key":"CountyName"}]},"MapReference":{"ReferenceId":"836242079","Spot":0.83,"SideOfStreet":"right","CountryId":"20000001","StateId":"20068992","CountyId":"20068993","CityId":"20069319","AddressId":"323399060","RoadLinkId":"219459735"}}},{"Relevance":1.0,"Distance":62.4,"MatchLevel":"houseNumber","MatchQuality":{"Country":1.0,"State":1.0,"County":1.0,"City":1.0,"District":1.0,"Street":[1.0],"HouseNumber":1.0,"PostalCode":1.0},"MatchType":"interpolated","Location":{"LocationId":"NT_1spvLqsoGThocDKk.w1QeB_zQD","LocationType":"point","DisplayPosition":{"Latitude":47.20994,"Longitude":-1.55127},"MapView":{"TopLeft":{"Latitude":47.2110642,"Longitude":-1.5529248},"BottomRight":{"Latitude":47.2088158,"Longitude":-1.5496152}},"Address":{"Label":"34 Boulevard Jean Monnet, 44000 Nantes, France","Country":"FRA","State":"Pays de la Loire","County":"Loire-Atlantique","City":"Nantes","District":"Centre-Ville","Street":"Boulevard Jean Monnet","HouseNumber":"34","PostalCode":"44000","AdditionalData":[{"value":"France","key":"CountryName"},{"value":"Pays de la Loire","key":"StateName"},{"value":"Loire-Atlantique","key":"CountyName"}]},"MapReference":{"ReferenceId":"1216870718","Spot":0.3,"SideOfStreet":"left","CountryId":"20000001","StateId":"20068992","CountyId":"20068993","CityId":"20069319","AddressId":"323923571","RoadLinkId":"533259156"}}},{"Relevance":1.0,"Distance":66.6,"MatchLevel":"street","MatchQuality":{"Country":1.0,"State":1.0,"County":1.0,"City":1.0,"District":1.0,"Street":[1.0],"PostalCode":1.0},"Location":{"LocationId":"NT_PbRkyA0gNPoQbhXg9M2lIA_l_1089352610_L","LocationType":"point","DisplayPosition":{"Latitude":47.20937,"Longitude":-1.55063},"MapView":{"TopLeft":{"Latitude":47.20944,"Longitude":-1.55063},"BottomRight":{"Latitude":47.20937,"Longitude":-1.55055}},"Address":{"Label":"Rue de la Faïencerie, 44000 Nantes, France","Country":"FRA","State":"Pays de la Loire","County":"Loire-Atlantique","City":"Nantes","District":"Centre-Ville","Street":"Rue de la Faïencerie","PostalCode":"44000","AdditionalData":[{"value":"France","key":"CountryName"},{"value":"Pays de la Loire","key":"StateName"},{"value":"Loire-Atlantique","key":"CountyName"}]},"MapReference":{"ReferenceId":"1089352610","Spot":0.0,"SideOfStreet":"left","CountryId":"20000001","StateId":"20068992","CountyId":"20068993","CityId":"20069319"}}},{"Relevance":1.0,"Distance":76.7,"MatchLevel":"houseNumber","MatchQuality":{"Country":1.0,"State":1.0,"County":1.0,"City":1.0,"District":1.0,"Street":[1.0],"HouseNumber":1.0,"PostalCode":1.0},"MatchType":"interpolated","Location":{"LocationId":"NT_1spvLqsoGThocDKk.w1QeB_zgD","LocationType":"point","DisplayPosition":{"Latitude":47.2092,"Longitude":-1.55046},"MapView":{"TopLeft":{"Latitude":47.2103242,"Longitude":-1.5521148},"BottomRight":{"Latitude":47.2080758,"Longitude":-1.5488052}},"Address":{"Label":"38 Boulevard Jean Monnet, 44000 Nantes, France","Country":"FRA","State":"Pays de la Loire","County":"Loire-Atlantique","City":"Nantes","District":"Centre-Ville","Street":"Boulevard Jean Monnet","HouseNumber":"38","PostalCode":"44000","AdditionalData":[{"value":"France","key":"CountryName"},{"value":"Pays de la Loire","key":"StateName"},{"value":"Loire-Atlantique","key":"CountyName"}]},"MapReference":{"ReferenceId":"1216883096","Spot":0.43,"SideOfStreet":"left","CountryId":"20000001","StateId":"20068992","CountyId":"20068993","CityId":"20069319","AddressId":"777832052","RoadLinkId":"533274470"}}},{"Relevance":1.0,"Distance":78.1,"MatchLevel":"houseNumber","MatchQuality":{"Country":1.0,"State":1.0,"County":1.0,"City":1.0,"District":1.0,"Street":[1.0],"HouseNumber":1.0,"PostalCode":1.0},"MatchType":"interpolated","Location":{"LocationId":"NT_KNog.JteWwu.YPXCo6f1kB_0ED","LocationType":"point","DisplayPosition":{"Latitude":47.20968,"Longitude":-1.55059},"MapView":{"TopLeft":{"Latitude":47.2108042,"Longitude":-1.5522448},"BottomRight":{"Latitude":47.2085558,"Longitude":-1.5489352}},"Address":{"Label":"41 Chaussée de la Madeleine, 44000 Nantes, France","Country":"FRA","State":"Pays de la Loire","County":"Loire-Atlantique","City":"Nantes","District":"Centre-Ville","Street":"Chaussée de la Madeleine","HouseNumber":"41","PostalCode":"44000","AdditionalData":[{"value":"France","key":"CountryName"},{"value":"Pays de la Loire","key":"StateName"},{"value":"Loire-Atlantique","key":"CountyName"}]},"MapReference":{"ReferenceId":"1216801946","Spot":0.76,"SideOfStreet":"right","CountryId":"20000001","StateId":"20068992","CountyId":"20068993","CityId":"20069319","AddressId":"572899654","RoadLinkId":"533185668"}}},{"Relevance":1.0,"Distance":78.3,"MatchLevel":"street","MatchQuality":{"Country":1.0,"State":1.0,"County":1.0,"City":1.0,"District":1.0,"Street":[1.0],"PostalCode":1.0},"Location":{"LocationId":"NT_HFULhnSXh1w6vovF1GXclA_l_746571335_R","LocationType":"point","DisplayPosition":{"Latitude":47.2086572,"Longitude":-1.5515587},"MapView":{"TopLeft":{"Latitude":47.20876,"Longitude":-1.55263},"BottomRight":{"Latitude":47.20863,"Longitude":-1.55107}},"Address":{"Label":"Quai André Morice, 44000 Nantes, France","Country":"FRA","State":"Pays de la Loire","County":"Loire-Atlantique","City":"Nantes","District":"Centre-Ville","Street":"Quai André Morice","PostalCode":"44000","AdditionalData":[{"value":"France","key":"CountryName"},{"value":"Pays de la Loire","key":"StateName"},{"value":"Loire-Atlantique","key":"CountyName"}]},"MapReference":{"ReferenceId":"746571335","Spot":0.31,"SideOfStreet":"right","CountryId":"20000001","StateId":"20068992","CountyId":"20068993","CityId":"20069319"}}},{"Relevance":1.0,"Distance":81.0,"MatchLevel":"houseNumber","MatchQuality":{"Country":1.0,"State":1.0,"County":1.0,"City":1.0,"District":1.0,"Street":[1.0],"HouseNumber":1.0,"PostalCode":1.0},"MatchType":"interpolated","Location":{"LocationId":"NT_KNog.JteWwu.YPXCo6f1kB_zcD","LocationType":"point","DisplayPosition":{"Latitude":47.20988,"Longitude":-1.55076},"MapView":{"TopLeft":{"Latitude":47.2110042,"Longitude":-1.5524148},"BottomRight":{"Latitude":47.2087558,"Longitude":-1.5491052}},"Address":{"Label":"37 Chaussée de la Madeleine, 44000 Nantes, France","Country":"FRA","State":"Pays de la Loire","County":"Loire-Atlantique","City":"Nantes","District":"Centre-Ville","Street":"Chaussée de la Madeleine","HouseNumber":"37","PostalCode":"44000","AdditionalData":[{"value":"France","key":"CountryName"},{"value":"Pays de la Loire","key":"StateName"},{"value":"Loire-Atlantique","key":"CountyName"}]},"MapReference":{"ReferenceId":"1216801947","Spot":0.67,"SideOfStreet":"right","CountryId":"20000001","StateId":"20068992","CountyId":"20068993","CityId":"20069319","AddressId":"777833322","RoadLinkId":"533185669"}}}]}]}}