{"Response":{"MetaInfo":{"Timestamp":"2020-03-28T10:01:31.697+0000","NextPageInformation":"2"},"View":[{"_type":"SearchResultsViewType","ViewId":0,"Result":[{"Relevance":1.0,"Distance":0.0,"Direction":0.0,"MatchLevel":"district","MatchQuality":{"Country":1.0,"State":1.0,"County":1.0,"City":1.0,"District":1.0,"PostalCode":1.0},"Location":{"LocationId":"NT_RpWBYk27ePeVYV5hxzwzIC","LocationType":"point","DisplayPosition":{"Latitude":47.2417503,"Longitude":10.741736},"MapView":{"TopLeft":{"Latitude":47.25581,"Longitude":10.72211},"BottomRight":{"Latitude":47.21674,"Longitude":10.75267}},"Address":{"Label":"Imst, Tirol, Österreich","Country":"AUT","State":"Tirol","County":"Imst","City":"Imst","District":"Imst","PostalCode":"6460","AdditionalData":[{"value":"Österreich","key":"CountryName"},{"value":"Tirol","key":"StateName"},{"value":"Imst","key":"CountyName"}]},"MapReference":{"ReferenceId":"565278000","SideOfStreet":"neither","CountryId":"20128885","StateId":"20136826","CountyId":"20136833","CityId":"20136845","DistrictId":"20136847"}}},{"Relevance":1.0,"Distance":10.2,"MatchLevel":"houseNumber","MatchQuality":{"Country":1.0,"State":1.0,"County":1.0,"City":1.0,"District":1.0,"Street":[1.0],"HouseNumber":1.0,"PostalCode":1.0},"MatchType":"interpolated","Location":{"LocationId":"NT_ofWzJwSh4efIhMMQGUyKCC_3A","LocationType":"point","DisplayPosition":{"Latitude":47.24183,"Longitude":10.74153},"MapView":{"TopLeft":{"Latitude":47.2429542,"Longitude":10.7398742},"BottomRight":{"Latitude":47.2407058,"Longitude":10.7431858}},"Address":{"Label":"Eichenweg 7, 6460 Imst, Österreich","Country":"AUT","State":"Tirol","County":"Imst","City":"Imst","District":"Imst","Street":"Eichenweg","HouseNumber":"7","PostalCode":"6460","AdditionalData":[{"value":"Österreich","key":"CountryName"},{"value":"Tirol","key":"StateName"},{"value":"Imst","key":"CountyName"}]},"MapReference":{"ReferenceId":"565277079","Spot":0.38,"SideOfStreet":"right","CountryId":"20128885","StateId":"20136826","CountyId":"20136833","CityId":"20136845","DistrictId":"20136847","AddressId":"161094573","RoadLinkId":"28147727"}}},{"Relevance":1.0,"Distance":42.5,"MatchLevel":"houseNumber","MatchQuality":{"Country":1.0,"State":1.0,"County":1.0,"City":1.0,"District":1.0,"Street":[1.0],"HouseNumber":1.0,"PostalCode":1.0},"MatchType":"interpolated","Location":{"LocationId":"NT_ofWzJwSh4efIhMMQGUyKCC_4A","LocationType":"point","DisplayPosition":{"Latitude":47.2414,"Longitude":10.74117},"MapView":{"TopLeft":{"Latitude":47.2425242,"Longitude":10.7395142},"BottomRight":{"Latitude":47.2402758,"Longitude":10.7428258}},"Address":{"Label":"Eichenweg 8, 6460 Imst, Österreich","Country":"AUT","State":"Tirol","County":"Imst","City":"Imst","District":"Imst","Street":"Eichenweg","HouseNumber":"8","PostalCode":"6460","AdditionalData":[{"value":"Österreich","key":"CountryName"},{"value":"Tirol","key":"StateName"},{"value":"Imst","key":"CountyName"}]},"MapReference":{"ReferenceId":"565277080","Spot":0.7,"SideOfStreet":"right","CountryId":"20128885","StateId":"20136826","CountyId":"20136833","CityId":"20136845","DistrictId":"20136847","AddressId":"161094559","RoadLinkId":"28036602"}}},{"Relevance":1.0,"Distance":51.6,"MatchLevel":"houseNumber","MatchQuality":{"Country":1.0,"State":1.0,"County":1.0,"City":1.0,"District":1.0,"Street":[1.0],"HouseNumber":1.0,"PostalCode":1.0},"MatchType":"interpolated","Location":{"LocationId":"NT_ofWzJwSh4efIhMMQGUyKCC_xUjZ","LocationType":"point","DisplayPosition":{"Latitude":47.24043,"Longitude":10.74237},"MapView":{"TopLeft":{"Latitude":47.2415542,"Longitude":10.7407142},"BottomRight":{"Latitude":47.2393058,"Longitude":10.7440258}},"Address":{"Label":"Eichenweg 15f, 6460 Imst, Österreich","Country":"AUT","State":"Tirol","County":"Imst","City":"Imst","District":"Imst","Street":"Eichenweg","HouseNumber":"15f","PostalCode":"6460","AdditionalData":[{"value":"Österreich","key":"CountryName"},{"value":"Tirol","key":"StateName"},{"value":"Imst","key":"CountyName"}]},"MapReference":{"ReferenceId":"565277986","Spot":0.55,"SideOfStreet":"right","CountryId":"20128885","StateId":"20136826","CountyId":"20136833","CityId":"20136845","DistrictId":"20136847","AddressId":"176937603","RoadLinkId":"29117637"}}},{"Relevance":1.0,"Distance":73.1,"MatchLevel":"houseNumber","MatchQuality":{"Country":1.0,"State":1.0,"County":1.0,"City":1.0,"District":1.0,"Street":[1.0],"HouseNumber":1.0,"PostalCode":1.0},"MatchType":"interpolated","Location":{"LocationId":"NT_OoI.XgUgjguexnPi-8dw4B_yQD","LocationType":"point","DisplayPosition":{"Latitude":47.24233,"Longitude":10.74226},"MapView":{"TopLeft":{"Latitude":47.2434542,"Longitude":10.7406042},"BottomRight":{"Latitude":47.2412058,"Longitude":10.7439158}},"Address":{"Label":"Franz-Xaver-Renn-Straße 24, 6460 Imst, Österreich","Country":"AUT","State":"Tirol","County":"Imst","City":"Imst","District":"Imst","Street":"Franz-Xaver-Renn-Straße","HouseNumber":"24","PostalCode":"6460","AdditionalData":[{"value":"Österreich","key":"CountryName"},{"value":"Tirol","key":"StateName"},{"value":"Imst","key":"CountyName"}]},"MapReference":{"ReferenceId":"565277071","Spot":0.42,"SideOfStreet":"left","CountryId":"20128885","StateId":"20136826","CountyId":"20136833","CityId":"20136845","DistrictId":"20136847","AddressId":"778560495","RoadLinkId":"27911776"}}},{"Relevance":1.0,"Distance":96.8,"MatchLevel":"street","MatchQuality":{"Country":1.0,"State":1.0,"County":1.0,"City":1.0,"District":1.0,"Street":[1.0],"PostalCode":1.0},"Location":{"LocationId":"NT_eYIzWPyY0NbuMER4cmYs3C_l_1128951496_L","LocationType":"point","DisplayPosition":{"Latitude":47.24165,"Longitude":10.74301},"MapView":{"TopLeft":{"Latitude":47.24219,"Longitude":10.74301},"BottomRight":{"Latitude":47.24165,"Longitude":10.74313}},"Address":{"Label":"B189, 6460 Imst, Österreich","Country":"AUT","State":"Tirol","County":"Imst","City":"Imst","District":"Imst","Street":"B189","PostalCode":"6460","AdditionalData":[{"value":"Österreich","key":"CountryName"},{"value":"Tirol","key":"StateName"},{"value":"Imst","key":"CountyName"}]},"MapReference":{"ReferenceId":"1128951496","Spot":0.0,"SideOfStreet":"left","CountryId":"20128885","StateId":"20136826","CountyId":"20136833","CityId":"20136845","DistrictId":"20136847"}}},{"Relevance":1.0,"Distance":96.9,"MatchLevel":"street","MatchQuality":{"Country":1.0,"State":1.0,"County":1.0,"City":1.0,"District":1.0,"Street":[1.0],"PostalCode":1.0},"Location":{"LocationId":"NT_eYIzWPyY0NbuMER4cmYs3C_l_1128951495_L","LocationType":"point","DisplayPosition":{"Latitude":47.2416346,"Longitude":10.7430086},"MapView":{"TopLeft":{"Latitude":47.24165,"Longitude":10.74299},"BottomRight":{"Latitude":47.24119,"Longitude":10.74301}},"Address":{"Label":"B189, 6460 Imst, Österreich","Country":"AUT","State":"Tirol","County":"Imst","City":"Imst","District":"Imst","Street":"B189","PostalCode":"6460","AdditionalData":[{"value":"Österreich","key":"CountryName"},{"value":"Tirol","key":"StateName"},{"value":"Imst","key":"CountyName"}]},"MapReference":{"ReferenceId":"1128951495","Spot":0.97,"SideOfStreet":"left","CountryId":"20128885","StateId":"20136826","CountyId":"20136833","CityId":"20136845","DistrictId":"20136847"}}},{"Relevance":1.0,"Distance":97.3,"MatchLevel":"houseNumber","MatchQuality":{"Country":1.0,"State":1.0,"County":1.0,"City":1.0,"District":1.0,"Street":[1.0],"HouseNumber":1.0,"PostalCode":1.0},"MatchType":"interpolated","Location":{"LocationId":"NT_OoI.XgUgjguexnPi-8dw4B_yUTY","LocationType":"point","DisplayPosition":{"Latitude":47.24263,"Longitude":10.74234},"MapView":{"TopLeft":{"Latitude":47.2437542,"Longitude":10.7406841},"BottomRight":{"Latitude":47.2415058,"Longitude":10.7439959}},"Address":{"Label":"Franz-Xaver-Renn-Straße 25a, 6460 Imst, Österreich","Country":"AUT","State":"Tirol","County":"Imst","City":"Imst","District":"Imst","Street":"Franz-Xaver-Renn-Straße","HouseNumber":"25a","PostalCode":"6460","AdditionalData":[{"value":"Österreich","key":"CountryName"},{"value":"Tirol","key":"StateName"},{"value":"Imst","key":"CountyName"}]},"MapReference":{"ReferenceId":"565277072","Spot":0.34,"SideOfStreet":"right","CountryId":"20128885","StateId":"20136826","CountyId":"20136833","CityId":"20136845","DistrictId":"20136847","AddressId":"176928482","RoadLinkId":"28170598"}}},{"Relevance":1.0,"Distance":102.0,"MatchLevel":"street","MatchQuality":{"Country":1.0,"State":1.0,"County":1.0,"City":1.0,"District":1.0,"Street":[1.0],"PostalCode":1.0},"Location":{"LocationId":"NT_OoI.XgUgjguexnPi-8dw4B_l_565277192_L","LocationType":"point","DisplayPosition":{"Latitude":47.24266,"Longitude":10.74191},"MapView":{"TopLeft":{"Latitude":47.24304,"Longitude":10.7414},"BottomRight":{"Latitude":47.24261,"Longitude":10.7422}},"Address":{"Label":"Franz-Xaver-Renn-Straße, 6460 Imst, Österreich","Country":"AUT","State":"Tirol","County":"Imst","City":"Imst","District":"Imst","Street":"Franz-Xaver-Renn-Straße","PostalCode":"6460","AdditionalData":[{"value":"Österreich","key":"CountryName"},{"value":"Tirol","key":"StateName"},{"value":"Imst","key":"CountyName"}]},"MapReference":{"ReferenceId":"565277192","Spot":0.31,"SideOfStreet":"left","CountryId":"20128885","StateId":"20136826","CountyId":"20136833","CityId":"20136845","DistrictId":"20136847"}}},{"Relevance":1.0,"Distance":110.4,"MatchLevel":"houseNumber","MatchQuality":{"Country":1.0,"State":1.0,"County":1.0,"City":1.0,"District":1.0,"Street":[1.0],"HouseNumber":1.0,"PostalCode":1.0},"MatchType":"interpolated","Location":{"LocationId":"NT_OoI.XgUgjguexnPi-8dw4B_xcD","LocationType":"point","DisplayPosition":{"Latitude":47.24279,"Longitude":10.74072},"MapView":{"TopLeft":{"Latitude":47.2439142,"Longitude":10.7390641},"BottomRight":{"Latitude":47.2416658,"Longitude":10.7423759}},"Address":{"Label":"Franz-Xaver-Renn-Straße 17, 6460 Imst, Österreich","Country":"AUT","State":"Tirol","County":"Imst","City":"Imst","District":"Imst","Street":"Franz-Xaver-Renn-Straße","HouseNumber":"17","PostalCode":"6460","AdditionalData":[{"value":"Österreich","key":"CountryName"},{"value":"Tirol","key":"StateName"},{"value":"Imst","key":"CountyName"}]},"MapReference":{"ReferenceId":"1246904647","Spot":0.24,"SideOfStreet":"right","CountryId":"20128885","StateId":"20136826","CountyId":"20136833","CityId":"20136845","DistrictId":"20136847","AddressId":"161147894","RoadLinkId":"568597686"}}}]}]}}