{"Response":{"MetaInfo":{"Timestamp":"2020-03-28T10:15:12.768+0000","NextPageInformation":"2"},"View":[{"_type":"SearchResultsViewType","ViewId":0,"Result":[{"Relevance":1.0,"Distance":0.0,"Direction":0.0,"MatchLevel":"district","MatchQuality":{"Country":1.0,"State":1.0,"County":1.0,"City":1.0,"District":1.0,"PostalCode":1.0},"Location":{"LocationId":"NT_W1w4A3o9rF4x2NyFATyIGB","LocationType":"point","DisplayPosition":{"Latitude":47.2999343,"Longitude":12.7978213},"MapView":{"TopLeft":{"Latitude":47.31264,"Longitude":12.78603},"BottomRight":{"Latitude":47.29436,"Longitude":12.80366}},"Address":{"Label":"Schüttdorf, Zell am See, Salzburg, Österreich","Country":"AUT","State":"Salzburg","County":"Zell am See","City":"Zell am See","District":"Schüttdorf","PostalCode":"5700","AdditionalData":[{"value":"Österreich","key":"CountryName"},{"value":"Salzburg","key":"StateName"},{"value":"Zell am See","key":"CountyName"}]},"MapReference":{"ReferenceId":"69866250","SideOfStreet":"neither","CountryId":"20128885","StateId":"20134400","CountyId":"20134762","CityId":"20134871","DistrictId":"20134874"}}},{"Relevance":1.0,"Distance":13.1,"MatchLevel":"houseNumber","MatchQuality":{"Country":1.0,"State":1.0,"County":1.0,"City":1.0,"District":1.0,"Street":[1.0],"HouseNumber":1.0,"PostalCode":1.0},"MatchType":"interpolated","Location":{"LocationId":"NT_Fp5xhHB2K08XhLScOpq-yA_yA","LocationType":"point","DisplayPosition":{"Latitude":47.30009,"Longitude":12.79824},"MapView":{"TopLeft":{"Latitude":47.3012142,"Longitude":12.7965823},"BottomRight":{"Latitude":47.2989658,"Longitude":12.7998977}},"Address":{"Label":"Stefan-Zweig-Straße 2, 5700 Zell am See, Österreich","Country":"AUT","State":"Salzburg","County":"Zell am See","City":"Zell am See","District":"Schüttdorf","Street":"Stefan-Zweig-Straße","HouseNumber":"2","PostalCode":"5700","AdditionalData":[{"value":"Österreich","key":"CountryName"},{"value":"Salzburg","key":"StateName"},{"value":"Zell am See","key":"CountyName"}]},"MapReference":{"ReferenceId":"799749545","Spot":0.56,"SideOfStreet":"left","CountryId":"20128885","StateId":"20134400","CountyId":"20134762","CityId":"20134871","DistrictId":"20134874","AddressId":"161389523","RoadLinkId":"190525007"}}},{"Relevance":1.0,"Distance":14.9,"MatchLevel":"houseNumber","MatchQuality":{"Country":1.0,"State":1.0,"County":1.0,"City":1.0,"District":1.0,"Street":[1.0],"HouseNumber":1.0,"PostalCode":1.0},"MatchType":"interpolated","Location":{"LocationId":"NT_YxEC0MTfEWfCTWKu6rtNNA_xA","LocationType":"point","DisplayPosition":{"Latitude":47.29985,"Longitude":12.79744},"MapView":{"TopLeft":{"Latitude":47.3009742,"Longitude":12.7957824},"BottomRight":{"Latitude":47.2987258,"Longitude":12.7990976}},"Address":{"Label":"Hochtennstraße 1, 5700 Zell am See, Österreich","Country":"AUT","State":"Salzburg","County":"Zell am See","City":"Zell am See","District":"Schüttdorf","Street":"Hochtennstraße","HouseNumber":"1","PostalCode":"5700","AdditionalData":[{"value":"Österreich","key":"CountryName"},{"value":"Salzburg","key":"StateName"},{"value":"Zell am See","key":"CountyName"}]},"MapReference":{"ReferenceId":"69866382","Spot":0.5,"SideOfStreet":"right","CountryId":"20128885","StateId":"20134400","CountyId":"20134762","CityId":"20134871","DistrictId":"20134874","AddressId":"160937064","RoadLinkId":"28897784"}}},{"Relevance":1.0,"Distance":38.4,"MatchLevel":"houseNumber","MatchQuality":{"Country":1.0,"State":1.0,"County":1.0,"City":1.0,"District":1.0,"Street":[1.0],"HouseNumber":1.0,"PostalCode":1.0},"MatchType":"interpolated","Location":{"LocationId":"NT_a0KCTNbLLaWXkjQQHqK0bC_0A","LocationType":"point","DisplayPosition":{"Latitude":47.30049,"Longitude":12.7978},"MapView":{"TopLeft":{"Latitude":47.3016142,"Longitude":12.7961423},"BottomRight":{"Latitude":47.2993658,"Longitude":12.7994577}},"Address":{"Label":"Caspar-Vogl-Straße 4, 5700 Zell am See, Österreich","Country":"AUT","State":"Salzburg","County":"Zell am See","City":"Zell am See","District":"Schüttdorf","Street":"Caspar-Vogl-Straße","HouseNumber":"4","PostalCode":"5700","AdditionalData":[{"value":"Österreich","key":"CountryName"},{"value":"Salzburg","key":"StateName"},{"value":"Zell am See","key":"CountyName"}]},"MapReference":{"ReferenceId":"69866345","Spot":0.63,"SideOfStreet":"right","CountryId":"20128885","StateId":"20134400","CountyId":"20134762","CityId":"20134871","DistrictId":"20134874","AddressId":"161310775","RoadLinkId":"28865959"}}},{"Relevance":1.0,"Distance":66.6,"MatchLevel":"houseNumber","MatchQuality":{"Country":1.0,"State":1.0,"County":1.0,"City":1.0,"District":1.0,"Street":[1.0],"HouseNumber":1.0,"PostalCode":1.0},"MatchType":"interpolated","Location":{"LocationId":"NT_T7d1fbCoLoWoJTr-3AuziC_zA","LocationType":"point","DisplayPosition":{"Latitude":47.29967,"Longitude":12.79882},"MapView":{"TopLeft":{"Latitude":47.3007942,"Longitude":12.7971624},"BottomRight":{"Latitude":47.2985458,"Longitude":12.8004776}},"Address":{"Label":"Louise-Piech-Straße 3, 5700 Zell am See, Österreich","Country":"AUT","State":"Salzburg","County":"Zell am See","City":"Zell am See","District":"Schüttdorf","Street":"Louise-Piech-Straße","HouseNumber":"3","PostalCode":"5700","AdditionalData":[{"value":"Österreich","key":"CountryName"},{"value":"Salzburg","key":"StateName"},{"value":"Zell am See","key":"CountyName"}]},"MapReference":{"ReferenceId":"799749546","Spot":0.28,"SideOfStreet":"left","CountryId":"20128885","StateId":"20134400","CountyId":"20134762","CityId":"20134871","DistrictId":"20134874","AddressId":"160511791","RoadLinkId":"190525008"}}},{"Relevance":1.0,"Distance":69.6,"MatchLevel":"houseNumber","MatchQuality":{"Country":1.0,"State":1.0,"County":1.0,"City":1.0,"District":1.0,"Street":[1.0],"HouseNumber":1.0,"PostalCode":1.0},"MatchType":"interpolated","Location":{"LocationId":"NT_Fp5xhHB2K08XhLScOpq-yA_xAD","LocationType":"point","DisplayPosition":{"Latitude":47.29942,"Longitude":12.7985},"MapView":{"TopLeft":{"Latitude":47.3005442,"Longitude":12.7968424},"BottomRight":{"Latitude":47.2982958,"Longitude":12.8001576}},"Address":{"Label":"Stefan-Zweig-Straße 10, 5700 Zell am See, Österreich","Country":"AUT","State":"Salzburg","County":"Zell am See","City":"Zell am See","District":"Schüttdorf","Street":"Stefan-Zweig-Straße","HouseNumber":"10","PostalCode":"5700","AdditionalData":[{"value":"Österreich","key":"CountryName"},{"value":"Salzburg","key":"StateName"},{"value":"Zell am See","key":"CountyName"}]},"MapReference":{"ReferenceId":"799749544","Spot":0.91,"SideOfStreet":"left","CountryId":"20128885","StateId":"20134400","CountyId":"20134762","CityId":"20134871","DistrictId":"20134874","AddressId":"161389520","RoadLinkId":"190525006"}}},{"Relevance":1.0,"Distance":69.8,"MatchLevel":"street","MatchQuality":{"Country":1.0,"State":1.0,"County":1.0,"City":1.0,"District":1.0,"PostalCode":1.0},"Location":{"LocationId":"NT_sr1Cv8zQna3-7-hYk-F50A_l_69866385_R","LocationType":"point","DisplayPosition":{"Latitude":47.29933,"Longitude":12.79757},"MapView":{"TopLeft":{"Latitude":47.30041,"Longitude":12.79677},"BottomRight":{"Latitude":47.29926,"Longitude":12.79757}},"Address":{"Label":"5700 Zell am See, Österreich","Country":"AUT","State":"Salzburg","County":"Zell am See","City":"Zell am See","District":"Schüttdorf","PostalCode":"5700","AdditionalData":[{"value":"Österreich","key":"CountryName"},{"value":"Salzburg","key":"StateName"},{"value":"Zell am See","key":"CountyName"}]},"MapReference":{"ReferenceId":"69866385","Spot":0.0,"SideOfStreet":"right","CountryId":"20128885","StateId":"20134400","CountyId":"20134762","CityId":"20134871","DistrictId":"20134874"}}},{"Relevance":1.0,"Distance":70.8,"MatchLevel":"houseNumber","MatchQuality":{"Country":1.0,"State":1.0,"County":1.0,"City":1.0,"District":1.0,"Street":[1.0],"HouseNumber":1.0,"PostalCode":1.0},"MatchType":"interpolated","Location":{"LocationId":"NT_a0KCTNbLLaWXkjQQHqK0bC_2A","LocationType":"point","DisplayPosition":{"Latitude":47.30061,"Longitude":12.79825},"MapView":{"TopLeft":{"Latitude":47.3017342,"Longitude":12.7965923},"BottomRight":{"Latitude":47.2994858,"Longitude":12.7999077}},"Address":{"Label":"Caspar-Vogl-Straße 6, 5700 Zell am See, Österreich","Country":"AUT","State":"Salzburg","County":"Zell am See","City":"Zell am See","District":"Schüttdorf","Street":"Caspar-Vogl-Straße","HouseNumber":"6","PostalCode":"5700","AdditionalData":[{"value":"Österreich","key":"CountryName"},{"value":"Salzburg","key":"StateName"},{"value":"Zell am See","key":"CountyName"}]},"MapReference":{"ReferenceId":"799749542","Spot":0.18,"SideOfStreet":"right","CountryId":"20128885","StateId":"20134400","CountyId":"20134762","CityId":"20134871","DistrictId":"20134874","AddressId":"161310777","RoadLinkId":"190525004"}}},{"Relevance":1.0,"Distance":81.7,"MatchLevel":"houseNumber","MatchQuality":{"Country":1.0,"State":1.0,"County":1.0,"City":1.0,"District":1.0,"Street":[1.0],"HouseNumber":1.0,"PostalCode":1.0},"MatchType":"interpolated","Location":{"LocationId":"NT_YxEC0MTfEWfCTWKu6rtNNA_3A","LocationType":"point","DisplayPosition":{"Latitude":47.29916,"Longitude":12.79762},"MapView":{"TopLeft":{"Latitude":47.3002842,"Longitude":12.7959624},"BottomRight":{"Latitude":47.2980358,"Longitude":12.7992776}},"Address":{"Label":"Hochtennstraße 7, 5700 Zell am See, Österreich","Country":"AUT","State":"Salzburg","County":"Zell am See","City":"Zell am See","District":"Schüttdorf","Street":"Hochtennstraße","HouseNumber":"7","PostalCode":"5700","AdditionalData":[{"value":"Österreich","key":"CountryName"},{"value":"Salzburg","key":"StateName"},{"value":"Zell am See","key":"CountyName"}]},"MapReference":{"ReferenceId":"69870348","Spot":0.9,"SideOfStreet":"right","CountryId":"20128885","StateId":"20134400","CountyId":"20134762","CityId":"20134871","DistrictId":"20134874","AddressId":"160937057","RoadLinkId":"27847123"}}},{"Relevance":1.0,"Distance":83.1,"MatchLevel":"houseNumber","MatchQuality":{"Country":1.0,"State":1.0,"County":1.0,"City":1.0,"District":1.0,"Street":[1.0],"HouseNumber":1.0,"PostalCode":1.0},"MatchType":"interpolated","Location":{"LocationId":"NT_a0KCTNbLLaWXkjQQHqK0bC_zA","LocationType":"point","DisplayPosition":{"Latitude":47.3004,"Longitude":12.79696},"MapView":{"TopLeft":{"Latitude":47.3015242,"Longitude":12.7953023},"BottomRight":{"Latitude":47.2992758,"Longitude":12.7986177}},"Address":{"Label":"Caspar-Vogl-Straße 3, 5700 Zell am See, Österreich","Country":"AUT","State":"Salzburg","County":"Zell am See","City":"Zell am See","District":"Schüttdorf","Street":"Caspar-Vogl-Straße","HouseNumber":"3","PostalCode":"5700","AdditionalData":[{"value":"Österreich","key":"CountryName"},{"value":"Salzburg","key":"StateName"},{"value":"Zell am See","key":"CountyName"}]},"MapReference":{"ReferenceId":"69866346","Spot":0.68,"SideOfStreet":"right","CountryId":"20128885","StateId":"20134400","CountyId":"20134762","CityId":"20134871","DistrictId":"20134874","AddressId":"729037822","RoadLinkId":"28424171"}}}]}]}}