{"Response":{"MetaInfo":{"Timestamp":"2020-03-28T11:10:40.463+0000","NextPageInformation":"2"},"View":[{"_type":"SearchResultsViewType","ViewId":0,"Result":[{"Relevance":1.0,"Distance":0.0,"Direction":0.0,"MatchLevel":"district","MatchQuality":{"Country":1.0,"State":1.0,"County":1.0,"City":1.0,"District":1.0,"PostalCode":1.0},"Location":{"LocationId":"NT_BaKO.wgO4VU7F8Te1lFB2C","LocationType":"point","DisplayPosition":{"Latitude":47.2257105,"Longitude":-1.5460906},"MapView":{"TopLeft":{"Latitude":47.23544,"Longitude":-1.55346},"BottomRight":{"Latitude":47.21088,"Longitude":-1.51281}},"Address":{"Label":"Malakoff-Saint-Donatien, Nantes, Pays de la Loire, France","Country":"FRA","State":"Pays de la Loire","County":"Loire-Atlantique","City":"Nantes","District":"Malakoff-Saint-Donatien","PostalCode":"44000","AdditionalData":[{"value":"France","key":"CountryName"},{"value":"Pays de la Loire","key":"StateName"},{"value":"Loire-Atlantique","key":"CountyName"}]},"MapReference":{"ReferenceId":"969876623","SideOfStreet":"neither","CountryId":"20000001","StateId":"20068992","CountyId":"20068993","CityId":"20069319"}}},{"Relevance":1.0,"Distance":3.2,"MatchLevel":"houseNumber","MatchQuality":{"Country":1.0,"State":1.0,"County":1.0,"City":1.0,"District":1.0,"Street":[1.0],"HouseNumber":1.0,"PostalCode":1.0},"MatchType":"interpolated","Location":{"LocationId":"NT_tqnqof0A.TFZru.UZlLM3C_zAD","LocationType":"point","DisplayPosition":{"Latitude":47.22571,"Longitude":-1.54604},"MapView":{"TopLeft":{"Latitude":47.2268342,"Longitude":-1.5476953},"BottomRight":{"Latitude":47.2245858,"Longitude":-1.5443847}},"Address":{"Label":"30 Rue Amiral Ronarc'h, 44000 Nantes, France","Country":"FRA","State":"Pays de la Loire","County":"Loire-Atlantique","City":"Nantes","District":"Malakoff-Saint-Donatien","Street":"Rue Amiral Ronarc'h","HouseNumber":"30","PostalCode":"44000","AdditionalData":[{"value":"France","key":"CountryName"},{"value":"Pays de la Loire","key":"StateName"},{"value":"Loire-Atlantique","key":"CountyName"}]},"MapReference":{"ReferenceId":"57401384","Spot":0.23,"SideOfStreet":"left","CountryId":"20000001","StateId":"20068992","CountyId":"20068993","CityId":"20069319","AddressId":"323397099","RoadLinkId":"47885071"}}},{"Relevance":1.0,"Distance":25.4,"MatchLevel":"houseNumber","MatchQuality":{"Country":1.0,"State":1.0,"County":1.0,"City":1.0,"District":1.0,"Street":[1.0],"HouseNumber":1.0,"PostalCode":1.0},"MatchType":"interpolated","Location":{"LocationId":"NT_NnAjpHkuBGJ8bwS4tp1-mC_0A","LocationType":"point","DisplayPosition":{"Latitude":47.22558,"Longitude":-1.5464},"MapView":{"TopLeft":{"Latitude":47.2267042,"Longitude":-1.5480553},"BottomRight":{"Latitude":47.2244558,"Longitude":-1.5447447}},"Address":{"Label":"4 Avenue Socrate, 44000 Nantes, France","Country":"FRA","State":"Pays de la Loire","County":"Loire-Atlantique","City":"Nantes","District":"Malakoff-Saint-Donatien","Street":"Avenue Socrate","HouseNumber":"4","PostalCode":"44000","AdditionalData":[{"value":"France","key":"CountryName"},{"value":"Pays de la Loire","key":"StateName"},{"value":"Loire-Atlantique","key":"CountyName"}]},"MapReference":{"ReferenceId":"57401385","Spot":0.46,"SideOfStreet":"right","CountryId":"20000001","StateId":"20068992","CountyId":"20068993","CityId":"20069319","AddressId":"323735939","RoadLinkId":"47476279"}}},{"Relevance":1.0,"Distance":40.5,"MatchLevel":"houseNumber","MatchQuality":{"Country":1.0,"State":1.0,"County":1.0,"City":1.0,"District":1.0,"Street":[1.0],"HouseNumber":1.0,"PostalCode":1.0},"MatchType":"interpolated","Location":{"LocationId":"NT_tqnqof0A.TFZru.UZlLM3C_zYD","LocationType":"point","DisplayPosition":{"Latitude":47.22535,"Longitude":-1.54626},"MapView":{"TopLeft":{"Latitude":47.2264742,"Longitude":-1.5479153},"BottomRight":{"Latitude":47.2242258,"Longitude":-1.5446047}},"Address":{"Label":"36 Rue Amiral Ronarc'h, 44000 Nantes, France","Country":"FRA","State":"Pays de la Loire","County":"Loire-Atlantique","City":"Nantes","District":"Malakoff-Saint-Donatien","Street":"Rue Amiral Ronarc'h","HouseNumber":"36","PostalCode":"44000","AdditionalData":[{"value":"France","key":"CountryName"},{"value":"Pays de la Loire","key":"StateName"},{"value":"Loire-Atlantique","key":"CountyName"}]},"MapReference":{"ReferenceId":"57401569","Spot":0.81,"SideOfStreet":"left","CountryId":"20000001","StateId":"20068992","CountyId":"20068993","CityId":"20069319","AddressId":"323630691","RoadLinkId":"46638969"}}},{"Relevance":1.0,"Distance":72.3,"MatchLevel":"houseNumber","MatchQuality":{"Country":1.0,"State":1.0,"County":1.0,"City":1.0,"District":1.0,"Street":[1.0],"HouseNumber":1.0,"PostalCode":1.0},"MatchType":"interpolated","Location":{"LocationId":"NT_c0i.-HMUVglf4wKm.YeFBC_xA","LocationType":"point","DisplayPosition":{"Latitude":47.22641,"Longitude":-1.54604},"MapView":{"TopLeft":{"Latitude":47.2275342,"Longitude":-1.5476953},"BottomRight":{"Latitude":47.2252858,"Longitude":-1.5443847}},"Address":{"Label":"1 Rue de la Béraudière, 44000 Nantes, France","Country":"FRA","State":"Pays de la Loire","County":"Loire-Atlantique","City":"Nantes","District":"Malakoff-Saint-Donatien","Street":"Rue de la Béraudière","HouseNumber":"1","PostalCode":"44000","AdditionalData":[{"value":"France","key":"CountryName"},{"value":"Pays de la Loire","key":"StateName"},{"value":"Loire-Atlantique","key":"CountyName"}]},"MapReference":{"ReferenceId":"57401231","Spot":0.39,"SideOfStreet":"left","CountryId":"20000001","StateId":"20068992","CountyId":"20068993","CityId":"20069319","AddressId":"323724617","RoadLinkId":"47553306"}}},{"Relevance":1.0,"Distance":80.3,"MatchLevel":"houseNumber","MatchQuality":{"Country":1.0,"State":1.0,"County":1.0,"City":1.0,"District":1.0,"Street":[1.0],"HouseNumber":1.0,"PostalCode":1.0},"MatchType":"interpolated","Location":{"LocationId":"NT_MDkvZCequrxXG70jBnGRlD_l_1227605798_R_xA","LocationType":"point","DisplayPosition":{"Latitude":47.2264056,"Longitude":-1.546819},"MapView":{"TopLeft":{"Latitude":47.2275298,"Longitude":-1.5484743},"BottomRight":{"Latitude":47.2252815,"Longitude":-1.5451636}},"Address":{"Label":"1 Rue Henri Lasne, 44000 Nantes, France","Country":"FRA","State":"Pays de la Loire","County":"Loire-Atlantique","City":"Nantes","District":"Malakoff-Saint-Donatien","Street":"Rue Henri Lasne","HouseNumber":"1","PostalCode":"44000","AdditionalData":[{"value":"France","key":"CountryName"},{"value":"Pays de la Loire","key":"StateName"},{"value":"Loire-Atlantique","key":"CountyName"}]},"MapReference":{"ReferenceId":"1227605798","Spot":0.51,"SideOfStreet":"right","CountryId":"20000001","StateId":"20068992","CountyId":"20068993","CityId":"20069319"}}},{"Relevance":1.0,"Distance":99.5,"MatchLevel":"houseNumber","MatchQuality":{"Country":1.0,"State":1.0,"County":1.0,"City":1.0,"District":1.0,"Street":[1.0],"HouseNumber":1.0,"PostalCode":1.0},"MatchType":"interpolated","Location":{"LocationId":"NT_tqnqof0A.TFZru.UZlLM3C_xQD","LocationType":"point","DisplayPosition":{"Latitude":47.22652,"Longitude":-1.54553},"MapView":{"TopLeft":{"Latitude":47.2276442,"Longitude":-1.5471854},"BottomRight":{"Latitude":47.2253958,"Longitude":-1.5438746}},"Address":{"Label":"14 Rue Amiral Ronarc'h, 44000 Nantes, France","Country":"FRA","State":"Pays de la Loire","County":"Loire-Atlantique","City":"Nantes","District":"Malakoff-Saint-Donatien","Street":"Rue Amiral Ronarc'h","HouseNumber":"14","PostalCode":"44000","AdditionalData":[{"value":"France","key":"CountryName"},{"value":"Pays de la Loire","key":"StateName"},{"value":"Loire-Atlantique","key":"CountyName"}]},"MapReference":{"ReferenceId":"57401230","Spot":0.21,"SideOfStreet":"left","CountryId":"20000001","StateId":"20068992","CountyId":"20068993","CityId":"20069319","AddressId":"323844632","RoadLinkId":"47654547"}}},{"Relevance":1.0,"Distance":100.2,"MatchLevel":"street","MatchQuality":{"Country":1.0,"State":1.0,"County":1.0,"City":1.0,"District":1.0,"Street":[1.0],"PostalCode":1.0},"Location":{"LocationId":"NT_0B.V6NKSbU51Tjn-6yyENB_l_1227626494_R","LocationType":"point","DisplayPosition":{"Latitude":47.2265314,"Longitude":-1.5466379},"MapView":{"TopLeft":{"Latitude":47.22663,"Longitude":-1.54664},"BottomRight":{"Latitude":47.22653,"Longitude":-1.54649}},"Address":{"Label":"Rue François Farineau, 44000 Nantes, France","Country":"FRA","State":"Pays de la Loire","County":"Loire-Atlantique","City":"Nantes","District":"Malakoff-Saint-Donatien","Street":"Rue François Farineau","PostalCode":"44000","AdditionalData":[{"value":"France","key":"CountryName"},{"value":"Pays de la Loire","key":"StateName"},{"value":"Loire-Atlantique","key":"CountyName"}]},"MapReference":{"ReferenceId":"1227626494","Spot":0.01,"SideOfStreet":"right","CountryId":"20000001","StateId":"20068992","CountyId":"20068993","CityId":"20069319"}}},{"Relevance":1.0,"Distance":113.4,"MatchLevel":"houseNumber","MatchQuality":{"Country":1.0,"State":1.0,"County":1.0,"City":1.0,"District":1.0,"Street":[1.0],"HouseNumber":1.0,"PostalCode":1.0},"MatchType":"interpolated","Location":{"LocationId":"NT_MDkvZCequrxXG70jBnGRlD_xA","LocationType":"point","DisplayPosition":{"Latitude":47.22588,"Longitude":-1.54763},"MapView":{"TopLeft":{"Latitude":47.2270042,"Longitude":-1.5492853},"BottomRight":{"Latitude":47.2247558,"Longitude":-1.5459747}},"Address":{"Label":"1 Rue Henri Lasne, 44000 Nantes, France","Country":"FRA","State":"Pays de la Loire","County":"Loire-Atlantique","City":"Nantes","District":"Malakoff-Saint-Donatien","Street":"Rue Henri Lasne","HouseNumber":"1","PostalCode":"44000","AdditionalData":[{"value":"France","key":"CountryName"},{"value":"Pays de la Loire","key":"StateName"},{"value":"Loire-Atlantique","key":"CountyName"}]},"MapReference":{"ReferenceId":"1227605797","Spot":0.11,"SideOfStreet":"right","CountryId":"20000001","StateId":"20068992","CountyId":"20068993","CityId":"20069319","AddressId":"323667944","RoadLinkId":"546335406"}}},{"Relevance":1.0,"Distance":114.0,"MatchLevel":"houseNumber","MatchQuality":{"Country":1.0,"State":1.0,"County":1.0,"City":1.0,"District":1.0,"Street":[1.0],"HouseNumber":1.0,"PostalCode":1.0},"MatchType":"interpolated","Location":{"LocationId":"NT_ExuR-PgD2lp.pCFRuD1dcA_2A","LocationType":"point","DisplayPosition":{"Latitude":47.22492,"Longitude":-1.54717},"MapView":{"TopLeft":{"Latitude":47.2260442,"Longitude":-1.5488253},"BottomRight":{"Latitude":47.2237958,"Longitude":-1.5455147}},"Address":{"Label":"6 Avenue Chanzy, 44000 Nantes, France","Country":"FRA","State":"Pays de la Loire","County":"Loire-Atlantique","City":"Nantes","District":"Malakoff-Saint-Donatien","Street":"Avenue Chanzy","HouseNumber":"6","PostalCode":"44000","AdditionalData":[{"value":"France","key":"CountryName"},{"value":"Pays de la Loire","key":"StateName"},{"value":"Loire-Atlantique","key":"CountyName"}]},"MapReference":{"ReferenceId":"57401570","Spot":0.3,"SideOfStreet":"right","CountryId":"20000001","StateId":"20068992","CountyId":"20068993","CityId":"20069319","AddressId":"323792331","RoadLinkId":"46265406"}}}]}]}}