{"Response":{"MetaInfo":{"Timestamp":"2020-03-28T11:48:11.884+0000","NextPageInformation":"2"},"View":[{"_type":"SearchResultsViewType","ViewId":0,"Result":[{"Relevance":1.0,"Distance":0.0,"Direction":0.0,"MatchLevel":"city","MatchQuality":{"Country":1.0,"State":1.0,"County":1.0,"City":1.0,"PostalCode":1.0},"Location":{"LocationId":"NT_nTJl8wUdy4YWCTxP49A-NC","LocationType":"point","DisplayPosition":{"Latitude":47.251503,"Longitude":5.705635},"MapView":{"TopLeft":{"Latitude":47.27252,"Longitude":5.6798},"BottomRight":{"Latitude":47.23152,"Longitude":5.71964}},"Address":{"Label":"Pagney, Bourgogne-Franche-Comté, France","Country":"FRA","State":"Bourgogne-Franche-Comté","County":"Jura","City":"Pagney","PostalCode":"39350","AdditionalData":[{"value":"France","key":"CountryName"},{"value":"Bourgogne-Franche-Comté","key":"StateName"},{"value":"Jura","key":"CountyName"}]},"MapReference":{"ReferenceId":"580487192","SideOfStreet":"neither","CountryId":"20000001","StateId":"20013306","CountyId":"20015084","CityId":"20016207"}}},{"Relevance":1.0,"Distance":18.2,"MatchLevel":"houseNumber","MatchQuality":{"Country":1.0,"State":1.0,"County":1.0,"City":1.0,"Street":[1.0],"HouseNumber":1.0,"PostalCode":1.0},"MatchType":"interpolated","Location":{"LocationId":"NT_jXnEBiu7WYzbX265XFw0hC_0A","LocationType":"point","DisplayPosition":{"Latitude":47.25168,"Longitude":5.7055},"MapView":{"TopLeft":{"Latitude":47.2528042,"Longitude":5.7038439},"BottomRight":{"Latitude":47.2505558,"Longitude":5.7071561}},"Address":{"Label":"4 Rue des Saules, 39350 Pagney, France","Country":"FRA","State":"Bourgogne-Franche-Comté","County":"Jura","City":"Pagney","Street":"Rue des Saules","HouseNumber":"4","PostalCode":"39350","AdditionalData":[{"value":"France","key":"CountryName"},{"value":"Bourgogne-Franche-Comté","key":"StateName"},{"value":"Jura","key":"CountyName"}]},"MapReference":{"ReferenceId":"988882907","Spot":0.55,"SideOfStreet":"right","CountryId":"20000001","StateId":"20013306","CountyId":"20015084","CityId":"20016207","AddressId":"605591328","RoadLinkId":"317942957"}}},{"Relevance":1.0,"Distance":25.3,"MatchLevel":"street","MatchQuality":{"Country":1.0,"State":1.0,"County":1.0,"City":1.0,"PostalCode":1.0},"Location":{"LocationId":"NT_e9BJNb1WBN9r6jD9kVCTXC_l_970656362_R","LocationType":"point","DisplayPosition":{"Latitude":47.2512981,"Longitude":5.7054886},"MapView":{"TopLeft":{"Latitude":47.25135,"Longitude":5.70525},"BottomRight":{"Latitude":47.25125,"Longitude":5.70553}},"Address":{"Label":"39350 Pagney, France","Country":"FRA","State":"Bourgogne-Franche-Comté","County":"Jura","City":"Pagney","PostalCode":"39350","AdditionalData":[{"value":"France","key":"CountryName"},{"value":"Bourgogne-Franche-Comté","key":"StateName"},{"value":"Jura","key":"CountyName"}]},"MapReference":{"ReferenceId":"970656362","Spot":0.2,"SideOfStreet":"right","CountryId":"20000001","StateId":"20013306","CountyId":"20015084","CityId":"20016207"}}},{"Relevance":1.0,"Distance":26.7,"MatchLevel":"street","MatchQuality":{"Country":1.0,"State":1.0,"County":1.0,"City":1.0,"Street":[1.0],"PostalCode":1.0},"Location":{"LocationId":"NT_jXnEBiu7WYzbX265XFw0hC_l_988882909_L","LocationType":"point","DisplayPosition":{"Latitude":47.2516878,"Longitude":5.7058609},"MapView":{"TopLeft":{"Latitude":47.25186,"Longitude":5.70572},"BottomRight":{"Latitude":47.25164,"Longitude":5.7059}},"Address":{"Label":"Rue des Saules, 39350 Pagney, France","Country":"FRA","State":"Bourgogne-Franche-Comté","County":"Jura","City":"Pagney","Street":"Rue des Saules","PostalCode":"39350","AdditionalData":[{"value":"France","key":"CountryName"},{"value":"Bourgogne-Franche-Comté","key":"StateName"},{"value":"Jura","key":"CountyName"}]},"MapReference":{"ReferenceId":"988882909","Spot":0.22,"SideOfStreet":"left","CountryId":"20000001","StateId":"20013306","CountyId":"20015084","CityId":"20016207"}}},{"Relevance":1.0,"Distance":29.2,"MatchLevel":"street","MatchQuality":{"Country":1.0,"State":1.0,"County":1.0,"City":1.0,"PostalCode":1.0},"Location":{"LocationId":"NT_e9BJNb1WBN9r6jD9kVCTXC_l_970656363_R","LocationType":"point","DisplayPosition":{"Latitude":47.25125,"Longitude":5.70553},"MapView":{"TopLeft":{"Latitude":47.25125,"Longitude":5.70543},"BottomRight":{"Latitude":47.25112,"Longitude":5.70554}},"Address":{"Label":"39350 Pagney, France","Country":"FRA","State":"Bourgogne-Franche-Comté","County":"Jura","City":"Pagney","PostalCode":"39350","AdditionalData":[{"value":"France","key":"CountryName"},{"value":"Bourgogne-Franche-Comté","key":"StateName"},{"value":"Jura","key":"CountyName"}]},"MapReference":{"ReferenceId":"970656363","Spot":1.0,"SideOfStreet":"right","CountryId":"20000001","StateId":"20013306","CountyId":"20015084","CityId":"20016207"}}},{"Relevance":1.0,"Distance":32.7,"MatchLevel":"houseNumber","MatchQuality":{"Country":1.0,"State":1.0,"County":1.0,"City":1.0,"Street":[1.0],"HouseNumber":1.0,"PostalCode":1.0},"MatchType":"interpolated","Location":{"LocationId":"NT_YdhcU4XB47KCHb6YUEh3bA_3A","LocationType":"point","DisplayPosition":{"Latitude":47.25124,"Longitude":5.70583},"MapView":{"TopLeft":{"Latitude":47.2523642,"Longitude":5.7041739},"BottomRight":{"Latitude":47.2501158,"Longitude":5.7074861}},"Address":{"Label":"7 Grande Rue, 39350 Pagney, France","Country":"FRA","State":"Bourgogne-Franche-Comté","County":"Jura","City":"Pagney","Street":"Grande Rue","HouseNumber":"7","PostalCode":"39350","AdditionalData":[{"value":"France","key":"CountryName"},{"value":"Bourgogne-Franche-Comté","key":"StateName"},{"value":"Jura","key":"CountyName"}]},"MapReference":{"ReferenceId":"1065267782","Spot":0.63,"SideOfStreet":"left","CountryId":"20000001","StateId":"20013306","CountyId":"20015084","CityId":"20016207","AddressId":"379300569","RoadLinkId":"387553865"}}},{"Relevance":1.0,"Distance":34.2,"MatchLevel":"street","MatchQuality":{"Country":1.0,"State":1.0,"County":1.0,"City":1.0,"Street":[1.0],"PostalCode":1.0},"Location":{"LocationId":"NT_d70VHtTYypXAbVMwv0ahnD_l_988882904_R","LocationType":"point","DisplayPosition":{"Latitude":47.25134,"Longitude":5.70525},"MapView":{"TopLeft":{"Latitude":47.25155,"Longitude":5.70515},"BottomRight":{"Latitude":47.25134,"Longitude":5.70525}},"Address":{"Label":"Rue des Champs Dasi, 39350 Pagney, France","Country":"FRA","State":"Bourgogne-Franche-Comté","County":"Jura","City":"Pagney","Street":"Rue des Champs Dasi","PostalCode":"39350","AdditionalData":[{"value":"France","key":"CountryName"},{"value":"Bourgogne-Franche-Comté","key":"StateName"},{"value":"Jura","key":"CountyName"}]},"MapReference":{"ReferenceId":"988882904","Spot":0.0,"SideOfStreet":"right","CountryId":"20000001","StateId":"20013306","CountyId":"20015084","CityId":"20016207"}}},{"Relevance":1.0,"Distance":34.2,"MatchLevel":"street","MatchQuality":{"Country":1.0,"State":1.0,"County":1.0,"City":1.0,"PostalCode":1.0},"Location":{"LocationId":"NT_e9BJNb1WBN9r6jD9kVCTXC_l_799972995_R","LocationType":"point","DisplayPosition":{"Latitude":47.25134,"Longitude":5.70525},"MapView":{"TopLeft":{"Latitude":47.25134,"Longitude":5.70516},"BottomRight":{"Latitude":47.25117,"Longitude":5.70525}},"Address":{"Label":"39350 Pagney, France","Country":"FRA","State":"Bourgogne-Franche-Comté","County":"Jura","City":"Pagney","PostalCode":"39350","AdditionalData":[{"value":"France","key":"CountryName"},{"value":"Bourgogne-Franche-Comté","key":"StateName"},{"value":"Jura","key":"CountyName"}]},"MapReference":{"ReferenceId":"799972995","Spot":1.0,"SideOfStreet":"right","CountryId":"20000001","StateId":"20013306","CountyId":"20015084","CityId":"20016207"}}},{"Relevance":1.0,"Distance":45.3,"MatchLevel":"street","MatchQuality":{"Country":1.0,"State":1.0,"County":1.0,"City":1.0,"Street":[1.0],"PostalCode":1.0},"Location":{"LocationId":"NT_m6QaX21pvMCt.TJnH3hFOC_l_757253436_R","LocationType":"point","DisplayPosition":{"Latitude":47.25112,"Longitude":5.70543},"MapView":{"TopLeft":{"Latitude":47.25112,"Longitude":5.70543},"BottomRight":{"Latitude":47.2506,"Longitude":5.7058}},"Address":{"Label":"Chemin des Aïes, 39350 Pagney, France","Country":"FRA","State":"Bourgogne-Franche-Comté","County":"Jura","City":"Pagney","Street":"Chemin des Aïes","PostalCode":"39350","AdditionalData":[{"value":"France","key":"CountryName"},{"value":"Bourgogne-Franche-Comté","key":"StateName"},{"value":"Jura","key":"CountyName"}]},"MapReference":{"ReferenceId":"757253436","Spot":1.0,"SideOfStreet":"right","CountryId":"20000001","StateId":"20013306","CountyId":"20015084","CityId":"20016207"}}},{"Relevance":1.0,"Distance":45.3,"MatchLevel":"street","MatchQuality":{"Country":1.0,"State":1.0,"County":1.0,"City":1.0,"PostalCode":1.0},"Location":{"LocationId":"NT_e9BJNb1WBN9r6jD9kVCTXC_l_799972994_R","LocationType":"point","DisplayPosition":{"Latitude":47.25112,"Longitude":5.70543},"MapView":{"TopLeft":{"Latitude":47.25117,"Longitude":5.70518},"BottomRight":{"Latitude":47.25111,"Longitude":5.70543}},"Address":{"Label":"39350 Pagney, France","Country":"FRA","State":"Bourgogne-Franche-Comté","County":"Jura","City":"Pagney","PostalCode":"39350","AdditionalData":[{"value":"France","key":"CountryName"},{"value":"Bourgogne-Franche-Comté","key":"StateName"},{"value":"Jura","key":"CountyName"}]},"MapReference":{"ReferenceId":"799972994","Spot":0.0,"SideOfStreet":"right","CountryId":"20000001","StateId":"20013306","CountyId":"20015084","CityId":"20016207"}}}]}]}}