{"Response":{"MetaInfo":{"Timestamp":"2020-03-28T11:48:13.123+0000","NextPageInformation":"2"},"View":[{"_type":"SearchResultsViewType","ViewId":0,"Result":[{"Relevance":1.0,"Distance":0.0,"Direction":0.0,"MatchLevel":"city","MatchQuality":{"Country":1.0,"State":1.0,"County":1.0,"City":1.0,"PostalCode":1.0},"Location":{"LocationId":"NT_9Jkz678Elmcabq4E3SDHaC","LocationType":"point","DisplayPosition":{"Latitude":47.217401,"Longitude":6.5424934},"MapView":{"TopLeft":{"Latitude":47.24202,"Longitude":6.50293},"BottomRight":{"Latitude":47.18865,"Longitude":6.60488}},"Address":{"Label":"Pierrefontaine-les-Varans, Bourgogne-Franche-Comté, France","Country":"FRA","State":"Bourgogne-Franche-Comté","County":"Doubs","City":"Pierrefontaine-les-Varans","PostalCode":"25510","AdditionalData":[{"value":"France","key":"CountryName"},{"value":"Bourgogne-Franche-Comté","key":"StateName"},{"value":"Doubs","key":"CountyName"}]},"MapReference":{"ReferenceId":"579039343","SideOfStreet":"neither","CountryId":"20000001","StateId":"20013306","CountyId":"20013307","CityId":"20014556"}}},{"Relevance":1.0,"Distance":8.6,"MatchLevel":"houseNumber","MatchQuality":{"Country":1.0,"State":1.0,"County":1.0,"City":1.0,"Street":[1.0],"HouseNumber":1.0,"PostalCode":1.0},"MatchType":"interpolated","Location":{"LocationId":"NT_PEXlI.j4gGkULrjA.vDgrA_yQD","LocationType":"point","DisplayPosition":{"Latitude":47.21746,"Longitude":6.54223},"MapView":{"TopLeft":{"Latitude":47.2185842,"Longitude":6.5405749},"BottomRight":{"Latitude":47.2163358,"Longitude":6.5438851}},"Address":{"Label":"24 Grande Rue, 25510 Pierrefontaine-les-Varans, France","Country":"FRA","State":"Bourgogne-Franche-Comté","County":"Doubs","City":"Pierrefontaine-les-Varans","Street":"Grande Rue","HouseNumber":"24","PostalCode":"25510","AdditionalData":[{"value":"France","key":"CountryName"},{"value":"Bourgogne-Franche-Comté","key":"StateName"},{"value":"Doubs","key":"CountyName"}]},"MapReference":{"ReferenceId":"58750411","Spot":0.92,"SideOfStreet":"right","CountryId":"20000001","StateId":"20013306","CountyId":"20013307","CityId":"20014556","AddressId":"379279187","RoadLinkId":"44786053"}}},{"Relevance":1.0,"Distance":23.8,"MatchLevel":"street","MatchQuality":{"Country":1.0,"State":1.0,"County":1.0,"City":1.0,"Street":[1.0],"PostalCode":1.0},"Location":{"LocationId":"NT_9ahuEOYHJ4hi8-.SljjCuA_l_1066237336_L","LocationType":"point","DisplayPosition":{"Latitude":47.2176153,"Longitude":6.5425005},"MapView":{"TopLeft":{"Latitude":47.21762,"Longitude":6.54236},"BottomRight":{"Latitude":47.21761,"Longitude":6.54266}},"Address":{"Label":"Rue de Belleherbe, 25510 Pierrefontaine-les-Varans, France","Country":"FRA","State":"Bourgogne-Franche-Comté","County":"Doubs","City":"Pierrefontaine-les-Varans","Street":"Rue de Belleherbe","PostalCode":"25510","AdditionalData":[{"value":"France","key":"CountryName"},{"value":"Bourgogne-Franche-Comté","key":"StateName"},{"value":"Doubs","key":"CountyName"}]},"MapReference":{"ReferenceId":"1066237336","Spot":0.53,"SideOfStreet":"left","CountryId":"20000001","StateId":"20013306","CountyId":"20013307","CityId":"20014556"}}},{"Relevance":1.0,"Distance":26.4,"MatchLevel":"street","MatchQuality":{"Country":1.0,"State":1.0,"County":1.0,"City":1.0,"Street":[1.0],"PostalCode":1.0},"Location":{"LocationId":"NT_Ee00YwMnZo8Q4e1XXdXwTB_l_1066237332_R","LocationType":"point","DisplayPosition":{"Latitude":47.21761,"Longitude":6.54266},"MapView":{"TopLeft":{"Latitude":47.21816,"Longitude":6.54266},"BottomRight":{"Latitude":47.21761,"Longitude":6.54336}},"Address":{"Label":"Place de la Fruitière, 25510 Pierrefontaine-les-Varans, France","Country":"FRA","State":"Bourgogne-Franche-Comté","County":"Doubs","City":"Pierrefontaine-les-Varans","Street":"Place de la Fruitière","PostalCode":"25510","AdditionalData":[{"value":"France","key":"CountryName"},{"value":"Bourgogne-Franche-Comté","key":"StateName"},{"value":"Doubs","key":"CountyName"}]},"MapReference":{"ReferenceId":"1066237332","Spot":0.0,"SideOfStreet":"right","CountryId":"20000001","StateId":"20013306","CountyId":"20013307","CityId":"20014556"}}},{"Relevance":1.0,"Distance":38.0,"MatchLevel":"houseNumber","MatchQuality":{"Country":1.0,"State":1.0,"County":1.0,"City":1.0,"Street":[1.0],"HouseNumber":1.0,"PostalCode":1.0},"MatchType":"interpolated","Location":{"LocationId":"NT_e0BEyYzw6i3YJxDI2kPBpB_l_1113620183_L_ycD","LocationType":"point","DisplayPosition":{"Latitude":47.21774,"Longitude":6.54243},"MapView":{"TopLeft":{"Latitude":47.2188642,"Longitude":6.540775},"BottomRight":{"Latitude":47.2166159,"Longitude":6.5440851}},"Address":{"Label":"27 Rue de Laviron, 25510 Pierrefontaine-les-Varans, France","Country":"FRA","State":"Bourgogne-Franche-Comté","County":"Doubs","City":"Pierrefontaine-les-Varans","Street":"Rue de Laviron","HouseNumber":"27","PostalCode":"25510","AdditionalData":[{"value":"France","key":"CountryName"},{"value":"Bourgogne-Franche-Comté","key":"StateName"},{"value":"Doubs","key":"CountyName"}]},"MapReference":{"ReferenceId":"1113620183","Spot":0.22,"SideOfStreet":"left","CountryId":"20000001","StateId":"20013306","CountyId":"20013307","CityId":"20014556"}}},{"Relevance":1.0,"Distance":39.9,"MatchLevel":"houseNumber","MatchQuality":{"Country":1.0,"State":1.0,"County":1.0,"City":1.0,"Street":[1.0],"HouseNumber":1.0,"PostalCode":1.0},"MatchType":"interpolated","Location":{"LocationId":"NT_9ahuEOYHJ4hi8-.SljjCuA_yA","LocationType":"point","DisplayPosition":{"Latitude":47.2176,"Longitude":6.54297},"MapView":{"TopLeft":{"Latitude":47.2187242,"Longitude":6.5413149},"BottomRight":{"Latitude":47.2164758,"Longitude":6.5446251}},"Address":{"Label":"2 Rue de Belleherbe, 25510 Pierrefontaine-les-Varans, France","Country":"FRA","State":"Bourgogne-Franche-Comté","County":"Doubs","City":"Pierrefontaine-les-Varans","Street":"Rue de Belleherbe","HouseNumber":"2","PostalCode":"25510","AdditionalData":[{"value":"France","key":"CountryName"},{"value":"Bourgogne-Franche-Comté","key":"StateName"},{"value":"Doubs","key":"CountyName"}]},"MapReference":{"ReferenceId":"1066237335","Spot":0.72,"SideOfStreet":"left","CountryId":"20000001","StateId":"20013306","CountyId":"20013307","CityId":"20014556","AddressId":"317296704","RoadLinkId":"388529112"}}},{"Relevance":1.0,"Distance":83.3,"MatchLevel":"houseNumber","MatchQuality":{"Country":1.0,"State":1.0,"County":1.0,"City":1.0,"Street":[1.0],"HouseNumber":1.0,"PostalCode":1.0},"MatchType":"interpolated","Location":{"LocationId":"NT_hfX51e1QLsWjXMoncZH4CC_zMD","LocationType":"point","DisplayPosition":{"Latitude":47.2182,"Longitude":6.54258},"MapView":{"TopLeft":{"Latitude":47.2193242,"Longitude":6.5409249},"BottomRight":{"Latitude":47.2170758,"Longitude":6.5442351}},"Address":{"Label":"33 Grande Rue, 25510 Pierrefontaine-les-Varans, France","Country":"FRA","State":"Bourgogne-Franche-Comté","County":"Doubs","City":"Pierrefontaine-les-Varans","Street":"Grande Rue","HouseNumber":"33","PostalCode":"25510","AdditionalData":[{"value":"France","key":"CountryName"},{"value":"Bourgogne-Franche-Comté","key":"StateName"},{"value":"Doubs","key":"CountyName"}]},"MapReference":{"ReferenceId":"1113620182","Spot":0.22,"SideOfStreet":"left","CountryId":"20000001","StateId":"20013306","CountyId":"20013307","CityId":"20014556","AddressId":"696851436","RoadLinkId":"423659370"}}},{"Relevance":1.0,"Distance":84.6,"MatchLevel":"houseNumber","MatchQuality":{"Country":1.0,"State":1.0,"County":1.0,"City":1.0,"Street":[1.0],"HouseNumber":1.0,"PostalCode":1.0},"MatchType":"interpolated","Location":{"LocationId":"NT_e0BEyYzw6i3YJxDI2kPBpB_l_1113620184_L_zcD","LocationType":"point","DisplayPosition":{"Latitude":47.21815,"Longitude":6.54269},"MapView":{"TopLeft":{"Latitude":47.2192742,"Longitude":6.5410349},"BottomRight":{"Latitude":47.2170259,"Longitude":6.5443451}},"Address":{"Label":"37 Rue de Laviron, 25510 Pierrefontaine-les-Varans, France","Country":"FRA","State":"Bourgogne-Franche-Comté","County":"Doubs","City":"Pierrefontaine-les-Varans","Street":"Rue de Laviron","HouseNumber":"37","PostalCode":"25510","AdditionalData":[{"value":"France","key":"CountryName"},{"value":"Bourgogne-Franche-Comté","key":"StateName"},{"value":"Doubs","key":"CountyName"}]},"MapReference":{"ReferenceId":"1113620184","Spot":0.0,"SideOfStreet":"left","CountryId":"20000001","StateId":"20013306","CountyId":"20013307","CityId":"20014556"}}},{"Relevance":1.0,"Distance":97.5,"MatchLevel":"street","MatchQuality":{"Country":1.0,"State":1.0,"County":1.0,"City":1.0,"Street":[1.0],"PostalCode":1.0},"Location":{"LocationId":"NT_cvqYCCkqzbWao9ZF.gchfD_l_759208480_L","LocationType":"point","DisplayPosition":{"Latitude":47.21757,"Longitude":6.54376},"MapView":{"TopLeft":{"Latitude":47.21757,"Longitude":6.54376},"BottomRight":{"Latitude":47.21755,"Longitude":6.5441}},"Address":{"Label":"Rue de Belleherbe, 25510 Pierrefontaine-les-Varans, France","Country":"FRA","State":"Bourgogne-Franche-Comté","County":"Doubs","City":"Pierrefontaine-les-Varans","Street":"Rue de Belleherbe","PostalCode":"25510","AdditionalData":[{"value":"France","key":"CountryName"},{"value":"Bourgogne-Franche-Comté","key":"StateName"},{"value":"Doubs","key":"CountyName"}]},"MapReference":{"ReferenceId":"759208480","Spot":1.0,"SideOfStreet":"left","CountryId":"20000001","StateId":"20013306","CountyId":"20013307","CityId":"20014556"}}},{"Relevance":1.0,"Distance":106.1,"MatchLevel":"houseNumber","MatchQuality":{"Country":1.0,"State":1.0,"County":1.0,"City":1.0,"Street":[1.0],"HouseNumber":1.0,"PostalCode":1.0},"MatchType":"interpolated","Location":{"LocationId":"NT_DecWPm0FPDng0nKtrb5ghD_zA","LocationType":"point","DisplayPosition":{"Latitude":47.21808,"Longitude":6.54348},"MapView":{"TopLeft":{"Latitude":47.2192042,"Longitude":6.5418249},"BottomRight":{"Latitude":47.2169558,"Longitude":6.5451351}},"Address":{"Label":"3 Rue de la Fruitière, 25510 Pierrefontaine-les-Varans, France","Country":"FRA","State":"Bourgogne-Franche-Comté","County":"Doubs","City":"Pierrefontaine-les-Varans","Street":"Rue de la Fruitière","HouseNumber":"3","PostalCode":"25510","AdditionalData":[{"value":"France","key":"CountryName"},{"value":"Bourgogne-Franche-Comté","key":"StateName"},{"value":"Doubs","key":"CountyName"}]},"MapReference":{"ReferenceId":"1066237333","Spot":0.81,"SideOfStreet":"right","CountryId":"20000001","StateId":"20013306","CountyId":"20013307","CityId":"20014556","AddressId":"317277282","RoadLinkId":"388529110"}}}]}]}}