{"Response":{"MetaInfo":{"Timestamp":"2020-03-28T09:33:44.186+0000","NextPageInformation":"2"},"View":[{"_type":"SearchResultsViewType","ViewId":0,"Result":[{"Relevance":1.0,"Distance":0.0,"Direction":0.0,"MatchLevel":"district","MatchQuality":{"Country":1.0,"State":1.0,"County":1.0,"City":1.0,"District":1.0,"PostalCode":1.0},"Location":{"LocationId":"NT_iOLevyngGbZ0m.MZEfYAhD","LocationType":"point","DisplayPosition":{"Latitude":47.2798462,"Longitude":11.4049416},"MapView":{"TopLeft":{"Latitude":47.28076,"Longitude":11.39471},"BottomRight":{"Latitude":47.27011,"Longitude":11.41607}},"Address":{"Label":"Saggen, Innsbruck, Tirol, Österreich","Country":"AUT","State":"Tirol","County":"Innsbruck-Stadt","City":"Innsbruck","District":"Saggen","PostalCode":"6020","AdditionalData":[{"value":"Österreich","key":"CountryName"},{"value":"Tirol","key":"StateName"},{"value":"Innsbruck-Stadt","key":"CountyName"}]},"MapReference":{"ReferenceId":"55892293","SideOfStreet":"neither","CountryId":"20128885","StateId":"20136826","CountyId":"20136827","CityId":"20136828"}}},{"Relevance":1.0,"Distance":12.8,"MatchLevel":"landmark","MatchQuality":{"Country":1.0,"State":1.0,"Name":1.0},"Location":{"LocationId":"NT_h24TRP94KbqHB11P7PPhCB","LocationType":"river","Name":"Inn","DisplayPosition":{"Latitude":47.28172,"Longitude":11.1906},"MapView":{"TopLeft":{"Latitude":47.3112,"Longitude":11.02932},"BottomRight":{"Latitude":47.25225,"Longitude":11.45317}},"Address":{"Label":"Österreich","Country":"AUT","State":"Tirol","AdditionalData":[{"value":"Österreich","key":"CountryName"},{"value":"Tirol","key":"StateName"}]},"MapReference":{"CountryId":"20128885","StateId":"20136826","PlaceId":"51083520"}}},{"Relevance":1.0,"Distance":24.3,"MatchLevel":"houseNumber","MatchQuality":{"Country":1.0,"State":1.0,"County":1.0,"City":1.0,"District":1.0,"Street":[1.0],"HouseNumber":1.0,"PostalCode":1.0},"MatchType":"interpolated","Location":{"LocationId":"NT_3z6iqRvbdktKQTMi0OEe9B_0AD","LocationType":"point","DisplayPosition":{"Latitude":47.2799,"Longitude":11.40463},"MapView":{"TopLeft":{"Latitude":47.2810242,"Longitude":11.402973},"BottomRight":{"Latitude":47.2787758,"Longitude":11.406287}},"Address":{"Label":"Rennweg 40, 6020 Innsbruck, Österreich","Country":"AUT","State":"Tirol","County":"Innsbruck-Stadt","City":"Innsbruck","District":"Saggen","Street":"Rennweg","HouseNumber":"40","PostalCode":"6020","AdditionalData":[{"value":"Österreich","key":"CountryName"},{"value":"Tirol","key":"StateName"},{"value":"Innsbruck-Stadt","key":"CountyName"}]},"MapReference":{"ReferenceId":"1221422347","Spot":1.0,"SideOfStreet":"right","CountryId":"20128885","StateId":"20136826","CountyId":"20136827","CityId":"20136828","AddressId":"213826892","RoadLinkId":"538829276"}}},{"Relevance":1.0,"Distance":25.4,"MatchLevel":"street","MatchQuality":{"Country":1.0,"State":1.0,"County":1.0,"City":1.0,"District":1.0,"Street":[1.0],"PostalCode":1.0},"Location":{"LocationId":"NT_ZDVhXNNBb5ugROWZ1urkpA_l_716190311_R","LocationType":"point","DisplayPosition":{"Latitude":47.2800086,"Longitude":11.4047043},"MapView":{"TopLeft":{"Latitude":47.28072,"Longitude":11.40463},"BottomRight":{"Latitude":47.2799,"Longitude":11.40519}},"Address":{"Label":"Mühlauer Brücke, 6020 Innsbruck, Österreich","Country":"AUT","State":"Tirol","County":"Innsbruck-Stadt","City":"Innsbruck","District":"Saggen","Street":"Mühlauer Brücke","PostalCode":"6020","AdditionalData":[{"value":"Österreich","key":"CountryName"},{"value":"Tirol","key":"StateName"},{"value":"Innsbruck-Stadt","key":"CountyName"}]},"MapReference":{"ReferenceId":"716190311","Spot":0.13,"SideOfStreet":"right","CountryId":"20128885","StateId":"20136826","CountyId":"20136827","CityId":"20136828"}}},{"Relevance":1.0,"Distance":52.9,"MatchLevel":"street","MatchQuality":{"Country":1.0,"State":1.0,"County":1.0,"City":1.0,"District":1.0,"Street":[1.0],"PostalCode":1.0},"Location":{"LocationId":"NT_0D-YSBYehSPh6ns21FM6UB_l_1221422346_R","LocationType":"point","DisplayPosition":{"Latitude":47.27958,"Longitude":11.40436},"MapView":{"TopLeft":{"Latitude":47.27958,"Longitude":11.40426},"BottomRight":{"Latitude":47.27949,"Longitude":11.40436}},"Address":{"Label":"Rennweg, 6020 Innsbruck, Österreich","Country":"AUT","State":"Tirol","County":"Innsbruck-Stadt","City":"Innsbruck","District":"Saggen","Street":"Rennweg","PostalCode":"6020","AdditionalData":[{"value":"Österreich","key":"CountryName"},{"value":"Tirol","key":"StateName"},{"value":"Innsbruck-Stadt","key":"CountyName"}]},"MapReference":{"ReferenceId":"1221422346","Spot":1.0,"SideOfStreet":"right","CountryId":"20128885","StateId":"20136826","CountyId":"20136827","CityId":"20136828"}}},{"Relevance":1.0,"Distance":64.9,"MatchLevel":"street","MatchQuality":{"Country":1.0,"State":1.0,"County":1.0,"City":1.0,"District":1.0,"Street":[1.0],"PostalCode":1.0},"Location":{"LocationId":"NT_LW6RqL77qOcTlxSkrPOIXD_l_877827580_L","LocationType":"point","DisplayPosition":{"Latitude":47.27949,"Longitude":11.40426},"MapView":{"TopLeft":{"Latitude":47.27966,"Longitude":11.40143},"BottomRight":{"Latitude":47.27875,"Longitude":11.40426}},"Address":{"Label":"Franz-Greiter-Promenade, 6020 Innsbruck, Österreich","Country":"AUT","State":"Tirol","County":"Innsbruck-Stadt","City":"Innsbruck","District":"Saggen","Street":"Franz-Greiter-Promenade","PostalCode":"6020","AdditionalData":[{"value":"Österreich","key":"CountryName"},{"value":"Tirol","key":"StateName"},{"value":"Innsbruck-Stadt","key":"CountyName"}]},"MapReference":{"ReferenceId":"877827580","Spot":1.0,"SideOfStreet":"left","CountryId":"20128885","StateId":"20136826","CountyId":"20136827","CityId":"20136828"}}},{"Relevance":1.0,"Distance":64.9,"MatchLevel":"street","MatchQuality":{"Country":1.0,"State":1.0,"County":1.0,"City":1.0,"District":1.0,"Street":[1.0],"PostalCode":1.0},"Location":{"LocationId":"NT_3z6iqRvbdktKQTMi0OEe9B_l_60308742_R","LocationType":"point","DisplayPosition":{"Latitude":47.27949,"Longitude":11.40426},"MapView":{"TopLeft":{"Latitude":47.27949,"Longitude":11.4041},"BottomRight":{"Latitude":47.2794,"Longitude":11.40426}},"Address":{"Label":"Rennweg, 6020 Innsbruck, Österreich","Country":"AUT","State":"Tirol","County":"Innsbruck-Stadt","City":"Innsbruck","District":"Saggen","Street":"Rennweg","PostalCode":"6020","AdditionalData":[{"value":"Österreich","key":"CountryName"},{"value":"Tirol","key":"StateName"},{"value":"Innsbruck-Stadt","key":"CountyName"}]},"MapReference":{"ReferenceId":"60308742","Spot":1.0,"SideOfStreet":"right","CountryId":"20128885","StateId":"20136826","CountyId":"20136827","CityId":"20136828"}}},{"Relevance":1.0,"Distance":64.9,"MatchLevel":"street","MatchQuality":{"Country":1.0,"State":1.0,"County":1.0,"City":1.0,"District":1.0,"PostalCode":1.0},"Location":{"LocationId":"NT_tmbQjtPnGJBhE2z8bL.bdC_l_55892202_R","LocationType":"point","DisplayPosition":{"Latitude":47.27949,"Longitude":11.40426},"MapView":{"TopLeft":{"Latitude":47.27949,"Longitude":11.40421},"BottomRight":{"Latitude":47.27903,"Longitude":11.40426}},"Address":{"Label":"6020 Innsbruck, Österreich","Country":"AUT","State":"Tirol","County":"Innsbruck-Stadt","City":"Innsbruck","District":"Saggen","PostalCode":"6020","AdditionalData":[{"value":"Österreich","key":"CountryName"},{"value":"Tirol","key":"StateName"},{"value":"Innsbruck-Stadt","key":"CountyName"}]},"MapReference":{"ReferenceId":"55892202","Spot":1.0,"SideOfStreet":"right","CountryId":"20128885","StateId":"20136826","CountyId":"20136827","CityId":"20136828"}}},{"Relevance":1.0,"Distance":80.6,"MatchLevel":"street","MatchQuality":{"Country":1.0,"State":1.0,"County":1.0,"City":1.0,"District":1.0,"Street":[1.0],"PostalCode":1.0},"Location":{"LocationId":"NT_0D-YSBYehSPh6ns21FM6UB_l_55892195_R","LocationType":"point","DisplayPosition":{"Latitude":47.2794,"Longitude":11.4041},"MapView":{"TopLeft":{"Latitude":47.2794,"Longitude":11.40385},"BottomRight":{"Latitude":47.27925,"Longitude":11.4041}},"Address":{"Label":"Rennweg, 6020 Innsbruck, Österreich","Country":"AUT","State":"Tirol","County":"Innsbruck-Stadt","City":"Innsbruck","District":"Saggen","Street":"Rennweg","PostalCode":"6020","AdditionalData":[{"value":"Österreich","key":"CountryName"},{"value":"Tirol","key":"StateName"},{"value":"Innsbruck-Stadt","key":"CountyName"}]},"MapReference":{"ReferenceId":"55892195","Spot":1.0,"SideOfStreet":"right","CountryId":"20128885","StateId":"20136826","CountyId":"20136827","CityId":"20136828"}}},{"Relevance":1.0,"Distance":80.6,"MatchLevel":"street","MatchQuality":{"Country":1.0,"State":1.0,"County":1.0,"City":1.0,"District":1.0,"PostalCode":1.0},"Location":{"LocationId":"NT_tmbQjtPnGJBhE2z8bL.bdC_l_55892198_R","LocationType":"point","DisplayPosition":{"Latitude":47.2794,"Longitude":11.4041},"MapView":{"TopLeft":{"Latitude":47.2794,"Longitude":11.40401},"BottomRight":{"Latitude":47.2792,"Longitude":11.4041}},"Address":{"Label":"6020 Innsbruck, Österreich","Country":"AUT","State":"Tirol","County":"Innsbruck-Stadt","City":"Innsbruck","District":"Saggen","PostalCode":"6020","AdditionalData":[{"value":"Österreich","key":"CountryName"},{"value":"Tirol","key":"StateName"},{"value":"Innsbruck-Stadt","key":"CountyName"}]},"MapReference":{"ReferenceId":"55892198","Spot":1.0,"SideOfStreet":"right","CountryId":"20128885","StateId":"20136826","CountyId":"20136827","CityId":"20136828"}}}]}]}}