{"Response":{"MetaInfo":{"Timestamp":"2020-03-28T11:49:11.405+0000","NextPageInformation":"2"},"View":[{"_type":"SearchResultsViewType","ViewId":0,"Result":[{"Relevance":1.0,"Distance":0.0,"Direction":0.0,"MatchLevel":"city","MatchQuality":{"Country":1.0,"State":1.0,"County":1.0,"City":1.0,"PostalCode":1.0},"Location":{"LocationId":"NT_6scZ4Q0rZYYM.5PJTnpqVD","LocationType":"point","DisplayPosition":{"Latitude":47.360935,"Longitude":-1.408129},"MapView":{"TopLeft":{"Latitude":47.38585,"Longitude":-1.48584},"BottomRight":{"Latitude":47.32077,"Longitude":-1.388}},"Address":{"Label":"Saint-Mars-du-Désert, Pays de la Loire, France","Country":"FRA","State":"Pays de la Loire","County":"Loire-Atlantique","City":"Saint-Mars-du-Désert","PostalCode":"44850","AdditionalData":[{"value":"France","key":"CountryName"},{"value":"Pays de la Loire","key":"StateName"},{"value":"Loire-Atlantique","key":"CountyName"}]},"MapReference":{"ReferenceId":"546858657","SideOfStreet":"neither","CountryId":"20000001","StateId":"20068992","CountyId":"20068993","CityId":"20069523"}}},{"Relevance":1.0,"Distance":21.2,"MatchLevel":"houseNumber","MatchQuality":{"Country":1.0,"State":1.0,"County":1.0,"City":1.0,"Street":[1.0],"HouseNumber":1.0,"PostalCode":1.0},"MatchType":"interpolated","Location":{"LocationId":"NT_SeW-nUyjZMtFv7FkeB0Z.C_xA","LocationType":"point","DisplayPosition":{"Latitude":47.36076,"Longitude":-1.40828},"MapView":{"TopLeft":{"Latitude":47.3618842,"Longitude":-1.4099396},"BottomRight":{"Latitude":47.3596358,"Longitude":-1.4066204}},"Address":{"Label":"1 Rue Beau Soleil, 44850 Saint-Mars-du-Désert, France","Country":"FRA","State":"Pays de la Loire","County":"Loire-Atlantique","City":"Saint-Mars-du-Désert","Street":"Rue Beau Soleil","HouseNumber":"1","PostalCode":"44850","AdditionalData":[{"value":"France","key":"CountryName"},{"value":"Pays de la Loire","key":"StateName"},{"value":"Loire-Atlantique","key":"CountyName"}]},"MapReference":{"ReferenceId":"546858818","Spot":0.35,"SideOfStreet":"right","CountryId":"20000001","StateId":"20068992","CountyId":"20068993","CityId":"20069523","AddressId":"371596783","RoadLinkId":"47765582"}}},{"Relevance":1.0,"Distance":23.0,"MatchLevel":"street","MatchQuality":{"Country":1.0,"State":1.0,"County":1.0,"City":1.0,"PostalCode":1.0},"Location":{"LocationId":"NT_RQiHx5mTDmUP7ubMJuXUdC_l_1201033321_L","LocationType":"point","DisplayPosition":{"Latitude":47.36073,"Longitude":-1.40817},"MapView":{"TopLeft":{"Latitude":47.36073,"Longitude":-1.40842},"BottomRight":{"Latitude":47.36042,"Longitude":-1.40817}},"Address":{"Label":"44850 Saint-Mars-du-Désert, France","Country":"FRA","State":"Pays de la Loire","County":"Loire-Atlantique","City":"Saint-Mars-du-Désert","PostalCode":"44850","AdditionalData":[{"value":"France","key":"CountryName"},{"value":"Pays de la Loire","key":"StateName"},{"value":"Loire-Atlantique","key":"CountyName"}]},"MapReference":{"ReferenceId":"1201033321","Spot":1.0,"SideOfStreet":"left","CountryId":"20000001","StateId":"20068992","CountyId":"20068993","CityId":"20069523"}}},{"Relevance":1.0,"Distance":27.0,"MatchLevel":"street","MatchQuality":{"Country":1.0,"State":1.0,"County":1.0,"City":1.0,"PostalCode":1.0},"Location":{"LocationId":"NT_RQiHx5mTDmUP7ubMJuXUdC_l_542793948_R","LocationType":"point","DisplayPosition":{"Latitude":47.36086,"Longitude":-1.40847},"MapView":{"TopLeft":{"Latitude":47.36094,"Longitude":-1.40853},"BottomRight":{"Latitude":47.36081,"Longitude":-1.40847}},"Address":{"Label":"44850 Saint-Mars-du-Désert, France","Country":"FRA","State":"Pays de la Loire","County":"Loire-Atlantique","City":"Saint-Mars-du-Désert","PostalCode":"44850","AdditionalData":[{"value":"France","key":"CountryName"},{"value":"Pays de la Loire","key":"StateName"},{"value":"Loire-Atlantique","key":"CountyName"}]},"MapReference":{"ReferenceId":"542793948","Spot":0.34,"SideOfStreet":"right","CountryId":"20000001","StateId":"20068992","CountyId":"20068993","CityId":"20069523"}}},{"Relevance":1.0,"Distance":30.2,"MatchLevel":"street","MatchQuality":{"Country":1.0,"State":1.0,"County":1.0,"City":1.0,"PostalCode":1.0},"Location":{"LocationId":"NT_RQiHx5mTDmUP7ubMJuXUdC_l_546858811_L","LocationType":"point","DisplayPosition":{"Latitude":47.36094,"Longitude":-1.40853},"MapView":{"TopLeft":{"Latitude":47.36095,"Longitude":-1.40875},"BottomRight":{"Latitude":47.36086,"Longitude":-1.40853}},"Address":{"Label":"44850 Saint-Mars-du-Désert, France","Country":"FRA","State":"Pays de la Loire","County":"Loire-Atlantique","City":"Saint-Mars-du-Désert","PostalCode":"44850","AdditionalData":[{"value":"France","key":"CountryName"},{"value":"Pays de la Loire","key":"StateName"},{"value":"Loire-Atlantique","key":"CountyName"}]},"MapReference":{"ReferenceId":"546858811","Spot":1.0,"SideOfStreet":"left","CountryId":"20000001","StateId":"20068992","CountyId":"20068993","CityId":"20069523"}}},{"Relevance":1.0,"Distance":30.5,"MatchLevel":"street","MatchQuality":{"Country":1.0,"State":1.0,"County":1.0,"City":1.0,"PostalCode":1.0},"Location":{"LocationId":"NT_RQiHx5mTDmUP7ubMJuXUdC_l_542793947_R","LocationType":"point","DisplayPosition":{"Latitude":47.36081,"Longitude":-1.40849},"MapView":{"TopLeft":{"Latitude":47.36081,"Longitude":-1.40869},"BottomRight":{"Latitude":47.36076,"Longitude":-1.40849}},"Address":{"Label":"44850 Saint-Mars-du-Désert, France","Country":"FRA","State":"Pays de la Loire","County":"Loire-Atlantique","City":"Saint-Mars-du-Désert","PostalCode":"44850","AdditionalData":[{"value":"France","key":"CountryName"},{"value":"Pays de la Loire","key":"StateName"},{"value":"Loire-Atlantique","key":"CountyName"}]},"MapReference":{"ReferenceId":"542793947","Spot":1.0,"SideOfStreet":"right","CountryId":"20000001","StateId":"20068992","CountyId":"20068993","CityId":"20069523"}}},{"Relevance":1.0,"Distance":32.9,"MatchLevel":"houseNumber","MatchQuality":{"Country":1.0,"State":1.0,"County":1.0,"City":1.0,"Street":[1.0],"HouseNumber":1.0,"PostalCode":1.0},"MatchType":"interpolated","Location":{"LocationId":"NT_SeW-nUyjZMtFv7FkeB0Z.C_zA","LocationType":"point","DisplayPosition":{"Latitude":47.3607,"Longitude":-1.4078},"MapView":{"TopLeft":{"Latitude":47.3618242,"Longitude":-1.4094596},"BottomRight":{"Latitude":47.3595758,"Longitude":-1.4061404}},"Address":{"Label":"3 Rue Beau Soleil, 44850 Saint-Mars-du-Désert, France","Country":"FRA","State":"Pays de la Loire","County":"Loire-Atlantique","City":"Saint-Mars-du-Désert","Street":"Rue Beau Soleil","HouseNumber":"3","PostalCode":"44850","AdditionalData":[{"value":"France","key":"CountryName"},{"value":"Pays de la Loire","key":"StateName"},{"value":"Loire-Atlantique","key":"CountyName"}]},"MapReference":{"ReferenceId":"976990106","Spot":0.56,"SideOfStreet":"right","CountryId":"20000001","StateId":"20068992","CountyId":"20068993","CityId":"20069523","AddressId":"381340570","RoadLinkId":"311521985"}}},{"Relevance":1.0,"Distance":33.9,"MatchLevel":"houseNumber","MatchQuality":{"Country":1.0,"State":1.0,"County":1.0,"City":1.0,"Street":[1.0],"HouseNumber":1.0,"PostalCode":1.0},"MatchType":"interpolated","Location":{"LocationId":"NT_ZondB9xn.QhHPTU6kQVN.D_2AD","LocationType":"point","DisplayPosition":{"Latitude":47.36129,"Longitude":-1.40816},"MapView":{"TopLeft":{"Latitude":47.3624142,"Longitude":-1.4098196},"BottomRight":{"Latitude":47.3601658,"Longitude":-1.4065004}},"Address":{"Label":"60 Rue du 3 Août 1944, 44850 Saint-Mars-du-Désert, France","Country":"FRA","State":"Pays de la Loire","County":"Loire-Atlantique","City":"Saint-Mars-du-Désert","Street":"Rue du 3 Août 1944","HouseNumber":"60","PostalCode":"44850","AdditionalData":[{"value":"France","key":"CountryName"},{"value":"Pays de la Loire","key":"StateName"},{"value":"Loire-Atlantique","key":"CountyName"}]},"MapReference":{"ReferenceId":"546858787","Spot":0.32,"SideOfStreet":"right","CountryId":"20000001","StateId":"20068992","CountyId":"20068993","CityId":"20069523","AddressId":"323353782","RoadLinkId":"151821430"}}},{"Relevance":1.0,"Distance":45.6,"MatchLevel":"street","MatchQuality":{"Country":1.0,"State":1.0,"County":1.0,"City":1.0,"PostalCode":1.0},"Location":{"LocationId":"NT_RQiHx5mTDmUP7ubMJuXUdC_l_546858812_R","LocationType":"point","DisplayPosition":{"Latitude":47.36078,"Longitude":-1.40869},"MapView":{"TopLeft":{"Latitude":47.36086,"Longitude":-1.40875},"BottomRight":{"Latitude":47.36078,"Longitude":-1.40869}},"Address":{"Label":"44850 Saint-Mars-du-Désert, France","Country":"FRA","State":"Pays de la Loire","County":"Loire-Atlantique","City":"Saint-Mars-du-Désert","PostalCode":"44850","AdditionalData":[{"value":"France","key":"CountryName"},{"value":"Pays de la Loire","key":"StateName"},{"value":"Loire-Atlantique","key":"CountyName"}]},"MapReference":{"ReferenceId":"546858812","Spot":0.0,"SideOfStreet":"right","CountryId":"20000001","StateId":"20068992","CountyId":"20068993","CityId":"20069523"}}},{"Relevance":1.0,"Distance":47.5,"MatchLevel":"street","MatchQuality":{"Country":1.0,"State":1.0,"County":1.0,"City":1.0,"Street":[1.0],"PostalCode":1.0},"Location":{"LocationId":"NT_nfjFPp1i5CC9noj--qhP7B_l_546858816_R","LocationType":"point","DisplayPosition":{"Latitude":47.36086,"Longitude":-1.40875},"MapView":{"TopLeft":{"Latitude":47.36111,"Longitude":-1.40885},"BottomRight":{"Latitude":47.36086,"Longitude":-1.40875}},"Address":{"Label":"Allée de la Petite Chênée, 44850 Saint-Mars-du-Désert, France","Country":"FRA","State":"Pays de la Loire","County":"Loire-Atlantique","City":"Saint-Mars-du-Désert","Street":"Allée de la Petite Chênée","PostalCode":"44850","AdditionalData":[{"value":"France","key":"CountryName"},{"value":"Pays de la Loire","key":"StateName"},{"value":"Loire-Atlantique","key":"CountyName"}]},"MapReference":{"ReferenceId":"546858816","Spot":0.0,"SideOfStreet":"right","CountryId":"20000001","StateId":"20068992","CountyId":"20068993","CityId":"20069523"}}}]}]}}