{"Response":{"MetaInfo":{"Timestamp":"2020-03-28T10:14:40.378+0000","NextPageInformation":"2"},"View":[{"_type":"SearchResultsViewType","ViewId":0,"Result":[{"Relevance":1.0,"Distance":0.0,"Direction":0.0,"MatchLevel":"district","MatchQuality":{"Country":1.0,"State":1.0,"County":1.0,"City":1.0,"District":1.0,"PostalCode":1.0},"Location":{"LocationId":"NT_YQwFQDhpbAjLBzjrxJYk6D","LocationType":"point","DisplayPosition":{"Latitude":47.3056772,"Longitude":10.9651993},"MapView":{"TopLeft":{"Latitude":47.31068,"Longitude":10.96108},"BottomRight":{"Latitude":47.3022,"Longitude":10.97325}},"Address":{"Label":"Barwies, Mieming, Tirol, Österreich","Country":"AUT","State":"Tirol","County":"Imst","City":"Mieming","District":"Barwies","PostalCode":"6414","AdditionalData":[{"value":"Österreich","key":"CountryName"},{"value":"Tirol","key":"StateName"},{"value":"Imst","key":"CountyName"}]},"MapReference":{"ReferenceId":"834250882","SideOfStreet":"neither","CountryId":"20128885","StateId":"20136826","CountyId":"20136833","CityId":"20220617","DistrictId":"20448511"}}},{"Relevance":1.0,"Distance":10.1,"MatchLevel":"houseNumber","MatchQuality":{"Country":1.0,"State":1.0,"County":1.0,"City":1.0,"District":1.0,"Street":[1.0],"HouseNumber":1.0,"PostalCode":1.0},"MatchType":"interpolated","Location":{"LocationId":"NT_MqEKRimsrk2p1EIubM46nA_ycTM","LocationType":"point","DisplayPosition":{"Latitude":47.30558,"Longitude":10.96544},"MapView":{"TopLeft":{"Latitude":47.3067042,"Longitude":10.9637822},"BottomRight":{"Latitude":47.3044558,"Longitude":10.9670978}},"Address":{"Label":"Barwies 271, 6414 Mieming, Österreich","Country":"AUT","State":"Tirol","County":"Imst","City":"Mieming","District":"Barwies","Street":"Barwies","HouseNumber":"271","PostalCode":"6414","AdditionalData":[{"value":"Österreich","key":"CountryName"},{"value":"Tirol","key":"StateName"},{"value":"Imst","key":"CountyName"}]},"MapReference":{"ReferenceId":"62770191","Spot":0.49,"SideOfStreet":"left","CountryId":"20128885","StateId":"20136826","CountyId":"20136833","CityId":"20220617","DistrictId":"20448511","AddressId":"161470571","RoadLinkId":"27808122"}}},{"Relevance":1.0,"Distance":25.3,"MatchLevel":"street","MatchQuality":{"Country":1.0,"State":1.0,"County":1.0,"City":1.0,"District":1.0,"Street":[1.0],"PostalCode":1.0},"Location":{"LocationId":"NT_jjjkjOda.UjkMkqEBH7wHB_l_62770188_R","LocationType":"point","DisplayPosition":{"Latitude":47.3054539,"Longitude":10.9651347},"MapView":{"TopLeft":{"Latitude":47.30579,"Longitude":10.96434},"BottomRight":{"Latitude":47.30538,"Longitude":10.96539}},"Address":{"Label":"Föhrenweg, 6414 Mieming, Österreich","Country":"AUT","State":"Tirol","County":"Imst","City":"Mieming","District":"Barwies","Street":"Föhrenweg","PostalCode":"6414","AdditionalData":[{"value":"Österreich","key":"CountryName"},{"value":"Tirol","key":"StateName"},{"value":"Imst","key":"CountyName"}]},"MapReference":{"ReferenceId":"62770188","Spot":0.23,"SideOfStreet":"right","CountryId":"20128885","StateId":"20136826","CountyId":"20136833","CityId":"20220617","DistrictId":"20448511"}}},{"Relevance":1.0,"Distance":33.1,"MatchLevel":"houseNumber","MatchQuality":{"Country":1.0,"State":1.0,"County":1.0,"City":1.0,"District":1.0,"Street":[1.0],"HouseNumber":1.0,"PostalCode":1.0},"MatchType":"interpolated","Location":{"LocationId":"NT_m3HZnJH7zUEtlm0TUc306B_yA","LocationType":"point","DisplayPosition":{"Latitude":47.30578,"Longitude":10.96559},"MapView":{"TopLeft":{"Latitude":47.3069042,"Longitude":10.9639322},"BottomRight":{"Latitude":47.3046558,"Longitude":10.9672478}},"Address":{"Label":"Dr.-Siegfried-Gapp-Weg 2, 6414 Mieming, Österreich","Country":"AUT","State":"Tirol","County":"Imst","City":"Mieming","District":"Barwies","Street":"Dr.-Siegfried-Gapp-Weg","HouseNumber":"2","PostalCode":"6414","AdditionalData":[{"value":"Österreich","key":"CountryName"},{"value":"Tirol","key":"StateName"},{"value":"Imst","key":"CountyName"}]},"MapReference":{"ReferenceId":"62770189","Spot":0.88,"SideOfStreet":"left","CountryId":"20128885","StateId":"20136826","CountyId":"20136833","CityId":"20220617","DistrictId":"20448511","AddressId":"768318655","RoadLinkId":"205838759"}}},{"Relevance":1.0,"Distance":36.3,"MatchLevel":"houseNumber","MatchQuality":{"Country":1.0,"State":1.0,"County":1.0,"City":1.0,"District":1.0,"Street":[1.0],"HouseNumber":1.0,"PostalCode":1.0},"MatchType":"interpolated","Location":{"LocationId":"NT_MqEKRimsrk2p1EIubM46nA_ycjM","LocationType":"point","DisplayPosition":{"Latitude":47.30587,"Longitude":10.96481},"MapView":{"TopLeft":{"Latitude":47.3069942,"Longitude":10.9631522},"BottomRight":{"Latitude":47.3047458,"Longitude":10.9664678}},"Address":{"Label":"Barwies 272, 6414 Mieming, Österreich","Country":"AUT","State":"Tirol","County":"Imst","City":"Mieming","District":"Barwies","Street":"Barwies","HouseNumber":"272","PostalCode":"6414","AdditionalData":[{"value":"Österreich","key":"CountryName"},{"value":"Tirol","key":"StateName"},{"value":"Imst","key":"CountyName"}]},"MapReference":{"ReferenceId":"62770190","Spot":0.42,"SideOfStreet":"right","CountryId":"20128885","StateId":"20136826","CountyId":"20136833","CityId":"20220617","DistrictId":"20448511","AddressId":"161469448","RoadLinkId":"27969890"}}},{"Relevance":1.0,"Distance":51.1,"MatchLevel":"houseNumber","MatchQuality":{"Country":1.0,"State":1.0,"County":1.0,"City":1.0,"District":1.0,"Street":[1.0],"HouseNumber":1.0,"PostalCode":1.0},"MatchType":"interpolated","Location":{"LocationId":"NT_jjjkjOda.UjkMkqEBH7wHB_l_62770187_R_yYzN","LocationType":"point","DisplayPosition":{"Latitude":47.305231,"Longitude":10.96536},"MapView":{"TopLeft":{"Latitude":47.3063552,"Longitude":10.9637022},"BottomRight":{"Latitude":47.3041069,"Longitude":10.9670178}},"Address":{"Label":"Föhrenweg 267, 6414 Mieming, Österreich","Country":"AUT","State":"Tirol","County":"Imst","City":"Mieming","District":"Barwies","Street":"Föhrenweg","HouseNumber":"267","PostalCode":"6414","AdditionalData":[{"value":"Österreich","key":"CountryName"},{"value":"Tirol","key":"StateName"},{"value":"Imst","key":"CountyName"}]},"MapReference":{"ReferenceId":"62770187","Spot":0.5,"SideOfStreet":"right","CountryId":"20128885","StateId":"20136826","CountyId":"20136833","CityId":"20220617","DistrictId":"20448511"}}},{"Relevance":1.0,"Distance":67.2,"MatchLevel":"houseNumber","MatchQuality":{"Country":1.0,"State":1.0,"County":1.0,"City":1.0,"District":1.0,"Street":[1.0],"HouseNumber":1.0,"PostalCode":1.0},"MatchType":"interpolated","Location":{"LocationId":"NT_MqEKRimsrk2p1EIubM46nA_yYDO","LocationType":"point","DisplayPosition":{"Latitude":47.30508,"Longitude":10.96534},"MapView":{"TopLeft":{"Latitude":47.3062042,"Longitude":10.9636822},"BottomRight":{"Latitude":47.3039558,"Longitude":10.9669978}},"Address":{"Label":"Barwies 268, 6414 Mieming, Österreich","Country":"AUT","State":"Tirol","County":"Imst","City":"Mieming","District":"Barwies","Street":"Barwies","HouseNumber":"268","PostalCode":"6414","AdditionalData":[{"value":"Österreich","key":"CountryName"},{"value":"Tirol","key":"StateName"},{"value":"Imst","key":"CountyName"}]},"MapReference":{"ReferenceId":"834250886","Spot":1.0,"SideOfStreet":"right","CountryId":"20128885","StateId":"20136826","CountyId":"20136833","CityId":"20220617","DistrictId":"20448511","AddressId":"161469435","RoadLinkId":"217476066"}}},{"Relevance":1.0,"Distance":71.2,"MatchLevel":"houseNumber","MatchQuality":{"Country":1.0,"State":1.0,"County":1.0,"City":1.0,"District":1.0,"Street":[1.0],"HouseNumber":1.0,"PostalCode":1.0},"MatchType":"interpolated","Location":{"LocationId":"NT_wKB0rFRpicM0fdNlWeNs7C_l_834250885_L_ycDM","LocationType":"point","DisplayPosition":{"Latitude":47.3049913,"Longitude":10.9647553},"MapView":{"TopLeft":{"Latitude":47.3061155,"Longitude":10.9630975},"BottomRight":{"Latitude":47.3038672,"Longitude":10.9664131}},"Address":{"Label":"Barwies 270, 6414 Mieming, Österreich","Country":"AUT","State":"Tirol","County":"Imst","City":"Mieming","District":"Barwies","Street":"Barwies","HouseNumber":"270","PostalCode":"6414","AdditionalData":[{"value":"Österreich","key":"CountryName"},{"value":"Tirol","key":"StateName"},{"value":"Imst","key":"CountyName"}]},"MapReference":{"ReferenceId":"834250885","Spot":0.51,"SideOfStreet":"left","CountryId":"20128885","StateId":"20136826","CountyId":"20136833","CityId":"20220617","DistrictId":"20448511"}}},{"Relevance":1.0,"Distance":80.6,"MatchLevel":"houseNumber","MatchQuality":{"Country":1.0,"State":1.0,"County":1.0,"City":1.0,"District":1.0,"Street":[1.0],"HouseNumber":1.0,"PostalCode":1.0},"MatchType":"interpolated","Location":{"LocationId":"NT_MqEKRimsrk2p1EIubM46nA_yczM","LocationType":"point","DisplayPosition":{"Latitude":47.30594,"Longitude":10.96413},"MapView":{"TopLeft":{"Latitude":47.3070642,"Longitude":10.9624722},"BottomRight":{"Latitude":47.3048158,"Longitude":10.9657878}},"Address":{"Label":"Barwies 273, 6414 Mieming, Österreich","Country":"AUT","State":"Tirol","County":"Imst","City":"Mieming","District":"Barwies","Street":"Barwies","HouseNumber":"273","PostalCode":"6414","AdditionalData":[{"value":"Österreich","key":"CountryName"},{"value":"Tirol","key":"StateName"},{"value":"Imst","key":"CountyName"}]},"MapReference":{"ReferenceId":"565272367","Spot":0.24,"SideOfStreet":"right","CountryId":"20128885","StateId":"20136826","CountyId":"20136833","CityId":"20220617","DistrictId":"20448511","AddressId":"161470573","RoadLinkId":"28043672"}}},{"Relevance":1.0,"Distance":82.8,"MatchLevel":"houseNumber","MatchQuality":{"Country":1.0,"State":1.0,"County":1.0,"City":1.0,"District":1.0,"Street":[1.0],"HouseNumber":1.0,"PostalCode":1.0},"MatchType":"interpolated","Location":{"LocationId":"NT_MqEKRimsrk2p1EIubM46nA_yYjN","LocationType":"point","DisplayPosition":{"Latitude":47.30537,"Longitude":10.9662},"MapView":{"TopLeft":{"Latitude":47.3064942,"Longitude":10.9645422},"BottomRight":{"Latitude":47.3042458,"Longitude":10.9678578}},"Address":{"Label":"Barwies 266, 6414 Mieming, Österreich","Country":"AUT","State":"Tirol","County":"Imst","City":"Mieming","District":"Barwies","Street":"Barwies","HouseNumber":"266","PostalCode":"6414","AdditionalData":[{"value":"Österreich","key":"CountryName"},{"value":"Tirol","key":"StateName"},{"value":"Imst","key":"CountyName"}]},"MapReference":{"ReferenceId":"565265766","Spot":0.57,"SideOfStreet":"right","CountryId":"20128885","StateId":"20136826","CountyId":"20136833","CityId":"20220617","DistrictId":"20448511","AddressId":"161470569","RoadLinkId":"28520658"}}}]}]}}