{"Response":{"MetaInfo":{"Timestamp":"2020-03-28T10:42:27.665+0000","NextPageInformation":"2"},"View":[{"_type":"SearchResultsViewType","ViewId":0,"Result":[{"Relevance":1.0,"Distance":0.0,"Direction":0.0,"MatchLevel":"district","MatchQuality":{"Country":1.0,"State":1.0,"County":1.0,"City":1.0,"District":1.0,"PostalCode":1.0},"Location":{"LocationId":"NT_m2YRBHtc2i3L159ED6lNLC","LocationType":"point","DisplayPosition":{"Latitude":47.3623964,"Longitude":17.8867289},"MapView":{"TopLeft":{"Latitude":47.37335,"Longitude":17.87479},"BottomRight":{"Latitude":47.35622,"Longitude":17.8948}},"Address":{"Label":"Bakonyszentkirály, Veszprém, Magyarország","Country":"HUN","State":"Veszprém","County":"Zirci Járás","City":"Bakonyszentkirály","District":"Bakonyszentkirály","PostalCode":"8430","AdditionalData":[{"value":"Magyarország","key":"CountryName"},{"value":"Veszprém","key":"StateName"},{"value":"Zirci Járás","key":"CountyName"}]},"MapReference":{"ReferenceId":"948711800","SideOfStreet":"neither","CountryId":"20613038","StateId":"20622272","CountyId":"26680462","CityId":"20622362","DistrictId":"26680650"}}},{"Relevance":1.0,"Distance":15.3,"MatchLevel":"houseNumber","MatchQuality":{"Country":1.0,"State":1.0,"County":1.0,"City":1.0,"District":1.0,"Street":[1.0],"HouseNumber":1.0,"PostalCode":1.0},"MatchType":"interpolated","Location":{"LocationId":"NT_oHIDJ4bSDKdW6UO9Y6nIXA_0A","LocationType":"point","DisplayPosition":{"Latitude":47.36239,"Longitude":17.88692},"MapView":{"TopLeft":{"Latitude":47.3635142,"Longitude":17.8852604},"BottomRight":{"Latitude":47.3612658,"Longitude":17.8885796}},"Address":{"Label":"Kossuth utca 4, Bakonyszentkirály 8430, Magyarország","Country":"HUN","State":"Veszprém","County":"Zirci Járás","City":"Bakonyszentkirály","District":"Bakonyszentkirály","Street":"Kossuth utca","HouseNumber":"4","PostalCode":"8430","AdditionalData":[{"value":"Magyarország","key":"CountryName"},{"value":"Veszprém","key":"StateName"},{"value":"Zirci Járás","key":"CountyName"}]},"MapReference":{"ReferenceId":"598406256","Spot":0.09,"SideOfStreet":"left","CountryId":"20613038","StateId":"20622272","CountyId":"26680462","CityId":"20622362","DistrictId":"26680650","AddressId":"356809157","RoadLinkId":"60745724"}}},{"Relevance":1.0,"Distance":36.4,"MatchLevel":"houseNumber","MatchQuality":{"Country":1.0,"State":1.0,"County":1.0,"City":1.0,"District":1.0,"Street":[1.0],"HouseNumber":1.0,"PostalCode":1.0},"MatchType":"interpolated","Location":{"LocationId":"NT_bQTleXjcMYvj9C.hxtcpWA_xA","LocationType":"point","DisplayPosition":{"Latitude":47.36198,"Longitude":17.88693},"MapView":{"TopLeft":{"Latitude":47.3631042,"Longitude":17.8852704},"BottomRight":{"Latitude":47.3608558,"Longitude":17.8885896}},"Address":{"Label":"Jókai utca 1, Bakonyszentkirály 8430, Magyarország","Country":"HUN","State":"Veszprém","County":"Zirci Járás","City":"Bakonyszentkirály","District":"Bakonyszentkirály","Street":"Jókai utca","HouseNumber":"1","PostalCode":"8430","AdditionalData":[{"value":"Magyarország","key":"CountryName"},{"value":"Veszprém","key":"StateName"},{"value":"Zirci Járás","key":"CountyName"}]},"MapReference":{"ReferenceId":"598406332","Spot":0.9,"SideOfStreet":"left","CountryId":"20613038","StateId":"20622272","CountyId":"26680462","CityId":"20622362","DistrictId":"26680650","AddressId":"356482253","RoadLinkId":"60356336"}}},{"Relevance":1.0,"Distance":60.3,"MatchLevel":"houseNumber","MatchQuality":{"Country":1.0,"State":1.0,"County":1.0,"City":1.0,"District":1.0,"Street":[1.0],"HouseNumber":1.0,"PostalCode":1.0},"MatchType":"interpolated","Location":{"LocationId":"NT_oHIDJ4bSDKdW6UO9Y6nIXA_0ED","LocationType":"point","DisplayPosition":{"Latitude":47.36216,"Longitude":17.88745},"MapView":{"TopLeft":{"Latitude":47.3632842,"Longitude":17.8857904},"BottomRight":{"Latitude":47.3610358,"Longitude":17.8891096}},"Address":{"Label":"Kossuth utca 41, Bakonyszentkirály 8430, Magyarország","Country":"HUN","State":"Veszprém","County":"Zirci Járás","City":"Bakonyszentkirály","District":"Bakonyszentkirály","Street":"Kossuth utca","HouseNumber":"41","PostalCode":"8430","AdditionalData":[{"value":"Magyarország","key":"CountryName"},{"value":"Veszprém","key":"StateName"},{"value":"Zirci Járás","key":"CountyName"}]},"MapReference":{"ReferenceId":"598406286","Spot":0.92,"SideOfStreet":"right","CountryId":"20613038","StateId":"20622272","CountyId":"26680462","CityId":"20622362","DistrictId":"26680650","AddressId":"356879038","RoadLinkId":"60475487"}}},{"Relevance":1.0,"Distance":96.2,"MatchLevel":"houseNumber","MatchQuality":{"Country":1.0,"State":1.0,"County":1.0,"City":1.0,"District":1.0,"Street":[1.0],"HouseNumber":1.0,"PostalCode":1.0},"MatchType":"interpolated","Location":{"LocationId":"NT_oHIDJ4bSDKdW6UO9Y6nIXA_xQD","LocationType":"point","DisplayPosition":{"Latitude":47.36229,"Longitude":17.88524},"MapView":{"TopLeft":{"Latitude":47.3634142,"Longitude":17.8835804},"BottomRight":{"Latitude":47.3611658,"Longitude":17.8868996}},"Address":{"Label":"Kossuth utca 14, Bakonyszentkirály 8430, Magyarország","Country":"HUN","State":"Veszprém","County":"Zirci Járás","City":"Bakonyszentkirály","District":"Bakonyszentkirály","Street":"Kossuth utca","HouseNumber":"14","PostalCode":"8430","AdditionalData":[{"value":"Magyarország","key":"CountryName"},{"value":"Veszprém","key":"StateName"},{"value":"Zirci Járás","key":"CountyName"}]},"MapReference":{"ReferenceId":"598406265","Spot":0.27,"SideOfStreet":"right","CountryId":"20613038","StateId":"20622272","CountyId":"26680462","CityId":"20622362","DistrictId":"26680650","AddressId":"355366845","RoadLinkId":"60628825"}}},{"Relevance":1.0,"Distance":126.9,"MatchLevel":"street","MatchQuality":{"Country":1.0,"State":1.0,"County":1.0,"City":1.0,"District":1.0,"PostalCode":1.0},"Location":{"LocationId":"NT_olbCVHk9GKqR4x.4-se0kA_l_598406333_R","LocationType":"point","DisplayPosition":{"Latitude":47.36177,"Longitude":17.88532},"MapView":{"TopLeft":{"Latitude":47.36191,"Longitude":17.88493},"BottomRight":{"Latitude":47.35923,"Longitude":17.88532}},"Address":{"Label":"Bakonyszentkirály 8430, Magyarország","Country":"HUN","State":"Veszprém","County":"Zirci Járás","City":"Bakonyszentkirály","District":"Bakonyszentkirály","PostalCode":"8430","AdditionalData":[{"value":"Magyarország","key":"CountryName"},{"value":"Veszprém","key":"StateName"},{"value":"Zirci Járás","key":"CountyName"}]},"MapReference":{"ReferenceId":"598406333","Spot":0.94,"SideOfStreet":"right","CountryId":"20613038","StateId":"20622272","CountyId":"26680462","CityId":"20622362","DistrictId":"26680650"}}},{"Relevance":1.0,"Distance":186.3,"MatchLevel":"houseNumber","MatchQuality":{"Country":1.0,"State":1.0,"County":1.0,"City":1.0,"District":1.0,"Street":[1.0],"HouseNumber":1.0,"PostalCode":1.0},"MatchType":"interpolated","Location":{"LocationId":"NT_oHIDJ4bSDKdW6UO9Y6nIXA_2MD","LocationType":"point","DisplayPosition":{"Latitude":47.36314,"Longitude":17.8845},"MapView":{"TopLeft":{"Latitude":47.3642642,"Longitude":17.8828404},"BottomRight":{"Latitude":47.3620158,"Longitude":17.8861596}},"Address":{"Label":"Kossuth utca 63, Bakonyszentkirály 8430, Magyarország","Country":"HUN","State":"Veszprém","County":"Zirci Járás","City":"Bakonyszentkirály","District":"Bakonyszentkirály","Street":"Kossuth utca","HouseNumber":"63","PostalCode":"8430","AdditionalData":[{"value":"Magyarország","key":"CountryName"},{"value":"Veszprém","key":"StateName"},{"value":"Zirci Járás","key":"CountyName"}]},"MapReference":{"ReferenceId":"948711797","Spot":0.25,"SideOfStreet":"right","CountryId":"20613038","StateId":"20622272","CountyId":"26680462","CityId":"20622362","DistrictId":"26680650","AddressId":"357597816","RoadLinkId":"295788880"}}},{"Relevance":1.0,"Distance":211.6,"MatchLevel":"street","MatchQuality":{"Country":1.0,"State":1.0,"County":1.0,"City":1.0,"District":1.0,"Street":[1.0],"PostalCode":1.0},"Location":{"LocationId":"NT_oHIDJ4bSDKdW6UO9Y6nIXA_l_598406323_L","LocationType":"point","DisplayPosition":{"Latitude":47.3610019,"Longitude":17.8886411},"MapView":{"TopLeft":{"Latitude":47.36159,"Longitude":17.88775},"BottomRight":{"Latitude":47.35978,"Longitude":17.89137}},"Address":{"Label":"Kossuth utca, Bakonyszentkirály 8430, Magyarország","Country":"HUN","State":"Veszprém","County":"Zirci Járás","City":"Bakonyszentkirály","District":"Bakonyszentkirály","Street":"Kossuth utca","PostalCode":"8430","AdditionalData":[{"value":"Magyarország","key":"CountryName"},{"value":"Veszprém","key":"StateName"},{"value":"Zirci Járás","key":"CountyName"}]},"MapReference":{"ReferenceId":"598406323","Spot":0.33,"SideOfStreet":"left","CountryId":"20613038","StateId":"20622272","CountyId":"26680462","CityId":"20622362","DistrictId":"26680650"}}},{"Relevance":1.0,"Distance":244.7,"MatchLevel":"houseNumber","MatchQuality":{"Country":1.0,"State":1.0,"County":1.0,"City":1.0,"District":1.0,"Street":[1.0],"HouseNumber":1.0,"PostalCode":1.0},"MatchType":"interpolated","Location":{"LocationId":"NT_oHIDJ4bSDKdW6UO9Y6nIXA_2cD","LocationType":"point","DisplayPosition":{"Latitude":47.36338,"Longitude":17.88383},"MapView":{"TopLeft":{"Latitude":47.3645042,"Longitude":17.8821704},"BottomRight":{"Latitude":47.3622558,"Longitude":17.8854896}},"Address":{"Label":"Kossuth utca 67, Bakonyszentkirály 8430, Magyarország","Country":"HUN","State":"Veszprém","County":"Zirci Járás","City":"Bakonyszentkirály","District":"Bakonyszentkirály","Street":"Kossuth utca","HouseNumber":"67","PostalCode":"8430","AdditionalData":[{"value":"Magyarország","key":"CountryName"},{"value":"Veszprém","key":"StateName"},{"value":"Zirci Járás","key":"CountyName"}]},"MapReference":{"ReferenceId":"948711798","Spot":0.37,"SideOfStreet":"right","CountryId":"20613038","StateId":"20622272","CountyId":"26680462","CityId":"20622362","DistrictId":"26680650","AddressId":"357597814","RoadLinkId":"295788881"}}},{"Relevance":1.0,"Distance":266.9,"MatchLevel":"houseNumber","MatchQuality":{"Country":1.0,"State":1.0,"County":1.0,"City":1.0,"District":1.0,"Street":[1.0],"HouseNumber":1.0,"PostalCode":1.0},"MatchType":"interpolated","Location":{"LocationId":"NT_6J5rxJUJsm8tysO8xmy.gA_xcD","LocationType":"point","DisplayPosition":{"Latitude":47.36467,"Longitude":17.88531},"MapView":{"TopLeft":{"Latitude":47.3657942,"Longitude":17.8836503},"BottomRight":{"Latitude":47.3635458,"Longitude":17.8869697}},"Address":{"Label":"Kútvölgy dűlő 17, Bakonyszentkirály 8430, Magyarország","Country":"HUN","State":"Veszprém","County":"Zirci Járás","City":"Bakonyszentkirály","District":"Bakonyszentkirály","Street":"Kútvölgy dűlő","HouseNumber":"17","PostalCode":"8430","AdditionalData":[{"value":"Magyarország","key":"CountryName"},{"value":"Veszprém","key":"StateName"},{"value":"Zirci Járás","key":"CountyName"}]},"MapReference":{"ReferenceId":"598406208","Spot":0.26,"SideOfStreet":"right","CountryId":"20613038","StateId":"20622272","CountyId":"26680462","CityId":"20622362","DistrictId":"26680650","AddressId":"354960369","RoadLinkId":"60596314"}}}]}]}}