{"Response":{"MetaInfo":{"Timestamp":"2020-03-28T11:11:29.791+0000","NextPageInformation":"2"},"View":[{"_type":"SearchResultsViewType","ViewId":0,"Result":[{"Relevance":1.0,"Distance":0.0,"Direction":0.0,"MatchLevel":"city","MatchQuality":{"Country":1.0,"State":1.0,"County":1.0,"City":1.0,"PostalCode":1.0},"Location":{"LocationId":"NT_cEEka-wfPBNMlOq4fNw07C","LocationType":"point","DisplayPosition":{"Latitude":47.3340105,"Longitude":-2.432822},"MapView":{"TopLeft":{"Latitude":47.38958,"Longitude":-2.51123},"BottomRight":{"Latitude":47.28213,"Longitude":-2.31517}},"Address":{"Label":"Guérande, Pays de la Loire, France","Country":"FRA","State":"Pays de la Loire","County":"Loire-Atlantique","City":"Guérande","PostalCode":"44350","AdditionalData":[{"value":"France","key":"CountryName"},{"value":"Pays de la Loire","key":"StateName"},{"value":"Loire-Atlantique","key":"CountyName"}]},"MapReference":{"ReferenceId":"59352298","SideOfStreet":"neither","CountryId":"20000001","StateId":"20068992","CountyId":"20068993","CityId":"20069199"}}},{"Relevance":1.0,"Distance":15.3,"MatchLevel":"houseNumber","MatchQuality":{"Country":1.0,"State":1.0,"County":1.0,"City":1.0,"Street":[1.0],"HouseNumber":1.0,"PostalCode":1.0},"MatchType":"interpolated","Location":{"LocationId":"NT_wx9u3gg5vyAc4rNAL--eRB_ycD","LocationType":"point","DisplayPosition":{"Latitude":47.33399,"Longitude":-2.43261},"MapView":{"TopLeft":{"Latitude":47.3351142,"Longitude":-2.4342687},"BottomRight":{"Latitude":47.3328658,"Longitude":-2.4309513}},"Address":{"Label":"27 Rue de Mesquer, 44350 Guérande, France","Country":"FRA","State":"Pays de la Loire","County":"Loire-Atlantique","City":"Guérande","Street":"Rue de Mesquer","HouseNumber":"27","PostalCode":"44350","AdditionalData":[{"value":"France","key":"CountryName"},{"value":"Pays de la Loire","key":"StateName"},{"value":"Loire-Atlantique","key":"CountyName"}]},"MapReference":{"ReferenceId":"59319117","Spot":0.91,"SideOfStreet":"left","CountryId":"20000001","StateId":"20068992","CountyId":"20068993","CityId":"20069199","AddressId":"323633799","RoadLinkId":"47446195"}}},{"Relevance":1.0,"Distance":21.6,"MatchLevel":"houseNumber","MatchQuality":{"Country":1.0,"State":1.0,"County":1.0,"City":1.0,"Street":[1.0],"HouseNumber":1.0,"PostalCode":1.0},"MatchType":"interpolated","Location":{"LocationId":"NT_wx9u3gg5vyAc4rNAL--eRB_l_59319111_L_ycD","LocationType":"point","DisplayPosition":{"Latitude":47.334181,"Longitude":-2.43255},"MapView":{"TopLeft":{"Latitude":47.3353052,"Longitude":-2.4342087},"BottomRight":{"Latitude":47.3330569,"Longitude":-2.4308913}},"Address":{"Label":"27 Rue de Mesquer, 44350 Guérande, France","Country":"FRA","State":"Pays de la Loire","County":"Loire-Atlantique","City":"Guérande","Street":"Rue de Mesquer","HouseNumber":"27","PostalCode":"44350","AdditionalData":[{"value":"France","key":"CountryName"},{"value":"Pays de la Loire","key":"StateName"},{"value":"Loire-Atlantique","key":"CountyName"}]},"MapReference":{"ReferenceId":"59319111","Spot":0.51,"SideOfStreet":"left","CountryId":"20000001","StateId":"20068992","CountyId":"20068993","CityId":"20069199"}}},{"Relevance":1.0,"Distance":30.0,"MatchLevel":"houseNumber","MatchQuality":{"Country":1.0,"State":1.0,"County":1.0,"City":1.0,"Street":[1.0],"HouseNumber":1.0,"PostalCode":1.0},"MatchType":"interpolated","Location":{"LocationId":"NT_Mv3Yu1aURtk5N0QzgNCu6D_xA","LocationType":"point","DisplayPosition":{"Latitude":47.33429,"Longitude":-2.43293},"MapView":{"TopLeft":{"Latitude":47.3354142,"Longitude":-2.4345887},"BottomRight":{"Latitude":47.3331658,"Longitude":-2.4312713}},"Address":{"Label":"1 Avenue de Léchet, 44350 Guérande, France","Country":"FRA","State":"Pays de la Loire","County":"Loire-Atlantique","City":"Guérande","Street":"Avenue de Léchet","HouseNumber":"1","PostalCode":"44350","AdditionalData":[{"value":"France","key":"CountryName"},{"value":"Pays de la Loire","key":"StateName"},{"value":"Loire-Atlantique","key":"CountyName"}]},"MapReference":{"ReferenceId":"59319096","Spot":0.17,"SideOfStreet":"right","CountryId":"20000001","StateId":"20068992","CountyId":"20068993","CityId":"20069199","AddressId":"323895506","RoadLinkId":"46875796"}}},{"Relevance":1.0,"Distance":31.8,"MatchLevel":"houseNumber","MatchQuality":{"Country":1.0,"State":1.0,"County":1.0,"City":1.0,"Street":[1.0],"HouseNumber":1.0,"PostalCode":1.0},"MatchType":"interpolated","Location":{"LocationId":"NT_Mv3Yu1aURtk5N0QzgNCu6D_zA","LocationType":"point","DisplayPosition":{"Latitude":47.33424,"Longitude":-2.43312},"MapView":{"TopLeft":{"Latitude":47.3353642,"Longitude":-2.4347787},"BottomRight":{"Latitude":47.3331158,"Longitude":-2.4314613}},"Address":{"Label":"3 Avenue de Léchet, 44350 Guérande, France","Country":"FRA","State":"Pays de la Loire","County":"Loire-Atlantique","City":"Guérande","Street":"Avenue de Léchet","HouseNumber":"3","PostalCode":"44350","AdditionalData":[{"value":"France","key":"CountryName"},{"value":"Pays de la Loire","key":"StateName"},{"value":"Loire-Atlantique","key":"CountyName"}]},"MapReference":{"ReferenceId":"1166904957","Spot":0.85,"SideOfStreet":"right","CountryId":"20000001","StateId":"20068992","CountyId":"20068993","CityId":"20069199","AddressId":"323668084","RoadLinkId":"473480790"}}},{"Relevance":1.0,"Distance":34.3,"MatchLevel":"houseNumber","MatchQuality":{"Country":1.0,"State":1.0,"County":1.0,"City":1.0,"Street":[1.0],"HouseNumber":1.0,"PostalCode":1.0},"MatchType":"interpolated","Location":{"LocationId":"NT_wx9u3gg5vyAc4rNAL--eRB_yUD","LocationType":"point","DisplayPosition":{"Latitude":47.33383,"Longitude":-2.43243},"MapView":{"TopLeft":{"Latitude":47.3349542,"Longitude":-2.4340887},"BottomRight":{"Latitude":47.3327058,"Longitude":-2.4307713}},"Address":{"Label":"25 Rue de Mesquer, 44350 Guérande, France","Country":"FRA","State":"Pays de la Loire","County":"Loire-Atlantique","City":"Guérande","Street":"Rue de Mesquer","HouseNumber":"25","PostalCode":"44350","AdditionalData":[{"value":"France","key":"CountryName"},{"value":"Pays de la Loire","key":"StateName"},{"value":"Loire-Atlantique","key":"CountyName"}]},"MapReference":{"ReferenceId":"568453786","Spot":0.88,"SideOfStreet":"left","CountryId":"20000001","StateId":"20068992","CountyId":"20068993","CityId":"20069199","AddressId":"323688020","RoadLinkId":"46800287"}}},{"Relevance":1.0,"Distance":40.0,"MatchLevel":"street","MatchQuality":{"Country":1.0,"State":1.0,"County":1.0,"City":1.0,"PostalCode":1.0},"Location":{"LocationId":"NT_775PTpDxJ0ld.0snMvH8MA_l_568453783_L","LocationType":"point","DisplayPosition":{"Latitude":47.33434,"Longitude":-2.43261},"MapView":{"TopLeft":{"Latitude":47.33436,"Longitude":-2.43264},"BottomRight":{"Latitude":47.33433,"Longitude":-2.43256}},"Address":{"Label":"44350 Guérande, France","Country":"FRA","State":"Pays de la Loire","County":"Loire-Atlantique","City":"Guérande","PostalCode":"44350","AdditionalData":[{"value":"France","key":"CountryName"},{"value":"Pays de la Loire","key":"StateName"},{"value":"Loire-Atlantique","key":"CountyName"}]},"MapReference":{"ReferenceId":"568453783","Spot":0.59,"SideOfStreet":"left","CountryId":"20000001","StateId":"20068992","CountyId":"20068993","CityId":"20069199"}}},{"Relevance":1.0,"Distance":40.6,"MatchLevel":"street","MatchQuality":{"Country":1.0,"State":1.0,"County":1.0,"City":1.0,"PostalCode":1.0},"Location":{"LocationId":"NT_775PTpDxJ0ld.0snMvH8MA_l_568453784_R","LocationType":"point","DisplayPosition":{"Latitude":47.33433,"Longitude":-2.43256},"MapView":{"TopLeft":{"Latitude":47.3344,"Longitude":-2.43256},"BottomRight":{"Latitude":47.33433,"Longitude":-2.43247}},"Address":{"Label":"44350 Guérande, France","Country":"FRA","State":"Pays de la Loire","County":"Loire-Atlantique","City":"Guérande","PostalCode":"44350","AdditionalData":[{"value":"France","key":"CountryName"},{"value":"Pays de la Loire","key":"StateName"},{"value":"Loire-Atlantique","key":"CountyName"}]},"MapReference":{"ReferenceId":"568453784","Spot":0.0,"SideOfStreet":"right","CountryId":"20000001","StateId":"20068992","CountyId":"20068993","CityId":"20069199"}}},{"Relevance":1.0,"Distance":41.2,"MatchLevel":"street","MatchQuality":{"Country":1.0,"State":1.0,"County":1.0,"City":1.0,"PostalCode":1.0},"Location":{"LocationId":"NT_775PTpDxJ0ld.0snMvH8MA_l_568453782_L","LocationType":"point","DisplayPosition":{"Latitude":47.33436,"Longitude":-2.43264},"MapView":{"TopLeft":{"Latitude":47.33444,"Longitude":-2.43265},"BottomRight":{"Latitude":47.33436,"Longitude":-2.43262}},"Address":{"Label":"44350 Guérande, France","Country":"FRA","State":"Pays de la Loire","County":"Loire-Atlantique","City":"Guérande","PostalCode":"44350","AdditionalData":[{"value":"France","key":"CountryName"},{"value":"Pays de la Loire","key":"StateName"},{"value":"Loire-Atlantique","key":"CountyName"}]},"MapReference":{"ReferenceId":"568453782","Spot":0.0,"SideOfStreet":"left","CountryId":"20000001","StateId":"20068992","CountyId":"20068993","CityId":"20069199"}}},{"Relevance":1.0,"Distance":50.1,"MatchLevel":"street","MatchQuality":{"Country":1.0,"State":1.0,"County":1.0,"City":1.0,"Street":[1.0],"PostalCode":1.0},"Location":{"LocationId":"NT_sMJCha4Rn4337ZyA5z9G6A_l_833459321_L","LocationType":"point","DisplayPosition":{"Latitude":47.33444,"Longitude":-2.43262},"MapView":{"TopLeft":{"Latitude":47.33522,"Longitude":-2.43298},"BottomRight":{"Latitude":47.33444,"Longitude":-2.43262}},"Address":{"Label":"Rue de Mesquer, 44350 Guérande, France","Country":"FRA","State":"Pays de la Loire","County":"Loire-Atlantique","City":"Guérande","Street":"Rue de Mesquer","PostalCode":"44350","AdditionalData":[{"value":"France","key":"CountryName"},{"value":"Pays de la Loire","key":"StateName"},{"value":"Loire-Atlantique","key":"CountyName"}]},"MapReference":{"ReferenceId":"833459321","Spot":0.0,"SideOfStreet":"left","CountryId":"20000001","StateId":"20068992","CountyId":"20068993","CityId":"20069199"}}}]}]}}