{"Response":{"MetaInfo":{"Timestamp":"2020-03-28T12:02:04.365+0000","NextPageInformation":"2"},"View":[{"_type":"SearchResultsViewType","ViewId":0,"Result":[{"Relevance":1.0,"Distance":-2672.1,"MatchLevel":"landmark","MatchQuality":{"Country":1.0,"Name":1.0},"Location":{"LocationId":"NT_sR6HllXyxzE-XCjDDZcDAA","LocationType":"island","Name":"Csepel-sziget","DisplayPosition":{"Latitude":47.24476,"Longitude":18.94399},"MapView":{"TopLeft":{"Latitude":47.46111,"Longitude":18.87695},"BottomRight":{"Latitude":47.0284,"Longitude":19.10833}},"Address":{"Label":"Magyarország","Country":"HUN","AdditionalData":[{"value":"Magyarország","key":"CountryName"}]},"MapReference":{"CountryId":"20613038","PlaceId":"562496313"}}},{"Relevance":1.0,"Distance":0.0,"Direction":0.0,"MatchLevel":"district","MatchQuality":{"Country":1.0,"State":1.0,"County":1.0,"City":1.0,"District":1.0,"PostalCode":1.0},"Location":{"LocationId":"NT_zg-nLFa.oMI8cXnaekqDxD","LocationType":"point","DisplayPosition":{"Latitude":47.3232074,"Longitude":18.9991625},"MapView":{"TopLeft":{"Latitude":47.33585,"Longitude":18.98001},"BottomRight":{"Latitude":47.29351,"Longitude":19.03353}},"Address":{"Label":"Szigethalom, Pest, Magyarország","Country":"HUN","State":"Pest","County":"Szigetszentmiklósi Járás","City":"Szigethalom","District":"Szigethalom","PostalCode":"2315","AdditionalData":[{"value":"Magyarország","key":"CountryName"},{"value":"Pest","key":"StateName"},{"value":"Szigetszentmiklósi Járás","key":"CountyName"}]},"MapReference":{"ReferenceId":"583912988","SideOfStreet":"neither","CountryId":"20613038","StateId":"20619051","CountyId":"26678481","CityId":"20619495","DistrictId":"26678671"}}},{"Relevance":1.0,"Distance":8.4,"MatchLevel":"street","MatchQuality":{"Country":1.0,"State":1.0,"County":1.0,"City":1.0,"District":1.0,"Street":[1.0],"PostalCode":1.0},"Location":{"LocationId":"NT_7WshTMg07eIA4a1IIA7dTC_l_716778921_R","LocationType":"point","DisplayPosition":{"Latitude":47.3231407,"Longitude":18.9991097},"MapView":{"TopLeft":{"Latitude":47.32318,"Longitude":18.99906},"BottomRight":{"Latitude":47.32284,"Longitude":18.99949}},"Address":{"Label":"Szabadkai utca, Szigethalom 2315, Magyarország","Country":"HUN","State":"Pest","County":"Szigetszentmiklósi Járás","City":"Szigethalom","District":"Szigethalom","Street":"Szabadkai utca","PostalCode":"2315","AdditionalData":[{"value":"Magyarország","key":"CountryName"},{"value":"Pest","key":"StateName"},{"value":"Szigetszentmiklósi Járás","key":"CountyName"}]},"MapReference":{"ReferenceId":"716778921","Spot":0.88,"SideOfStreet":"right","CountryId":"20613038","StateId":"20619051","CountyId":"26678481","CityId":"20619495","DistrictId":"26678671"}}},{"Relevance":1.0,"Distance":46.4,"MatchLevel":"houseNumber","MatchQuality":{"Country":1.0,"State":1.0,"County":1.0,"City":1.0,"District":1.0,"Street":[1.0],"HouseNumber":1.0,"PostalCode":1.0},"MatchType":"interpolated","Location":{"LocationId":"NT_7WshTMg07eIA4a1IIA7dTC_2kD","LocationType":"point","DisplayPosition":{"Latitude":47.32352,"Longitude":18.99957},"MapView":{"TopLeft":{"Latitude":47.3246442,"Longitude":18.9979116},"BottomRight":{"Latitude":47.3223958,"Longitude":19.0012284}},"Address":{"Label":"Szabadkai utca 69, Szigethalom 2315, Magyarország","Country":"HUN","State":"Pest","County":"Szigetszentmiklósi Járás","City":"Szigethalom","District":"Szigethalom","Street":"Szabadkai utca","HouseNumber":"69","PostalCode":"2315","AdditionalData":[{"value":"Magyarország","key":"CountryName"},{"value":"Pest","key":"StateName"},{"value":"Szigetszentmiklósi Járás","key":"CountyName"}]},"MapReference":{"ReferenceId":"716778923","Spot":0.82,"SideOfStreet":"right","CountryId":"20613038","StateId":"20619051","CountyId":"26678481","CityId":"20619495","DistrictId":"26678671","AddressId":"355124810","RoadLinkId":"121760427"}}},{"Relevance":1.0,"Distance":47.4,"MatchLevel":"houseNumber","MatchQuality":{"Country":1.0,"State":1.0,"County":1.0,"City":1.0,"District":1.0,"Street":[1.0],"HouseNumber":1.0,"PostalCode":1.0},"MatchType":"interpolated","Location":{"LocationId":"NT_7WshTMg07eIA4a1IIA7dTC_2cD","LocationType":"point","DisplayPosition":{"Latitude":47.32362,"Longitude":18.99932},"MapView":{"TopLeft":{"Latitude":47.3247442,"Longitude":18.9976616},"BottomRight":{"Latitude":47.3224958,"Longitude":19.0009784}},"Address":{"Label":"Szabadkai utca 67, Szigethalom 2315, Magyarország","Country":"HUN","State":"Pest","County":"Szigetszentmiklósi Járás","City":"Szigethalom","District":"Szigethalom","Street":"Szabadkai utca","HouseNumber":"67","PostalCode":"2315","AdditionalData":[{"value":"Magyarország","key":"CountryName"},{"value":"Pest","key":"StateName"},{"value":"Szigetszentmiklósi Járás","key":"CountyName"}]},"MapReference":{"ReferenceId":"716778922","Spot":0.79,"SideOfStreet":"left","CountryId":"20613038","StateId":"20619051","CountyId":"26678481","CityId":"20619495","DistrictId":"26678671","AddressId":"119192484","RoadLinkId":"121760426"}}},{"Relevance":1.0,"Distance":50.4,"MatchLevel":"houseNumber","MatchQuality":{"Country":1.0,"State":1.0,"County":1.0,"City":1.0,"District":1.0,"Street":[1.0],"HouseNumber":1.0,"PostalCode":1.0},"MatchType":"interpolated","Location":{"LocationId":"NT_1ZHBCpAUrdFeFxtNdk1ucC_yAD","LocationType":"point","DisplayPosition":{"Latitude":47.32268,"Longitude":18.99877},"MapView":{"TopLeft":{"Latitude":47.3238042,"Longitude":18.9971116},"BottomRight":{"Latitude":47.3215558,"Longitude":19.0004284}},"Address":{"Label":"Dobó utca 20, Szigethalom 2315, Magyarország","Country":"HUN","State":"Pest","County":"Szigetszentmiklósi Járás","City":"Szigethalom","District":"Szigethalom","Street":"Dobó utca","HouseNumber":"20","PostalCode":"2315","AdditionalData":[{"value":"Magyarország","key":"CountryName"},{"value":"Pest","key":"StateName"},{"value":"Szigetszentmiklósi Járás","key":"CountyName"}]},"MapReference":{"ReferenceId":"583913114","Spot":0.56,"SideOfStreet":"right","CountryId":"20613038","StateId":"20619051","CountyId":"26678481","CityId":"20619495","DistrictId":"26678671","AddressId":"355325326","RoadLinkId":"60594234"}}},{"Relevance":1.0,"Distance":53.2,"MatchLevel":"houseNumber","MatchQuality":{"Country":1.0,"State":1.0,"County":1.0,"City":1.0,"District":1.0,"Street":[1.0],"HouseNumber":1.0,"PostalCode":1.0},"MatchType":"interpolated","Location":{"LocationId":"NT_7WshTMg07eIA4a1IIA7dTC_3ED","LocationType":"point","DisplayPosition":{"Latitude":47.32336,"Longitude":19.0},"MapView":{"TopLeft":{"Latitude":47.3244842,"Longitude":18.9983416},"BottomRight":{"Latitude":47.3222358,"Longitude":19.0016584}},"Address":{"Label":"Szabadkai utca 71, Szigethalom 2315, Magyarország","Country":"HUN","State":"Pest","County":"Szigetszentmiklósi Járás","City":"Szigethalom","District":"Szigethalom","Street":"Szabadkai utca","HouseNumber":"71","PostalCode":"2315","AdditionalData":[{"value":"Magyarország","key":"CountryName"},{"value":"Pest","key":"StateName"},{"value":"Szigetszentmiklósi Járás","key":"CountyName"}]},"MapReference":{"ReferenceId":"716778919","Spot":0.76,"SideOfStreet":"left","CountryId":"20613038","StateId":"20619051","CountyId":"26678481","CityId":"20619495","DistrictId":"26678671","AddressId":"357055539","RoadLinkId":"121760421"}}},{"Relevance":1.0,"Distance":60.5,"MatchLevel":"houseNumber","MatchQuality":{"Country":1.0,"State":1.0,"County":1.0,"City":1.0,"District":1.0,"Street":[1.0],"HouseNumber":1.0,"PostalCode":1.0},"MatchType":"interpolated","Location":{"LocationId":"NT_7WshTMg07eIA4a1IIA7dTC_l_716778920_R_2YD","LocationType":"point","DisplayPosition":{"Latitude":47.323671,"Longitude":18.9995817},"MapView":{"TopLeft":{"Latitude":47.3247951,"Longitude":18.9979233},"BottomRight":{"Latitude":47.3225468,"Longitude":19.0012401}},"Address":{"Label":"Szabadkai utca 66, Szigethalom 2315, Magyarország","Country":"HUN","State":"Pest","County":"Szigetszentmiklósi Járás","City":"Szigethalom","District":"Szigethalom","Street":"Szabadkai utca","HouseNumber":"66","PostalCode":"2315","AdditionalData":[{"value":"Magyarország","key":"CountryName"},{"value":"Pest","key":"StateName"},{"value":"Szigetszentmiklósi Járás","key":"CountyName"}]},"MapReference":{"ReferenceId":"716778920","Spot":0.55,"SideOfStreet":"right","CountryId":"20613038","StateId":"20619051","CountyId":"26678481","CityId":"20619495","DistrictId":"26678671"}}},{"Relevance":1.0,"Distance":81.8,"MatchLevel":"houseNumber","MatchQuality":{"Country":1.0,"State":1.0,"County":1.0,"City":1.0,"District":1.0,"Street":[1.0],"HouseNumber":1.0,"PostalCode":1.0},"MatchType":"interpolated","Location":{"LocationId":"NT_7WshTMg07eIA4a1IIA7dTC_2UD","LocationType":"point","DisplayPosition":{"Latitude":47.324,"Longitude":18.99917},"MapView":{"TopLeft":{"Latitude":47.3251242,"Longitude":18.9975116},"BottomRight":{"Latitude":47.3228758,"Longitude":19.0008284}},"Address":{"Label":"Szabadkai utca 65, Szigethalom 2315, Magyarország","Country":"HUN","State":"Pest","County":"Szigetszentmiklósi Járás","City":"Szigethalom","District":"Szigethalom","Street":"Szabadkai utca","HouseNumber":"65","PostalCode":"2315","AdditionalData":[{"value":"Magyarország","key":"CountryName"},{"value":"Pest","key":"StateName"},{"value":"Szigetszentmiklósi Járás","key":"CountyName"}]},"MapReference":{"ReferenceId":"716778924","Spot":0.77,"SideOfStreet":"left","CountryId":"20613038","StateId":"20619051","CountyId":"26678481","CityId":"20619495","DistrictId":"26678671","AddressId":"357087766","RoadLinkId":"121760423"}}},{"Relevance":1.0,"Distance":93.8,"MatchLevel":"houseNumber","MatchQuality":{"Country":1.0,"State":1.0,"County":1.0,"City":1.0,"District":1.0,"Street":[1.0],"HouseNumber":1.0,"PostalCode":1.0},"MatchType":"interpolated","Location":{"LocationId":"NT_1ZHBCpAUrdFeFxtNdk1ucC_xAD","LocationType":"point","DisplayPosition":{"Latitude":47.3234,"Longitude":18.99782},"MapView":{"TopLeft":{"Latitude":47.3245242,"Longitude":18.9961616},"BottomRight":{"Latitude":47.3222758,"Longitude":18.9994784}},"Address":{"Label":"Dobó utca 10, Szigethalom 2315, Magyarország","Country":"HUN","State":"Pest","County":"Szigetszentmiklósi Járás","City":"Szigethalom","District":"Szigethalom","Street":"Dobó utca","HouseNumber":"10","PostalCode":"2315","AdditionalData":[{"value":"Magyarország","key":"CountryName"},{"value":"Pest","key":"StateName"},{"value":"Szigetszentmiklósi Járás","key":"CountyName"}]},"MapReference":{"ReferenceId":"583913046","Spot":0.1,"SideOfStreet":"right","CountryId":"20613038","StateId":"20619051","CountyId":"26678481","CityId":"20619495","DistrictId":"26678671","AddressId":"356471425","RoadLinkId":"60392483"}}}]}]}}