{"Response":{"MetaInfo":{"Timestamp":"2020-03-28T10:14:32.989+0000","NextPageInformation":"2"},"View":[{"_type":"SearchResultsViewType","ViewId":0,"Result":[{"Relevance":1.0,"Distance":0.0,"Direction":0.0,"MatchLevel":"district","MatchQuality":{"Country":1.0,"State":1.0,"County":1.0,"City":1.0,"District":1.0,"PostalCode":1.0},"Location":{"LocationId":"NT_YQwFQDhpbAjLBzjrxJYk6D","LocationType":"point","DisplayPosition":{"Latitude":47.3062197,"Longitude":10.9658121},"MapView":{"TopLeft":{"Latitude":47.31068,"Longitude":10.96108},"BottomRight":{"Latitude":47.3022,"Longitude":10.97325}},"Address":{"Label":"Barwies, Mieming, Tirol, Österreich","Country":"AUT","State":"Tirol","County":"Imst","City":"Mieming","District":"Barwies","PostalCode":"6414","AdditionalData":[{"value":"Österreich","key":"CountryName"},{"value":"Tirol","key":"StateName"},{"value":"Imst","key":"CountyName"}]},"MapReference":{"ReferenceId":"834250882","SideOfStreet":"neither","CountryId":"20128885","StateId":"20136826","CountyId":"20136833","CityId":"20220617","DistrictId":"20448511"}}},{"Relevance":1.0,"Distance":15.8,"MatchLevel":"houseNumber","MatchQuality":{"Country":1.0,"State":1.0,"County":1.0,"City":1.0,"District":1.0,"Street":[1.0],"HouseNumber":1.0,"PostalCode":1.0},"MatchType":"interpolated","Location":{"LocationId":"NT_m3HZnJH7zUEtlm0TUc306B_3A","LocationType":"point","DisplayPosition":{"Latitude":47.30578,"Longitude":10.96555},"MapView":{"TopLeft":{"Latitude":47.3069042,"Longitude":10.9638922},"BottomRight":{"Latitude":47.3046558,"Longitude":10.9672078}},"Address":{"Label":"Dr.-Siegfried-Gapp-Weg 7, 6414 Mieming, Österreich","Country":"AUT","State":"Tirol","County":"Imst","City":"Mieming","District":"Barwies","Street":"Dr.-Siegfried-Gapp-Weg","HouseNumber":"7","PostalCode":"6414","AdditionalData":[{"value":"Österreich","key":"CountryName"},{"value":"Tirol","key":"StateName"},{"value":"Imst","key":"CountyName"}]},"MapReference":{"ReferenceId":"62770189","Spot":0.92,"SideOfStreet":"right","CountryId":"20128885","StateId":"20136826","CountyId":"20136833","CityId":"20220617","DistrictId":"20448511","AddressId":"411945792","RoadLinkId":"205838759"}}},{"Relevance":1.0,"Distance":23.7,"MatchLevel":"houseNumber","MatchQuality":{"Country":1.0,"State":1.0,"County":1.0,"City":1.0,"District":1.0,"Street":[1.0],"HouseNumber":1.0,"PostalCode":1.0},"MatchType":"interpolated","Location":{"LocationId":"NT_jjjkjOda.UjkMkqEBH7wHB_5kD","LocationType":"point","DisplayPosition":{"Latitude":47.30686,"Longitude":10.96562},"MapView":{"TopLeft":{"Latitude":47.3079842,"Longitude":10.9639621},"BottomRight":{"Latitude":47.3057358,"Longitude":10.9672779}},"Address":{"Label":"Föhrenweg 99, 6414 Mieming, Österreich","Country":"AUT","State":"Tirol","County":"Imst","City":"Mieming","District":"Barwies","Street":"Föhrenweg","HouseNumber":"99","PostalCode":"6414","AdditionalData":[{"value":"Österreich","key":"CountryName"},{"value":"Tirol","key":"StateName"},{"value":"Imst","key":"CountyName"}]},"MapReference":{"ReferenceId":"565265483","Spot":0.1,"SideOfStreet":"right","CountryId":"20128885","StateId":"20136826","CountyId":"20136833","CityId":"20220617","DistrictId":"20448511","AddressId":"161188843","RoadLinkId":"29096455"}}},{"Relevance":1.0,"Distance":54.4,"MatchLevel":"houseNumber","MatchQuality":{"Country":1.0,"State":1.0,"County":1.0,"City":1.0,"District":1.0,"Street":[1.0],"HouseNumber":1.0,"PostalCode":1.0},"MatchType":"interpolated","Location":{"LocationId":"NT_m3HZnJH7zUEtlm0TUc306B_5A","LocationType":"point","DisplayPosition":{"Latitude":47.30584,"Longitude":10.96499},"MapView":{"TopLeft":{"Latitude":47.3069642,"Longitude":10.9633322},"BottomRight":{"Latitude":47.3047158,"Longitude":10.9666478}},"Address":{"Label":"Dr.-Siegfried-Gapp-Weg 9, 6414 Mieming, Österreich","Country":"AUT","State":"Tirol","County":"Imst","City":"Mieming","District":"Barwies","Street":"Dr.-Siegfried-Gapp-Weg","HouseNumber":"9","PostalCode":"6414","AdditionalData":[{"value":"Österreich","key":"CountryName"},{"value":"Tirol","key":"StateName"},{"value":"Imst","key":"CountyName"}]},"MapReference":{"ReferenceId":"62770190","Spot":0.58,"SideOfStreet":"left","CountryId":"20128885","StateId":"20136826","CountyId":"20136833","CityId":"20220617","DistrictId":"20448511","AddressId":"411943953","RoadLinkId":"205838760"}}},{"Relevance":1.0,"Distance":59.7,"MatchLevel":"houseNumber","MatchQuality":{"Country":1.0,"State":1.0,"County":1.0,"City":1.0,"District":1.0,"Street":[1.0],"HouseNumber":1.0,"PostalCode":1.0},"MatchType":"interpolated","Location":{"LocationId":"NT_MqEKRimsrk2p1EIubM46nA_ycjN","LocationType":"point","DisplayPosition":{"Latitude":47.30601,"Longitude":10.96667},"MapView":{"TopLeft":{"Latitude":47.3071342,"Longitude":10.9650122},"BottomRight":{"Latitude":47.3048858,"Longitude":10.9683278}},"Address":{"Label":"Barwies 276, 6414 Mieming, Österreich","Country":"AUT","State":"Tirol","County":"Imst","City":"Mieming","District":"Barwies","Street":"Barwies","HouseNumber":"276","PostalCode":"6414","AdditionalData":[{"value":"Österreich","key":"CountryName"},{"value":"Tirol","key":"StateName"},{"value":"Imst","key":"CountyName"}]},"MapReference":{"ReferenceId":"565265578","Spot":0.52,"SideOfStreet":"left","CountryId":"20128885","StateId":"20136826","CountyId":"20136833","CityId":"20220617","DistrictId":"20448511","AddressId":"161470602","RoadLinkId":"29155613"}}},{"Relevance":1.0,"Distance":75.5,"MatchLevel":"houseNumber","MatchQuality":{"Country":1.0,"State":1.0,"County":1.0,"City":1.0,"District":1.0,"Street":[1.0],"HouseNumber":1.0,"PostalCode":1.0},"MatchType":"interpolated","Location":{"LocationId":"NT_m3HZnJH7zUEtlm0TUc306B_zA","LocationType":"point","DisplayPosition":{"Latitude":47.30567,"Longitude":10.9664},"MapView":{"TopLeft":{"Latitude":47.3067942,"Longitude":10.9647422},"BottomRight":{"Latitude":47.3045458,"Longitude":10.9680578}},"Address":{"Label":"Dr.-Siegfried-Gapp-Weg 3, 6414 Mieming, Österreich","Country":"AUT","State":"Tirol","County":"Imst","City":"Mieming","District":"Barwies","Street":"Dr.-Siegfried-Gapp-Weg","HouseNumber":"3","PostalCode":"6414","AdditionalData":[{"value":"Österreich","key":"CountryName"},{"value":"Tirol","key":"StateName"},{"value":"Imst","key":"CountyName"}]},"MapReference":{"ReferenceId":"565265767","Spot":1.0,"SideOfStreet":"right","CountryId":"20128885","StateId":"20136826","CountyId":"20136833","CityId":"20220617","DistrictId":"20448511","AddressId":"411945159","RoadLinkId":"205838758"}}},{"Relevance":1.0,"Distance":75.7,"MatchLevel":"houseNumber","MatchQuality":{"Country":1.0,"State":1.0,"County":1.0,"City":1.0,"District":1.0,"Street":[1.0],"HouseNumber":1.0,"PostalCode":1.0},"MatchType":"interpolated","Location":{"LocationId":"NT_jjjkjOda.UjkMkqEBH7wHB_xATM","LocationType":"point","DisplayPosition":{"Latitude":47.30677,"Longitude":10.96492},"MapView":{"TopLeft":{"Latitude":47.3078942,"Longitude":10.9632621},"BottomRight":{"Latitude":47.3056458,"Longitude":10.9665779}},"Address":{"Label":"Föhrenweg 101, 6414 Mieming, Österreich","Country":"AUT","State":"Tirol","County":"Imst","City":"Mieming","District":"Barwies","Street":"Föhrenweg","HouseNumber":"101","PostalCode":"6414","AdditionalData":[{"value":"Österreich","key":"CountryName"},{"value":"Tirol","key":"StateName"},{"value":"Imst","key":"CountyName"}]},"MapReference":{"ReferenceId":"565272365","Spot":0.72,"SideOfStreet":"right","CountryId":"20128885","StateId":"20136826","CountyId":"20136833","CityId":"20220617","DistrictId":"20448511","AddressId":"161188846","RoadLinkId":"28344625"}}},{"Relevance":1.0,"Distance":79.0,"MatchLevel":"houseNumber","MatchQuality":{"Country":1.0,"State":1.0,"County":1.0,"City":1.0,"District":1.0,"Street":[1.0],"HouseNumber":1.0,"PostalCode":1.0},"MatchType":"interpolated","Location":{"LocationId":"NT_MqEKRimsrk2p1EIubM46nA_ykjNhB","LocationType":"point","DisplayPosition":{"Latitude":47.30657,"Longitude":10.96714},"MapView":{"TopLeft":{"Latitude":47.3076942,"Longitude":10.9654821},"BottomRight":{"Latitude":47.3054458,"Longitude":10.9687979}},"Address":{"Label":"Barwies 296a, 6414 Mieming, Österreich","Country":"AUT","State":"Tirol","County":"Imst","City":"Mieming","District":"Barwies","Street":"Barwies","HouseNumber":"296a","PostalCode":"6414","AdditionalData":[{"value":"Österreich","key":"CountryName"},{"value":"Tirol","key":"StateName"},{"value":"Imst","key":"CountyName"}]},"MapReference":{"ReferenceId":"62770950","Spot":0.27,"SideOfStreet":"left","CountryId":"20128885","StateId":"20136826","CountyId":"20136833","CityId":"20220617","DistrictId":"20448511","AddressId":"176976615","RoadLinkId":"28447643"}}},{"Relevance":1.0,"Distance":82.3,"MatchLevel":"houseNumber","MatchQuality":{"Country":1.0,"State":1.0,"County":1.0,"City":1.0,"District":1.0,"Street":[1.0],"HouseNumber":1.0,"PostalCode":1.0},"MatchType":"interpolated","Location":{"LocationId":"NT_MqEKRimsrk2p1EIubM46nA_yYzNhB","LocationType":"point","DisplayPosition":{"Latitude":47.30552,"Longitude":10.96543},"MapView":{"TopLeft":{"Latitude":47.3066442,"Longitude":10.9637722},"BottomRight":{"Latitude":47.3043958,"Longitude":10.9670878}},"Address":{"Label":"Barwies 267a, 6414 Mieming, Österreich","Country":"AUT","State":"Tirol","County":"Imst","City":"Mieming","District":"Barwies","Street":"Barwies","HouseNumber":"267a","PostalCode":"6414","AdditionalData":[{"value":"Österreich","key":"CountryName"},{"value":"Tirol","key":"StateName"},{"value":"Imst","key":"CountyName"}]},"MapReference":{"ReferenceId":"62770191","Spot":0.35,"SideOfStreet":"right","CountryId":"20128885","StateId":"20136826","CountyId":"20136833","CityId":"20220617","DistrictId":"20448511","AddressId":"761804417","RoadLinkId":"27808122"}}},{"Relevance":1.0,"Distance":98.6,"MatchLevel":"street","MatchQuality":{"Country":1.0,"State":1.0,"County":1.0,"City":1.0,"District":1.0,"Street":[1.0],"PostalCode":1.0},"Location":{"LocationId":"NT_jjjkjOda.UjkMkqEBH7wHB_l_62770188_R","LocationType":"point","DisplayPosition":{"Latitude":47.30538,"Longitude":10.96539},"MapView":{"TopLeft":{"Latitude":47.30579,"Longitude":10.96434},"BottomRight":{"Latitude":47.30538,"Longitude":10.96539}},"Address":{"Label":"Föhrenweg, 6414 Mieming, Österreich","Country":"AUT","State":"Tirol","County":"Imst","City":"Mieming","District":"Barwies","Street":"Föhrenweg","PostalCode":"6414","AdditionalData":[{"value":"Österreich","key":"CountryName"},{"value":"Tirol","key":"StateName"},{"value":"Imst","key":"CountyName"}]},"MapReference":{"ReferenceId":"62770188","Spot":0.0,"SideOfStreet":"right","CountryId":"20128885","StateId":"20136826","CountyId":"20136833","CityId":"20220617","DistrictId":"20448511"}}}]}]}}