{"Response":{"MetaInfo":{"Timestamp":"2020-03-28T11:37:37.560+0000","NextPageInformation":"2"},"View":[{"_type":"SearchResultsViewType","ViewId":0,"Result":[{"Relevance":1.0,"Distance":0.0,"Direction":0.0,"MatchLevel":"district","MatchQuality":{"Country":1.0,"State":1.0,"County":1.0,"City":1.0,"District":1.0,"PostalCode":1.0},"Location":{"LocationId":"NT_HtjREMyBTrBUMPzaschHYA","LocationType":"point","DisplayPosition":{"Latitude":47.3926549,"Longitude":11.7732768},"MapView":{"TopLeft":{"Latitude":47.4056,"Longitude":11.75531},"BottomRight":{"Latitude":47.38573,"Longitude":11.78944}},"Address":{"Label":"Jenbach, Tirol, Österreich","Country":"AUT","State":"Tirol","County":"Schwaz","City":"Jenbach","District":"Jenbach","PostalCode":"6200","AdditionalData":[{"value":"Österreich","key":"CountryName"},{"value":"Tirol","key":"StateName"},{"value":"Schwaz","key":"CountyName"}]},"MapReference":{"ReferenceId":"938515517","SideOfStreet":"neither","CountryId":"20128885","StateId":"20136826","CountyId":"20137654","CityId":"20137711","DistrictId":"20137713"}}},{"Relevance":1.0,"Distance":17.3,"MatchLevel":"houseNumber","MatchQuality":{"Country":1.0,"State":1.0,"County":1.0,"City":1.0,"District":1.0,"Street":[1.0],"HouseNumber":1.0,"PostalCode":1.0},"MatchType":"interpolated","Location":{"LocationId":"NT_yQmKFGIiyixFFt2D7h2O.B_xgTY","LocationType":"point","DisplayPosition":{"Latitude":47.39262,"Longitude":11.77293},"MapView":{"TopLeft":{"Latitude":47.3937442,"Longitude":11.7712694},"BottomRight":{"Latitude":47.3914958,"Longitude":11.7745906}},"Address":{"Label":"Postgasse 18a, 6200 Jenbach, Österreich","Country":"AUT","State":"Tirol","County":"Schwaz","City":"Jenbach","District":"Jenbach","Street":"Postgasse","HouseNumber":"18a","PostalCode":"6200","AdditionalData":[{"value":"Österreich","key":"CountryName"},{"value":"Tirol","key":"StateName"},{"value":"Schwaz","key":"CountyName"}]},"MapReference":{"ReferenceId":"62789366","Spot":0.22,"SideOfStreet":"right","CountryId":"20128885","StateId":"20136826","CountyId":"20137654","CityId":"20137711","DistrictId":"20137713","AddressId":"411945330","RoadLinkId":"29115518"}}},{"Relevance":1.0,"Distance":19.6,"MatchLevel":"houseNumber","MatchQuality":{"Country":1.0,"State":1.0,"County":1.0,"City":1.0,"District":1.0,"Street":[1.0],"HouseNumber":1.0,"PostalCode":1.0},"MatchType":"interpolated","Location":{"LocationId":"NT_yQmKFGIiyixFFt2D7h2O.B_xcD","LocationType":"point","DisplayPosition":{"Latitude":47.39242,"Longitude":11.77314},"MapView":{"TopLeft":{"Latitude":47.3935442,"Longitude":11.7714794},"BottomRight":{"Latitude":47.3912958,"Longitude":11.7748006}},"Address":{"Label":"Postgasse 17, 6200 Jenbach, Österreich","Country":"AUT","State":"Tirol","County":"Schwaz","City":"Jenbach","District":"Jenbach","Street":"Postgasse","HouseNumber":"17","PostalCode":"6200","AdditionalData":[{"value":"Österreich","key":"CountryName"},{"value":"Tirol","key":"StateName"},{"value":"Schwaz","key":"CountyName"}]},"MapReference":{"ReferenceId":"62789365","Spot":0.88,"SideOfStreet":"right","CountryId":"20128885","StateId":"20136826","CountyId":"20137654","CityId":"20137711","DistrictId":"20137713","AddressId":"214913165","RoadLinkId":"28001151"}}},{"Relevance":1.0,"Distance":45.8,"MatchLevel":"street","MatchQuality":{"Country":1.0,"State":1.0,"County":1.0,"City":1.0,"District":1.0,"Street":[1.0],"PostalCode":1.0},"Location":{"LocationId":"NT_xTQZDY5P9k.wuFueF.WktD_l_1206604204_L","LocationType":"point","DisplayPosition":{"Latitude":47.39247,"Longitude":11.77382},"MapView":{"TopLeft":{"Latitude":47.39261,"Longitude":11.77382},"BottomRight":{"Latitude":47.39247,"Longitude":11.77437}},"Address":{"Label":"Josef-Sattler-Straße, 6200 Jenbach, Österreich","Country":"AUT","State":"Tirol","County":"Schwaz","City":"Jenbach","District":"Jenbach","Street":"Josef-Sattler-Straße","PostalCode":"6200","AdditionalData":[{"value":"Österreich","key":"CountryName"},{"value":"Tirol","key":"StateName"},{"value":"Schwaz","key":"CountyName"}]},"MapReference":{"ReferenceId":"1206604204","Spot":0.0,"SideOfStreet":"left","CountryId":"20128885","StateId":"20136826","CountyId":"20137654","CityId":"20137711","DistrictId":"20137713"}}},{"Relevance":1.0,"Distance":46.4,"MatchLevel":"houseNumber","MatchQuality":{"Country":1.0,"State":1.0,"County":1.0,"City":1.0,"District":1.0,"Street":[1.0],"HouseNumber":1.0,"PostalCode":1.0},"MatchType":"interpolated","Location":{"LocationId":"NT_efsLSClw9hf9RuA8Ak3wZA_0QD","LocationType":"point","DisplayPosition":{"Latitude":47.39257,"Longitude":11.77258},"MapView":{"TopLeft":{"Latitude":47.3936942,"Longitude":11.7709194},"BottomRight":{"Latitude":47.3914458,"Longitude":11.7742406}},"Address":{"Label":"Achenseestraße 44, 6200 Jenbach, Österreich","Country":"AUT","State":"Tirol","County":"Schwaz","City":"Jenbach","District":"Jenbach","Street":"Achenseestraße","HouseNumber":"44","PostalCode":"6200","AdditionalData":[{"value":"Österreich","key":"CountryName"},{"value":"Tirol","key":"StateName"},{"value":"Schwaz","key":"CountyName"}]},"MapReference":{"ReferenceId":"938588696","Spot":0.51,"SideOfStreet":"right","CountryId":"20128885","StateId":"20136826","CountyId":"20137654","CityId":"20137711","DistrictId":"20137713","AddressId":"161104007","RoadLinkId":"288541437"}}},{"Relevance":1.0,"Distance":51.3,"MatchLevel":"houseNumber","MatchQuality":{"Country":1.0,"State":1.0,"County":1.0,"City":1.0,"District":1.0,"Street":[1.0],"HouseNumber":1.0,"PostalCode":1.0},"MatchType":"interpolated","Location":{"LocationId":"NT_efsLSClw9hf9RuA8Ak3wZA_0AD","LocationType":"point","DisplayPosition":{"Latitude":47.39222,"Longitude":11.77285},"MapView":{"TopLeft":{"Latitude":47.3933442,"Longitude":11.7711895},"BottomRight":{"Latitude":47.3910958,"Longitude":11.7745105}},"Address":{"Label":"Achenseestraße 40, 6200 Jenbach, Österreich","Country":"AUT","State":"Tirol","County":"Schwaz","City":"Jenbach","District":"Jenbach","Street":"Achenseestraße","HouseNumber":"40","PostalCode":"6200","AdditionalData":[{"value":"Österreich","key":"CountryName"},{"value":"Tirol","key":"StateName"},{"value":"Schwaz","key":"CountyName"}]},"MapReference":{"ReferenceId":"938588695","Spot":0.09,"SideOfStreet":"right","CountryId":"20128885","StateId":"20136826","CountyId":"20137654","CityId":"20137711","DistrictId":"20137713","AddressId":"161104011","RoadLinkId":"288541432"}}},{"Relevance":1.0,"Distance":54.0,"MatchLevel":"houseNumber","MatchQuality":{"Country":1.0,"State":1.0,"County":1.0,"City":1.0,"District":1.0,"Street":[1.0],"HouseNumber":1.0,"PostalCode":1.0},"MatchType":"interpolated","Location":{"LocationId":"NT_xTQZDY5P9k.wuFueF.WktD_xA","LocationType":"point","DisplayPosition":{"Latitude":47.39261,"Longitude":11.77437},"MapView":{"TopLeft":{"Latitude":47.3937342,"Longitude":11.7727094},"BottomRight":{"Latitude":47.3914858,"Longitude":11.7760306}},"Address":{"Label":"Josef-Sattler-Straße 1, 6200 Jenbach, Österreich","Country":"AUT","State":"Tirol","County":"Schwaz","City":"Jenbach","District":"Jenbach","Street":"Josef-Sattler-Straße","HouseNumber":"1","PostalCode":"6200","AdditionalData":[{"value":"Österreich","key":"CountryName"},{"value":"Tirol","key":"StateName"},{"value":"Schwaz","key":"CountyName"}]},"MapReference":{"ReferenceId":"1206604202","Spot":1.0,"SideOfStreet":"left","CountryId":"20128885","StateId":"20136826","CountyId":"20137654","CityId":"20137711","DistrictId":"20137713","AddressId":"214912575","RoadLinkId":"520591987"}}},{"Relevance":1.0,"Distance":60.1,"MatchLevel":"houseNumber","MatchQuality":{"Country":1.0,"State":1.0,"County":1.0,"City":1.0,"District":1.0,"Street":[1.0],"HouseNumber":1.0,"PostalCode":1.0},"MatchType":"interpolated","Location":{"LocationId":"NT_efsLSClw9hf9RuA8Ak3wZA_0UD","LocationType":"point","DisplayPosition":{"Latitude":47.39269,"Longitude":11.77248},"MapView":{"TopLeft":{"Latitude":47.3938142,"Longitude":11.7708194},"BottomRight":{"Latitude":47.3915658,"Longitude":11.7741406}},"Address":{"Label":"Achenseestraße 45, 6200 Jenbach, Österreich","Country":"AUT","State":"Tirol","County":"Schwaz","City":"Jenbach","District":"Jenbach","Street":"Achenseestraße","HouseNumber":"45","PostalCode":"6200","AdditionalData":[{"value":"Österreich","key":"CountryName"},{"value":"Tirol","key":"StateName"},{"value":"Schwaz","key":"CountyName"}]},"MapReference":{"ReferenceId":"1185565754","Spot":0.0,"SideOfStreet":"left","CountryId":"20128885","StateId":"20136826","CountyId":"20137654","CityId":"20137711","DistrictId":"20137713","AddressId":"161104005","RoadLinkId":"493926187"}}},{"Relevance":1.0,"Distance":63.2,"MatchLevel":"houseNumber","MatchQuality":{"Country":1.0,"State":1.0,"County":1.0,"City":1.0,"District":1.0,"Street":[1.0],"HouseNumber":1.0,"PostalCode":1.0},"MatchType":"interpolated","Location":{"LocationId":"NT_hxU1Zb2HZ.sf.4iXHlTXED_xUTY","LocationType":"point","DisplayPosition":{"Latitude":47.39326,"Longitude":11.77336},"MapView":{"TopLeft":{"Latitude":47.3943842,"Longitude":11.7716994},"BottomRight":{"Latitude":47.3921358,"Longitude":11.7750206}},"Address":{"Label":"Feldgasse 15a, 6200 Jenbach, Österreich","Country":"AUT","State":"Tirol","County":"Schwaz","City":"Jenbach","District":"Jenbach","Street":"Feldgasse","HouseNumber":"15a","PostalCode":"6200","AdditionalData":[{"value":"Österreich","key":"CountryName"},{"value":"Tirol","key":"StateName"},{"value":"Schwaz","key":"CountyName"}]},"MapReference":{"ReferenceId":"74519244","Spot":0.08,"SideOfStreet":"left","CountryId":"20128885","StateId":"20136826","CountyId":"20137654","CityId":"20137711","DistrictId":"20137713","AddressId":"176940244","RoadLinkId":"27983067"}}},{"Relevance":1.0,"Distance":69.2,"MatchLevel":"houseNumber","MatchQuality":{"Country":1.0,"State":1.0,"County":1.0,"City":1.0,"District":1.0,"Street":[1.0],"HouseNumber":1.0,"PostalCode":1.0},"MatchType":"interpolated","Location":{"LocationId":"NT_7deuFRfXHIVv.O5NEZiDWD_4A","LocationType":"point","DisplayPosition":{"Latitude":47.39241,"Longitude":11.77234},"MapView":{"TopLeft":{"Latitude":47.3935342,"Longitude":11.7706794},"BottomRight":{"Latitude":47.3912858,"Longitude":11.7740006}},"Address":{"Label":"Kirchgasse 8, 6200 Jenbach, Österreich","Country":"AUT","State":"Tirol","County":"Schwaz","City":"Jenbach","District":"Jenbach","Street":"Kirchgasse","HouseNumber":"8","PostalCode":"6200","AdditionalData":[{"value":"Österreich","key":"CountryName"},{"value":"Tirol","key":"StateName"},{"value":"Schwaz","key":"CountyName"}]},"MapReference":{"ReferenceId":"938588699","Spot":0.21,"SideOfStreet":"right","CountryId":"20128885","StateId":"20136826","CountyId":"20137654","CityId":"20137711","DistrictId":"20137713","AddressId":"161102393","RoadLinkId":"288541442"}}}]}]}}