{"Response":{"MetaInfo":{"Timestamp":"2020-03-28T11:21:59.286+0000","NextPageInformation":"2"},"View":[{"_type":"SearchResultsViewType","ViewId":0,"Result":[{"Relevance":1.0,"Distance":0.0,"Direction":0.0,"MatchLevel":"district","MatchQuality":{"Country":1.0,"State":1.0,"County":1.0,"City":1.0,"District":1.0,"PostalCode":1.0},"Location":{"LocationId":"NT_uZcTLdX4lTNtcn8OuVLWqB","LocationType":"point","DisplayPosition":{"Latitude":47.3273624,"Longitude":17.4704257},"MapView":{"TopLeft":{"Latitude":47.34871,"Longitude":17.43841},"BottomRight":{"Latitude":47.29857,"Longitude":17.51102}},"Address":{"Label":"Pápa, Veszprém, Magyarország","Country":"HUN","State":"Veszprém","County":"Pápai Járás","City":"Pápa","District":"Pápa","PostalCode":"8500","AdditionalData":[{"value":"Magyarország","key":"CountryName"},{"value":"Veszprém","key":"StateName"},{"value":"Pápai Járás","key":"CountyName"}]},"MapReference":{"ReferenceId":"598407725","SideOfStreet":"neither","CountryId":"20613038","StateId":"20622272","CountyId":"26680457","CityId":"20622756","DistrictId":"26680716"}}},{"Relevance":1.0,"Distance":6.2,"MatchLevel":"houseNumber","MatchQuality":{"Country":1.0,"State":1.0,"County":1.0,"City":1.0,"District":1.0,"Street":[1.0],"HouseNumber":1.0,"PostalCode":1.0},"MatchType":"interpolated","Location":{"LocationId":"NT_EqlBT-SQoalDjSgZjghCaA_1A","LocationType":"point","DisplayPosition":{"Latitude":47.32748,"Longitude":17.47049},"MapView":{"TopLeft":{"Latitude":47.3286042,"Longitude":17.4688315},"BottomRight":{"Latitude":47.3263558,"Longitude":17.4721485}},"Address":{"Label":"Jókai utca 5, Pápa 8500, Magyarország","Country":"HUN","State":"Veszprém","County":"Pápai Járás","City":"Pápa","District":"Pápa","Street":"Jókai utca","HouseNumber":"5","PostalCode":"8500","AdditionalData":[{"value":"Magyarország","key":"CountryName"},{"value":"Veszprém","key":"StateName"},{"value":"Pápai Járás","key":"CountyName"}]},"MapReference":{"ReferenceId":"854252499","Spot":0.33,"SideOfStreet":"left","CountryId":"20613038","StateId":"20622272","CountyId":"26680457","CityId":"20622756","DistrictId":"26680716","AddressId":"355123157","RoadLinkId":"232603146"}}},{"Relevance":1.0,"Distance":14.9,"MatchLevel":"landmark","MatchQuality":{"Country":1.0,"State":1.0,"County":1.0,"City":1.0,"District":1.0,"Street":[1.0],"HouseNumber":1.0,"PostalCode":1.0,"Name":1.0},"Location":{"LocationId":"NT_QqgVZxtQTeC.F8LNhjNY.B_p_GT1uqzk4YQ-kTNh2KhupoA","LocationType":"hospital","Name":"Gróf Esterházy Kórház","DisplayPosition":{"Latitude":47.32741,"Longitude":17.47056},"MapView":{"TopLeft":{"Latitude":47.3285342,"Longitude":17.4689015},"BottomRight":{"Latitude":47.3262858,"Longitude":17.4722185}},"Address":{"Label":"Jókai utca 5, Pápa 8500, Magyarország","Country":"HUN","State":"Veszprém","County":"Pápai Járás","City":"Pápa","District":"Pápa","Street":"Jókai utca","HouseNumber":"5","PostalCode":"8500","AdditionalData":[{"value":"Magyarország","key":"CountryName"},{"value":"Veszprém","key":"StateName"},{"value":"Pápai Járás","key":"CountyName"}]},"MapReference":{"CountryId":"20613038","StateId":"20622272","CountyId":"26680457","CityId":"20622756","DistrictId":"26680716","PlaceId":"1017157742"}}},{"Relevance":1.0,"Distance":22.8,"MatchLevel":"houseNumber","MatchQuality":{"Country":1.0,"State":1.0,"County":1.0,"City":1.0,"District":1.0,"Street":[1.0],"HouseNumber":1.0,"PostalCode":1.0},"MatchType":"interpolated","Location":{"LocationId":"NT_EqlBT-SQoalDjSgZjghCaA_3A","LocationType":"point","DisplayPosition":{"Latitude":47.3273,"Longitude":17.47067},"MapView":{"TopLeft":{"Latitude":47.3284242,"Longitude":17.4690115},"BottomRight":{"Latitude":47.3261758,"Longitude":17.4723285}},"Address":{"Label":"Jókai utca 7, Pápa 8500, Magyarország","Country":"HUN","State":"Veszprém","County":"Pápai Járás","City":"Pápa","District":"Pápa","Street":"Jókai utca","HouseNumber":"7","PostalCode":"8500","AdditionalData":[{"value":"Magyarország","key":"CountryName"},{"value":"Veszprém","key":"StateName"},{"value":"Pápai Járás","key":"CountyName"}]},"MapReference":{"ReferenceId":"800026748","Spot":1.0,"SideOfStreet":"left","CountryId":"20613038","StateId":"20622272","CountyId":"26680457","CityId":"20622756","DistrictId":"26680716","AddressId":"355376625","RoadLinkId":"190859484"}}},{"Relevance":1.0,"Distance":57.9,"MatchLevel":"street","MatchQuality":{"Country":1.0,"State":1.0,"County":1.0,"City":1.0,"District":1.0,"Street":[1.0],"PostalCode":1.0},"Location":{"LocationId":"NT_EqlBT-SQoalDjSgZjghCaA_l_854252500_L","LocationType":"point","DisplayPosition":{"Latitude":47.32784,"Longitude":17.47012},"MapView":{"TopLeft":{"Latitude":47.32807,"Longitude":17.46989},"BottomRight":{"Latitude":47.32784,"Longitude":17.47012}},"Address":{"Label":"Jókai utca, Pápa 8500, Magyarország","Country":"HUN","State":"Veszprém","County":"Pápai Járás","City":"Pápa","District":"Pápa","Street":"Jókai utca","PostalCode":"8500","AdditionalData":[{"value":"Magyarország","key":"CountryName"},{"value":"Veszprém","key":"StateName"},{"value":"Pápai Járás","key":"CountyName"}]},"MapReference":{"ReferenceId":"854252500","Spot":0.0,"SideOfStreet":"left","CountryId":"20613038","StateId":"20622272","CountyId":"26680457","CityId":"20622756","DistrictId":"26680716"}}},{"Relevance":1.0,"Distance":79.9,"MatchLevel":"houseNumber","MatchQuality":{"Country":1.0,"State":1.0,"County":1.0,"City":1.0,"District":1.0,"Street":[1.0],"HouseNumber":1.0,"PostalCode":1.0},"MatchType":"interpolated","Location":{"LocationId":"NT_CrozfE4M.BY17XYJE4Ey9D_4A","LocationType":"point","DisplayPosition":{"Latitude":47.32697,"Longitude":17.46937},"MapView":{"TopLeft":{"Latitude":47.3280942,"Longitude":17.4677115},"BottomRight":{"Latitude":47.3258458,"Longitude":17.4710285}},"Address":{"Label":"Séllyei utca 8, Pápa 8500, Magyarország","Country":"HUN","State":"Veszprém","County":"Pápai Járás","City":"Pápa","District":"Pápa","Street":"Séllyei utca","HouseNumber":"8","PostalCode":"8500","AdditionalData":[{"value":"Magyarország","key":"CountryName"},{"value":"Veszprém","key":"StateName"},{"value":"Pápai Járás","key":"CountyName"}]},"MapReference":{"ReferenceId":"800026744","Spot":0.11,"SideOfStreet":"right","CountryId":"20613038","StateId":"20622272","CountyId":"26680457","CityId":"20622756","DistrictId":"26680716","AddressId":"357616047","RoadLinkId":"190859478"}}},{"Relevance":1.0,"Distance":88.4,"MatchLevel":"houseNumber","MatchQuality":{"Country":1.0,"State":1.0,"County":1.0,"City":1.0,"District":1.0,"Street":[1.0],"HouseNumber":1.0,"PostalCode":1.0},"MatchType":"interpolated","Location":{"LocationId":"NT_H437o17qbVsBbt4oiS32uA_xAD","LocationType":"point","DisplayPosition":{"Latitude":47.32807,"Longitude":17.46989},"MapView":{"TopLeft":{"Latitude":47.3291942,"Longitude":17.4682315},"BottomRight":{"Latitude":47.3269458,"Longitude":17.4715485}},"Address":{"Label":"Március 15. tér 10, Pápa 8500, Magyarország","Country":"HUN","State":"Veszprém","County":"Pápai Járás","City":"Pápa","District":"Pápa","Street":"Március 15. tér","HouseNumber":"10","PostalCode":"8500","AdditionalData":[{"value":"Magyarország","key":"CountryName"},{"value":"Veszprém","key":"StateName"},{"value":"Pápai Járás","key":"CountyName"}]},"MapReference":{"ReferenceId":"598407756","Spot":0.0,"SideOfStreet":"right","CountryId":"20613038","StateId":"20622272","CountyId":"26680457","CityId":"20622756","DistrictId":"26680716","AddressId":"355737460","RoadLinkId":"60690353"}}},{"Relevance":1.0,"Distance":89.5,"MatchLevel":"houseNumber","MatchQuality":{"Country":1.0,"State":1.0,"County":1.0,"City":1.0,"District":1.0,"Street":[1.0],"HouseNumber":1.0,"PostalCode":1.0},"MatchType":"interpolated","Location":{"LocationId":"NT_CrozfE4M.BY17XYJE4Ey9D_xAD","LocationType":"point","DisplayPosition":{"Latitude":47.32673,"Longitude":17.46943},"MapView":{"TopLeft":{"Latitude":47.3278542,"Longitude":17.4677715},"BottomRight":{"Latitude":47.3256058,"Longitude":17.4710885}},"Address":{"Label":"Séllyei utca 10, Pápa 8500, Magyarország","Country":"HUN","State":"Veszprém","County":"Pápai Járás","City":"Pápa","District":"Pápa","Street":"Séllyei utca","HouseNumber":"10","PostalCode":"8500","AdditionalData":[{"value":"Magyarország","key":"CountryName"},{"value":"Veszprém","key":"StateName"},{"value":"Pápai Járás","key":"CountyName"}]},"MapReference":{"ReferenceId":"800026743","Spot":0.88,"SideOfStreet":"right","CountryId":"20613038","StateId":"20622272","CountyId":"26680457","CityId":"20622756","DistrictId":"26680716","AddressId":"355360804","RoadLinkId":"190859477"}}},{"Relevance":1.0,"Distance":90.1,"MatchLevel":"houseNumber","MatchQuality":{"Country":1.0,"State":1.0,"County":1.0,"City":1.0,"District":1.0,"Street":[1.0],"HouseNumber":1.0,"PostalCode":1.0},"MatchType":"interpolated","Location":{"LocationId":"NT_H437o17qbVsBbt4oiS32uA_5A","LocationType":"point","DisplayPosition":{"Latitude":47.32787,"Longitude":17.46931},"MapView":{"TopLeft":{"Latitude":47.3289942,"Longitude":17.4676515},"BottomRight":{"Latitude":47.3267458,"Longitude":17.4709685}},"Address":{"Label":"Március 15. tér 9, Pápa 8500, Magyarország","Country":"HUN","State":"Veszprém","County":"Pápai Járás","City":"Pápa","District":"Pápa","Street":"Március 15. tér","HouseNumber":"9","PostalCode":"8500","AdditionalData":[{"value":"Magyarország","key":"CountryName"},{"value":"Veszprém","key":"StateName"},{"value":"Pápai Járás","key":"CountyName"}]},"MapReference":{"ReferenceId":"598407787","Spot":0.26,"SideOfStreet":"right","CountryId":"20613038","StateId":"20622272","CountyId":"26680457","CityId":"20622756","DistrictId":"26680716","AddressId":"356915985","RoadLinkId":"60803627"}}},{"Relevance":1.0,"Distance":105.8,"MatchLevel":"houseNumber","MatchQuality":{"Country":1.0,"State":1.0,"County":1.0,"City":1.0,"District":1.0,"Street":[1.0],"HouseNumber":1.0,"PostalCode":1.0},"MatchType":"interpolated","Location":{"LocationId":"NT_H437o17qbVsBbt4oiS32uA_xED","LocationType":"point","DisplayPosition":{"Latitude":47.3282,"Longitude":17.46976},"MapView":{"TopLeft":{"Latitude":47.3293242,"Longitude":17.4681015},"BottomRight":{"Latitude":47.3270758,"Longitude":17.4714185}},"Address":{"Label":"Március 15. tér 11, Pápa 8500, Magyarország","Country":"HUN","State":"Veszprém","County":"Pápai Járás","City":"Pápa","District":"Pápa","Street":"Március 15. tér","HouseNumber":"11","PostalCode":"8500","AdditionalData":[{"value":"Magyarország","key":"CountryName"},{"value":"Veszprém","key":"StateName"},{"value":"Pápai Járás","key":"CountyName"}]},"MapReference":{"ReferenceId":"598407741","Spot":0.38,"SideOfStreet":"right","CountryId":"20613038","StateId":"20622272","CountyId":"26680457","CityId":"20622756","DistrictId":"26680716","AddressId":"357227962","RoadLinkId":"60631867"}}}]}]}}