{"Response":{"MetaInfo":{"Timestamp":"2020-03-28T11:11:24.364+0000","NextPageInformation":"2"},"View":[{"_type":"SearchResultsViewType","ViewId":0,"Result":[{"Relevance":1.0,"Distance":0.0,"Direction":0.0,"MatchLevel":"city","MatchQuality":{"Country":1.0,"State":1.0,"County":1.0,"City":1.0,"PostalCode":1.0},"Location":{"LocationId":"NT_zsTw9oY9NCm9m9C2L7vB4A","LocationType":"point","DisplayPosition":{"Latitude":47.343832,"Longitude":5.016788},"MapView":{"TopLeft":{"Latitude":47.36179,"Longitude":5.01025},"BottomRight":{"Latitude":47.33334,"Longitude":5.03986}},"Address":{"Label":"Fontaine-lès-Dijon, Bourgogne-Franche-Comté, France","Country":"FRA","State":"Bourgogne-Franche-Comté","County":"Côte-d'Or","City":"Fontaine-lès-Dijon","PostalCode":"21121","AdditionalData":[{"value":"France","key":"CountryName"},{"value":"Bourgogne-Franche-Comté","key":"StateName"},{"value":"Côte-d'Or","key":"CountyName"}]},"MapReference":{"ReferenceId":"942206903","SideOfStreet":"neither","CountryId":"20000001","StateId":"20013306","CountyId":"20011170","CityId":"20011999"}}},{"Relevance":1.0,"Distance":21.4,"MatchLevel":"houseNumber","MatchQuality":{"Country":1.0,"State":1.0,"County":1.0,"City":1.0,"Street":[1.0],"HouseNumber":1.0,"PostalCode":1.0},"MatchType":"interpolated","Location":{"LocationId":"NT_b9MGCOysPOw4OQenuOYcAB_yMD","LocationType":"point","DisplayPosition":{"Latitude":47.34396,"Longitude":5.01706},"MapView":{"TopLeft":{"Latitude":47.3450842,"Longitude":5.015401},"BottomRight":{"Latitude":47.3428358,"Longitude":5.018719}},"Address":{"Label":"23 Rue Jehly-Bachellier, 21121 Fontaine-lès-Dijon, France","Country":"FRA","State":"Bourgogne-Franche-Comté","County":"Côte-d'Or","City":"Fontaine-lès-Dijon","Street":"Rue Jehly-Bachellier","HouseNumber":"23","PostalCode":"21121","AdditionalData":[{"value":"France","key":"CountryName"},{"value":"Bourgogne-Franche-Comté","key":"StateName"},{"value":"Côte-d'Or","key":"CountyName"}]},"MapReference":{"ReferenceId":"58867963","Spot":0.55,"SideOfStreet":"left","CountryId":"20000001","StateId":"20013306","CountyId":"20011170","CityId":"20011999","AddressId":"673535783","RoadLinkId":"53056229"}}},{"Relevance":1.0,"Distance":61.8,"MatchLevel":"houseNumber","MatchQuality":{"Country":1.0,"State":1.0,"County":1.0,"City":1.0,"Street":[1.0],"HouseNumber":1.0,"PostalCode":1.0},"MatchType":"interpolated","Location":{"LocationId":"NT_BIeCw9nqXcnpL815mXGFrB_xA","LocationType":"point","DisplayPosition":{"Latitude":47.34392,"Longitude":5.01763},"MapView":{"TopLeft":{"Latitude":47.3450442,"Longitude":5.015971},"BottomRight":{"Latitude":47.3427958,"Longitude":5.019289}},"Address":{"Label":"1 Rue Julie Collin-Barbier, 21121 Fontaine-lès-Dijon, France","Country":"FRA","State":"Bourgogne-Franche-Comté","County":"Côte-d'Or","City":"Fontaine-lès-Dijon","Street":"Rue Julie Collin-Barbier","HouseNumber":"1","PostalCode":"21121","AdditionalData":[{"value":"France","key":"CountryName"},{"value":"Bourgogne-Franche-Comté","key":"StateName"},{"value":"Côte-d'Or","key":"CountyName"}]},"MapReference":{"ReferenceId":"58867962","Spot":0.1,"SideOfStreet":"left","CountryId":"20000001","StateId":"20013306","CountyId":"20011170","CityId":"20011999","AddressId":"673535470","RoadLinkId":"53497835"}}},{"Relevance":1.0,"Distance":65.3,"MatchLevel":"houseNumber","MatchQuality":{"Country":1.0,"State":1.0,"County":1.0,"City":1.0,"Street":[1.0],"HouseNumber":1.0,"PostalCode":1.0},"MatchType":"interpolated","Location":{"LocationId":"NT_UM-7LtF9yfeXzzM7QKJz5A_xA","LocationType":"point","DisplayPosition":{"Latitude":47.34427,"Longitude":5.01621},"MapView":{"TopLeft":{"Latitude":47.3453942,"Longitude":5.014551},"BottomRight":{"Latitude":47.3431458,"Longitude":5.017869}},"Address":{"Label":"1 Route de Daix, 21121 Fontaine-lès-Dijon, France","Country":"FRA","State":"Bourgogne-Franche-Comté","County":"Côte-d'Or","City":"Fontaine-lès-Dijon","Street":"Route de Daix","HouseNumber":"1","PostalCode":"21121","AdditionalData":[{"value":"France","key":"CountryName"},{"value":"Bourgogne-Franche-Comté","key":"StateName"},{"value":"Côte-d'Or","key":"CountyName"}]},"MapReference":{"ReferenceId":"58867960","Spot":0.96,"SideOfStreet":"left","CountryId":"20000001","StateId":"20013306","CountyId":"20011170","CityId":"20011999","AddressId":"673536233","RoadLinkId":"53445784"}}},{"Relevance":1.0,"Distance":67.2,"MatchLevel":"street","MatchQuality":{"Country":1.0,"State":1.0,"County":1.0,"City":1.0,"Street":[1.0],"PostalCode":1.0},"Location":{"LocationId":"NT_ajonZYIjraJ0MhCDJyGJGC_l_58872145_R","LocationType":"point","DisplayPosition":{"Latitude":47.34428,"Longitude":5.01619},"MapView":{"TopLeft":{"Latitude":47.3447,"Longitude":5.01619},"BottomRight":{"Latitude":47.34428,"Longitude":5.01781}},"Address":{"Label":"Rue de la Source, 21121 Fontaine-lès-Dijon, France","Country":"FRA","State":"Bourgogne-Franche-Comté","County":"Côte-d'Or","City":"Fontaine-lès-Dijon","Street":"Rue de la Source","PostalCode":"21121","AdditionalData":[{"value":"France","key":"CountryName"},{"value":"Bourgogne-Franche-Comté","key":"StateName"},{"value":"Côte-d'Or","key":"CountyName"}]},"MapReference":{"ReferenceId":"58872145","Spot":0.0,"SideOfStreet":"right","CountryId":"20000001","StateId":"20013306","CountyId":"20011170","CityId":"20011999"}}},{"Relevance":1.0,"Distance":71.0,"MatchLevel":"houseNumber","MatchQuality":{"Country":1.0,"State":1.0,"County":1.0,"City":1.0,"Street":[1.0],"HouseNumber":1.0,"PostalCode":1.0},"MatchType":"interpolated","Location":{"LocationId":"NT_rk401xOnaOvlIFCJHlBfbB_xA","LocationType":"point","DisplayPosition":{"Latitude":47.34355,"Longitude":5.01594},"MapView":{"TopLeft":{"Latitude":47.3446742,"Longitude":5.014281},"BottomRight":{"Latitude":47.3424258,"Longitude":5.017599}},"Address":{"Label":"1 Rue des Créots, 21121 Fontaine-lès-Dijon, France","Country":"FRA","State":"Bourgogne-Franche-Comté","County":"Côte-d'Or","City":"Fontaine-lès-Dijon","Street":"Rue des Créots","HouseNumber":"1","PostalCode":"21121","AdditionalData":[{"value":"France","key":"CountryName"},{"value":"Bourgogne-Franche-Comté","key":"StateName"},{"value":"Côte-d'Or","key":"CountyName"}]},"MapReference":{"ReferenceId":"58872140","Spot":0.23,"SideOfStreet":"right","CountryId":"20000001","StateId":"20013306","CountyId":"20011170","CityId":"20011999","AddressId":"673520977","RoadLinkId":"52700246"}}},{"Relevance":1.0,"Distance":79.5,"MatchLevel":"houseNumber","MatchQuality":{"Country":1.0,"State":1.0,"County":1.0,"City":1.0,"Street":[1.0],"HouseNumber":1.0,"PostalCode":1.0},"MatchType":"interpolated","Location":{"LocationId":"NT_b9MGCOysPOw4OQenuOYcAB_xcD","LocationType":"point","DisplayPosition":{"Latitude":47.3438,"Longitude":5.01785},"MapView":{"TopLeft":{"Latitude":47.3449242,"Longitude":5.016191},"BottomRight":{"Latitude":47.3426758,"Longitude":5.019509}},"Address":{"Label":"17 Rue Jehly-Bachellier, 21121 Fontaine-lès-Dijon, France","Country":"FRA","State":"Bourgogne-Franche-Comté","County":"Côte-d'Or","City":"Fontaine-lès-Dijon","Street":"Rue Jehly-Bachellier","HouseNumber":"17","PostalCode":"21121","AdditionalData":[{"value":"France","key":"CountryName"},{"value":"Bourgogne-Franche-Comté","key":"StateName"},{"value":"Côte-d'Or","key":"CountyName"}]},"MapReference":{"ReferenceId":"58867991","Spot":0.82,"SideOfStreet":"left","CountryId":"20000001","StateId":"20013306","CountyId":"20011170","CityId":"20011999","AddressId":"673535908","RoadLinkId":"52824907"}}},{"Relevance":1.0,"Distance":90.1,"MatchLevel":"houseNumber","MatchQuality":{"Country":1.0,"State":1.0,"County":1.0,"City":1.0,"Street":[1.0],"HouseNumber":1.0,"PostalCode":1.0},"MatchType":"interpolated","Location":{"LocationId":"NT_rk401xOnaOvlIFCJHlBfbB_zA","LocationType":"point","DisplayPosition":{"Latitude":47.3432,"Longitude":5.01604},"MapView":{"TopLeft":{"Latitude":47.3443242,"Longitude":5.014381},"BottomRight":{"Latitude":47.3420758,"Longitude":5.017699}},"Address":{"Label":"3 Rue des Créots, 21121 Fontaine-lès-Dijon, France","Country":"FRA","State":"Bourgogne-Franche-Comté","County":"Côte-d'Or","City":"Fontaine-lès-Dijon","Street":"Rue des Créots","HouseNumber":"3","PostalCode":"21121","AdditionalData":[{"value":"France","key":"CountryName"},{"value":"Bourgogne-Franche-Comté","key":"StateName"},{"value":"Côte-d'Or","key":"CountyName"}]},"MapReference":{"ReferenceId":"584885918","Spot":0.75,"SideOfStreet":"left","CountryId":"20000001","StateId":"20013306","CountyId":"20011170","CityId":"20011999","AddressId":"673511446","RoadLinkId":"53196307"}}},{"Relevance":1.0,"Distance":98.4,"MatchLevel":"houseNumber","MatchQuality":{"Country":1.0,"State":1.0,"County":1.0,"City":1.0,"Street":[1.0],"HouseNumber":1.0,"PostalCode":1.0},"MatchType":"interpolated","Location":{"LocationId":"NT_tAl2pN.C4USZgAnjQ0ryIB_5A","LocationType":"point","DisplayPosition":{"Latitude":47.34356,"Longitude":5.01552},"MapView":{"TopLeft":{"Latitude":47.3446842,"Longitude":5.013861},"BottomRight":{"Latitude":47.3424358,"Longitude":5.017179}},"Address":{"Label":"9 Rue des Cygnes, 21121 Fontaine-lès-Dijon, France","Country":"FRA","State":"Bourgogne-Franche-Comté","County":"Côte-d'Or","City":"Fontaine-lès-Dijon","Street":"Rue des Cygnes","HouseNumber":"9","PostalCode":"21121","AdditionalData":[{"value":"France","key":"CountryName"},{"value":"Bourgogne-Franche-Comté","key":"StateName"},{"value":"Côte-d'Or","key":"CountyName"}]},"MapReference":{"ReferenceId":"58868004","Spot":0.26,"SideOfStreet":"right","CountryId":"20000001","StateId":"20013306","CountyId":"20011170","CityId":"20011999","AddressId":"673535611","RoadLinkId":"52769271"}}},{"Relevance":1.0,"Distance":114.2,"MatchLevel":"houseNumber","MatchQuality":{"Country":1.0,"State":1.0,"County":1.0,"City":1.0,"Street":[1.0],"HouseNumber":1.0,"PostalCode":1.0},"MatchType":"interpolated","Location":{"LocationId":"NT_rk401xOnaOvlIFCJHlBfbB_1A","LocationType":"point","DisplayPosition":{"Latitude":47.34325,"Longitude":5.01552},"MapView":{"TopLeft":{"Latitude":47.3443742,"Longitude":5.013861},"BottomRight":{"Latitude":47.3421258,"Longitude":5.017179}},"Address":{"Label":"5 Rue des Créots, 21121 Fontaine-lès-Dijon, France","Country":"FRA","State":"Bourgogne-Franche-Comté","County":"Côte-d'Or","City":"Fontaine-lès-Dijon","Street":"Rue des Créots","HouseNumber":"5","PostalCode":"21121","AdditionalData":[{"value":"France","key":"CountryName"},{"value":"Bourgogne-Franche-Comté","key":"StateName"},{"value":"Côte-d'Or","key":"CountyName"}]},"MapReference":{"ReferenceId":"58868023","Spot":0.71,"SideOfStreet":"right","CountryId":"20000001","StateId":"20013306","CountyId":"20011170","CityId":"20011999","AddressId":"673533941","RoadLinkId":"52910280"}}}]}]}}