{"Response":{"MetaInfo":{"Timestamp":"2020-03-28T10:14:41.352+0000","NextPageInformation":"2"},"View":[{"_type":"SearchResultsViewType","ViewId":0,"Result":[{"Relevance":1.0,"Distance":0.0,"Direction":0.0,"MatchLevel":"district","MatchQuality":{"Country":1.0,"State":1.0,"County":1.0,"City":1.0,"District":1.0,"PostalCode":1.0},"Location":{"LocationId":"NT_w74MTvAGGab3w7SQRKI37D","LocationType":"point","DisplayPosition":{"Latitude":47.3696608,"Longitude":11.1584103},"MapView":{"TopLeft":{"Latitude":47.37743,"Longitude":11.15063},"BottomRight":{"Latitude":47.365,"Longitude":11.17386}},"Address":{"Label":"Weidach, Leutasch, Tirol, Österreich","Country":"AUT","State":"Tirol","County":"Innsbruck-Land","City":"Leutasch","District":"Weidach","PostalCode":"6105","AdditionalData":[{"value":"Österreich","key":"CountryName"},{"value":"Tirol","key":"StateName"},{"value":"Innsbruck-Land","key":"CountyName"}]},"MapReference":{"ReferenceId":"943084335","SideOfStreet":"neither","CountryId":"20128885","StateId":"20136826","CountyId":"20136934","CityId":"20137007","DistrictId":"20137012"}}},{"Relevance":1.0,"Distance":6.6,"MatchLevel":"houseNumber","MatchQuality":{"Country":1.0,"State":1.0,"County":1.0,"City":1.0,"District":1.0,"Street":[1.0],"HouseNumber":1.0,"PostalCode":1.0},"MatchType":"interpolated","Location":{"LocationId":"NT_7GrNJgJSeFmkmr9kKqVPnA_ykzMhB","LocationType":"point","DisplayPosition":{"Latitude":47.36972,"Longitude":11.1584},"MapView":{"TopLeft":{"Latitude":47.3708442,"Longitude":11.1567402},"BottomRight":{"Latitude":47.3685958,"Longitude":11.1600598}},"Address":{"Label":"Weidach 293a, 6105 Leutasch, Österreich","Country":"AUT","State":"Tirol","County":"Innsbruck-Land","City":"Leutasch","District":"Weidach","Street":"Weidach","HouseNumber":"293a","PostalCode":"6105","AdditionalData":[{"value":"Österreich","key":"CountryName"},{"value":"Tirol","key":"StateName"},{"value":"Innsbruck-Land","key":"CountyName"}]},"MapReference":{"ReferenceId":"62830671","Spot":0.66,"SideOfStreet":"right","CountryId":"20128885","StateId":"20136826","CountyId":"20136934","CityId":"20137007","DistrictId":"20137012","AddressId":"176965625","RoadLinkId":"28836791"}}},{"Relevance":1.0,"Distance":31.7,"MatchLevel":"street","MatchQuality":{"Country":1.0,"State":1.0,"County":1.0,"City":1.0,"District":1.0,"Street":[1.0],"PostalCode":1.0},"Location":{"LocationId":"NT_7GrNJgJSeFmkmr9kKqVPnA_l_772885176_L","LocationType":"point","DisplayPosition":{"Latitude":47.36988,"Longitude":11.15868},"MapView":{"TopLeft":{"Latitude":47.36988,"Longitude":11.15868},"BottomRight":{"Latitude":47.36982,"Longitude":11.15886}},"Address":{"Label":"Weidach, 6105 Leutasch, Österreich","Country":"AUT","State":"Tirol","County":"Innsbruck-Land","City":"Leutasch","District":"Weidach","Street":"Weidach","PostalCode":"6105","AdditionalData":[{"value":"Österreich","key":"CountryName"},{"value":"Tirol","key":"StateName"},{"value":"Innsbruck-Land","key":"CountyName"}]},"MapReference":{"ReferenceId":"772885176","Spot":1.0,"SideOfStreet":"left","CountryId":"20128885","StateId":"20136826","CountyId":"20136934","CityId":"20137007","DistrictId":"20137012"}}},{"Relevance":1.0,"Distance":35.9,"MatchLevel":"houseNumber","MatchQuality":{"Country":1.0,"State":1.0,"County":1.0,"City":1.0,"District":1.0,"Street":[1.0],"HouseNumber":1.0,"PostalCode":1.0},"MatchType":"interpolated","Location":{"LocationId":"NT_7GrNJgJSeFmkmr9kKqVPnA_ykjM","LocationType":"point","DisplayPosition":{"Latitude":47.37005,"Longitude":11.15817},"MapView":{"TopLeft":{"Latitude":47.3711742,"Longitude":11.1565101},"BottomRight":{"Latitude":47.3689258,"Longitude":11.1598299}},"Address":{"Label":"Weidach 292, 6105 Leutasch, Österreich","Country":"AUT","State":"Tirol","County":"Innsbruck-Land","City":"Leutasch","District":"Weidach","Street":"Weidach","HouseNumber":"292","PostalCode":"6105","AdditionalData":[{"value":"Österreich","key":"CountryName"},{"value":"Tirol","key":"StateName"},{"value":"Innsbruck-Land","key":"CountyName"}]},"MapReference":{"ReferenceId":"772885177","Spot":0.65,"SideOfStreet":"left","CountryId":"20128885","StateId":"20136826","CountyId":"20136934","CityId":"20137007","DistrictId":"20137012","AddressId":"161361920","RoadLinkId":"166504504"}}},{"Relevance":1.0,"Distance":42.2,"MatchLevel":"houseNumber","MatchQuality":{"Country":1.0,"State":1.0,"County":1.0,"City":1.0,"District":1.0,"Street":[1.0],"HouseNumber":1.0,"PostalCode":1.0},"MatchType":"interpolated","Location":{"LocationId":"NT_7GrNJgJSeFmkmr9kKqVPnA_ykzN","LocationType":"point","DisplayPosition":{"Latitude":47.36975,"Longitude":11.15906},"MapView":{"TopLeft":{"Latitude":47.3708742,"Longitude":11.1574002},"BottomRight":{"Latitude":47.3686258,"Longitude":11.1607198}},"Address":{"Label":"Weidach 297, 6105 Leutasch, Österreich","Country":"AUT","State":"Tirol","County":"Innsbruck-Land","City":"Leutasch","District":"Weidach","Street":"Weidach","HouseNumber":"297","PostalCode":"6105","AdditionalData":[{"value":"Österreich","key":"CountryName"},{"value":"Tirol","key":"StateName"},{"value":"Innsbruck-Land","key":"CountyName"}]},"MapReference":{"ReferenceId":"1233140842","Spot":0.85,"SideOfStreet":"left","CountryId":"20128885","StateId":"20136826","CountyId":"20136934","CityId":"20137007","DistrictId":"20137012","AddressId":"161447753","RoadLinkId":"553284404"}}},{"Relevance":1.0,"Distance":63.6,"MatchLevel":"houseNumber","MatchQuality":{"Country":1.0,"State":1.0,"County":1.0,"City":1.0,"District":1.0,"Street":[1.0],"HouseNumber":1.0,"PostalCode":1.0},"MatchType":"interpolated","Location":{"LocationId":"NT_7GrNJgJSeFmkmr9kKqVPnA_ykDN","LocationType":"point","DisplayPosition":{"Latitude":47.37014,"Longitude":11.1578},"MapView":{"TopLeft":{"Latitude":47.3712642,"Longitude":11.1561401},"BottomRight":{"Latitude":47.3690158,"Longitude":11.1594599}},"Address":{"Label":"Weidach 294, 6105 Leutasch, Österreich","Country":"AUT","State":"Tirol","County":"Innsbruck-Land","City":"Leutasch","District":"Weidach","Street":"Weidach","HouseNumber":"294","PostalCode":"6105","AdditionalData":[{"value":"Österreich","key":"CountryName"},{"value":"Tirol","key":"StateName"},{"value":"Innsbruck-Land","key":"CountyName"}]},"MapReference":{"ReferenceId":"772885175","Spot":0.26,"SideOfStreet":"left","CountryId":"20128885","StateId":"20136826","CountyId":"20136934","CityId":"20137007","DistrictId":"20137012","AddressId":"161447790","RoadLinkId":"166504502"}}},{"Relevance":1.0,"Distance":107.1,"MatchLevel":"houseNumber","MatchQuality":{"Country":1.0,"State":1.0,"County":1.0,"City":1.0,"District":1.0,"Street":[1.0],"HouseNumber":1.0,"PostalCode":1.0},"MatchType":"interpolated","Location":{"LocationId":"NT_7GrNJgJSeFmkmr9kKqVPnA_ykDMiB","LocationType":"point","DisplayPosition":{"Latitude":47.36899,"Longitude":11.15732},"MapView":{"TopLeft":{"Latitude":47.3701142,"Longitude":11.1556602},"BottomRight":{"Latitude":47.3678658,"Longitude":11.1589798}},"Address":{"Label":"Weidach 290b, 6105 Leutasch, Österreich","Country":"AUT","State":"Tirol","County":"Innsbruck-Land","City":"Leutasch","District":"Weidach","Street":"Weidach","HouseNumber":"290b","PostalCode":"6105","AdditionalData":[{"value":"Österreich","key":"CountryName"},{"value":"Tirol","key":"StateName"},{"value":"Innsbruck-Land","key":"CountyName"}]},"MapReference":{"ReferenceId":"1214938041","Spot":0.47,"SideOfStreet":"right","CountryId":"20128885","StateId":"20136826","CountyId":"20136934","CityId":"20137007","DistrictId":"20137012","AddressId":"176965632","RoadLinkId":"530956136"}}},{"Relevance":1.0,"Distance":116.5,"MatchLevel":"houseNumber","MatchQuality":{"Country":1.0,"State":1.0,"County":1.0,"City":1.0,"District":1.0,"Street":[1.0],"HouseNumber":1.0,"PostalCode":1.0},"MatchType":"interpolated","Location":{"LocationId":"NT_7GrNJgJSeFmkmr9kKqVPnA_zADMkB","LocationType":"point","DisplayPosition":{"Latitude":47.36894,"Longitude":11.15968},"MapView":{"TopLeft":{"Latitude":47.3700642,"Longitude":11.1580202},"BottomRight":{"Latitude":47.3678158,"Longitude":11.1613398}},"Address":{"Label":"Weidach 300d, 6105 Leutasch, Österreich","Country":"AUT","State":"Tirol","County":"Innsbruck-Land","City":"Leutasch","District":"Weidach","Street":"Weidach","HouseNumber":"300d","PostalCode":"6105","AdditionalData":[{"value":"Österreich","key":"CountryName"},{"value":"Tirol","key":"StateName"},{"value":"Innsbruck-Land","key":"CountyName"}]},"MapReference":{"ReferenceId":"80281949","Spot":1.0,"SideOfStreet":"left","CountryId":"20128885","StateId":"20136826","CountyId":"20136934","CityId":"20137007","DistrictId":"20137012","AddressId":"176966710","RoadLinkId":"28741249"}}},{"Relevance":1.0,"Distance":132.8,"MatchLevel":"houseNumber","MatchQuality":{"Country":1.0,"State":1.0,"County":1.0,"City":1.0,"District":1.0,"Street":[1.0],"HouseNumber":1.0,"PostalCode":1.0},"MatchType":"interpolated","Location":{"LocationId":"NT_7GrNJgJSeFmkmr9kKqVPnA_ygzNhB","LocationType":"point","DisplayPosition":{"Latitude":47.37039,"Longitude":11.15708},"MapView":{"TopLeft":{"Latitude":47.3715142,"Longitude":11.1554201},"BottomRight":{"Latitude":47.3692658,"Longitude":11.1587399}},"Address":{"Label":"Weidach 287a, 6105 Leutasch, Österreich","Country":"AUT","State":"Tirol","County":"Innsbruck-Land","City":"Leutasch","District":"Weidach","Street":"Weidach","HouseNumber":"287a","PostalCode":"6105","AdditionalData":[{"value":"Österreich","key":"CountryName"},{"value":"Tirol","key":"StateName"},{"value":"Innsbruck-Land","key":"CountyName"}]},"MapReference":{"ReferenceId":"80281902","Spot":0.46,"SideOfStreet":"right","CountryId":"20128885","StateId":"20136826","CountyId":"20136934","CityId":"20137007","DistrictId":"20137012","AddressId":"176965627","RoadLinkId":"29153087"}}},{"Relevance":1.0,"Distance":146.1,"MatchLevel":"houseNumber","MatchQuality":{"Country":1.0,"State":1.0,"County":1.0,"City":1.0,"District":1.0,"Street":[1.0],"HouseNumber":1.0,"PostalCode":1.0},"MatchType":"interpolated","Location":{"LocationId":"NT_7GrNJgJSeFmkmr9kKqVPnA_ykDOhB","LocationType":"point","DisplayPosition":{"Latitude":47.36947,"Longitude":11.16033},"MapView":{"TopLeft":{"Latitude":47.3705942,"Longitude":11.1586702},"BottomRight":{"Latitude":47.3683458,"Longitude":11.1619898}},"Address":{"Label":"Weidach 298a, 6105 Leutasch, Österreich","Country":"AUT","State":"Tirol","County":"Innsbruck-Land","City":"Leutasch","District":"Weidach","Street":"Weidach","HouseNumber":"298a","PostalCode":"6105","AdditionalData":[{"value":"Österreich","key":"CountryName"},{"value":"Tirol","key":"StateName"},{"value":"Innsbruck-Land","key":"CountyName"}]},"MapReference":{"ReferenceId":"1233140841","Spot":0.62,"SideOfStreet":"right","CountryId":"20128885","StateId":"20136826","CountyId":"20136934","CityId":"20137007","DistrictId":"20137012","AddressId":"176966713","RoadLinkId":"553284403"}}}]}]}}