{"Response":{"MetaInfo":{"Timestamp":"2020-03-28T09:48:48.842+0000","NextPageInformation":"2"},"View":[{"_type":"SearchResultsViewType","ViewId":0,"Result":[{"Relevance":1.0,"Distance":0.0,"Direction":0.0,"MatchLevel":"city","MatchQuality":{"Country":1.0,"State":1.0,"County":1.0,"City":1.0,"PostalCode":1.0},"Location":{"LocationId":"NT_OArsixByGFMXnbQHBN9bnA","LocationType":"point","DisplayPosition":{"Latitude":47.3843727,"Longitude":6.7701355},"MapView":{"TopLeft":{"Latitude":47.41245,"Longitude":6.73364},"BottomRight":{"Latitude":47.36224,"Longitude":6.79784}},"Address":{"Label":"Pont-de-Roide-Vermondans, Bourgogne-Franche-Comté, France","Country":"FRA","State":"Bourgogne-Franche-Comté","County":"Doubs","City":"Pont-de-Roide-Vermondans","PostalCode":"25150","AdditionalData":[{"value":"France","key":"CountryName"},{"value":"Bourgogne-Franche-Comté","key":"StateName"},{"value":"Doubs","key":"CountyName"}]},"MapReference":{"ReferenceId":"1032600544","SideOfStreet":"neither","CountryId":"20000001","StateId":"20013306","CountyId":"20013307","CityId":"20014586"}}},{"Relevance":1.0,"Distance":15.4,"MatchLevel":"houseNumber","MatchQuality":{"Country":1.0,"State":1.0,"County":1.0,"City":1.0,"Street":[1.0],"HouseNumber":1.0,"PostalCode":1.0},"MatchType":"interpolated","Location":{"LocationId":"NT_ZyPwv4oWGbZPCSgo8PJlTD_zA","LocationType":"point","DisplayPosition":{"Latitude":47.38398,"Longitude":6.77043},"MapView":{"TopLeft":{"Latitude":47.3851042,"Longitude":6.7687697},"BottomRight":{"Latitude":47.3828558,"Longitude":6.7720903}},"Address":{"Label":"3 Rue de la Résistance, 25150 Pont-de-Roide-Vermondans, France","Country":"FRA","State":"Bourgogne-Franche-Comté","County":"Doubs","City":"Pont-de-Roide-Vermondans","Street":"Rue de la Résistance","HouseNumber":"3","PostalCode":"25150","AdditionalData":[{"value":"France","key":"CountryName"},{"value":"Bourgogne-Franche-Comté","key":"StateName"},{"value":"Doubs","key":"CountyName"}]},"MapReference":{"ReferenceId":"579024112","Spot":0.65,"SideOfStreet":"left","CountryId":"20000001","StateId":"20013306","CountyId":"20013307","CityId":"20014586","AddressId":"399089053","RoadLinkId":"43956505"}}},{"Relevance":1.0,"Distance":35.5,"MatchLevel":"houseNumber","MatchQuality":{"Country":1.0,"State":1.0,"County":1.0,"City":1.0,"Street":[1.0],"HouseNumber":1.0,"PostalCode":1.0},"MatchType":"interpolated","Location":{"LocationId":"NT_WXrN0Rj3AIdpQumoOl4sdA_yID","LocationType":"point","DisplayPosition":{"Latitude":47.38464,"Longitude":6.77123},"MapView":{"TopLeft":{"Latitude":47.3857642,"Longitude":6.7695697},"BottomRight":{"Latitude":47.3835158,"Longitude":6.7728903}},"Address":{"Label":"22 Rue de Montbéliard, 25150 Pont-de-Roide-Vermondans, France","Country":"FRA","State":"Bourgogne-Franche-Comté","County":"Doubs","City":"Pont-de-Roide-Vermondans","Street":"Rue de Montbéliard","HouseNumber":"22","PostalCode":"25150","AdditionalData":[{"value":"France","key":"CountryName"},{"value":"Bourgogne-Franche-Comté","key":"StateName"},{"value":"Doubs","key":"CountyName"}]},"MapReference":{"ReferenceId":"727453844","Spot":0.8,"SideOfStreet":"left","CountryId":"20000001","StateId":"20013306","CountyId":"20013307","CityId":"20014586","AddressId":"590388490","RoadLinkId":"130300149"}}},{"Relevance":1.0,"Distance":46.8,"MatchLevel":"houseNumber","MatchQuality":{"Country":1.0,"State":1.0,"County":1.0,"City":1.0,"Street":[1.0],"HouseNumber":1.0,"PostalCode":1.0},"MatchType":"interpolated","Location":{"LocationId":"NT_SlgkrLZkOxDi.skjRPYw2B_2A","LocationType":"point","DisplayPosition":{"Latitude":47.38479,"Longitude":6.77004},"MapView":{"TopLeft":{"Latitude":47.3859142,"Longitude":6.7683797},"BottomRight":{"Latitude":47.3836658,"Longitude":6.7717003}},"Address":{"Label":"6 Rue Cuvier, 25150 Pont-de-Roide-Vermondans, France","Country":"FRA","State":"Bourgogne-Franche-Comté","County":"Doubs","City":"Pont-de-Roide-Vermondans","Street":"Rue Cuvier","HouseNumber":"6","PostalCode":"25150","AdditionalData":[{"value":"France","key":"CountryName"},{"value":"Bourgogne-Franche-Comté","key":"StateName"},{"value":"Doubs","key":"CountyName"}]},"MapReference":{"ReferenceId":"772382690","Spot":0.31,"SideOfStreet":"right","CountryId":"20000001","StateId":"20013306","CountyId":"20013307","CityId":"20014586","AddressId":"399095734","RoadLinkId":"166003400"}}},{"Relevance":1.0,"Distance":63.8,"MatchLevel":"houseNumber","MatchQuality":{"Country":1.0,"State":1.0,"County":1.0,"City":1.0,"Street":[1.0],"HouseNumber":1.0,"PostalCode":1.0},"MatchType":"interpolated","Location":{"LocationId":"NT_SlgkrLZkOxDi.skjRPYw2B_2EE","LocationType":"point","DisplayPosition":{"Latitude":47.38473,"Longitude":6.76944},"MapView":{"TopLeft":{"Latitude":47.3858542,"Longitude":6.7677797},"BottomRight":{"Latitude":47.3836058,"Longitude":6.7711003}},"Address":{"Label":"6A Rue Cuvier, 25150 Pont-de-Roide-Vermondans, France","Country":"FRA","State":"Bourgogne-Franche-Comté","County":"Doubs","City":"Pont-de-Roide-Vermondans","Street":"Rue Cuvier","HouseNumber":"6A","PostalCode":"25150","AdditionalData":[{"value":"France","key":"CountryName"},{"value":"Bourgogne-Franche-Comté","key":"StateName"},{"value":"Doubs","key":"CountyName"}]},"MapReference":{"ReferenceId":"772382692","Spot":0.96,"SideOfStreet":"right","CountryId":"20000001","StateId":"20013306","CountyId":"20013307","CityId":"20014586","AddressId":"590389770","RoadLinkId":"166003402"}}},{"Relevance":1.0,"Distance":78.5,"MatchLevel":"houseNumber","MatchQuality":{"Country":1.0,"State":1.0,"County":1.0,"City":1.0,"Street":[1.0],"HouseNumber":1.0,"PostalCode":1.0},"MatchType":"interpolated","Location":{"LocationId":"NT_SlgkrLZkOxDi.skjRPYw2B_xETQ","LocationType":"point","DisplayPosition":{"Latitude":47.38496,"Longitude":6.76947},"MapView":{"TopLeft":{"Latitude":47.3860842,"Longitude":6.7678097},"BottomRight":{"Latitude":47.3838358,"Longitude":6.7711303}},"Address":{"Label":"11A Rue Cuvier, 25150 Pont-de-Roide-Vermondans, France","Country":"FRA","State":"Bourgogne-Franche-Comté","County":"Doubs","City":"Pont-de-Roide-Vermondans","Street":"Rue Cuvier","HouseNumber":"11A","PostalCode":"25150","AdditionalData":[{"value":"France","key":"CountryName"},{"value":"Bourgogne-Franche-Comté","key":"StateName"},{"value":"Doubs","key":"CountyName"}]},"MapReference":{"ReferenceId":"772382691","Spot":0.63,"SideOfStreet":"right","CountryId":"20000001","StateId":"20013306","CountyId":"20013307","CityId":"20014586","AddressId":"590403461","RoadLinkId":"166003401"}}},{"Relevance":1.0,"Distance":89.0,"MatchLevel":"houseNumber","MatchQuality":{"Country":1.0,"State":1.0,"County":1.0,"City":1.0,"Street":[1.0],"HouseNumber":1.0,"PostalCode":1.0},"MatchType":"interpolated","Location":{"LocationId":"NT_bdpq1dp6KkUwj3lPC3oHUA_xAD","LocationType":"point","DisplayPosition":{"Latitude":47.38517,"Longitude":6.77024},"MapView":{"TopLeft":{"Latitude":47.3862942,"Longitude":6.7685797},"BottomRight":{"Latitude":47.3840458,"Longitude":6.7719003}},"Address":{"Label":"10 Allée Jean Moulin, 25150 Pont-de-Roide-Vermondans, France","Country":"FRA","State":"Bourgogne-Franche-Comté","County":"Doubs","City":"Pont-de-Roide-Vermondans","Street":"Allée Jean Moulin","HouseNumber":"10","PostalCode":"25150","AdditionalData":[{"value":"France","key":"CountryName"},{"value":"Bourgogne-Franche-Comté","key":"StateName"},{"value":"Doubs","key":"CountyName"}]},"MapReference":{"ReferenceId":"772382685","Spot":0.45,"SideOfStreet":"left","CountryId":"20000001","StateId":"20013306","CountyId":"20013307","CityId":"20014586","AddressId":"590404404","RoadLinkId":"166003391"}}},{"Relevance":1.0,"Distance":92.7,"MatchLevel":"houseNumber","MatchQuality":{"Country":1.0,"State":1.0,"County":1.0,"City":1.0,"Street":[1.0],"HouseNumber":1.0,"PostalCode":1.0},"MatchType":"interpolated","Location":{"LocationId":"NT_2bKpbGUNTnD4IGbAs1gLoA_yED","LocationType":"point","DisplayPosition":{"Latitude":47.38384,"Longitude":6.76869},"MapView":{"TopLeft":{"Latitude":47.3849642,"Longitude":6.7670297},"BottomRight":{"Latitude":47.3827158,"Longitude":6.7703503}},"Address":{"Label":"21 Rue de Besançon, 25150 Pont-de-Roide-Vermondans, France","Country":"FRA","State":"Bourgogne-Franche-Comté","County":"Doubs","City":"Pont-de-Roide-Vermondans","Street":"Rue de Besançon","HouseNumber":"21","PostalCode":"25150","AdditionalData":[{"value":"France","key":"CountryName"},{"value":"Bourgogne-Franche-Comté","key":"StateName"},{"value":"Doubs","key":"CountyName"}]},"MapReference":{"ReferenceId":"579024107","Spot":0.61,"SideOfStreet":"right","CountryId":"20000001","StateId":"20013306","CountyId":"20013307","CityId":"20014586","AddressId":"317304009","RoadLinkId":"45091632"}}},{"Relevance":1.0,"Distance":94.2,"MatchLevel":"houseNumber","MatchQuality":{"Country":1.0,"State":1.0,"County":1.0,"City":1.0,"Street":[1.0],"HouseNumber":1.0,"PostalCode":1.0},"MatchType":"interpolated","Location":{"LocationId":"NT_WXrN0Rj3AIdpQumoOl4sdA_ygD","LocationType":"point","DisplayPosition":{"Latitude":47.38485,"Longitude":6.77121},"MapView":{"TopLeft":{"Latitude":47.3859742,"Longitude":6.7695497},"BottomRight":{"Latitude":47.3837258,"Longitude":6.7728703}},"Address":{"Label":"28 Rue de Montbéliard, 25150 Pont-de-Roide-Vermondans, France","Country":"FRA","State":"Bourgogne-Franche-Comté","County":"Doubs","City":"Pont-de-Roide-Vermondans","Street":"Rue de Montbéliard","HouseNumber":"28","PostalCode":"25150","AdditionalData":[{"value":"France","key":"CountryName"},{"value":"Bourgogne-Franche-Comté","key":"StateName"},{"value":"Doubs","key":"CountyName"}]},"MapReference":{"ReferenceId":"772382688","Spot":0.54,"SideOfStreet":"left","CountryId":"20000001","StateId":"20013306","CountyId":"20013307","CityId":"20014586","AddressId":"399091873","RoadLinkId":"166003396"}}},{"Relevance":1.0,"Distance":95.4,"MatchLevel":"houseNumber","MatchQuality":{"Country":1.0,"State":1.0,"County":1.0,"City":1.0,"Street":[1.0],"HouseNumber":1.0,"PostalCode":1.0},"MatchType":"interpolated","Location":{"LocationId":"NT_WXrN0Rj3AIdpQumoOl4sdA_xQD","LocationType":"point","DisplayPosition":{"Latitude":47.38395,"Longitude":6.77128},"MapView":{"TopLeft":{"Latitude":47.3850742,"Longitude":6.7696197},"BottomRight":{"Latitude":47.3828258,"Longitude":6.7729403}},"Address":{"Label":"14 Rue de Montbéliard, 25150 Pont-de-Roide-Vermondans, France","Country":"FRA","State":"Bourgogne-Franche-Comté","County":"Doubs","City":"Pont-de-Roide-Vermondans","Street":"Rue de Montbéliard","HouseNumber":"14","PostalCode":"25150","AdditionalData":[{"value":"France","key":"CountryName"},{"value":"Bourgogne-Franche-Comté","key":"StateName"},{"value":"Doubs","key":"CountyName"}]},"MapReference":{"ReferenceId":"579024110","Spot":0.73,"SideOfStreet":"left","CountryId":"20000001","StateId":"20013306","CountyId":"20013307","CityId":"20014586","AddressId":"317378721","RoadLinkId":"44418742"}}}]}]}}