{"Response":{"MetaInfo":{"Timestamp":"2020-03-28T11:10:01.845+0000","NextPageInformation":"2"},"View":[{"_type":"SearchResultsViewType","ViewId":0,"Result":[{"Relevance":1.0,"Distance":-6.3,"MatchLevel":"landmark","MatchQuality":{"Country":1.0,"State":1.0,"County":1.0,"City":1.0,"PostalCode":1.0,"Name":1.0},"Location":{"LocationId":"NT_pfKFtPA8x3f0UjBWuQJhXD","LocationType":"river","Name":"La Sauldre","DisplayPosition":{"Latitude":47.3534,"Longitude":1.75684},"MapView":{"TopLeft":{"Latitude":47.3577,"Longitude":1.72799},"BottomRight":{"Latitude":47.34909,"Longitude":1.77714}},"Address":{"Label":"41200 Romorantin-Lanthenay, France","Country":"FRA","State":"Centre-Val de Loire","County":"Loir-et-Cher","City":"Romorantin-Lanthenay","PostalCode":"41200","AdditionalData":[{"value":"France","key":"CountryName"},{"value":"Centre-Val de Loire","key":"StateName"},{"value":"Loir-et-Cher","key":"CountyName"}]},"MapReference":{"CountryId":"20000001","StateId":"20002113","CountyId":"20068106","CityId":"20068677","PlaceId":"556476697"}}},{"Relevance":1.0,"Distance":0.0,"Direction":0.0,"MatchLevel":"city","MatchQuality":{"Country":1.0,"State":1.0,"County":1.0,"City":1.0,"PostalCode":1.0},"Location":{"LocationId":"NT_xrB-uZhRx1RTboUjoLZPgA","LocationType":"point","DisplayPosition":{"Latitude":47.3560874,"Longitude":1.7340662},"MapView":{"TopLeft":{"Latitude":47.41964,"Longitude":1.69049},"BottomRight":{"Latitude":47.32513,"Longitude":1.78305}},"Address":{"Label":"Romorantin-Lanthenay, Centre-Val de Loire, France","Country":"FRA","State":"Centre-Val de Loire","County":"Loir-et-Cher","City":"Romorantin-Lanthenay","PostalCode":"41200","AdditionalData":[{"value":"France","key":"CountryName"},{"value":"Centre-Val de Loire","key":"StateName"},{"value":"Loir-et-Cher","key":"CountyName"}]},"MapReference":{"ReferenceId":"545617700","SideOfStreet":"neither","CountryId":"20000001","StateId":"20002113","CountyId":"20068106","CityId":"20068677"}}},{"Relevance":1.0,"Distance":86.7,"MatchLevel":"houseNumber","MatchQuality":{"Country":1.0,"State":1.0,"County":1.0,"City":1.0,"Street":[1.0],"HouseNumber":1.0,"PostalCode":1.0},"MatchType":"interpolated","Location":{"LocationId":"NT_wp.GToaQ0IJ-9.deE2yK6B_xA","LocationType":"point","DisplayPosition":{"Latitude":47.35614,"Longitude":1.73282},"MapView":{"TopLeft":{"Latitude":47.3572642,"Longitude":1.7311606},"BottomRight":{"Latitude":47.3550158,"Longitude":1.7344794}},"Address":{"Label":"1 Rue de Pruniers, 41200 Romorantin-Lanthenay, France","Country":"FRA","State":"Centre-Val de Loire","County":"Loir-et-Cher","City":"Romorantin-Lanthenay","Street":"Rue de Pruniers","HouseNumber":"1","PostalCode":"41200","AdditionalData":[{"value":"France","key":"CountryName"},{"value":"Centre-Val de Loire","key":"StateName"},{"value":"Loir-et-Cher","key":"CountyName"}]},"MapReference":{"ReferenceId":"947359430","Spot":0.17,"SideOfStreet":"right","CountryId":"20000001","StateId":"20002113","CountyId":"20068106","CityId":"20068677","AddressId":"370903988","RoadLinkId":"295086715"}}},{"Relevance":1.0,"Distance":123.9,"MatchLevel":"houseNumber","MatchQuality":{"Country":1.0,"State":1.0,"County":1.0,"City":1.0,"Street":[1.0],"HouseNumber":1.0,"PostalCode":1.0},"MatchType":"interpolated","Location":{"LocationId":"NT_YVR6lm2hfIALXgow-J92jB_2A","LocationType":"point","DisplayPosition":{"Latitude":47.35596,"Longitude":1.73604},"MapView":{"TopLeft":{"Latitude":47.3570842,"Longitude":1.7343806},"BottomRight":{"Latitude":47.3548358,"Longitude":1.7376994}},"Address":{"Label":"6 Chemin du Bac, 41200 Romorantin-Lanthenay, France","Country":"FRA","State":"Centre-Val de Loire","County":"Loir-et-Cher","City":"Romorantin-Lanthenay","Street":"Chemin du Bac","HouseNumber":"6","PostalCode":"41200","AdditionalData":[{"value":"France","key":"CountryName"},{"value":"Centre-Val de Loire","key":"StateName"},{"value":"Loir-et-Cher","key":"CountyName"}]},"MapReference":{"ReferenceId":"845643298","Spot":1.0,"SideOfStreet":"right","CountryId":"20000001","StateId":"20002113","CountyId":"20068106","CityId":"20068677","AddressId":"370964707","RoadLinkId":"226942077"}}},{"Relevance":1.0,"Distance":151.4,"MatchLevel":"houseNumber","MatchQuality":{"Country":1.0,"State":1.0,"County":1.0,"City":1.0,"Street":[1.0],"HouseNumber":1.0,"PostalCode":1.0},"MatchType":"interpolated","Location":{"LocationId":"NT_wp.GToaQ0IJ-9.deE2yK6B_yYD","LocationType":"point","DisplayPosition":{"Latitude":47.35704,"Longitude":1.73263},"MapView":{"TopLeft":{"Latitude":47.3581642,"Longitude":1.7309706},"BottomRight":{"Latitude":47.3559158,"Longitude":1.7342894}},"Address":{"Label":"26 Rue de Pruniers, 41200 Romorantin-Lanthenay, France","Country":"FRA","State":"Centre-Val de Loire","County":"Loir-et-Cher","City":"Romorantin-Lanthenay","Street":"Rue de Pruniers","HouseNumber":"26","PostalCode":"41200","AdditionalData":[{"value":"France","key":"CountryName"},{"value":"Centre-Val de Loire","key":"StateName"},{"value":"Loir-et-Cher","key":"CountyName"}]},"MapReference":{"ReferenceId":"914875979","Spot":0.53,"SideOfStreet":"left","CountryId":"20000001","StateId":"20002113","CountyId":"20068106","CityId":"20068677","AddressId":"375540022","RoadLinkId":"272646078"}}},{"Relevance":1.0,"Distance":155.2,"MatchLevel":"houseNumber","MatchQuality":{"Country":1.0,"State":1.0,"County":1.0,"City":1.0,"Street":[1.0],"HouseNumber":1.0,"PostalCode":1.0},"MatchType":"interpolated","Location":{"LocationId":"NT_wp.GToaQ0IJ-9.deE2yK6B_zA","LocationType":"point","DisplayPosition":{"Latitude":47.3551,"Longitude":1.73261},"MapView":{"TopLeft":{"Latitude":47.3562242,"Longitude":1.7309506},"BottomRight":{"Latitude":47.3539758,"Longitude":1.7342694}},"Address":{"Label":"3 Rue de Pruniers, 41200 Romorantin-Lanthenay, France","Country":"FRA","State":"Centre-Val de Loire","County":"Loir-et-Cher","City":"Romorantin-Lanthenay","Street":"Rue de Pruniers","HouseNumber":"3","PostalCode":"41200","AdditionalData":[{"value":"France","key":"CountryName"},{"value":"Centre-Val de Loire","key":"StateName"},{"value":"Loir-et-Cher","key":"CountyName"}]},"MapReference":{"ReferenceId":"947359416","Spot":0.0,"SideOfStreet":"left","CountryId":"20000001","StateId":"20002113","CountyId":"20068106","CityId":"20068677","AddressId":"370927208","RoadLinkId":"295086693"}}},{"Relevance":1.0,"Distance":160.2,"MatchLevel":"houseNumber","MatchQuality":{"Country":1.0,"State":1.0,"County":1.0,"City":1.0,"Street":[1.0],"HouseNumber":1.0,"PostalCode":1.0},"MatchType":"interpolated","Location":{"LocationId":"NT_wp.GToaQ0IJ-9.deE2yK6B_ygDV","LocationType":"point","DisplayPosition":{"Latitude":47.35608,"Longitude":1.73194},"MapView":{"TopLeft":{"Latitude":47.3572042,"Longitude":1.7302806},"BottomRight":{"Latitude":47.3549558,"Longitude":1.7335994}},"Address":{"Label":"28T Rue de Pruniers, 41200 Romorantin-Lanthenay, France","Country":"FRA","State":"Centre-Val de Loire","County":"Loir-et-Cher","City":"Romorantin-Lanthenay","Street":"Rue de Pruniers","HouseNumber":"28T","PostalCode":"41200","AdditionalData":[{"value":"France","key":"CountryName"},{"value":"Centre-Val de Loire","key":"StateName"},{"value":"Loir-et-Cher","key":"CountyName"}]},"MapReference":{"ReferenceId":"914875978","Spot":0.27,"SideOfStreet":"left","CountryId":"20000001","StateId":"20002113","CountyId":"20068106","CityId":"20068677","AddressId":"375559506","RoadLinkId":"272646077"}}},{"Relevance":1.0,"Distance":178.2,"MatchLevel":"houseNumber","MatchQuality":{"Country":1.0,"State":1.0,"County":1.0,"City":1.0,"Street":[1.0],"HouseNumber":1.0,"PostalCode":1.0},"MatchType":"interpolated","Location":{"LocationId":"NT_wp.GToaQ0IJ-9.deE2yK6B_zAD","LocationType":"point","DisplayPosition":{"Latitude":47.35573,"Longitude":1.73176},"MapView":{"TopLeft":{"Latitude":47.3568542,"Longitude":1.7301006},"BottomRight":{"Latitude":47.3546058,"Longitude":1.7334194}},"Address":{"Label":"30 Rue de Pruniers, 41200 Romorantin-Lanthenay, France","Country":"FRA","State":"Centre-Val de Loire","County":"Loir-et-Cher","City":"Romorantin-Lanthenay","Street":"Rue de Pruniers","HouseNumber":"30","PostalCode":"41200","AdditionalData":[{"value":"France","key":"CountryName"},{"value":"Centre-Val de Loire","key":"StateName"},{"value":"Loir-et-Cher","key":"CountyName"}]},"MapReference":{"ReferenceId":"947359415","Spot":0.37,"SideOfStreet":"left","CountryId":"20000001","StateId":"20002113","CountyId":"20068106","CityId":"20068677","AddressId":"318894870","RoadLinkId":"295086690"}}},{"Relevance":1.0,"Distance":180.6,"MatchLevel":"houseNumber","MatchQuality":{"Country":1.0,"State":1.0,"County":1.0,"City":1.0,"Street":[1.0],"HouseNumber":1.0,"PostalCode":1.0},"MatchType":"interpolated","Location":{"LocationId":"NT_C2NGOWieTsvA9PLR62l7UC_yEE","LocationType":"point","DisplayPosition":{"Latitude":47.35613,"Longitude":1.73162},"MapView":{"TopLeft":{"Latitude":47.3572542,"Longitude":1.7299606},"BottomRight":{"Latitude":47.3550058,"Longitude":1.7332794}},"Address":{"Label":"2A Rue Colonel Vaslin de la Vaissière, 41200 Romorantin-Lanthenay, France","Country":"FRA","State":"Centre-Val de Loire","County":"Loir-et-Cher","City":"Romorantin-Lanthenay","Street":"Rue Colonel Vaslin de la Vaissière","HouseNumber":"2A","PostalCode":"41200","AdditionalData":[{"value":"France","key":"CountryName"},{"value":"Centre-Val de Loire","key":"StateName"},{"value":"Loir-et-Cher","key":"CountyName"}]},"MapReference":{"ReferenceId":"947350805","Spot":0.37,"SideOfStreet":"right","CountryId":"20000001","StateId":"20002113","CountyId":"20068106","CityId":"20068677","AddressId":"674094804","RoadLinkId":"295079565"}}},{"Relevance":1.0,"Distance":184.6,"MatchLevel":"houseNumber","MatchQuality":{"Country":1.0,"State":1.0,"County":1.0,"City":1.0,"Street":[1.0],"HouseNumber":1.0,"PostalCode":1.0},"MatchType":"interpolated","Location":{"LocationId":"NT_wp.GToaQ0IJ-9.deE2yK6B_yEE","LocationType":"point","DisplayPosition":{"Latitude":47.35763,"Longitude":1.73316},"MapView":{"TopLeft":{"Latitude":47.3587542,"Longitude":1.7315005},"BottomRight":{"Latitude":47.3565058,"Longitude":1.7348195}},"Address":{"Label":"2A Rue de Pruniers, 41200 Romorantin-Lanthenay, France","Country":"FRA","State":"Centre-Val de Loire","County":"Loir-et-Cher","City":"Romorantin-Lanthenay","Street":"Rue de Pruniers","HouseNumber":"2A","PostalCode":"41200","AdditionalData":[{"value":"France","key":"CountryName"},{"value":"Centre-Val de Loire","key":"StateName"},{"value":"Loir-et-Cher","key":"CountyName"}]},"MapReference":{"ReferenceId":"546208076","Spot":0.57,"SideOfStreet":"left","CountryId":"20000001","StateId":"20002113","CountyId":"20068106","CityId":"20068677","AddressId":"318581694","RoadLinkId":"52935515"}}}]}]}}