{"Response":{"MetaInfo":{"Timestamp":"2020-03-28T11:22:24.452+0000","NextPageInformation":"2"},"View":[{"_type":"SearchResultsViewType","ViewId":0,"Result":[{"Relevance":1.0,"Distance":0.0,"Direction":0.0,"MatchLevel":"district","MatchQuality":{"Country":1.0,"State":1.0,"County":1.0,"City":1.0,"District":1.0,"PostalCode":1.0},"Location":{"LocationId":"NT_SAU7Z6gDL.NXYcTcEJu-ED","LocationType":"point","DisplayPosition":{"Latitude":47.3220474,"Longitude":18.9093872},"MapView":{"TopLeft":{"Latitude":47.33702,"Longitude":18.8784},"BottomRight":{"Latitude":47.27437,"Longitude":18.94735}},"Address":{"Label":"Százhalombatta, Pest, Magyarország","Country":"HUN","State":"Pest","County":"Érdi Járás","City":"Százhalombatta","District":"Százhalombatta","PostalCode":"2440","AdditionalData":[{"value":"Magyarország","key":"CountryName"},{"value":"Pest","key":"StateName"},{"value":"Érdi Járás","key":"CountyName"}]},"MapReference":{"ReferenceId":"1255808325","SideOfStreet":"neither","CountryId":"20613038","StateId":"20619051","CountyId":"26678487","CityId":"20619471","DistrictId":"26678635"}}},{"Relevance":1.0,"Distance":13.7,"MatchLevel":"houseNumber","MatchQuality":{"Country":1.0,"State":1.0,"County":1.0,"City":1.0,"District":1.0,"Street":[1.0],"HouseNumber":1.0,"PostalCode":1.0},"MatchType":"interpolated","Location":{"LocationId":"NT_KNTvWrNHU9P0GdhiY5rmpB_l_998646917_R_zYD","LocationType":"point","DisplayPosition":{"Latitude":47.3219455,"Longitude":18.9094894},"MapView":{"TopLeft":{"Latitude":47.3230696,"Longitude":18.9078311},"BottomRight":{"Latitude":47.3208213,"Longitude":18.9111477}},"Address":{"Label":"Szabó Lőrinc park 36, Százhalombatta 2440, Magyarország","Country":"HUN","State":"Pest","County":"Érdi Járás","City":"Százhalombatta","District":"Százhalombatta","Street":"Szabó Lőrinc park","HouseNumber":"36","PostalCode":"2440","AdditionalData":[{"value":"Magyarország","key":"CountryName"},{"value":"Pest","key":"StateName"},{"value":"Érdi Járás","key":"CountyName"}]},"MapReference":{"ReferenceId":"998646917","Spot":0.5,"SideOfStreet":"right","CountryId":"20613038","StateId":"20619051","CountyId":"26678487","CityId":"20619471","DistrictId":"26678635"}}},{"Relevance":1.0,"Distance":19.1,"MatchLevel":"street","MatchQuality":{"Country":1.0,"State":1.0,"County":1.0,"City":1.0,"District":1.0,"Street":[1.0],"PostalCode":1.0},"Location":{"LocationId":"NT_ndccql3koxzK8AaiuNpplC_l_998646901_R","LocationType":"point","DisplayPosition":{"Latitude":47.32217,"Longitude":18.90921},"MapView":{"TopLeft":{"Latitude":47.32217,"Longitude":18.90889},"BottomRight":{"Latitude":47.32197,"Longitude":18.90921}},"Address":{"Label":"Csokonai Vitéz Mihály utca, Százhalombatta 2440, Magyarország","Country":"HUN","State":"Pest","County":"Érdi Járás","City":"Százhalombatta","District":"Százhalombatta","Street":"Csokonai Vitéz Mihály utca","PostalCode":"2440","AdditionalData":[{"value":"Magyarország","key":"CountryName"},{"value":"Pest","key":"StateName"},{"value":"Érdi Járás","key":"CountyName"}]},"MapReference":{"ReferenceId":"998646901","Spot":1.0,"SideOfStreet":"right","CountryId":"20613038","StateId":"20619051","CountyId":"26678487","CityId":"20619471","DistrictId":"26678635"}}},{"Relevance":1.0,"Distance":29.6,"MatchLevel":"houseNumber","MatchQuality":{"Country":1.0,"State":1.0,"County":1.0,"City":1.0,"District":1.0,"Street":[1.0],"HouseNumber":1.0,"PostalCode":1.0},"MatchType":"interpolated","Location":{"LocationId":"NT_ndccql3koxzK8AaiuNpplC_1AD","LocationType":"point","DisplayPosition":{"Latitude":47.32231,"Longitude":18.90945},"MapView":{"TopLeft":{"Latitude":47.3234342,"Longitude":18.9077916},"BottomRight":{"Latitude":47.3211858,"Longitude":18.9111084}},"Address":{"Label":"Csokonai Vitéz Mihály utca 50, Százhalombatta 2440, Magyarország","Country":"HUN","State":"Pest","County":"Érdi Járás","City":"Százhalombatta","District":"Százhalombatta","Street":"Csokonai Vitéz Mihály utca","HouseNumber":"50","PostalCode":"2440","AdditionalData":[{"value":"Magyarország","key":"CountryName"},{"value":"Pest","key":"StateName"},{"value":"Érdi Járás","key":"CountyName"}]},"MapReference":{"ReferenceId":"598132939","Spot":0.48,"SideOfStreet":"left","CountryId":"20613038","StateId":"20619051","CountyId":"26678487","CityId":"20619471","DistrictId":"26678635","AddressId":"777219512","RoadLinkId":"60641375"}}},{"Relevance":1.0,"Distance":36.0,"MatchLevel":"street","MatchQuality":{"Country":1.0,"State":1.0,"County":1.0,"City":1.0,"District":1.0,"PostalCode":1.0},"Location":{"LocationId":"NT_WCKi9rqM8NcH3RmMxuJpCB_l_998646902_R","LocationType":"point","DisplayPosition":{"Latitude":47.3217591,"Longitude":18.90917},"MapView":{"TopLeft":{"Latitude":47.32197,"Longitude":18.90889},"BottomRight":{"Latitude":47.32142,"Longitude":18.90962}},"Address":{"Label":"Százhalombatta 2440, Magyarország","Country":"HUN","State":"Pest","County":"Érdi Járás","City":"Százhalombatta","District":"Százhalombatta","PostalCode":"2440","AdditionalData":[{"value":"Magyarország","key":"CountryName"},{"value":"Pest","key":"StateName"},{"value":"Érdi Járás","key":"CountyName"}]},"MapReference":{"ReferenceId":"998646902","Spot":0.62,"SideOfStreet":"right","CountryId":"20613038","StateId":"20619051","CountyId":"26678487","CityId":"20619471","DistrictId":"26678635"}}},{"Relevance":1.0,"Distance":39.3,"MatchLevel":"houseNumber","MatchQuality":{"Country":1.0,"State":1.0,"County":1.0,"City":1.0,"District":1.0,"Street":[1.0],"HouseNumber":1.0,"PostalCode":1.0},"MatchType":"interpolated","Location":{"LocationId":"NT_1BfSS8K6cJibnd64-YOadB_xAD","LocationType":"point","DisplayPosition":{"Latitude":47.3222,"Longitude":18.91006},"MapView":{"TopLeft":{"Latitude":47.3233242,"Longitude":18.9084017},"BottomRight":{"Latitude":47.3210758,"Longitude":18.9117183}},"Address":{"Label":"Gesztenyés út 10, Százhalombatta 2440, Magyarország","Country":"HUN","State":"Pest","County":"Érdi Járás","City":"Százhalombatta","District":"Százhalombatta","Street":"Gesztenyés út","HouseNumber":"10","PostalCode":"2440","AdditionalData":[{"value":"Magyarország","key":"CountryName"},{"value":"Pest","key":"StateName"},{"value":"Érdi Járás","key":"CountyName"}]},"MapReference":{"ReferenceId":"906872470","Spot":0.39,"SideOfStreet":"left","CountryId":"20613038","StateId":"20619051","CountyId":"26678487","CityId":"20619471","DistrictId":"26678635","AddressId":"356681648","RoadLinkId":"267521751"}}},{"Relevance":1.0,"Distance":40.2,"MatchLevel":"houseNumber","MatchQuality":{"Country":1.0,"State":1.0,"County":1.0,"City":1.0,"District":1.0,"Street":[1.0],"HouseNumber":1.0,"PostalCode":1.0},"MatchType":"interpolated","Location":{"LocationId":"NT_ndccql3koxzK8AaiuNpplC_0gD","LocationType":"point","DisplayPosition":{"Latitude":47.32196,"Longitude":18.90887},"MapView":{"TopLeft":{"Latitude":47.3230842,"Longitude":18.9072117},"BottomRight":{"Latitude":47.3208358,"Longitude":18.9105283}},"Address":{"Label":"Csokonai Vitéz Mihály utca 48, Százhalombatta 2440, Magyarország","Country":"HUN","State":"Pest","County":"Érdi Járás","City":"Százhalombatta","District":"Százhalombatta","Street":"Csokonai Vitéz Mihály utca","HouseNumber":"48","PostalCode":"2440","AdditionalData":[{"value":"Magyarország","key":"CountryName"},{"value":"Pest","key":"StateName"},{"value":"Érdi Járás","key":"CountyName"}]},"MapReference":{"ReferenceId":"998646900","Spot":0.9,"SideOfStreet":"left","CountryId":"20613038","StateId":"20619051","CountyId":"26678487","CityId":"20619471","DistrictId":"26678635","AddressId":"356328654","RoadLinkId":"324988153"}}},{"Relevance":1.0,"Distance":46.1,"MatchLevel":"street","MatchQuality":{"Country":1.0,"State":1.0,"County":1.0,"City":1.0,"District":1.0,"PostalCode":1.0},"Location":{"LocationId":"NT_WCKi9rqM8NcH3RmMxuJpCB_l_998646918_L","LocationType":"point","DisplayPosition":{"Latitude":47.32173,"Longitude":18.90978},"MapView":{"TopLeft":{"Latitude":47.32203,"Longitude":18.90978},"BottomRight":{"Latitude":47.32173,"Longitude":18.91028}},"Address":{"Label":"Százhalombatta 2440, Magyarország","Country":"HUN","State":"Pest","County":"Érdi Járás","City":"Százhalombatta","District":"Százhalombatta","PostalCode":"2440","AdditionalData":[{"value":"Magyarország","key":"CountryName"},{"value":"Pest","key":"StateName"},{"value":"Érdi Járás","key":"CountyName"}]},"MapReference":{"ReferenceId":"998646918","Spot":0.0,"SideOfStreet":"left","CountryId":"20613038","StateId":"20619051","CountyId":"26678487","CityId":"20619471","DistrictId":"26678635"}}},{"Relevance":1.0,"Distance":52.9,"MatchLevel":"street","MatchQuality":{"Country":1.0,"State":1.0,"County":1.0,"City":1.0,"District":1.0,"Street":[1.0],"PostalCode":1.0},"Location":{"LocationId":"NT_1BfSS8K6cJibnd64-YOadB_l_907704003_L","LocationType":"point","DisplayPosition":{"Latitude":47.32247,"Longitude":18.90971},"MapView":{"TopLeft":{"Latitude":47.32251,"Longitude":18.90966},"BottomRight":{"Latitude":47.32247,"Longitude":18.90971}},"Address":{"Label":"Gesztenyés út, Százhalombatta 2440, Magyarország","Country":"HUN","State":"Pest","County":"Érdi Járás","City":"Százhalombatta","District":"Százhalombatta","Street":"Gesztenyés út","PostalCode":"2440","AdditionalData":[{"value":"Magyarország","key":"CountryName"},{"value":"Pest","key":"StateName"},{"value":"Érdi Járás","key":"CountyName"}]},"MapReference":{"ReferenceId":"907704003","Spot":0.0,"SideOfStreet":"left","CountryId":"20613038","StateId":"20619051","CountyId":"26678487","CityId":"20619471","DistrictId":"26678635"}}},{"Relevance":1.0,"Distance":52.9,"MatchLevel":"street","MatchQuality":{"Country":1.0,"State":1.0,"County":1.0,"City":1.0,"District":1.0,"Street":[1.0],"PostalCode":1.0},"Location":{"LocationId":"NT_WIhzgZR0Q3t7VnXUreiCZD_l_1255808312_R","LocationType":"point","DisplayPosition":{"Latitude":47.32247,"Longitude":18.90971},"MapView":{"TopLeft":{"Latitude":47.32252,"Longitude":18.90971},"BottomRight":{"Latitude":47.32247,"Longitude":18.90979}},"Address":{"Label":"Pannónia utca, Százhalombatta 2440, Magyarország","Country":"HUN","State":"Pest","County":"Érdi Járás","City":"Százhalombatta","District":"Százhalombatta","Street":"Pannónia utca","PostalCode":"2440","AdditionalData":[{"value":"Magyarország","key":"CountryName"},{"value":"Pest","key":"StateName"},{"value":"Érdi Járás","key":"CountyName"}]},"MapReference":{"ReferenceId":"1255808312","Spot":0.0,"SideOfStreet":"right","CountryId":"20613038","StateId":"20619051","CountyId":"26678487","CityId":"20619471","DistrictId":"26678635"}}}]}]}}