{"Response":{"MetaInfo":{"Timestamp":"2020-03-28T11:12:27.367+0000","NextPageInformation":"2"},"View":[{"_type":"SearchResultsViewType","ViewId":0,"Result":[{"Relevance":1.0,"Distance":0.0,"Direction":0.0,"MatchLevel":"district","MatchQuality":{"Country":1.0,"State":1.0,"County":1.0,"City":1.0,"District":1.0,"PostalCode":1.0},"Location":{"LocationId":"NT_JjR-T6A-881FueQSBKhUEA","LocationType":"point","DisplayPosition":{"Latitude":47.3899874,"Longitude":0.6700471},"MapView":{"TopLeft":{"Latitude":47.39121,"Longitude":0.66588},"BottomRight":{"Latitude":47.38131,"Longitude":0.67684}},"Address":{"Label":"Rabelais Tonnelle, Tours, Centre-Val de Loire, France","Country":"FRA","State":"Centre-Val de Loire","County":"Indre-et-Loire","City":"Tours","District":"Rabelais Tonnelle","PostalCode":"37000","AdditionalData":[{"value":"France","key":"CountryName"},{"value":"Centre-Val de Loire","key":"StateName"},{"value":"Indre-et-Loire","key":"CountyName"}]},"MapReference":{"ReferenceId":"1158551815","SideOfStreet":"neither","CountryId":"20000001","StateId":"20002113","CountyId":"20067264","CityId":"20068040"}}},{"Relevance":1.0,"Distance":7.5,"MatchLevel":"houseNumber","MatchQuality":{"Country":1.0,"State":1.0,"County":1.0,"City":1.0,"District":1.0,"Street":[1.0],"HouseNumber":1.0,"PostalCode":1.0},"MatchType":"interpolated","Location":{"LocationId":"NT_4aL-cFGq4wxET4kkMc9h3C_l_1158551828_R_zID","LocationType":"point","DisplayPosition":{"Latitude":47.3900735,"Longitude":0.6699316},"MapView":{"TopLeft":{"Latitude":47.3911976,"Longitude":0.6682711},"BottomRight":{"Latitude":47.3889493,"Longitude":0.6715921}},"Address":{"Label":"32 Rue de l'Hospitalité, 37000 Tours, France","Country":"FRA","State":"Centre-Val de Loire","County":"Indre-et-Loire","City":"Tours","District":"Rabelais Tonnelle","Street":"Rue de l'Hospitalité","HouseNumber":"32","PostalCode":"37000","AdditionalData":[{"value":"France","key":"CountryName"},{"value":"Centre-Val de Loire","key":"StateName"},{"value":"Indre-et-Loire","key":"CountyName"}]},"MapReference":{"ReferenceId":"1158551828","Spot":0.5,"SideOfStreet":"right","CountryId":"20000001","StateId":"20002113","CountyId":"20067264","CityId":"20068040"}}},{"Relevance":1.0,"Distance":48.2,"MatchLevel":"houseNumber","MatchQuality":{"Country":1.0,"State":1.0,"County":1.0,"City":1.0,"District":1.0,"Street":[1.0],"HouseNumber":1.0,"PostalCode":1.0},"MatchType":"interpolated","Location":{"LocationId":"NT_owmxYOzWS5m0zY-eSPMNeB_zAD","LocationType":"point","DisplayPosition":{"Latitude":47.39015,"Longitude":0.67064},"MapView":{"TopLeft":{"Latitude":47.3912742,"Longitude":0.6689795},"BottomRight":{"Latitude":47.3890258,"Longitude":0.6723005}},"Address":{"Label":"30 Rue Walvein, 37000 Tours, France","Country":"FRA","State":"Centre-Val de Loire","County":"Indre-et-Loire","City":"Tours","District":"Rabelais Tonnelle","Street":"Rue Walvein","HouseNumber":"30","PostalCode":"37000","AdditionalData":[{"value":"France","key":"CountryName"},{"value":"Centre-Val de Loire","key":"StateName"},{"value":"Indre-et-Loire","key":"CountyName"}]},"MapReference":{"ReferenceId":"57449687","Spot":0.88,"SideOfStreet":"right","CountryId":"20000001","StateId":"20002113","CountyId":"20067264","CityId":"20068040","AddressId":"318722942","RoadLinkId":"52663567"}}},{"Relevance":1.0,"Distance":51.1,"MatchLevel":"houseNumber","MatchQuality":{"Country":1.0,"State":1.0,"County":1.0,"City":1.0,"District":1.0,"Street":[1.0],"HouseNumber":1.0,"PostalCode":1.0},"MatchType":"interpolated","Location":{"LocationId":"NT_kDu64R..PxI0arPK2ulxRC_0cD","LocationType":"point","DisplayPosition":{"Latitude":47.39032,"Longitude":0.67058},"MapView":{"TopLeft":{"Latitude":47.3914442,"Longitude":0.6689195},"BottomRight":{"Latitude":47.3891958,"Longitude":0.6722405}},"Address":{"Label":"47 Rue Walvein, 37000 Tours, France","Country":"FRA","State":"Centre-Val de Loire","County":"Indre-et-Loire","City":"Tours","District":"Lamartine","Street":"Rue Walvein","HouseNumber":"47","PostalCode":"37000","AdditionalData":[{"value":"France","key":"CountryName"},{"value":"Centre-Val de Loire","key":"StateName"},{"value":"Indre-et-Loire","key":"CountyName"}]},"MapReference":{"ReferenceId":"71037110","Spot":0.03,"SideOfStreet":"left","CountryId":"20000001","StateId":"20002113","CountyId":"20067264","CityId":"20068040","AddressId":"570764789","RoadLinkId":"52946333"}}},{"Relevance":1.0,"Distance":61.6,"MatchLevel":"street","MatchQuality":{"Country":1.0,"State":1.0,"County":1.0,"City":1.0,"District":1.0,"PostalCode":1.0},"Location":{"LocationId":"NT_JOAYruSolkOnslLXt4RCeA_l_1158551829_R","LocationType":"point","DisplayPosition":{"Latitude":47.3896667,"Longitude":0.6693804},"MapView":{"TopLeft":{"Latitude":47.38987,"Longitude":0.66927},"BottomRight":{"Latitude":47.38819,"Longitude":0.67004}},"Address":{"Label":"37000 Tours, France","Country":"FRA","State":"Centre-Val de Loire","County":"Indre-et-Loire","City":"Tours","District":"Rabelais Tonnelle","PostalCode":"37000","AdditionalData":[{"value":"France","key":"CountryName"},{"value":"Centre-Val de Loire","key":"StateName"},{"value":"Indre-et-Loire","key":"CountyName"}]},"MapReference":{"ReferenceId":"1158551829","Spot":0.87,"SideOfStreet":"right","CountryId":"20000001","StateId":"20002113","CountyId":"20067264","CityId":"20068040"}}},{"Relevance":1.0,"Distance":64.8,"MatchLevel":"houseNumber","MatchQuality":{"Country":1.0,"State":1.0,"County":1.0,"City":1.0,"District":1.0,"Street":[1.0],"HouseNumber":1.0,"PostalCode":1.0},"MatchType":"interpolated","Location":{"LocationId":"NT_4aL-cFGq4wxET4kkMc9h3C_1MD","LocationType":"point","DisplayPosition":{"Latitude":47.38985,"Longitude":0.6692},"MapView":{"TopLeft":{"Latitude":47.3909742,"Longitude":0.6675395},"BottomRight":{"Latitude":47.3887258,"Longitude":0.6708605}},"Address":{"Label":"53 Rue de l'Hospitalité, 37000 Tours, France","Country":"FRA","State":"Centre-Val de Loire","County":"Indre-et-Loire","City":"Tours","District":"Lamartine","Street":"Rue de l'Hospitalité","HouseNumber":"53","PostalCode":"37000","AdditionalData":[{"value":"France","key":"CountryName"},{"value":"Centre-Val de Loire","key":"StateName"},{"value":"Indre-et-Loire","key":"CountyName"}]},"MapReference":{"ReferenceId":"1158551827","Spot":0.93,"SideOfStreet":"left","CountryId":"20000001","StateId":"20002113","CountyId":"20067264","CityId":"20068040","AddressId":"318863429","RoadLinkId":"465064234"}}},{"Relevance":1.0,"Distance":74.8,"MatchLevel":"houseNumber","MatchQuality":{"Country":1.0,"State":1.0,"County":1.0,"City":1.0,"District":1.0,"Street":[1.0],"HouseNumber":1.0,"PostalCode":1.0},"MatchType":"interpolated","Location":{"LocationId":"NT_4aL-cFGq4wxET4kkMc9h3C_zkD","LocationType":"point","DisplayPosition":{"Latitude":47.39039,"Longitude":0.67084},"MapView":{"TopLeft":{"Latitude":47.3915142,"Longitude":0.6691795},"BottomRight":{"Latitude":47.3892658,"Longitude":0.6725005}},"Address":{"Label":"39 Rue de l'Hospitalité, 37000 Tours, France","Country":"FRA","State":"Centre-Val de Loire","County":"Indre-et-Loire","City":"Tours","District":"Lamartine","Street":"Rue de l'Hospitalité","HouseNumber":"39","PostalCode":"37000","AdditionalData":[{"value":"France","key":"CountryName"},{"value":"Centre-Val de Loire","key":"StateName"},{"value":"Indre-et-Loire","key":"CountyName"}]},"MapReference":{"ReferenceId":"755395627","Spot":0.97,"SideOfStreet":"left","CountryId":"20000001","StateId":"20002113","CountyId":"20067264","CityId":"20068040","AddressId":"375532993","RoadLinkId":"150808890"}}},{"Relevance":1.0,"Distance":78.2,"MatchLevel":"houseNumber","MatchQuality":{"Country":1.0,"State":1.0,"County":1.0,"City":1.0,"District":1.0,"Street":[1.0],"HouseNumber":1.0,"PostalCode":1.0},"MatchType":"interpolated","Location":{"LocationId":"NT_2Tb9VhiJz6AV36uuYCheWC_l_755395631_L_zAD","LocationType":"point","DisplayPosition":{"Latitude":47.3902446,"Longitude":0.6710475},"MapView":{"TopLeft":{"Latitude":47.3913687,"Longitude":0.669387},"BottomRight":{"Latitude":47.3891204,"Longitude":0.672708}},"Address":{"Label":"30 Rue de l'Hospitalité, 37000 Tours, France","Country":"FRA","State":"Centre-Val de Loire","County":"Indre-et-Loire","City":"Tours","District":"Rabelais Tonnelle","Street":"Rue de l'Hospitalité","HouseNumber":"30","PostalCode":"37000","AdditionalData":[{"value":"France","key":"CountryName"},{"value":"Centre-Val de Loire","key":"StateName"},{"value":"Indre-et-Loire","key":"CountyName"}]},"MapReference":{"ReferenceId":"755395631","Spot":0.55,"SideOfStreet":"left","CountryId":"20000001","StateId":"20002113","CountyId":"20067264","CityId":"20068040"}}},{"Relevance":1.0,"Distance":85.1,"MatchLevel":"houseNumber","MatchQuality":{"Country":1.0,"State":1.0,"County":1.0,"City":1.0,"District":1.0,"Street":[1.0],"HouseNumber":1.0,"PostalCode":1.0},"MatchType":"interpolated","Location":{"LocationId":"NT_4aL-cFGq4wxET4kkMc9h3C_l_755395628_R_zAD","LocationType":"point","DisplayPosition":{"Latitude":47.39046,"Longitude":0.67101},"MapView":{"TopLeft":{"Latitude":47.3915842,"Longitude":0.6693495},"BottomRight":{"Latitude":47.3893359,"Longitude":0.6726705}},"Address":{"Label":"30 Rue de l'Hospitalité, 37000 Tours, France","Country":"FRA","State":"Centre-Val de Loire","County":"Indre-et-Loire","City":"Tours","District":"Rabelais Tonnelle","Street":"Rue de l'Hospitalité","HouseNumber":"30","PostalCode":"37000","AdditionalData":[{"value":"France","key":"CountryName"},{"value":"Centre-Val de Loire","key":"StateName"},{"value":"Indre-et-Loire","key":"CountyName"}]},"MapReference":{"ReferenceId":"755395628","Spot":0.39,"SideOfStreet":"right","CountryId":"20000001","StateId":"20002113","CountyId":"20067264","CityId":"20068040"}}},{"Relevance":1.0,"Distance":92.6,"MatchLevel":"houseNumber","MatchQuality":{"Country":1.0,"State":1.0,"County":1.0,"City":1.0,"District":1.0,"Street":[1.0],"HouseNumber":1.0,"PostalCode":1.0},"MatchType":"interpolated","Location":{"LocationId":"NT_KlQY38P5ZEkmtB1dewm28A_ygD","LocationType":"point","DisplayPosition":{"Latitude":47.39031,"Longitude":0.6714},"MapView":{"TopLeft":{"Latitude":47.3914342,"Longitude":0.6697395},"BottomRight":{"Latitude":47.3891858,"Longitude":0.6730605}},"Address":{"Label":"28 Rue Jean Messire, 37000 Tours, France","Country":"FRA","State":"Centre-Val de Loire","County":"Indre-et-Loire","City":"Tours","District":"Rabelais Tonnelle","Street":"Rue Jean Messire","HouseNumber":"28","PostalCode":"37000","AdditionalData":[{"value":"France","key":"CountryName"},{"value":"Centre-Val de Loire","key":"StateName"},{"value":"Indre-et-Loire","key":"CountyName"}]},"MapReference":{"ReferenceId":"755395629","Spot":1.0,"SideOfStreet":"left","CountryId":"20000001","StateId":"20002113","CountyId":"20067264","CityId":"20068040","AddressId":"318903019","RoadLinkId":"150808892"}}}]}]}}