{"Response":{"MetaInfo":{"Timestamp":"2020-03-28T10:58:24.982+0000","NextPageInformation":"2"},"View":[{"_type":"SearchResultsViewType","ViewId":0,"Result":[{"Relevance":1.0,"Distance":0.0,"Direction":0.0,"MatchLevel":"district","MatchQuality":{"Country":1.0,"State":1.0,"County":1.0,"City":1.0,"District":1.0,"PostalCode":1.0},"Location":{"LocationId":"NT_GuilENZU93jo7d-Orz2ltA","LocationType":"point","DisplayPosition":{"Latitude":47.4841896,"Longitude":11.1270236},"MapView":{"TopLeft":{"Latitude":47.51096,"Longitude":11.0498},"BottomRight":{"Latitude":47.47967,"Longitude":11.13057}},"Address":{"Label":"Garmisch-Partenkirchen, Bayern, Deutschland","Country":"DEU","State":"Bayern","County":"Garmisch-Partenkirchen","City":"Garmisch-Partenkirchen","District":"Garmisch-Partenkirchen","PostalCode":"82467","AdditionalData":[{"value":"Deutschland","key":"CountryName"},{"value":"Bayern","key":"StateName"},{"value":"Garmisch-Partenkirchen","key":"CountyName"}]},"MapReference":{"ReferenceId":"83385718","SideOfStreet":"neither","CountryId":"20147700","StateId":"20177250","CountyId":"20178225","CityId":"20178242","DistrictId":"20178244"}}},{"Relevance":1.0,"Distance":0.4,"MatchLevel":"street","MatchQuality":{"Country":1.0,"State":1.0,"County":1.0,"City":1.0,"District":1.0,"Street":[1.0],"PostalCode":1.0},"Location":{"LocationId":"NT_HlvDh8ylYajaTJH7jTsnYA_l_1212997915_L","LocationType":"point","DisplayPosition":{"Latitude":47.4841863,"Longitude":11.1270224},"MapView":{"TopLeft":{"Latitude":47.48429,"Longitude":11.1269},"BottomRight":{"Latitude":47.48416,"Longitude":11.12846}},"Address":{"Label":"Auenstraße, 82467 Garmisch-Partenkirchen, Deutschland","Country":"DEU","State":"Bayern","County":"Garmisch-Partenkirchen","City":"Garmisch-Partenkirchen","District":"Garmisch-Partenkirchen","Street":"Auenstraße","PostalCode":"82467","AdditionalData":[{"value":"Deutschland","key":"CountryName"},{"value":"Bayern","key":"StateName"},{"value":"Garmisch-Partenkirchen","key":"CountyName"}]},"MapReference":{"ReferenceId":"1212997915","Spot":0.08,"SideOfStreet":"neither","CountryId":"20147700","StateId":"20177250","CountyId":"20178225","CityId":"20178242","DistrictId":"20178244"}}},{"Relevance":1.0,"Distance":10.3,"MatchLevel":"street","MatchQuality":{"Country":1.0,"State":1.0,"County":1.0,"City":1.0,"District":1.0,"Street":[1.0],"PostalCode":1.0},"Location":{"LocationId":"NT_HlvDh8ylYajaTJH7jTsnYA_l_1212997916_L","LocationType":"point","DisplayPosition":{"Latitude":47.48423,"Longitude":11.1269},"MapView":{"TopLeft":{"Latitude":47.48433,"Longitude":11.12658},"BottomRight":{"Latitude":47.48423,"Longitude":11.1269}},"Address":{"Label":"Auenstraße, 82467 Garmisch-Partenkirchen, Deutschland","Country":"DEU","State":"Bayern","County":"Garmisch-Partenkirchen","City":"Garmisch-Partenkirchen","District":"Garmisch-Partenkirchen","Street":"Auenstraße","PostalCode":"82467","AdditionalData":[{"value":"Deutschland","key":"CountryName"},{"value":"Bayern","key":"StateName"},{"value":"Garmisch-Partenkirchen","key":"CountyName"}]},"MapReference":{"ReferenceId":"1212997916","Spot":0.0,"SideOfStreet":"left","CountryId":"20147700","StateId":"20177250","CountyId":"20178225","CityId":"20178242","DistrictId":"20178244"}}},{"Relevance":1.0,"Distance":10.5,"MatchLevel":"street","MatchQuality":{"Country":1.0,"State":1.0,"County":1.0,"City":1.0,"District":1.0,"PostalCode":1.0},"Location":{"LocationId":"NT_5M0kHL9aZY3J0tgaxX2sLC_l_1213002807_R","LocationType":"point","DisplayPosition":{"Latitude":47.4842748,"Longitude":11.1269646},"MapView":{"TopLeft":{"Latitude":47.48432,"Longitude":11.1269},"BottomRight":{"Latitude":47.48423,"Longitude":11.12703}},"Address":{"Label":"82467 Garmisch-Partenkirchen, Deutschland","Country":"DEU","State":"Bayern","County":"Garmisch-Partenkirchen","City":"Garmisch-Partenkirchen","District":"Garmisch-Partenkirchen","PostalCode":"82467","AdditionalData":[{"value":"Deutschland","key":"CountryName"},{"value":"Bayern","key":"StateName"},{"value":"Garmisch-Partenkirchen","key":"CountyName"}]},"MapReference":{"ReferenceId":"1213002807","Spot":0.5,"SideOfStreet":"right","CountryId":"20147700","StateId":"20177250","CountyId":"20178225","CityId":"20178242","DistrictId":"20178244"}}},{"Relevance":1.0,"Distance":14.5,"MatchLevel":"street","MatchQuality":{"Country":1.0,"State":1.0,"County":1.0,"City":1.0,"District":1.0,"PostalCode":1.0},"Location":{"LocationId":"NT_5M0kHL9aZY3J0tgaxX2sLC_l_1213002829_R","LocationType":"point","DisplayPosition":{"Latitude":47.48432,"Longitude":11.12703},"MapView":{"TopLeft":{"Latitude":47.48442,"Longitude":11.12703},"BottomRight":{"Latitude":47.48432,"Longitude":11.12851}},"Address":{"Label":"82467 Garmisch-Partenkirchen, Deutschland","Country":"DEU","State":"Bayern","County":"Garmisch-Partenkirchen","City":"Garmisch-Partenkirchen","District":"Garmisch-Partenkirchen","PostalCode":"82467","AdditionalData":[{"value":"Deutschland","key":"CountryName"},{"value":"Bayern","key":"StateName"},{"value":"Garmisch-Partenkirchen","key":"CountyName"}]},"MapReference":{"ReferenceId":"1213002829","Spot":0.0,"SideOfStreet":"right","CountryId":"20147700","StateId":"20177250","CountyId":"20178225","CityId":"20178242","DistrictId":"20178244"}}},{"Relevance":1.0,"Distance":26.8,"MatchLevel":"street","MatchQuality":{"Country":1.0,"State":1.0,"County":1.0,"City":1.0,"District":1.0,"Street":[1.0],"PostalCode":1.0},"Location":{"LocationId":"NT_HlvDh8ylYajaTJH7jTsnYA_l_1212997889_R","LocationType":"point","DisplayPosition":{"Latitude":47.4844307,"Longitude":11.1270169},"MapView":{"TopLeft":{"Latitude":47.4845,"Longitude":11.12699},"BottomRight":{"Latitude":47.48443,"Longitude":11.12812}},"Address":{"Label":"Auenstraße, 82467 Garmisch-Partenkirchen, Deutschland","Country":"DEU","State":"Bayern","County":"Garmisch-Partenkirchen","City":"Garmisch-Partenkirchen","District":"Garmisch-Partenkirchen","Street":"Auenstraße","PostalCode":"82467","AdditionalData":[{"value":"Deutschland","key":"CountryName"},{"value":"Bayern","key":"StateName"},{"value":"Garmisch-Partenkirchen","key":"CountyName"}]},"MapReference":{"ReferenceId":"1212997889","Spot":0.02,"SideOfStreet":"right","CountryId":"20147700","StateId":"20177250","CountyId":"20178225","CityId":"20178242","DistrictId":"20178244"}}},{"Relevance":1.0,"Distance":26.9,"MatchLevel":"street","MatchQuality":{"Country":1.0,"State":1.0,"County":1.0,"City":1.0,"District":1.0,"Street":[1.0],"PostalCode":1.0},"Location":{"LocationId":"NT_HlvDh8ylYajaTJH7jTsnYA_l_1212997888_R","LocationType":"point","DisplayPosition":{"Latitude":47.48443,"Longitude":11.12699},"MapView":{"TopLeft":{"Latitude":47.48443,"Longitude":11.12677},"BottomRight":{"Latitude":47.48442,"Longitude":11.12699}},"Address":{"Label":"Auenstraße, 82467 Garmisch-Partenkirchen, Deutschland","Country":"DEU","State":"Bayern","County":"Garmisch-Partenkirchen","City":"Garmisch-Partenkirchen","District":"Garmisch-Partenkirchen","Street":"Auenstraße","PostalCode":"82467","AdditionalData":[{"value":"Deutschland","key":"CountryName"},{"value":"Bayern","key":"StateName"},{"value":"Garmisch-Partenkirchen","key":"CountyName"}]},"MapReference":{"ReferenceId":"1212997888","Spot":1.0,"SideOfStreet":"right","CountryId":"20147700","StateId":"20177250","CountyId":"20178225","CityId":"20178242","DistrictId":"20178244"}}},{"Relevance":1.0,"Distance":26.9,"MatchLevel":"street","MatchQuality":{"Country":1.0,"State":1.0,"County":1.0,"City":1.0,"District":1.0,"PostalCode":1.0},"Location":{"LocationId":"NT_5M0kHL9aZY3J0tgaxX2sLC_l_1213604202_R","LocationType":"point","DisplayPosition":{"Latitude":47.48443,"Longitude":11.12699},"MapView":{"TopLeft":{"Latitude":47.4845,"Longitude":11.12699},"BottomRight":{"Latitude":47.48443,"Longitude":11.12709}},"Address":{"Label":"82467 Garmisch-Partenkirchen, Deutschland","Country":"DEU","State":"Bayern","County":"Garmisch-Partenkirchen","City":"Garmisch-Partenkirchen","District":"Garmisch-Partenkirchen","PostalCode":"82467","AdditionalData":[{"value":"Deutschland","key":"CountryName"},{"value":"Bayern","key":"StateName"},{"value":"Garmisch-Partenkirchen","key":"CountyName"}]},"MapReference":{"ReferenceId":"1213604202","Spot":0.0,"SideOfStreet":"right","CountryId":"20147700","StateId":"20177250","CountyId":"20178225","CityId":"20178242","DistrictId":"20178244"}}},{"Relevance":1.0,"Distance":32.7,"MatchLevel":"houseNumber","MatchQuality":{"Country":1.0,"State":1.0,"County":1.0,"City":1.0,"District":1.0,"Street":[1.0],"HouseNumber":1.0,"PostalCode":1.0},"MatchType":"interpolated","Location":{"LocationId":"NT_HlvDh8ylYajaTJH7jTsnYA_3A","LocationType":"point","DisplayPosition":{"Latitude":47.4844,"Longitude":11.12672},"MapView":{"TopLeft":{"Latitude":47.4855242,"Longitude":11.1250565},"BottomRight":{"Latitude":47.4832758,"Longitude":11.1283835}},"Address":{"Label":"Auenstraße 7, 82467 Garmisch-Partenkirchen, Deutschland","Country":"DEU","State":"Bayern","County":"Garmisch-Partenkirchen","City":"Garmisch-Partenkirchen","District":"Garmisch-Partenkirchen","Street":"Auenstraße","HouseNumber":"7","PostalCode":"82467","AdditionalData":[{"value":"Deutschland","key":"CountryName"},{"value":"Bayern","key":"StateName"},{"value":"Garmisch-Partenkirchen","key":"CountyName"}]},"MapReference":{"ReferenceId":"541712632","Spot":0.74,"SideOfStreet":"left","CountryId":"20147700","StateId":"20177250","CountyId":"20178225","CityId":"20178242","DistrictId":"20178244","AddressId":"249248411","RoadLinkId":"32851675"}}},{"Relevance":1.0,"Distance":33.8,"MatchLevel":"street","MatchQuality":{"Country":1.0,"State":1.0,"County":1.0,"City":1.0,"District":1.0,"PostalCode":1.0},"Location":{"LocationId":"NT_5M0kHL9aZY3J0tgaxX2sLC_l_541712635_R","LocationType":"point","DisplayPosition":{"Latitude":47.48427,"Longitude":11.12659},"MapView":{"TopLeft":{"Latitude":47.48433,"Longitude":11.12618},"BottomRight":{"Latitude":47.48421,"Longitude":11.12659}},"Address":{"Label":"82467 Garmisch-Partenkirchen, Deutschland","Country":"DEU","State":"Bayern","County":"Garmisch-Partenkirchen","City":"Garmisch-Partenkirchen","District":"Garmisch-Partenkirchen","PostalCode":"82467","AdditionalData":[{"value":"Deutschland","key":"CountryName"},{"value":"Bayern","key":"StateName"},{"value":"Garmisch-Partenkirchen","key":"CountyName"}]},"MapReference":{"ReferenceId":"541712635","Spot":0.88,"SideOfStreet":"right","CountryId":"20147700","StateId":"20177250","CountyId":"20178225","CityId":"20178242","DistrictId":"20178244"}}}]}]}}