{"Response":{"MetaInfo":{"Timestamp":"2020-03-28T11:09:01.766+0000","NextPageInformation":"2"},"View":[{"_type":"SearchResultsViewType","ViewId":0,"Result":[{"Relevance":1.0,"Distance":0.0,"Direction":0.0,"MatchLevel":"city","MatchQuality":{"Country":1.0,"State":1.0,"County":1.0,"City":1.0,"PostalCode":1.0},"Location":{"LocationId":"NT_Ho9aY8wnfxYFRbkBBplt2C","LocationType":"point","DisplayPosition":{"Latitude":47.4389649,"Longitude":0.6465182},"MapView":{"TopLeft":{"Latitude":47.46339,"Longitude":0.60143},"BottomRight":{"Latitude":47.42708,"Longitude":0.65228}},"Address":{"Label":"La Membrolle-sur-Choisille, Centre-Val de Loire, France","Country":"FRA","State":"Centre-Val de Loire","County":"Indre-et-Loire","City":"La Membrolle-sur-Choisille","PostalCode":"37390","AdditionalData":[{"value":"France","key":"CountryName"},{"value":"Centre-Val de Loire","key":"StateName"},{"value":"Indre-et-Loire","key":"CountyName"}]},"MapReference":{"ReferenceId":"1130154383","SideOfStreet":"neither","CountryId":"20000001","StateId":"20002113","CountyId":"20067264","CityId":"20067722"}}},{"Relevance":1.0,"Distance":62.5,"MatchLevel":"street","MatchQuality":{"Country":1.0,"State":1.0,"County":1.0,"City":1.0,"PostalCode":1.0},"Location":{"LocationId":"NT_vGI5qv.cHwvsJHYvNqix8B_l_920313451_L","LocationType":"point","DisplayPosition":{"Latitude":47.4386,"Longitude":0.64715},"MapView":{"TopLeft":{"Latitude":47.43902,"Longitude":0.64715},"BottomRight":{"Latitude":47.4386,"Longitude":0.64762}},"Address":{"Label":"37390 La Membrolle-sur-Choisille, France","Country":"FRA","State":"Centre-Val de Loire","County":"Indre-et-Loire","City":"La Membrolle-sur-Choisille","PostalCode":"37390","AdditionalData":[{"value":"France","key":"CountryName"},{"value":"Centre-Val de Loire","key":"StateName"},{"value":"Indre-et-Loire","key":"CountyName"}]},"MapReference":{"ReferenceId":"920313451","Spot":0.0,"SideOfStreet":"left","CountryId":"20000001","StateId":"20002113","CountyId":"20067264","CityId":"20067722"}}},{"Relevance":1.0,"Distance":70.2,"MatchLevel":"street","MatchQuality":{"Country":1.0,"State":1.0,"County":1.0,"City":1.0,"PostalCode":1.0},"Location":{"LocationId":"NT_vGI5qv.cHwvsJHYvNqix8B_l_920313450_L","LocationType":"point","DisplayPosition":{"Latitude":47.438381,"Longitude":0.6468721},"MapView":{"TopLeft":{"Latitude":47.4386,"Longitude":0.64659},"BottomRight":{"Latitude":47.43821,"Longitude":0.64715}},"Address":{"Label":"37390 La Membrolle-sur-Choisille, France","Country":"FRA","State":"Centre-Val de Loire","County":"Indre-et-Loire","City":"La Membrolle-sur-Choisille","PostalCode":"37390","AdditionalData":[{"value":"France","key":"CountryName"},{"value":"Centre-Val de Loire","key":"StateName"},{"value":"Indre-et-Loire","key":"CountyName"}]},"MapReference":{"ReferenceId":"920313450","Spot":0.48,"SideOfStreet":"left","CountryId":"20000001","StateId":"20002113","CountyId":"20067264","CityId":"20067722"}}},{"Relevance":1.0,"Distance":75.7,"MatchLevel":"street","MatchQuality":{"Country":1.0,"State":1.0,"County":1.0,"City":1.0,"PostalCode":1.0},"Location":{"LocationId":"NT_vGI5qv.cHwvsJHYvNqix8B_l_57438810_R","LocationType":"point","DisplayPosition":{"Latitude":47.43861,"Longitude":0.64566},"MapView":{"TopLeft":{"Latitude":47.43986,"Longitude":0.6451},"BottomRight":{"Latitude":47.43861,"Longitude":0.64566}},"Address":{"Label":"37390 La Membrolle-sur-Choisille, France","Country":"FRA","State":"Centre-Val de Loire","County":"Indre-et-Loire","City":"La Membrolle-sur-Choisille","PostalCode":"37390","AdditionalData":[{"value":"France","key":"CountryName"},{"value":"Centre-Val de Loire","key":"StateName"},{"value":"Indre-et-Loire","key":"CountyName"}]},"MapReference":{"ReferenceId":"57438810","Spot":0.0,"SideOfStreet":"right","CountryId":"20000001","StateId":"20002113","CountyId":"20067264","CityId":"20067722"}}},{"Relevance":1.0,"Distance":83.1,"MatchLevel":"street","MatchQuality":{"Country":1.0,"State":1.0,"County":1.0,"City":1.0,"PostalCode":1.0},"Location":{"LocationId":"NT_vGI5qv.cHwvsJHYvNqix8B_l_57438803_L","LocationType":"point","DisplayPosition":{"Latitude":47.43902,"Longitude":0.64762},"MapView":{"TopLeft":{"Latitude":47.44157,"Longitude":0.64762},"BottomRight":{"Latitude":47.43902,"Longitude":0.64963}},"Address":{"Label":"37390 La Membrolle-sur-Choisille, France","Country":"FRA","State":"Centre-Val de Loire","County":"Indre-et-Loire","City":"La Membrolle-sur-Choisille","PostalCode":"37390","AdditionalData":[{"value":"France","key":"CountryName"},{"value":"Centre-Val de Loire","key":"StateName"},{"value":"Indre-et-Loire","key":"CountyName"}]},"MapReference":{"ReferenceId":"57438803","Spot":0.0,"SideOfStreet":"left","CountryId":"20000001","StateId":"20002113","CountyId":"20067264","CityId":"20067722"}}},{"Relevance":1.0,"Distance":84.1,"MatchLevel":"street","MatchQuality":{"Country":1.0,"State":1.0,"County":1.0,"City":1.0,"PostalCode":1.0},"Location":{"LocationId":"NT_vGI5qv.cHwvsJHYvNqix8B_l_59361094_L","LocationType":"point","DisplayPosition":{"Latitude":47.43821,"Longitude":0.64659},"MapView":{"TopLeft":{"Latitude":47.43821,"Longitude":0.64624},"BottomRight":{"Latitude":47.438,"Longitude":0.64659}},"Address":{"Label":"37390 La Membrolle-sur-Choisille, France","Country":"FRA","State":"Centre-Val de Loire","County":"Indre-et-Loire","City":"La Membrolle-sur-Choisille","PostalCode":"37390","AdditionalData":[{"value":"France","key":"CountryName"},{"value":"Centre-Val de Loire","key":"StateName"},{"value":"Indre-et-Loire","key":"CountyName"}]},"MapReference":{"ReferenceId":"59361094","Spot":1.0,"SideOfStreet":"left","CountryId":"20000001","StateId":"20002113","CountyId":"20067264","CityId":"20067722"}}},{"Relevance":1.0,"Distance":104.9,"MatchLevel":"street","MatchQuality":{"Country":1.0,"State":1.0,"County":1.0,"City":1.0,"PostalCode":1.0},"Location":{"LocationId":"NT_vGI5qv.cHwvsJHYvNqix8B_l_57438822_R","LocationType":"point","DisplayPosition":{"Latitude":47.4380649,"Longitude":0.6461003},"MapView":{"TopLeft":{"Latitude":47.43826,"Longitude":0.64568},"BottomRight":{"Latitude":47.438,"Longitude":0.64624}},"Address":{"Label":"37390 La Membrolle-sur-Choisille, France","Country":"FRA","State":"Centre-Val de Loire","County":"Indre-et-Loire","City":"La Membrolle-sur-Choisille","PostalCode":"37390","AdditionalData":[{"value":"France","key":"CountryName"},{"value":"Centre-Val de Loire","key":"StateName"},{"value":"Indre-et-Loire","key":"CountyName"}]},"MapReference":{"ReferenceId":"57438822","Spot":0.25,"SideOfStreet":"right","CountryId":"20000001","StateId":"20002113","CountyId":"20067264","CityId":"20067722"}}},{"Relevance":1.0,"Distance":109.3,"MatchLevel":"street","MatchQuality":{"Country":1.0,"State":1.0,"County":1.0,"City":1.0,"PostalCode":1.0},"Location":{"LocationId":"NT_vGI5qv.cHwvsJHYvNqix8B_l_57438859_R","LocationType":"point","DisplayPosition":{"Latitude":47.438,"Longitude":0.64624},"MapView":{"TopLeft":{"Latitude":47.438,"Longitude":0.64574},"BottomRight":{"Latitude":47.43646,"Longitude":0.64636}},"Address":{"Label":"37390 La Membrolle-sur-Choisille, France","Country":"FRA","State":"Centre-Val de Loire","County":"Indre-et-Loire","City":"La Membrolle-sur-Choisille","PostalCode":"37390","AdditionalData":[{"value":"France","key":"CountryName"},{"value":"Centre-Val de Loire","key":"StateName"},{"value":"Indre-et-Loire","key":"CountyName"}]},"MapReference":{"ReferenceId":"57438859","Spot":1.0,"SideOfStreet":"right","CountryId":"20000001","StateId":"20002113","CountyId":"20067264","CityId":"20067722"}}},{"Relevance":1.0,"Distance":145.9,"MatchLevel":"street","MatchQuality":{"Country":1.0,"State":1.0,"County":1.0,"City":1.0,"PostalCode":1.0},"Location":{"LocationId":"NT_vGI5qv.cHwvsJHYvNqix8B_l_57438934_R","LocationType":"point","DisplayPosition":{"Latitude":47.43986,"Longitude":0.6451},"MapView":{"TopLeft":{"Latitude":47.43998,"Longitude":0.64508},"BottomRight":{"Latitude":47.43986,"Longitude":0.6451}},"Address":{"Label":"37390 La Membrolle-sur-Choisille, France","Country":"FRA","State":"Centre-Val de Loire","County":"Indre-et-Loire","City":"La Membrolle-sur-Choisille","PostalCode":"37390","AdditionalData":[{"value":"France","key":"CountryName"},{"value":"Centre-Val de Loire","key":"StateName"},{"value":"Indre-et-Loire","key":"CountyName"}]},"MapReference":{"ReferenceId":"57438934","Spot":0.0,"SideOfStreet":"right","CountryId":"20000001","StateId":"20002113","CountyId":"20067264","CityId":"20067722"}}},{"Relevance":1.0,"Distance":149.2,"MatchLevel":"street","MatchQuality":{"Country":1.0,"State":1.0,"County":1.0,"City":1.0,"PostalCode":1.0},"Location":{"LocationId":"NT_s9mMyEhaJ5oFY1zPY63vYD_l_57438931_R","LocationType":"point","DisplayPosition":{"Latitude":47.4401,"Longitude":0.64546},"MapView":{"TopLeft":{"Latitude":47.4401,"Longitude":0.64508},"BottomRight":{"Latitude":47.43998,"Longitude":0.64546}},"Address":{"Label":"37390 La Membrolle-sur-Choisille, France","Country":"FRA","State":"Centre-Val de Loire","County":"Indre-et-Loire","City":"La Membrolle-sur-Choisille","PostalCode":"37390","AdditionalData":[{"value":"France","key":"CountryName"},{"value":"Centre-Val de Loire","key":"StateName"},{"value":"Indre-et-Loire","key":"CountyName"}]},"MapReference":{"ReferenceId":"57438931","Spot":1.0,"SideOfStreet":"right","CountryId":"20000001","StateId":"20002113","CountyId":"20067264","CityId":"20067722"}}}]}]}}