{"Response":{"MetaInfo":{"Timestamp":"2020-03-28T10:15:10.424+0000","NextPageInformation":"2"},"View":[{"_type":"SearchResultsViewType","ViewId":0,"Result":[{"Relevance":1.0,"Distance":0.0,"Direction":0.0,"MatchLevel":"district","MatchQuality":{"Country":1.0,"State":1.0,"County":1.0,"City":1.0,"District":1.0,"PostalCode":1.0},"Location":{"LocationId":"NT_.pjzDfDV0uzMPjknFf1CuC","LocationType":"point","DisplayPosition":{"Latitude":47.4000951,"Longitude":10.9180291},"MapView":{"TopLeft":{"Latitude":47.41314,"Longitude":10.91198},"BottomRight":{"Latitude":47.39008,"Longitude":10.93368}},"Address":{"Label":"Ehrwald, Tirol, Österreich","Country":"AUT","State":"Tirol","County":"Reutte","City":"Ehrwald","District":"Ehrwald","PostalCode":"6632","AdditionalData":[{"value":"Österreich","key":"CountryName"},{"value":"Tirol","key":"StateName"},{"value":"Reutte","key":"CountyName"}]},"MapReference":{"ReferenceId":"1269951714","SideOfStreet":"neither","CountryId":"20128885","StateId":"20136826","CountyId":"20137533","CityId":"20137553","DistrictId":"20137555"}}},{"Relevance":1.0,"Distance":14.1,"MatchLevel":"houseNumber","MatchQuality":{"Country":1.0,"State":1.0,"County":1.0,"City":1.0,"District":1.0,"Street":[1.0],"HouseNumber":1.0,"PostalCode":1.0},"MatchType":"interpolated","Location":{"LocationId":"NT_slNJksT0GoulpFn.A6J.1A_1A","LocationType":"point","DisplayPosition":{"Latitude":47.40002,"Longitude":10.91818},"MapView":{"TopLeft":{"Latitude":47.4011442,"Longitude":10.9165192},"BottomRight":{"Latitude":47.3988958,"Longitude":10.9198408}},"Address":{"Label":"Hauptstraße 5, 6632 Ehrwald, Österreich","Country":"AUT","State":"Tirol","County":"Reutte","City":"Ehrwald","District":"Ehrwald","Street":"Hauptstraße","HouseNumber":"5","PostalCode":"6632","AdditionalData":[{"value":"Österreich","key":"CountryName"},{"value":"Tirol","key":"StateName"},{"value":"Reutte","key":"CountyName"}]},"MapReference":{"ReferenceId":"565254132","Spot":0.16,"SideOfStreet":"right","CountryId":"20128885","StateId":"20136826","CountyId":"20137533","CityId":"20137553","DistrictId":"20137555","AddressId":"161105888","RoadLinkId":"28750294"}}},{"Relevance":1.0,"Distance":27.9,"MatchLevel":"houseNumber","MatchQuality":{"Country":1.0,"State":1.0,"County":1.0,"City":1.0,"District":1.0,"Street":[1.0],"HouseNumber":1.0,"PostalCode":1.0},"MatchType":"interpolated","Location":{"LocationId":"NT_slNJksT0GoulpFn.A6J.1A_2A","LocationType":"point","DisplayPosition":{"Latitude":47.39994,"Longitude":10.91832},"MapView":{"TopLeft":{"Latitude":47.4010642,"Longitude":10.9166592},"BottomRight":{"Latitude":47.3988158,"Longitude":10.9199808}},"Address":{"Label":"Hauptstraße 6, 6632 Ehrwald, Österreich","Country":"AUT","State":"Tirol","County":"Reutte","City":"Ehrwald","District":"Ehrwald","Street":"Hauptstraße","HouseNumber":"6","PostalCode":"6632","AdditionalData":[{"value":"Österreich","key":"CountryName"},{"value":"Tirol","key":"StateName"},{"value":"Reutte","key":"CountyName"}]},"MapReference":{"ReferenceId":"565254125","Spot":0.83,"SideOfStreet":"right","CountryId":"20128885","StateId":"20136826","CountyId":"20137533","CityId":"20137553","DistrictId":"20137555","AddressId":"161105890","RoadLinkId":"27779672"}}},{"Relevance":1.0,"Distance":50.0,"MatchLevel":"houseNumber","MatchQuality":{"Country":1.0,"State":1.0,"County":1.0,"City":1.0,"District":1.0,"Street":[1.0],"HouseNumber":1.0,"PostalCode":1.0},"MatchType":"interpolated","Location":{"LocationId":"NT_slNJksT0GoulpFn.A6J.1A_5A","LocationType":"point","DisplayPosition":{"Latitude":47.4003,"Longitude":10.91865},"MapView":{"TopLeft":{"Latitude":47.4014242,"Longitude":10.9169892},"BottomRight":{"Latitude":47.3991758,"Longitude":10.9203108}},"Address":{"Label":"Hauptstraße 9, 6632 Ehrwald, Österreich","Country":"AUT","State":"Tirol","County":"Reutte","City":"Ehrwald","District":"Ehrwald","Street":"Hauptstraße","HouseNumber":"9","PostalCode":"6632","AdditionalData":[{"value":"Österreich","key":"CountryName"},{"value":"Tirol","key":"StateName"},{"value":"Reutte","key":"CountyName"}]},"MapReference":{"ReferenceId":"834051552","Spot":0.4,"SideOfStreet":"left","CountryId":"20128885","StateId":"20136826","CountyId":"20137533","CityId":"20137553","DistrictId":"20137555","AddressId":"161105666","RoadLinkId":"217309822"}}},{"Relevance":1.0,"Distance":60.4,"MatchLevel":"houseNumber","MatchQuality":{"Country":1.0,"State":1.0,"County":1.0,"City":1.0,"District":1.0,"Street":[1.0],"HouseNumber":1.0,"PostalCode":1.0},"MatchType":"interpolated","Location":{"LocationId":"NT_lDJEqoWnwta6CYI.NqbqtB_yA","LocationType":"point","DisplayPosition":{"Latitude":47.39947,"Longitude":10.91771},"MapView":{"TopLeft":{"Latitude":47.4005942,"Longitude":10.9160492},"BottomRight":{"Latitude":47.3983458,"Longitude":10.9193708}},"Address":{"Label":"Kirweg 2, 6632 Ehrwald, Österreich","Country":"AUT","State":"Tirol","County":"Reutte","City":"Ehrwald","District":"Ehrwald","Street":"Kirweg","HouseNumber":"2","PostalCode":"6632","AdditionalData":[{"value":"Österreich","key":"CountryName"},{"value":"Tirol","key":"StateName"},{"value":"Reutte","key":"CountyName"}]},"MapReference":{"ReferenceId":"565254153","Spot":0.76,"SideOfStreet":"left","CountryId":"20128885","StateId":"20136826","CountyId":"20137533","CityId":"20137553","DistrictId":"20137555","AddressId":"161143388","RoadLinkId":"28047226"}}},{"Relevance":1.0,"Distance":60.5,"MatchLevel":"houseNumber","MatchQuality":{"Country":1.0,"State":1.0,"County":1.0,"City":1.0,"District":1.0,"Street":[1.0],"HouseNumber":1.0,"PostalCode":1.0},"MatchType":"interpolated","Location":{"LocationId":"NT_fNOHkGcXnlDrdjW9dckmpA_yQD","LocationType":"point","DisplayPosition":{"Latitude":47.39926,"Longitude":10.91836},"MapView":{"TopLeft":{"Latitude":47.4003842,"Longitude":10.9166992},"BottomRight":{"Latitude":47.3981358,"Longitude":10.9200208}},"Address":{"Label":"Kirchplatz 24, 6632 Ehrwald, Österreich","Country":"AUT","State":"Tirol","County":"Reutte","City":"Ehrwald","District":"Ehrwald","Street":"Kirchplatz","HouseNumber":"24","PostalCode":"6632","AdditionalData":[{"value":"Österreich","key":"CountryName"},{"value":"Tirol","key":"StateName"},{"value":"Reutte","key":"CountyName"}]},"MapReference":{"ReferenceId":"62777163","Spot":1.0,"SideOfStreet":"right","CountryId":"20128885","StateId":"20136826","CountyId":"20137533","CityId":"20137553","DistrictId":"20137555","AddressId":"411946574","RoadLinkId":"28371183"}}},{"Relevance":1.0,"Distance":62.8,"MatchLevel":"street","MatchQuality":{"Country":1.0,"State":1.0,"County":1.0,"City":1.0,"PostalCode":1.0},"Location":{"LocationId":"NT_BRJSSIXjcUABlUA1vIqHUC_l_565254133_R","LocationType":"point","DisplayPosition":{"Latitude":47.40016,"Longitude":10.9172},"MapView":{"TopLeft":{"Latitude":47.40067,"Longitude":10.91598},"BottomRight":{"Latitude":47.40016,"Longitude":10.9172}},"Address":{"Label":"6632 Ehrwald, Österreich","Country":"AUT","State":"Tirol","County":"Reutte","City":"Ehrwald","PostalCode":"6632","AdditionalData":[{"value":"Österreich","key":"CountryName"},{"value":"Tirol","key":"StateName"},{"value":"Reutte","key":"CountyName"}]},"MapReference":{"ReferenceId":"565254133","Spot":0.0,"SideOfStreet":"right","CountryId":"20128885","StateId":"20136826","CountyId":"20137533","CityId":"20137553"}}},{"Relevance":1.0,"Distance":77.2,"MatchLevel":"houseNumber","MatchQuality":{"Country":1.0,"State":1.0,"County":1.0,"City":1.0,"District":1.0,"Street":[1.0],"HouseNumber":1.0,"PostalCode":1.0},"MatchType":"interpolated","Location":{"LocationId":"NT_XX6oygkyHLZ7k5k534oRpB_xED","LocationType":"point","DisplayPosition":{"Latitude":47.3999,"Longitude":10.91906},"MapView":{"TopLeft":{"Latitude":47.4010242,"Longitude":10.9173992},"BottomRight":{"Latitude":47.3987758,"Longitude":10.9207208}},"Address":{"Label":"Schulweg 11, 6632 Ehrwald, Österreich","Country":"AUT","State":"Tirol","County":"Reutte","City":"Ehrwald","District":"Ehrwald","Street":"Schulweg","HouseNumber":"11","PostalCode":"6632","AdditionalData":[{"value":"Österreich","key":"CountryName"},{"value":"Tirol","key":"StateName"},{"value":"Reutte","key":"CountyName"}]},"MapReference":{"ReferenceId":"565254151","Spot":1.0,"SideOfStreet":"left","CountryId":"20128885","StateId":"20136826","CountyId":"20137533","CityId":"20137553","DistrictId":"20137555","AddressId":"161105218","RoadLinkId":"28331685"}}},{"Relevance":1.0,"Distance":80.0,"MatchLevel":"houseNumber","MatchQuality":{"Country":1.0,"State":1.0,"County":1.0,"City":1.0,"District":1.0,"Street":[1.0],"HouseNumber":1.0,"PostalCode":1.0},"MatchType":"interpolated","Location":{"LocationId":"NT_2-KIQA.HjVh0tWOHCoAjqD_yA","LocationType":"point","DisplayPosition":{"Latitude":47.39939,"Longitude":10.91824},"MapView":{"TopLeft":{"Latitude":47.4005142,"Longitude":10.9165792},"BottomRight":{"Latitude":47.3982658,"Longitude":10.9199008}},"Address":{"Label":"Innsbrucker Straße 2, 6632 Ehrwald, Österreich","Country":"AUT","State":"Tirol","County":"Reutte","City":"Ehrwald","District":"Ehrwald","Street":"Innsbrucker Straße","HouseNumber":"2","PostalCode":"6632","AdditionalData":[{"value":"Österreich","key":"CountryName"},{"value":"Tirol","key":"StateName"},{"value":"Reutte","key":"CountyName"}]},"MapReference":{"ReferenceId":"565254124","Spot":0.44,"SideOfStreet":"left","CountryId":"20128885","StateId":"20136826","CountyId":"20137533","CityId":"20137553","DistrictId":"20137555","AddressId":"161106922","RoadLinkId":"28225120"}}},{"Relevance":1.0,"Distance":96.1,"MatchLevel":"street","MatchQuality":{"Country":1.0,"State":1.0,"County":1.0,"City":1.0,"District":1.0,"Street":[1.0],"PostalCode":1.0},"Location":{"LocationId":"NT_KLxARjsXOGxTGJ7E2obIeA_l_834051562_R","LocationType":"point","DisplayPosition":{"Latitude":47.39926,"Longitude":10.91836},"MapView":{"TopLeft":{"Latitude":47.39926,"Longitude":10.91836},"BottomRight":{"Latitude":47.39912,"Longitude":10.91843}},"Address":{"Label":"Innsbrucker Straße, 6632 Ehrwald, Österreich","Country":"AUT","State":"Tirol","County":"Reutte","City":"Ehrwald","District":"Ehrwald","Street":"Innsbrucker Straße","PostalCode":"6632","AdditionalData":[{"value":"Österreich","key":"CountryName"},{"value":"Tirol","key":"StateName"},{"value":"Reutte","key":"CountyName"}]},"MapReference":{"ReferenceId":"834051562","Spot":1.0,"SideOfStreet":"right","CountryId":"20128885","StateId":"20136826","CountyId":"20137533","CityId":"20137553","DistrictId":"20137555"}}}]}]}}