{"Response":{"MetaInfo":{"Timestamp":"2020-03-28T09:54:58.515+0000","NextPageInformation":"2"},"View":[{"_type":"SearchResultsViewType","ViewId":0,"Result":[{"Relevance":1.0,"Distance":0.0,"Direction":0.0,"MatchLevel":"district","MatchQuality":{"Country":1.0,"State":1.0,"County":1.0,"City":1.0,"District":1.0,"PostalCode":1.0},"Location":{"LocationId":"NT_JZNH.rsnZbmbCXfeRv6JqA","LocationType":"point","DisplayPosition":{"Latitude":47.4018761,"Longitude":19.2487059},"MapView":{"TopLeft":{"Latitude":47.42407,"Longitude":19.2232},"BottomRight":{"Latitude":47.39089,"Longitude":19.29229}},"Address":{"Label":"Vecsés, Pest, Magyarország","Country":"HUN","State":"Pest","County":"Vecsési Járás","City":"Vecsés","District":"Vecsés","PostalCode":"2220","AdditionalData":[{"value":"Magyarország","key":"CountryName"},{"value":"Pest","key":"StateName"},{"value":"Vecsési Járás","key":"CountyName"}]},"MapReference":{"ReferenceId":"583905688","SideOfStreet":"neither","CountryId":"20613038","StateId":"20619051","CountyId":"26678478","CityId":"20619616","DistrictId":"26678530"}}},{"Relevance":1.0,"Distance":5.5,"MatchLevel":"houseNumber","MatchQuality":{"Country":1.0,"State":1.0,"County":1.0,"City":1.0,"District":1.0,"Street":[1.0],"HouseNumber":1.0,"PostalCode":1.0},"MatchType":"interpolated","Location":{"LocationId":"NT_4dJxW4fDr7uigsaLx0FoAD_xAD","LocationType":"point","DisplayPosition":{"Latitude":47.40193,"Longitude":19.2488},"MapView":{"TopLeft":{"Latitude":47.4030542,"Longitude":19.2471391},"BottomRight":{"Latitude":47.4008058,"Longitude":19.2504609}},"Address":{"Label":"Gammel József utca 10, Vecsés 2220, Magyarország","Country":"HUN","State":"Pest","County":"Vecsési Járás","City":"Vecsés","District":"Vecsés","Street":"Gammel József utca","HouseNumber":"10","PostalCode":"2220","AdditionalData":[{"value":"Magyarország","key":"CountryName"},{"value":"Pest","key":"StateName"},{"value":"Vecsési Járás","key":"CountyName"}]},"MapReference":{"ReferenceId":"583906400","Spot":0.51,"SideOfStreet":"left","CountryId":"20613038","StateId":"20619051","CountyId":"26678478","CityId":"20619616","DistrictId":"26678530","AddressId":"355230291","RoadLinkId":"60395988"}}},{"Relevance":1.0,"Distance":55.1,"MatchLevel":"houseNumber","MatchQuality":{"Country":1.0,"State":1.0,"County":1.0,"City":1.0,"District":1.0,"Street":[1.0],"HouseNumber":1.0,"PostalCode":1.0},"MatchType":"interpolated","Location":{"LocationId":"NT_ZcxyYbB86Swy9IIkAKYuwB_xID","LocationType":"point","DisplayPosition":{"Latitude":47.40244,"Longitude":19.24914},"MapView":{"TopLeft":{"Latitude":47.4035642,"Longitude":19.2474791},"BottomRight":{"Latitude":47.4013158,"Longitude":19.2508009}},"Address":{"Label":"Munkácsy Mihály utca 12, Vecsés 2220, Magyarország","Country":"HUN","State":"Pest","County":"Vecsési Járás","City":"Vecsés","District":"Vecsés","Street":"Munkácsy Mihály utca","HouseNumber":"12","PostalCode":"2220","AdditionalData":[{"value":"Magyarország","key":"CountryName"},{"value":"Pest","key":"StateName"},{"value":"Vecsési Járás","key":"CountyName"}]},"MapReference":{"ReferenceId":"936159374","Spot":0.7,"SideOfStreet":"left","CountryId":"20613038","StateId":"20619051","CountyId":"26678478","CityId":"20619616","DistrictId":"26678530","AddressId":"356810110","RoadLinkId":"287156035"}}},{"Relevance":1.0,"Distance":84.2,"MatchLevel":"houseNumber","MatchQuality":{"Country":1.0,"State":1.0,"County":1.0,"City":1.0,"District":1.0,"Street":[1.0],"HouseNumber":1.0,"PostalCode":1.0},"MatchType":"interpolated","Location":{"LocationId":"NT_tFxwx9pqCBkMq7UW43BxWA_2ID","LocationType":"point","DisplayPosition":{"Latitude":47.40212,"Longitude":19.24745},"MapView":{"TopLeft":{"Latitude":47.4032442,"Longitude":19.2457891},"BottomRight":{"Latitude":47.4009958,"Longitude":19.2491109}},"Address":{"Label":"Szabadkai utca 62, Vecsés 2220, Magyarország","Country":"HUN","State":"Pest","County":"Vecsési Járás","City":"Vecsés","District":"Vecsés","Street":"Szabadkai utca","HouseNumber":"62","PostalCode":"2220","AdditionalData":[{"value":"Magyarország","key":"CountryName"},{"value":"Pest","key":"StateName"},{"value":"Vecsési Járás","key":"CountyName"}]},"MapReference":{"ReferenceId":"583906337","Spot":0.51,"SideOfStreet":"right","CountryId":"20613038","StateId":"20619051","CountyId":"26678478","CityId":"20619616","DistrictId":"26678530","AddressId":"354973166","RoadLinkId":"60748967"}}},{"Relevance":1.0,"Distance":85.7,"MatchLevel":"houseNumber","MatchQuality":{"Country":1.0,"State":1.0,"County":1.0,"City":1.0,"District":1.0,"Street":[1.0],"HouseNumber":1.0,"PostalCode":1.0},"MatchType":"interpolated","Location":{"LocationId":"NT_3svk40DaEiLnzQu.GcreUC_5A","LocationType":"point","DisplayPosition":{"Latitude":47.40104,"Longitude":19.24825},"MapView":{"TopLeft":{"Latitude":47.4021642,"Longitude":19.2465892},"BottomRight":{"Latitude":47.3999158,"Longitude":19.2499108}},"Address":{"Label":"Széchenyi utca 9, Vecsés 2220, Magyarország","Country":"HUN","State":"Pest","County":"Vecsési Járás","City":"Vecsés","District":"Vecsés","Street":"Széchenyi utca","HouseNumber":"9","PostalCode":"2220","AdditionalData":[{"value":"Magyarország","key":"CountryName"},{"value":"Pest","key":"StateName"},{"value":"Vecsési Járás","key":"CountyName"}]},"MapReference":{"ReferenceId":"769163647","Spot":0.21,"SideOfStreet":"right","CountryId":"20613038","StateId":"20619051","CountyId":"26678478","CityId":"20619616","DistrictId":"26678530","AddressId":"356755468","RoadLinkId":"162726232"}}},{"Relevance":1.0,"Distance":89.0,"MatchLevel":"houseNumber","MatchQuality":{"Country":1.0,"State":1.0,"County":1.0,"City":1.0,"District":1.0,"Street":[1.0],"HouseNumber":1.0,"PostalCode":1.0},"MatchType":"interpolated","Location":{"LocationId":"NT_ZcxyYbB86Swy9IIkAKYuwB_xgD","LocationType":"point","DisplayPosition":{"Latitude":47.40276,"Longitude":19.24861},"MapView":{"TopLeft":{"Latitude":47.4038842,"Longitude":19.2469491},"BottomRight":{"Latitude":47.4016358,"Longitude":19.2502709}},"Address":{"Label":"Munkácsy Mihály utca 18, Vecsés 2220, Magyarország","Country":"HUN","State":"Pest","County":"Vecsési Járás","City":"Vecsés","District":"Vecsés","Street":"Munkácsy Mihály utca","HouseNumber":"18","PostalCode":"2220","AdditionalData":[{"value":"Magyarország","key":"CountryName"},{"value":"Pest","key":"StateName"},{"value":"Vecsési Járás","key":"CountyName"}]},"MapReference":{"ReferenceId":"936159375","Spot":0.13,"SideOfStreet":"left","CountryId":"20613038","StateId":"20619051","CountyId":"26678478","CityId":"20619616","DistrictId":"26678530","AddressId":"356424541","RoadLinkId":"287156036"}}},{"Relevance":1.0,"Distance":90.6,"MatchLevel":"houseNumber","MatchQuality":{"Country":1.0,"State":1.0,"County":1.0,"City":1.0,"District":1.0,"Street":[1.0],"HouseNumber":1.0,"PostalCode":1.0},"MatchType":"interpolated","Location":{"LocationId":"NT_tFxwx9pqCBkMq7UW43BxWA_3kD","LocationType":"point","DisplayPosition":{"Latitude":47.40251,"Longitude":19.24795},"MapView":{"TopLeft":{"Latitude":47.4036342,"Longitude":19.2462891},"BottomRight":{"Latitude":47.4013858,"Longitude":19.2496109}},"Address":{"Label":"Szabadkai utca 79, Vecsés 2220, Magyarország","Country":"HUN","State":"Pest","County":"Vecsési Járás","City":"Vecsés","District":"Vecsés","Street":"Szabadkai utca","HouseNumber":"79","PostalCode":"2220","AdditionalData":[{"value":"Magyarország","key":"CountryName"},{"value":"Pest","key":"StateName"},{"value":"Vecsési Járás","key":"CountyName"}]},"MapReference":{"ReferenceId":"583906173","Spot":0.13,"SideOfStreet":"left","CountryId":"20613038","StateId":"20619051","CountyId":"26678478","CityId":"20619616","DistrictId":"26678530","AddressId":"356509683","RoadLinkId":"60538734"}}},{"Relevance":1.0,"Distance":97.3,"MatchLevel":"street","MatchQuality":{"Country":1.0,"State":1.0,"County":1.0,"City":1.0,"District":1.0,"PostalCode":1.0},"Location":{"LocationId":"NT_Ny9ecrzjuGvsOYsfexDW2C_l_583906399_L","LocationType":"point","DisplayPosition":{"Latitude":47.40137,"Longitude":19.24976},"MapView":{"TopLeft":{"Latitude":47.40157,"Longitude":19.24976},"BottomRight":{"Latitude":47.40137,"Longitude":19.25004}},"Address":{"Label":"Vecsés 2220, Magyarország","Country":"HUN","State":"Pest","County":"Vecsési Járás","City":"Vecsés","District":"Vecsés","PostalCode":"2220","AdditionalData":[{"value":"Magyarország","key":"CountryName"},{"value":"Pest","key":"StateName"},{"value":"Vecsési Járás","key":"CountyName"}]},"MapReference":{"ReferenceId":"583906399","Spot":0.0,"SideOfStreet":"left","CountryId":"20613038","StateId":"20619051","CountyId":"26678478","CityId":"20619616","DistrictId":"26678530"}}},{"Relevance":1.0,"Distance":103.5,"MatchLevel":"houseNumber","MatchQuality":{"Country":1.0,"State":1.0,"County":1.0,"City":1.0,"District":1.0,"Street":[1.0],"HouseNumber":1.0,"PostalCode":1.0},"MatchType":"interpolated","Location":{"LocationId":"NT_ZcxyYbB86Swy9IIkAKYuwB_l_583906369_L_yA","LocationType":"point","DisplayPosition":{"Latitude":47.401666,"Longitude":19.2501663},"MapView":{"TopLeft":{"Latitude":47.4027901,"Longitude":19.2485054},"BottomRight":{"Latitude":47.4005418,"Longitude":19.2518271}},"Address":{"Label":"Munkácsy Mihály utca 2, Vecsés 2220, Magyarország","Country":"HUN","State":"Pest","County":"Vecsési Járás","City":"Vecsés","District":"Vecsés","Street":"Munkácsy Mihály utca","HouseNumber":"2","PostalCode":"2220","AdditionalData":[{"value":"Magyarország","key":"CountryName"},{"value":"Pest","key":"StateName"},{"value":"Vecsési Járás","key":"CountyName"}]},"MapReference":{"ReferenceId":"583906369","Spot":0.51,"SideOfStreet":"left","CountryId":"20613038","StateId":"20619051","CountyId":"26678478","CityId":"20619616","DistrictId":"26678530"}}},{"Relevance":1.0,"Distance":108.6,"MatchLevel":"houseNumber","MatchQuality":{"Country":1.0,"State":1.0,"County":1.0,"City":1.0,"District":1.0,"Street":[1.0],"HouseNumber":1.0,"PostalCode":1.0},"MatchType":"interpolated","Location":{"LocationId":"NT_3svk40DaEiLnzQu.GcreUC_1A","LocationType":"point","DisplayPosition":{"Latitude":47.40081,"Longitude":19.24864},"MapView":{"TopLeft":{"Latitude":47.4019342,"Longitude":19.2469792},"BottomRight":{"Latitude":47.3996858,"Longitude":19.2503008}},"Address":{"Label":"Széchenyi utca 5, Vecsés 2220, Magyarország","Country":"HUN","State":"Pest","County":"Vecsési Járás","City":"Vecsés","District":"Vecsés","Street":"Széchenyi utca","HouseNumber":"5","PostalCode":"2220","AdditionalData":[{"value":"Magyarország","key":"CountryName"},{"value":"Pest","key":"StateName"},{"value":"Vecsési Járás","key":"CountyName"}]},"MapReference":{"ReferenceId":"769163646","Spot":0.83,"SideOfStreet":"right","CountryId":"20613038","StateId":"20619051","CountyId":"26678478","CityId":"20619616","DistrictId":"26678530","AddressId":"355062478","RoadLinkId":"162726231"}}}]}]}}