{"Response":{"MetaInfo":{"Timestamp":"2020-03-28T11:22:02.197+0000","NextPageInformation":"2"},"View":[{"_type":"SearchResultsViewType","ViewId":0,"Result":[{"Relevance":1.0,"Distance":0.0,"Direction":0.0,"MatchLevel":"district","MatchQuality":{"Country":1.0,"State":1.0,"County":1.0,"City":1.0,"District":1.0,"PostalCode":1.0},"Location":{"LocationId":"NT_KmKzl7BtjdYU.wc.wALHEC","LocationType":"point","DisplayPosition":{"Latitude":47.483901,"Longitude":19.070546},"MapView":{"TopLeft":{"Latitude":47.48968,"Longitude":19.05642},"BottomRight":{"Latitude":47.43995,"Longitude":19.12799}},"Address":{"Label":"Budapest 9, Budapest, Magyarország","Country":"HUN","State":"Budapest","County":"Budapest","City":"Budapest","District":"Budapest 9","PostalCode":"1093","AdditionalData":[{"value":"Magyarország","key":"CountryName"},{"value":"Budapest","key":"StateName"},{"value":"Budapest","key":"CountyName"}]},"MapReference":{"ReferenceId":"1190632320","SideOfStreet":"neither","CountryId":"20613038","StateId":"20616317","CountyId":"20616318","CityId":"26682433","DistrictId":"20616342"}}},{"Relevance":1.0,"Distance":7.7,"MatchLevel":"houseNumber","MatchQuality":{"Country":1.0,"State":1.0,"County":1.0,"City":1.0,"District":1.0,"Street":[1.0],"HouseNumber":1.0,"PostalCode":1.0},"MatchType":"interpolated","Location":{"LocationId":"NT_YBY.HtGkl2RZOG0JQrNMpD_zgD","LocationType":"point","DisplayPosition":{"Latitude":47.48397,"Longitude":19.07054},"MapView":{"TopLeft":{"Latitude":47.4850942,"Longitude":19.0688766},"BottomRight":{"Latitude":47.4828458,"Longitude":19.0722034}},"Address":{"Label":"Angyal utca 38, Budapest 1094, Magyarország","Country":"HUN","State":"Budapest","County":"Budapest","City":"Budapest","District":"Budapest 9","Street":"Angyal utca","HouseNumber":"38","PostalCode":"1094","AdditionalData":[{"value":"Magyarország","key":"CountryName"},{"value":"Budapest","key":"StateName"},{"value":"Budapest","key":"CountyName"}]},"MapReference":{"ReferenceId":"924576865","Spot":0.83,"SideOfStreet":"left","CountryId":"20613038","StateId":"20616317","CountyId":"20616318","CityId":"26682433","DistrictId":"20616342","AddressId":"354865877","RoadLinkId":"279951454"}}},{"Relevance":1.0,"Distance":35.0,"MatchLevel":"houseNumber","MatchQuality":{"Country":1.0,"State":1.0,"County":1.0,"City":1.0,"District":1.0,"Street":[1.0],"HouseNumber":1.0,"PostalCode":1.0},"MatchType":"interpolated","Location":{"LocationId":"NT_N14p9wrNsdPeA3t5fffdIB_1A","LocationType":"point","DisplayPosition":{"Latitude":47.48429,"Longitude":19.07043},"MapView":{"TopLeft":{"Latitude":47.4854142,"Longitude":19.0687665},"BottomRight":{"Latitude":47.4831658,"Longitude":19.0720935}},"Address":{"Label":"Tűzoltó utca 5, Budapest 1094, Magyarország","Country":"HUN","State":"Budapest","County":"Budapest","City":"Budapest","District":"Budapest 9","Street":"Tűzoltó utca","HouseNumber":"5","PostalCode":"1094","AdditionalData":[{"value":"Magyarország","key":"CountryName"},{"value":"Budapest","key":"StateName"},{"value":"Budapest","key":"CountyName"}]},"MapReference":{"ReferenceId":"917509992","Spot":0.45,"SideOfStreet":"left","CountryId":"20613038","StateId":"20616317","CountyId":"20616318","CityId":"26682433","DistrictId":"20616342","AddressId":"356159782","RoadLinkId":"275078250"}}},{"Relevance":1.0,"Distance":35.2,"MatchLevel":"street","MatchQuality":{"Country":1.0,"State":1.0,"County":1.0,"City":1.0,"District":1.0,"PostalCode":1.0},"Location":{"LocationId":"NT_XR2KvrXnoVSniD-j7y3ODD_l_924576861_L","LocationType":"point","DisplayPosition":{"Latitude":47.48421,"Longitude":19.07065},"MapView":{"TopLeft":{"Latitude":47.48451,"Longitude":19.07065},"BottomRight":{"Latitude":47.48417,"Longitude":19.07185}},"Address":{"Label":"Budapest 1094, Magyarország","Country":"HUN","State":"Budapest","County":"Budapest","City":"Budapest","District":"Budapest 9","PostalCode":"1094","AdditionalData":[{"value":"Magyarország","key":"CountryName"},{"value":"Budapest","key":"StateName"},{"value":"Budapest","key":"CountyName"}]},"MapReference":{"ReferenceId":"924576861","Spot":1.0,"SideOfStreet":"left","CountryId":"20613038","StateId":"20616317","CountyId":"20616318","CityId":"26682433","DistrictId":"20616342"}}},{"Relevance":1.0,"Distance":59.3,"MatchLevel":"houseNumber","MatchQuality":{"Country":1.0,"State":1.0,"County":1.0,"City":1.0,"District":1.0,"Street":[1.0],"HouseNumber":1.0,"PostalCode":1.0},"MatchType":"interpolated","Location":{"LocationId":"NT_N14p9wrNsdPeA3t5fffdIB_3A","LocationType":"point","DisplayPosition":{"Latitude":47.48395,"Longitude":19.07141},"MapView":{"TopLeft":{"Latitude":47.4850742,"Longitude":19.0697466},"BottomRight":{"Latitude":47.4828258,"Longitude":19.0730734}},"Address":{"Label":"Tűzoltó utca 7, Budapest 1094, Magyarország","Country":"HUN","State":"Budapest","County":"Budapest","City":"Budapest","District":"Budapest 9","Street":"Tűzoltó utca","HouseNumber":"7","PostalCode":"1094","AdditionalData":[{"value":"Magyarország","key":"CountryName"},{"value":"Budapest","key":"StateName"},{"value":"Budapest","key":"CountyName"}]},"MapReference":{"ReferenceId":"836847208","Spot":0.26,"SideOfStreet":"left","CountryId":"20613038","StateId":"20616317","CountyId":"20616318","CityId":"26682433","DistrictId":"20616342","AddressId":"356093036","RoadLinkId":"220009200"}}},{"Relevance":1.0,"Distance":69.6,"MatchLevel":"houseNumber","MatchQuality":{"Country":1.0,"State":1.0,"County":1.0,"City":1.0,"District":1.0,"Street":[1.0],"HouseNumber":1.0,"PostalCode":1.0},"MatchType":"interpolated","Location":{"LocationId":"NT_P9TlmdwCEPhUzHg3943jAD_zcD","LocationType":"point","DisplayPosition":{"Latitude":47.48418,"Longitude":19.06943},"MapView":{"TopLeft":{"Latitude":47.4853042,"Longitude":19.0677665},"BottomRight":{"Latitude":47.4830558,"Longitude":19.0710935}},"Address":{"Label":"Ferenc körút 37, Budapest 1094, Magyarország","Country":"HUN","State":"Budapest","County":"Budapest","City":"Budapest","District":"Budapest 9","Street":"Ferenc körút","HouseNumber":"37","PostalCode":"1094","AdditionalData":[{"value":"Magyarország","key":"CountryName"},{"value":"Budapest","key":"StateName"},{"value":"Budapest","key":"CountyName"}]},"MapReference":{"ReferenceId":"924576863","Spot":0.72,"SideOfStreet":"right","CountryId":"20613038","StateId":"20616317","CountyId":"20616318","CityId":"26682433","DistrictId":"20616342","AddressId":"356434416","RoadLinkId":"279951452"}}},{"Relevance":1.0,"Distance":69.9,"MatchLevel":"houseNumber","MatchQuality":{"Country":1.0,"State":1.0,"County":1.0,"City":1.0,"District":1.0,"Street":[1.0],"HouseNumber":1.0,"PostalCode":1.0},"MatchType":"interpolated","Location":{"LocationId":"NT_N14p9wrNsdPeA3t5fffdIB_xA","LocationType":"point","DisplayPosition":{"Latitude":47.48445,"Longitude":19.06998},"MapView":{"TopLeft":{"Latitude":47.4855742,"Longitude":19.0683165},"BottomRight":{"Latitude":47.4833258,"Longitude":19.0716435}},"Address":{"Label":"Tűzoltó utca 1, Budapest 1094, Magyarország","Country":"HUN","State":"Budapest","County":"Budapest","City":"Budapest","District":"Budapest 9","Street":"Tűzoltó utca","HouseNumber":"1","PostalCode":"1094","AdditionalData":[{"value":"Magyarország","key":"CountryName"},{"value":"Budapest","key":"StateName"},{"value":"Budapest","key":"CountyName"}]},"MapReference":{"ReferenceId":"917509993","Spot":0.31,"SideOfStreet":"left","CountryId":"20613038","StateId":"20616317","CountyId":"20616318","CityId":"26682433","DistrictId":"20616342","AddressId":"356169899","RoadLinkId":"275078251"}}},{"Relevance":1.0,"Distance":84.6,"MatchLevel":"street","MatchQuality":{"Country":1.0,"State":1.0,"County":1.0,"City":1.0,"District":1.0,"Street":[1.0],"PostalCode":1.0},"Location":{"LocationId":"NT_Z-3glZyzfPR1pRuxa9wjqC_l_930578952_L","LocationType":"point","DisplayPosition":{"Latitude":47.48386,"Longitude":19.07167},"MapView":{"TopLeft":{"Latitude":47.48391,"Longitude":19.07167},"BottomRight":{"Latitude":47.48386,"Longitude":19.07192}},"Address":{"Label":"Tűzliliom park, Budapest 1094, Magyarország","Country":"HUN","State":"Budapest","County":"Budapest","City":"Budapest","District":"Budapest 9","Street":"Tűzliliom park","PostalCode":"1094","AdditionalData":[{"value":"Magyarország","key":"CountryName"},{"value":"Budapest","key":"StateName"},{"value":"Budapest","key":"CountyName"}]},"MapReference":{"ReferenceId":"930578952","Spot":0.0,"SideOfStreet":"left","CountryId":"20613038","StateId":"20616317","CountyId":"20616318","CityId":"26682433","DistrictId":"20616342"}}},{"Relevance":1.0,"Distance":84.6,"MatchLevel":"street","MatchQuality":{"Country":1.0,"State":1.0,"County":1.0,"City":1.0,"District":1.0,"PostalCode":1.0},"Location":{"LocationId":"NT_XR2KvrXnoVSniD-j7y3ODD_l_924576860_L","LocationType":"point","DisplayPosition":{"Latitude":47.48386,"Longitude":19.07167},"MapView":{"TopLeft":{"Latitude":47.48417,"Longitude":19.07167},"BottomRight":{"Latitude":47.48386,"Longitude":19.07185}},"Address":{"Label":"Budapest 1094, Magyarország","Country":"HUN","State":"Budapest","County":"Budapest","City":"Budapest","District":"Budapest 9","PostalCode":"1094","AdditionalData":[{"value":"Magyarország","key":"CountryName"},{"value":"Budapest","key":"StateName"},{"value":"Budapest","key":"CountyName"}]},"MapReference":{"ReferenceId":"924576860","Spot":0.0,"SideOfStreet":"left","CountryId":"20613038","StateId":"20616317","CountyId":"20616318","CityId":"26682433","DistrictId":"20616342"}}},{"Relevance":1.0,"Distance":94.6,"MatchLevel":"houseNumber","MatchQuality":{"Country":1.0,"State":1.0,"County":1.0,"City":1.0,"District":1.0,"Street":[1.0],"HouseNumber":1.0,"PostalCode":1.0},"MatchType":"interpolated","Location":{"LocationId":"NT_N14p9wrNsdPeA3t5fffdIB_l_930578948_L_5A","LocationType":"point","DisplayPosition":{"Latitude":47.4838072,"Longitude":19.0718093},"MapView":{"TopLeft":{"Latitude":47.4849313,"Longitude":19.0701458},"BottomRight":{"Latitude":47.482683,"Longitude":19.0734727}},"Address":{"Label":"Tűzoltó utca 9, Budapest 1094, Magyarország","Country":"HUN","State":"Budapest","County":"Budapest","City":"Budapest","District":"Budapest 9","Street":"Tűzoltó utca","HouseNumber":"9","PostalCode":"1094","AdditionalData":[{"value":"Magyarország","key":"CountryName"},{"value":"Budapest","key":"StateName"},{"value":"Budapest","key":"CountyName"}]},"MapReference":{"ReferenceId":"930578948","Spot":0.52,"SideOfStreet":"left","CountryId":"20613038","StateId":"20616317","CountyId":"20616318","CityId":"26682433","DistrictId":"20616342"}}}]}]}}