{"Response":{"MetaInfo":{"Timestamp":"2020-03-28T12:02:03.881+0000","NextPageInformation":"2"},"View":[{"_type":"SearchResultsViewType","ViewId":0,"Result":[{"Relevance":1.0,"Distance":0.0,"Direction":0.0,"MatchLevel":"district","MatchQuality":{"Country":1.0,"State":1.0,"County":1.0,"City":1.0,"District":1.0,"PostalCode":1.0},"Location":{"LocationId":"NT_QY0vUSn8Mx74ZWogd2Hg2A","LocationType":"point","DisplayPosition":{"Latitude":47.4341089,"Longitude":19.1589667},"MapView":{"TopLeft":{"Latitude":47.46625,"Longitude":19.11393},"BottomRight":{"Latitude":47.42521,"Longitude":19.17202}},"Address":{"Label":"Budapest 19, Budapest, Magyarország","Country":"HUN","State":"Budapest","County":"Budapest","City":"Budapest","District":"Budapest 19","PostalCode":"1196","AdditionalData":[{"value":"Magyarország","key":"CountryName"},{"value":"Budapest","key":"StateName"},{"value":"Budapest","key":"CountyName"}]},"MapReference":{"ReferenceId":"847196482","SideOfStreet":"neither","CountryId":"20613038","StateId":"20616317","CountyId":"20616318","CityId":"26682433","DistrictId":"20616330"}}},{"Relevance":1.0,"Distance":6.5,"MatchLevel":"houseNumber","MatchQuality":{"Country":1.0,"State":1.0,"County":1.0,"City":1.0,"District":1.0,"Street":[1.0],"HouseNumber":1.0,"PostalCode":1.0},"MatchType":"interpolated","Location":{"LocationId":"NT_G6EbmLjK1.5p2Q1fxXCJxB_zID","LocationType":"point","DisplayPosition":{"Latitude":47.4342,"Longitude":19.15888},"MapView":{"TopLeft":{"Latitude":47.4353242,"Longitude":19.1572181},"BottomRight":{"Latitude":47.4330758,"Longitude":19.1605419}},"Address":{"Label":"Nagyenyed utca 32, Budapest 1194, Magyarország","Country":"HUN","State":"Budapest","County":"Budapest","City":"Budapest","District":"Budapest 19","Street":"Nagyenyed utca","HouseNumber":"32","PostalCode":"1194","AdditionalData":[{"value":"Magyarország","key":"CountryName"},{"value":"Budapest","key":"StateName"},{"value":"Budapest","key":"CountyName"}]},"MapReference":{"ReferenceId":"583899199","Spot":0.59,"SideOfStreet":"right","CountryId":"20613038","StateId":"20616317","CountyId":"20616318","CityId":"26682433","DistrictId":"20616330","AddressId":"356680148","RoadLinkId":"60637350"}}},{"Relevance":1.0,"Distance":54.0,"MatchLevel":"houseNumber","MatchQuality":{"Country":1.0,"State":1.0,"County":1.0,"City":1.0,"District":1.0,"Street":[1.0],"HouseNumber":1.0,"PostalCode":1.0},"MatchType":"interpolated","Location":{"LocationId":"NT_nqgnZTMspCzwkWG2OcGBRD_zUD","LocationType":"point","DisplayPosition":{"Latitude":47.43365,"Longitude":19.15944},"MapView":{"TopLeft":{"Latitude":47.4347742,"Longitude":19.1577781},"BottomRight":{"Latitude":47.4325258,"Longitude":19.1611019}},"Address":{"Label":"Brassó utca 35, Budapest 1194, Magyarország","Country":"HUN","State":"Budapest","County":"Budapest","City":"Budapest","District":"Budapest 19","Street":"Brassó utca","HouseNumber":"35","PostalCode":"1194","AdditionalData":[{"value":"Magyarország","key":"CountryName"},{"value":"Budapest","key":"StateName"},{"value":"Budapest","key":"CountyName"}]},"MapReference":{"ReferenceId":"583899305","Spot":0.51,"SideOfStreet":"left","CountryId":"20613038","StateId":"20616317","CountyId":"20616318","CityId":"26682433","DistrictId":"20616330","AddressId":"356659701","RoadLinkId":"60463020"}}},{"Relevance":1.0,"Distance":72.6,"MatchLevel":"houseNumber","MatchQuality":{"Country":1.0,"State":1.0,"County":1.0,"City":1.0,"District":1.0,"Street":[1.0],"HouseNumber":1.0,"PostalCode":1.0},"MatchType":"interpolated","Location":{"LocationId":"NT_GQYT3llDY5ON7rtazld0KB_ygD","LocationType":"point","DisplayPosition":{"Latitude":47.43472,"Longitude":19.1583},"MapView":{"TopLeft":{"Latitude":47.4358442,"Longitude":19.1566381},"BottomRight":{"Latitude":47.4335958,"Longitude":19.1599619}},"Address":{"Label":"Kelet utca 28, Budapest 1194, Magyarország","Country":"HUN","State":"Budapest","County":"Budapest","City":"Budapest","District":"Budapest 19","Street":"Kelet utca","HouseNumber":"28","PostalCode":"1194","AdditionalData":[{"value":"Magyarország","key":"CountryName"},{"value":"Budapest","key":"StateName"},{"value":"Budapest","key":"CountyName"}]},"MapReference":{"ReferenceId":"583899104","Spot":0.68,"SideOfStreet":"right","CountryId":"20613038","StateId":"20616317","CountyId":"20616318","CityId":"26682433","DistrictId":"20616330","AddressId":"355847698","RoadLinkId":"60355326"}}},{"Relevance":1.0,"Distance":93.7,"MatchLevel":"houseNumber","MatchQuality":{"Country":1.0,"State":1.0,"County":1.0,"City":1.0,"District":1.0,"Street":[1.0],"HouseNumber":1.0,"PostalCode":1.0},"MatchType":"interpolated","Location":{"LocationId":"NT_wCxHlHlZ5EOEys.FKJ.fHC_1UD","LocationType":"point","DisplayPosition":{"Latitude":47.4349,"Longitude":19.15983},"MapView":{"TopLeft":{"Latitude":47.4360242,"Longitude":19.1581681},"BottomRight":{"Latitude":47.4337758,"Longitude":19.1614919}},"Address":{"Label":"Pozsony utca 55, Budapest 1194, Magyarország","Country":"HUN","State":"Budapest","County":"Budapest","City":"Budapest","District":"Budapest 19","Street":"Pozsony utca","HouseNumber":"55","PostalCode":"1194","AdditionalData":[{"value":"Magyarország","key":"CountryName"},{"value":"Budapest","key":"StateName"},{"value":"Budapest","key":"CountyName"}]},"MapReference":{"ReferenceId":"583898815","Spot":0.73,"SideOfStreet":"left","CountryId":"20613038","StateId":"20616317","CountyId":"20616318","CityId":"26682433","DistrictId":"20616330","AddressId":"355236148","RoadLinkId":"60802603"}}},{"Relevance":1.0,"Distance":97.9,"MatchLevel":"houseNumber","MatchQuality":{"Country":1.0,"State":1.0,"County":1.0,"City":1.0,"District":1.0,"Street":[1.0],"HouseNumber":1.0,"PostalCode":1.0},"MatchType":"interpolated","Location":{"LocationId":"NT_wCxHlHlZ5EOEys.FKJ.fHC_1MD","LocationType":"point","DisplayPosition":{"Latitude":47.43508,"Longitude":19.15941},"MapView":{"TopLeft":{"Latitude":47.4362042,"Longitude":19.1577481},"BottomRight":{"Latitude":47.4339558,"Longitude":19.1610719}},"Address":{"Label":"Pozsony utca 53, Budapest 1194, Magyarország","Country":"HUN","State":"Budapest","County":"Budapest","City":"Budapest","District":"Budapest 19","Street":"Pozsony utca","HouseNumber":"53","PostalCode":"1194","AdditionalData":[{"value":"Magyarország","key":"CountryName"},{"value":"Budapest","key":"StateName"},{"value":"Budapest","key":"CountyName"}]},"MapReference":{"ReferenceId":"583898718","Spot":0.29,"SideOfStreet":"left","CountryId":"20613038","StateId":"20616317","CountyId":"20616318","CityId":"26682433","DistrictId":"20616330","AddressId":"357178087","RoadLinkId":"60628738"}}},{"Relevance":1.0,"Distance":120.7,"MatchLevel":"houseNumber","MatchQuality":{"Country":1.0,"State":1.0,"County":1.0,"City":1.0,"District":1.0,"Street":[1.0],"HouseNumber":1.0,"PostalCode":1.0},"MatchType":"interpolated","Location":{"LocationId":"NT_wCxHlHlZ5EOEys.FKJ.fHC_2ED","LocationType":"point","DisplayPosition":{"Latitude":47.43456,"Longitude":19.1606},"MapView":{"TopLeft":{"Latitude":47.4356842,"Longitude":19.1589381},"BottomRight":{"Latitude":47.4334358,"Longitude":19.1622619}},"Address":{"Label":"Pozsony utca 61, Budapest 1194, Magyarország","Country":"HUN","State":"Budapest","County":"Budapest","City":"Budapest","District":"Budapest 19","Street":"Pozsony utca","HouseNumber":"61","PostalCode":"1194","AdditionalData":[{"value":"Magyarország","key":"CountryName"},{"value":"Budapest","key":"StateName"},{"value":"Budapest","key":"CountyName"}]},"MapReference":{"ReferenceId":"583898893","Spot":0.71,"SideOfStreet":"left","CountryId":"20613038","StateId":"20616317","CountyId":"20616318","CityId":"26682433","DistrictId":"20616330","AddressId":"355711858","RoadLinkId":"60510441"}}},{"Relevance":1.0,"Distance":127.7,"MatchLevel":"houseNumber","MatchQuality":{"Country":1.0,"State":1.0,"County":1.0,"City":1.0,"District":1.0,"Street":[1.0],"HouseNumber":1.0,"PostalCode":1.0},"MatchType":"interpolated","Location":{"LocationId":"NT_SWJoyxUJ.Z-A2eW0DWfjRD_zkD","LocationType":"point","DisplayPosition":{"Latitude":47.4331,"Longitude":19.16},"MapView":{"TopLeft":{"Latitude":47.4342242,"Longitude":19.1583382},"BottomRight":{"Latitude":47.4319758,"Longitude":19.1616618}},"Address":{"Label":"Karton utca 39, Budapest 1194, Magyarország","Country":"HUN","State":"Budapest","County":"Budapest","City":"Budapest","District":"Budapest 19","Street":"Karton utca","HouseNumber":"39","PostalCode":"1194","AdditionalData":[{"value":"Magyarország","key":"CountryName"},{"value":"Budapest","key":"StateName"},{"value":"Budapest","key":"CountyName"}]},"MapReference":{"ReferenceId":"1201547100","Spot":0.3,"SideOfStreet":"left","CountryId":"20613038","StateId":"20616317","CountyId":"20616318","CityId":"26682433","DistrictId":"20616330","AddressId":"357160732","RoadLinkId":"514147373"}}},{"Relevance":1.0,"Distance":129.6,"MatchLevel":"houseNumber","MatchQuality":{"Country":1.0,"State":1.0,"County":1.0,"City":1.0,"District":1.0,"Street":[1.0],"HouseNumber":1.0,"PostalCode":1.0},"MatchType":"interpolated","Location":{"LocationId":"NT_G6EbmLjK1.5p2Q1fxXCJxB_yAD","LocationType":"point","DisplayPosition":{"Latitude":47.43514,"Longitude":19.15977},"MapView":{"TopLeft":{"Latitude":47.4362642,"Longitude":19.1581081},"BottomRight":{"Latitude":47.4340158,"Longitude":19.1614319}},"Address":{"Label":"Nagyenyed utca 20, Budapest 1194, Magyarország","Country":"HUN","State":"Budapest","County":"Budapest","City":"Budapest","District":"Budapest 19","Street":"Nagyenyed utca","HouseNumber":"20","PostalCode":"1194","AdditionalData":[{"value":"Magyarország","key":"CountryName"},{"value":"Budapest","key":"StateName"},{"value":"Budapest","key":"CountyName"}]},"MapReference":{"ReferenceId":"583898717","Spot":0.1,"SideOfStreet":"right","CountryId":"20613038","StateId":"20616317","CountyId":"20616318","CityId":"26682433","DistrictId":"20616330","AddressId":"356242107","RoadLinkId":"60610279"}}},{"Relevance":1.0,"Distance":135.0,"MatchLevel":"houseNumber","MatchQuality":{"Country":1.0,"State":1.0,"County":1.0,"City":1.0,"District":1.0,"Street":[1.0],"HouseNumber":1.0,"PostalCode":1.0},"MatchType":"interpolated","Location":{"LocationId":"NT_wCxHlHlZ5EOEys.FKJ.fHC_0cD","LocationType":"point","DisplayPosition":{"Latitude":47.43541,"Longitude":19.15867},"MapView":{"TopLeft":{"Latitude":47.4365342,"Longitude":19.1570081},"BottomRight":{"Latitude":47.4342858,"Longitude":19.1603319}},"Address":{"Label":"Pozsony utca 47, Budapest 1194, Magyarország","Country":"HUN","State":"Budapest","County":"Budapest","City":"Budapest","District":"Budapest 19","Street":"Pozsony utca","HouseNumber":"47","PostalCode":"1194","AdditionalData":[{"value":"Magyarország","key":"CountryName"},{"value":"Budapest","key":"StateName"},{"value":"Budapest","key":"CountyName"}]},"MapReference":{"ReferenceId":"583898638","Spot":0.26,"SideOfStreet":"left","CountryId":"20613038","StateId":"20616317","CountyId":"20616318","CityId":"26682433","DistrictId":"20616330","AddressId":"356453727","RoadLinkId":"60483209"}}}]}]}}