{"Response":{"MetaInfo":{"Timestamp":"2020-03-28T10:14:43.395+0000","NextPageInformation":"2"},"View":[{"_type":"SearchResultsViewType","ViewId":0,"Result":[{"Relevance":1.0,"Distance":0.0,"Direction":0.0,"MatchLevel":"district","MatchQuality":{"Country":1.0,"State":1.0,"County":1.0,"City":1.0,"District":1.0,"PostalCode":1.0},"Location":{"LocationId":"NT_zwFs7WOxeP-RZUsna1O.uC","LocationType":"point","DisplayPosition":{"Latitude":47.485222,"Longitude":15.7236422},"MapView":{"TopLeft":{"Latitude":47.49695,"Longitude":15.71666},"BottomRight":{"Latitude":47.48031,"Longitude":15.73165}},"Address":{"Label":"Ratten, Steiermark, Österreich","Country":"AUT","State":"Steiermark","County":"Weiz","City":"Ratten","District":"Ratten","PostalCode":"8673","AdditionalData":[{"value":"Österreich","key":"CountryName"},{"value":"Steiermark","key":"StateName"},{"value":"Weiz","key":"CountyName"}]},"MapReference":{"ReferenceId":"572547044","SideOfStreet":"neither","CountryId":"20128885","StateId":"20134876","CountyId":"20136607","CityId":"20136764","DistrictId":"20136766"}}},{"Relevance":1.0,"Distance":14.6,"MatchLevel":"houseNumber","MatchQuality":{"Country":1.0,"State":1.0,"County":1.0,"City":1.0,"District":1.0,"Street":[1.0],"HouseNumber":1.0,"PostalCode":1.0},"MatchType":"interpolated","Location":{"LocationId":"NT_wOOSCFPSigjVMTzmfiiT0C_xYDM","LocationType":"point","DisplayPosition":{"Latitude":47.48553,"Longitude":15.72346},"MapView":{"TopLeft":{"Latitude":47.4866542,"Longitude":15.7217965},"BottomRight":{"Latitude":47.4844058,"Longitude":15.7251235}},"Address":{"Label":"Kirchenviertel 160, 8673 Ratten, Österreich","Country":"AUT","State":"Steiermark","County":"Weiz","City":"Ratten","District":"Ratten","Street":"Kirchenviertel","HouseNumber":"160","PostalCode":"8673","AdditionalData":[{"value":"Österreich","key":"CountryName"},{"value":"Steiermark","key":"StateName"},{"value":"Weiz","key":"CountyName"}]},"MapReference":{"ReferenceId":"572547001","Spot":0.63,"SideOfStreet":"right","CountryId":"20128885","StateId":"20134876","CountyId":"20136607","CityId":"20136764","DistrictId":"20136766","AddressId":"161942017","RoadLinkId":"28271641"}}},{"Relevance":1.0,"Distance":31.1,"MatchLevel":"houseNumber","MatchQuality":{"Country":1.0,"State":1.0,"County":1.0,"City":1.0,"District":1.0,"Street":[1.0],"HouseNumber":1.0,"PostalCode":1.0},"MatchType":"interpolated","Location":{"LocationId":"NT_wOOSCFPSigjVMTzmfiiT0C_xUD","LocationType":"point","DisplayPosition":{"Latitude":47.4855,"Longitude":15.72395},"MapView":{"TopLeft":{"Latitude":47.4866242,"Longitude":15.7222865},"BottomRight":{"Latitude":47.4843758,"Longitude":15.7256135}},"Address":{"Label":"Kirchenviertel 15, 8673 Ratten, Österreich","Country":"AUT","State":"Steiermark","County":"Weiz","City":"Ratten","District":"Ratten","Street":"Kirchenviertel","HouseNumber":"15","PostalCode":"8673","AdditionalData":[{"value":"Österreich","key":"CountryName"},{"value":"Steiermark","key":"StateName"},{"value":"Weiz","key":"CountyName"}]},"MapReference":{"ReferenceId":"572547003","Spot":0.97,"SideOfStreet":"left","CountryId":"20128885","StateId":"20134876","CountyId":"20136607","CityId":"20136764","DistrictId":"20136766","AddressId":"161940745","RoadLinkId":"28975737"}}},{"Relevance":1.0,"Distance":35.7,"MatchLevel":"landmark","MatchQuality":{"Country":1.0,"State":1.0,"Name":1.0},"Location":{"LocationId":"NT_YCejEooDltuDVtFcXNB4YC","LocationType":"river","Name":"Feistritz","DisplayPosition":{"Latitude":47.24382,"Longitude":15.78596},"MapView":{"TopLeft":{"Latitude":47.56355,"Longitude":15.68366},"BottomRight":{"Latitude":47.06316,"Longitude":16.00479}},"Address":{"Label":"Österreich","Country":"AUT","State":"Steiermark","AdditionalData":[{"value":"Österreich","key":"CountryName"},{"value":"Steiermark","key":"StateName"}]},"MapReference":{"CountryId":"20128885","StateId":"20134876","PlaceId":"1441509039"}}},{"Relevance":1.0,"Distance":55.0,"MatchLevel":"houseNumber","MatchQuality":{"Country":1.0,"State":1.0,"County":1.0,"City":1.0,"District":1.0,"Street":[1.0],"HouseNumber":1.0,"PostalCode":1.0},"MatchType":"interpolated","Location":{"LocationId":"NT_wOOSCFPSigjVMTzmfiiT0C_5UD","LocationType":"point","DisplayPosition":{"Latitude":47.48546,"Longitude":15.723},"MapView":{"TopLeft":{"Latitude":47.4865842,"Longitude":15.7213365},"BottomRight":{"Latitude":47.4843358,"Longitude":15.7246635}},"Address":{"Label":"Kirchenviertel 95, 8673 Ratten, Österreich","Country":"AUT","State":"Steiermark","County":"Weiz","City":"Ratten","District":"Ratten","Street":"Kirchenviertel","HouseNumber":"95","PostalCode":"8673","AdditionalData":[{"value":"Österreich","key":"CountryName"},{"value":"Steiermark","key":"StateName"},{"value":"Weiz","key":"CountyName"}]},"MapReference":{"ReferenceId":"572432673","Spot":0.55,"SideOfStreet":"left","CountryId":"20128885","StateId":"20134876","CountyId":"20136607","CityId":"20136764","DistrictId":"20136766","AddressId":"161944120","RoadLinkId":"28923097"}}},{"Relevance":1.0,"Distance":60.7,"MatchLevel":"houseNumber","MatchQuality":{"Country":1.0,"State":1.0,"County":1.0,"City":1.0,"Street":[1.0],"HouseNumber":1.0,"PostalCode":1.0},"MatchType":"interpolated","Location":{"LocationId":"NT_S43fwaY81ioT5Uv.Ps-FyB_3AD","LocationType":"point","DisplayPosition":{"Latitude":47.4845,"Longitude":15.72337},"MapView":{"TopLeft":{"Latitude":47.4856242,"Longitude":15.7217065},"BottomRight":{"Latitude":47.4833758,"Longitude":15.7250335}},"Address":{"Label":"Filzmoos 70, 8673 Sankt Jakob im Walde, Österreich","Country":"AUT","State":"Steiermark","County":"Hartberg-Fürstenfeld","City":"Sankt Jakob im Walde","Street":"Filzmoos","HouseNumber":"70","PostalCode":"8673","AdditionalData":[{"value":"Österreich","key":"CountryName"},{"value":"Steiermark","key":"StateName"},{"value":"Hartberg-Fürstenfeld","key":"CountyName"}]},"MapReference":{"ReferenceId":"572547046","Spot":0.66,"SideOfStreet":"right","CountryId":"20128885","StateId":"20134876","CountyId":"26059411","CityId":"20135665","AddressId":"161906103","RoadLinkId":"28467307"}}},{"Relevance":1.0,"Distance":69.8,"MatchLevel":"houseNumber","MatchQuality":{"Country":1.0,"State":1.0,"County":1.0,"City":1.0,"District":1.0,"Street":[1.0],"HouseNumber":1.0,"PostalCode":1.0},"MatchType":"interpolated","Location":{"LocationId":"NT_wOOSCFPSigjVMTzmfiiT0C_yEDM","LocationType":"point","DisplayPosition":{"Latitude":47.485,"Longitude":15.72219},"MapView":{"TopLeft":{"Latitude":47.4861242,"Longitude":15.7205265},"BottomRight":{"Latitude":47.4838758,"Longitude":15.7238535}},"Address":{"Label":"Kirchenviertel 210, 8673 Ratten, Österreich","Country":"AUT","State":"Steiermark","County":"Weiz","City":"Ratten","District":"Ratten","Street":"Kirchenviertel","HouseNumber":"210","PostalCode":"8673","AdditionalData":[{"value":"Österreich","key":"CountryName"},{"value":"Steiermark","key":"StateName"},{"value":"Weiz","key":"CountyName"}]},"MapReference":{"ReferenceId":"572547044","Spot":0.85,"SideOfStreet":"right","CountryId":"20128885","StateId":"20134876","CountyId":"20136607","CityId":"20136764","DistrictId":"20136766","AddressId":"161942397","RoadLinkId":"28948948"}}},{"Relevance":1.0,"Distance":75.0,"MatchLevel":"street","MatchQuality":{"Country":1.0,"State":1.0,"County":1.0,"City":1.0,"District":1.0,"Street":[1.0],"PostalCode":1.0},"Location":{"LocationId":"NT_wOOSCFPSigjVMTzmfiiT0C_l_572432672_R","LocationType":"point","DisplayPosition":{"Latitude":47.48548,"Longitude":15.72272},"MapView":{"TopLeft":{"Latitude":47.48548,"Longitude":15.72226},"BottomRight":{"Latitude":47.48524,"Longitude":15.72272}},"Address":{"Label":"Kirchenviertel, 8673 Ratten, Österreich","Country":"AUT","State":"Steiermark","County":"Weiz","City":"Ratten","District":"Ratten","Street":"Kirchenviertel","PostalCode":"8673","AdditionalData":[{"value":"Österreich","key":"CountryName"},{"value":"Steiermark","key":"StateName"},{"value":"Weiz","key":"CountyName"}]},"MapReference":{"ReferenceId":"572432672","Spot":1.0,"SideOfStreet":"right","CountryId":"20128885","StateId":"20134876","CountyId":"20136607","CityId":"20136764","DistrictId":"20136766"}}},{"Relevance":1.0,"Distance":75.0,"MatchLevel":"street","MatchQuality":{"Country":1.0,"State":1.0,"County":1.0,"City":1.0,"District":1.0,"PostalCode":1.0},"Location":{"LocationId":"NT_BgV9eg3-GaRJhk8Ie.t1CC_l_572432674_R","LocationType":"point","DisplayPosition":{"Latitude":47.48548,"Longitude":15.72272},"MapView":{"TopLeft":{"Latitude":47.48552,"Longitude":15.72269},"BottomRight":{"Latitude":47.48548,"Longitude":15.72272}},"Address":{"Label":"8673 Ratten, Österreich","Country":"AUT","State":"Steiermark","County":"Weiz","City":"Ratten","District":"Ratten","PostalCode":"8673","AdditionalData":[{"value":"Österreich","key":"CountryName"},{"value":"Steiermark","key":"StateName"},{"value":"Weiz","key":"CountyName"}]},"MapReference":{"ReferenceId":"572432674","Spot":0.0,"SideOfStreet":"right","CountryId":"20128885","StateId":"20134876","CountyId":"20136607","CityId":"20136764","DistrictId":"20136766"}}},{"Relevance":1.0,"Distance":78.9,"MatchLevel":"street","MatchQuality":{"Country":1.0,"State":1.0,"County":1.0,"City":1.0,"District":1.0,"Street":[1.0],"PostalCode":1.0},"Location":{"LocationId":"NT_-1bd72gJI3kIQnB-m.GIiA_l_572547000_R","LocationType":"point","DisplayPosition":{"Latitude":47.48552,"Longitude":15.72269},"MapView":{"TopLeft":{"Latitude":47.48552,"Longitude":15.72226},"BottomRight":{"Latitude":47.48524,"Longitude":15.72269}},"Address":{"Label":"Kirchenviertel, 8673 Ratten, Österreich","Country":"AUT","State":"Steiermark","County":"Weiz","City":"Ratten","District":"Ratten","Street":"Kirchenviertel","PostalCode":"8673","AdditionalData":[{"value":"Österreich","key":"CountryName"},{"value":"Steiermark","key":"StateName"},{"value":"Weiz","key":"CountyName"}]},"MapReference":{"ReferenceId":"572547000","Spot":1.0,"SideOfStreet":"right","CountryId":"20128885","StateId":"20134876","CountyId":"20136607","CityId":"20136764","DistrictId":"20136766"}}}]}]}}