{"Response":{"MetaInfo":{"Timestamp":"2020-03-28T11:51:46.892+0000","NextPageInformation":"2"},"View":[{"_type":"SearchResultsViewType","ViewId":0,"Result":[{"Relevance":1.0,"Distance":0.0,"Direction":0.0,"MatchLevel":"district","MatchQuality":{"Country":1.0,"State":1.0,"County":1.0,"City":1.0,"District":1.0,"PostalCode":1.0},"Location":{"LocationId":"NT_KyMveEucwE2t4I4vjTLoBC","LocationType":"point","DisplayPosition":{"Latitude":47.4592496,"Longitude":-0.6595926},"MapView":{"TopLeft":{"Latitude":47.4652,"Longitude":-0.67338},"BottomRight":{"Latitude":47.45431,"Longitude":-0.65335}},"Address":{"Label":"Saint-Jean-de-Linières, Saint-Léger-de-Linières, Pays de la Loire, France","Country":"FRA","State":"Pays de la Loire","County":"Maine-et-Loire","City":"Saint-Léger-de-Linières","District":"Saint-Jean-de-Linières","PostalCode":"49070","AdditionalData":[{"value":"France","key":"CountryName"},{"value":"Pays de la Loire","key":"StateName"},{"value":"Maine-et-Loire","key":"CountyName"}]},"MapReference":{"ReferenceId":"57158965","SideOfStreet":"neither","CountryId":"20000001","StateId":"20068992","CountyId":"20070673","CityId":"20071520","DistrictId":"20071498"}}},{"Relevance":1.0,"Distance":13.7,"MatchLevel":"houseNumber","MatchQuality":{"Country":1.0,"State":1.0,"County":1.0,"City":1.0,"District":1.0,"Street":[1.0],"HouseNumber":1.0,"PostalCode":1.0},"MatchType":"interpolated","Location":{"LocationId":"NT_Ha2Yl3kC1aSN8dE6nMhMvB_2A","LocationType":"point","DisplayPosition":{"Latitude":47.45932,"Longitude":-0.6598},"MapView":{"TopLeft":{"Latitude":47.4604442,"Longitude":-0.6614627},"BottomRight":{"Latitude":47.4581958,"Longitude":-0.6581373}},"Address":{"Label":"6 Chemin des Brulons, 49070 Saint-Léger-de-Linières, France","Country":"FRA","State":"Pays de la Loire","County":"Maine-et-Loire","City":"Saint-Léger-de-Linières","District":"Saint-Jean-de-Linières","Street":"Chemin des Brulons","HouseNumber":"6","PostalCode":"49070","AdditionalData":[{"value":"France","key":"CountryName"},{"value":"Pays de la Loire","key":"StateName"},{"value":"Maine-et-Loire","key":"CountyName"}]},"MapReference":{"ReferenceId":"57159333","Spot":0.83,"SideOfStreet":"right","CountryId":"20000001","StateId":"20068992","CountyId":"20070673","CityId":"20071520","DistrictId":"20071498","AddressId":"572926811","RoadLinkId":"46377413"}}},{"Relevance":1.0,"Distance":21.2,"MatchLevel":"houseNumber","MatchQuality":{"Country":1.0,"State":1.0,"County":1.0,"City":1.0,"District":1.0,"Street":[1.0],"HouseNumber":1.0,"PostalCode":1.0},"MatchType":"interpolated","Location":{"LocationId":"NT_FsiR.JcYidWrFuizL1OWcD_xMD","LocationType":"point","DisplayPosition":{"Latitude":47.4593,"Longitude":-0.65928},"MapView":{"TopLeft":{"Latitude":47.4604242,"Longitude":-0.6609427},"BottomRight":{"Latitude":47.4581758,"Longitude":-0.6576173}},"Address":{"Label":"13 Place des Plantagenêts, 49070 Saint-Léger-de-Linières, France","Country":"FRA","State":"Pays de la Loire","County":"Maine-et-Loire","City":"Saint-Léger-de-Linières","District":"Saint-Jean-de-Linières","Street":"Place des Plantagenêts","HouseNumber":"13","PostalCode":"49070","AdditionalData":[{"value":"France","key":"CountryName"},{"value":"Pays de la Loire","key":"StateName"},{"value":"Maine-et-Loire","key":"CountyName"}]},"MapReference":{"ReferenceId":"1248290305","Spot":0.95,"SideOfStreet":"left","CountryId":"20000001","StateId":"20068992","CountyId":"20070673","CityId":"20071520","DistrictId":"20071498","AddressId":"674390905","RoadLinkId":"570237726"}}},{"Relevance":1.0,"Distance":22.8,"MatchLevel":"street","MatchQuality":{"Country":1.0,"State":1.0,"County":1.0,"City":1.0,"District":1.0,"Street":[1.0],"PostalCode":1.0},"Location":{"LocationId":"NT_b4ZPpcNfNgX-mMhw09ombD_l_1061796845_R","LocationType":"point","DisplayPosition":{"Latitude":47.45907,"Longitude":-0.65974},"MapView":{"TopLeft":{"Latitude":47.45919,"Longitude":-0.6601},"BottomRight":{"Latitude":47.45907,"Longitude":-0.65974}},"Address":{"Label":"Route de la Forêt, 49070 Saint-Léger-de-Linières, France","Country":"FRA","State":"Pays de la Loire","County":"Maine-et-Loire","City":"Saint-Léger-de-Linières","District":"Saint-Jean-de-Linières","Street":"Route de la Forêt","PostalCode":"49070","AdditionalData":[{"value":"France","key":"CountryName"},{"value":"Pays de la Loire","key":"StateName"},{"value":"Maine-et-Loire","key":"CountyName"}]},"MapReference":{"ReferenceId":"1061796845","Spot":0.0,"SideOfStreet":"right","CountryId":"20000001","StateId":"20068992","CountyId":"20070673","CityId":"20071520","DistrictId":"20071498"}}},{"Relevance":1.0,"Distance":23.8,"MatchLevel":"street","MatchQuality":{"Country":1.0,"State":1.0,"County":1.0,"City":1.0,"District":1.0,"Street":[1.0],"PostalCode":1.0},"Location":{"LocationId":"NT_A36rQ80Q3XVHs1eWT3SawD_l_1061808199_R","LocationType":"point","DisplayPosition":{"Latitude":47.4590452,"Longitude":-0.6596855},"MapView":{"TopLeft":{"Latitude":47.45907,"Longitude":-0.65974},"BottomRight":{"Latitude":47.45889,"Longitude":-0.6594}},"Address":{"Label":"Rue de la Roche, 49070 Saint-Léger-de-Linières, France","Country":"FRA","State":"Pays de la Loire","County":"Maine-et-Loire","City":"Saint-Léger-de-Linières","District":"Saint-Jean-de-Linières","Street":"Rue de la Roche","PostalCode":"49070","AdditionalData":[{"value":"France","key":"CountryName"},{"value":"Pays de la Loire","key":"StateName"},{"value":"Maine-et-Loire","key":"CountyName"}]},"MapReference":{"ReferenceId":"1061808199","Spot":0.84,"SideOfStreet":"right","CountryId":"20000001","StateId":"20068992","CountyId":"20070673","CityId":"20071520","DistrictId":"20071498"}}},{"Relevance":1.0,"Distance":33.8,"MatchLevel":"houseNumber","MatchQuality":{"Country":1.0,"State":1.0,"County":1.0,"City":1.0,"District":1.0,"Street":[1.0],"HouseNumber":1.0,"PostalCode":1.0},"MatchType":"interpolated","Location":{"LocationId":"NT_h-lJzwGivYCz32lGBxkVZB_xED","LocationType":"point","DisplayPosition":{"Latitude":47.45976,"Longitude":-0.65923},"MapView":{"TopLeft":{"Latitude":47.4608842,"Longitude":-0.6608927},"BottomRight":{"Latitude":47.4586358,"Longitude":-0.6575673}},"Address":{"Label":"11 Rue Jacqueline Auriol, 49070 Saint-Léger-de-Linières, France","Country":"FRA","State":"Pays de la Loire","County":"Maine-et-Loire","City":"Saint-Léger-de-Linières","District":"Saint-Jean-de-Linières","Street":"Rue Jacqueline Auriol","HouseNumber":"11","PostalCode":"49070","AdditionalData":[{"value":"France","key":"CountryName"},{"value":"Pays de la Loire","key":"StateName"},{"value":"Maine-et-Loire","key":"CountyName"}]},"MapReference":{"ReferenceId":"561228846","Spot":0.0,"SideOfStreet":"right","CountryId":"20000001","StateId":"20068992","CountyId":"20070673","CityId":"20071520","DistrictId":"20071498","AddressId":"323932707","RoadLinkId":"47733729"}}},{"Relevance":1.0,"Distance":35.1,"MatchLevel":"houseNumber","MatchQuality":{"Country":1.0,"State":1.0,"County":1.0,"City":1.0,"District":1.0,"Street":[1.0],"HouseNumber":1.0,"PostalCode":1.0},"MatchType":"interpolated","Location":{"LocationId":"NT_Ha2Yl3kC1aSN8dE6nMhMvB_l_799421350_R_4A","LocationType":"point","DisplayPosition":{"Latitude":47.4595089,"Longitude":-0.659859},"MapView":{"TopLeft":{"Latitude":47.4606331,"Longitude":-0.6615217},"BottomRight":{"Latitude":47.4583848,"Longitude":-0.6581964}},"Address":{"Label":"8 Chemin des Brulons, 49070 Saint-Léger-de-Linières, France","Country":"FRA","State":"Pays de la Loire","County":"Maine-et-Loire","City":"Saint-Léger-de-Linières","District":"Saint-Jean-de-Linières","Street":"Chemin des Brulons","HouseNumber":"8","PostalCode":"49070","AdditionalData":[{"value":"France","key":"CountryName"},{"value":"Pays de la Loire","key":"StateName"},{"value":"Maine-et-Loire","key":"CountyName"}]},"MapReference":{"ReferenceId":"799421350","Spot":0.53,"SideOfStreet":"right","CountryId":"20000001","StateId":"20068992","CountyId":"20070673","CityId":"20071520","DistrictId":"20071498"}}},{"Relevance":1.0,"Distance":38.7,"MatchLevel":"street","MatchQuality":{"Country":1.0,"State":1.0,"County":1.0,"City":1.0,"District":1.0,"Street":[1.0],"PostalCode":1.0},"Location":{"LocationId":"NT_TXZ4u0z1A3E6kjxrUEQBxD_l_1061798650_R","LocationType":"point","DisplayPosition":{"Latitude":47.45919,"Longitude":-0.6601},"MapView":{"TopLeft":{"Latitude":47.45929,"Longitude":-0.66048},"BottomRight":{"Latitude":47.45919,"Longitude":-0.6601}},"Address":{"Label":"Route de la Forêt, 49070 Saint-Léger-de-Linières, France","Country":"FRA","State":"Pays de la Loire","County":"Maine-et-Loire","City":"Saint-Léger-de-Linières","District":"Saint-Jean-de-Linières","Street":"Route de la Forêt","PostalCode":"49070","AdditionalData":[{"value":"France","key":"CountryName"},{"value":"Pays de la Loire","key":"StateName"},{"value":"Maine-et-Loire","key":"CountyName"}]},"MapReference":{"ReferenceId":"1061798650","Spot":0.0,"SideOfStreet":"right","CountryId":"20000001","StateId":"20068992","CountyId":"20070673","CityId":"20071520","DistrictId":"20071498"}}},{"Relevance":1.0,"Distance":42.5,"MatchLevel":"street","MatchQuality":{"Country":1.0,"State":1.0,"County":1.0,"City":1.0,"District":1.0,"Street":[1.0],"PostalCode":1.0},"Location":{"LocationId":"NT_A36rQ80Q3XVHs1eWT3SawD_l_1061808198_R","LocationType":"point","DisplayPosition":{"Latitude":47.45889,"Longitude":-0.6594},"MapView":{"TopLeft":{"Latitude":47.45889,"Longitude":-0.6594},"BottomRight":{"Latitude":47.45874,"Longitude":-0.65918}},"Address":{"Label":"Rue de la Roche, 49070 Saint-Léger-de-Linières, France","Country":"FRA","State":"Pays de la Loire","County":"Maine-et-Loire","City":"Saint-Léger-de-Linières","District":"Saint-Jean-de-Linières","Street":"Rue de la Roche","PostalCode":"49070","AdditionalData":[{"value":"France","key":"CountryName"},{"value":"Pays de la Loire","key":"StateName"},{"value":"Maine-et-Loire","key":"CountyName"}]},"MapReference":{"ReferenceId":"1061808198","Spot":1.0,"SideOfStreet":"right","CountryId":"20000001","StateId":"20068992","CountyId":"20070673","CityId":"20071520","DistrictId":"20071498"}}},{"Relevance":1.0,"Distance":43.3,"MatchLevel":"houseNumber","MatchQuality":{"Country":1.0,"State":1.0,"County":1.0,"City":1.0,"District":1.0,"Street":[1.0],"HouseNumber":1.0,"PostalCode":1.0},"MatchType":"interpolated","Location":{"LocationId":"NT_kBoquONs5mYB2EPz06ayRC_l_799421354_L_xA","LocationType":"point","DisplayPosition":{"Latitude":47.45958,"Longitude":-0.66009},"MapView":{"TopLeft":{"Latitude":47.4607042,"Longitude":-0.6617527},"BottomRight":{"Latitude":47.4584558,"Longitude":-0.6584274}},"Address":{"Label":"1 Chemin de la Mare, 49070 Saint-Léger-de-Linières, France","Country":"FRA","State":"Pays de la Loire","County":"Maine-et-Loire","City":"Saint-Léger-de-Linières","District":"Saint-Jean-de-Linières","Street":"Chemin de la Mare","HouseNumber":"1","PostalCode":"49070","AdditionalData":[{"value":"France","key":"CountryName"},{"value":"Pays de la Loire","key":"StateName"},{"value":"Maine-et-Loire","key":"CountyName"}]},"MapReference":{"ReferenceId":"799421354","Spot":0.25,"SideOfStreet":"left","CountryId":"20000001","StateId":"20068992","CountyId":"20070673","CityId":"20071520","DistrictId":"20071498"}}}]}]}}