{"Response":{"MetaInfo":{"Timestamp":"2020-03-28T11:09:44.420+0000","NextPageInformation":"2"},"View":[{"_type":"SearchResultsViewType","ViewId":0,"Result":[{"Relevance":1.0,"Distance":-1.4,"MatchLevel":"landmark","MatchQuality":{"Country":1.0,"State":1.0,"County":1.0,"City":1.0,"PostalCode":1.0,"Name":1.0},"Location":{"LocationId":"NT_tgBFszpIRVqryIO6CWsVNB_p_oKtu8BoeeYcmFpbY.74GNB","LocationType":"hospital","Name":"CH du Val de Saône","DisplayPosition":{"Latitude":47.44613,"Longitude":5.58731},"MapView":{"TopLeft":{"Latitude":47.44688,"Longitude":5.58451},"BottomRight":{"Latitude":47.4449,"Longitude":5.58788}},"Address":{"Label":"70100 Gray, France","Country":"FRA","State":"Bourgogne-Franche-Comté","County":"Haute-Saône","City":"Gray","PostalCode":"70100","AdditionalData":[{"value":"France","key":"CountryName"},{"value":"Bourgogne-Franche-Comté","key":"StateName"},{"value":"Haute-Saône","key":"CountyName"}]},"MapReference":{"CountryId":"20000001","StateId":"20013306","CountyId":"20035503","CityId":"20036286","PlaceId":"51474129"}}},{"Relevance":1.0,"Distance":0.0,"Direction":0.0,"MatchLevel":"city","MatchQuality":{"Country":1.0,"State":1.0,"County":1.0,"City":1.0,"PostalCode":1.0},"Location":{"LocationId":"NT_Od08I6QOBDoHMAqN732htD","LocationType":"point","DisplayPosition":{"Latitude":47.4461597,"Longitude":5.5845454},"MapView":{"TopLeft":{"Latitude":47.44924,"Longitude":5.5512},"BottomRight":{"Latitude":47.42914,"Longitude":5.58934}},"Address":{"Label":"Gray-la-Ville, Bourgogne-Franche-Comté, France","Country":"FRA","State":"Bourgogne-Franche-Comté","County":"Haute-Saône","City":"Gray-la-Ville","PostalCode":"70100","AdditionalData":[{"value":"France","key":"CountryName"},{"value":"Bourgogne-Franche-Comté","key":"StateName"},{"value":"Haute-Saône","key":"CountyName"}]},"MapReference":{"ReferenceId":"1036205992","SideOfStreet":"neither","CountryId":"20000001","StateId":"20013306","CountyId":"20035503","CityId":"20036289"}}},{"Relevance":1.0,"Distance":1.5,"MatchLevel":"street","MatchQuality":{"Country":1.0,"State":1.0,"County":1.0,"City":1.0,"PostalCode":1.0},"Location":{"LocationId":"NT_Tdi9gI5-.D5wWERuERPocA_l_1070682548_L","LocationType":"point","DisplayPosition":{"Latitude":47.4461729,"Longitude":5.5845397},"MapView":{"TopLeft":{"Latitude":47.4463,"Longitude":5.58451},"BottomRight":{"Latitude":47.44616,"Longitude":5.58534}},"Address":{"Label":"70100 Gray, France","Country":"FRA","State":"Bourgogne-Franche-Comté","County":"Haute-Saône","City":"Gray","PostalCode":"70100","AdditionalData":[{"value":"France","key":"CountryName"},{"value":"Bourgogne-Franche-Comté","key":"StateName"},{"value":"Haute-Saône","key":"CountyName"}]},"MapReference":{"ReferenceId":"1070682548","Spot":0.04,"SideOfStreet":"neither","CountryId":"20000001","StateId":"20013306","CountyId":"20035503","CityId":"20036286"}}},{"Relevance":1.0,"Distance":11.4,"MatchLevel":"houseNumber","MatchQuality":{"Country":1.0,"State":1.0,"County":1.0,"City":1.0,"Street":[1.0],"HouseNumber":1.0,"PostalCode":1.0},"MatchType":"interpolated","Location":{"LocationId":"NT_z-gumwrwh2E5vccyGdVjAC_l_1070681394_L_1A","LocationType":"point","DisplayPosition":{"Latitude":47.4462157,"Longitude":5.5844188},"MapView":{"TopLeft":{"Latitude":47.4473399,"Longitude":5.5827565},"BottomRight":{"Latitude":47.4450916,"Longitude":5.5860811}},"Address":{"Label":"5 Rue du Chemin Neuf, 70100 Gray, France","Country":"FRA","State":"Bourgogne-Franche-Comté","County":"Haute-Saône","City":"Gray","Street":"Rue du Chemin Neuf","HouseNumber":"5","PostalCode":"70100","AdditionalData":[{"value":"France","key":"CountryName"},{"value":"Bourgogne-Franche-Comté","key":"StateName"},{"value":"Haute-Saône","key":"CountyName"}]},"MapReference":{"ReferenceId":"1070681394","Spot":0.51,"SideOfStreet":"left","CountryId":"20000001","StateId":"20013306","CountyId":"20035503","CityId":"20036286"}}},{"Relevance":1.0,"Distance":20.3,"MatchLevel":"street","MatchQuality":{"Country":1.0,"State":1.0,"County":1.0,"City":1.0,"Street":[1.0],"PostalCode":1.0},"Location":{"LocationId":"NT_LD.S185SCMp1YwxFurwd8B_l_70155065_L","LocationType":"point","DisplayPosition":{"Latitude":47.44627,"Longitude":5.58433},"MapView":{"TopLeft":{"Latitude":47.44642,"Longitude":5.58399},"BottomRight":{"Latitude":47.44627,"Longitude":5.58433}},"Address":{"Label":"Rue du Chemin Neuf, 70100 Gray-la-Ville, France","Country":"FRA","State":"Bourgogne-Franche-Comté","County":"Haute-Saône","City":"Gray-la-Ville","Street":"Rue du Chemin Neuf","PostalCode":"70100","AdditionalData":[{"value":"France","key":"CountryName"},{"value":"Bourgogne-Franche-Comté","key":"StateName"},{"value":"Haute-Saône","key":"CountyName"}]},"MapReference":{"ReferenceId":"70155065","Spot":0.0,"SideOfStreet":"left","CountryId":"20000001","StateId":"20013306","CountyId":"20035503","CityId":"20036289"}}},{"Relevance":1.0,"Distance":23.5,"MatchLevel":"houseNumber","MatchQuality":{"Country":1.0,"State":1.0,"County":1.0,"City":1.0,"Street":[1.0],"HouseNumber":1.0,"PostalCode":1.0},"MatchType":"interpolated","Location":{"LocationId":"NT_IK75CMJJqnoxZURlmoKtoD_yA","LocationType":"point","DisplayPosition":{"Latitude":47.44634,"Longitude":5.58431},"MapView":{"TopLeft":{"Latitude":47.4474642,"Longitude":5.5826477},"BottomRight":{"Latitude":47.4452158,"Longitude":5.5859723}},"Address":{"Label":"2 Rue Rome de l'Isle, 70100 Gray, France","Country":"FRA","State":"Bourgogne-Franche-Comté","County":"Haute-Saône","City":"Gray","Street":"Rue Rome de l'Isle","HouseNumber":"2","PostalCode":"70100","AdditionalData":[{"value":"France","key":"CountryName"},{"value":"Bourgogne-Franche-Comté","key":"StateName"},{"value":"Haute-Saône","key":"CountyName"}]},"MapReference":{"ReferenceId":"70156785","Spot":0.08,"SideOfStreet":"right","CountryId":"20000001","StateId":"20013306","CountyId":"20035503","CityId":"20036286","AddressId":"317356126","RoadLinkId":"44989738"}}},{"Relevance":1.0,"Distance":48.8,"MatchLevel":"houseNumber","MatchQuality":{"Country":1.0,"State":1.0,"County":1.0,"City":1.0,"Street":[1.0],"HouseNumber":1.0,"PostalCode":1.0},"MatchType":"interpolated","Location":{"LocationId":"NT_xatZ.4HrEeAnuo7ORHZvXC_zA","LocationType":"point","DisplayPosition":{"Latitude":47.44587,"Longitude":5.58503},"MapView":{"TopLeft":{"Latitude":47.4469942,"Longitude":5.5833678},"BottomRight":{"Latitude":47.4447458,"Longitude":5.5866922}},"Address":{"Label":"3 Rue du Chemin Neuf, 70100 Gray, France","Country":"FRA","State":"Bourgogne-Franche-Comté","County":"Haute-Saône","City":"Gray","Street":"Rue du Chemin Neuf","HouseNumber":"3","PostalCode":"70100","AdditionalData":[{"value":"France","key":"CountryName"},{"value":"Bourgogne-Franche-Comté","key":"StateName"},{"value":"Haute-Saône","key":"CountyName"}]},"MapReference":{"ReferenceId":"1123395055","Spot":0.68,"SideOfStreet":"left","CountryId":"20000001","StateId":"20013306","CountyId":"20035503","CityId":"20036286","AddressId":"590385331","RoadLinkId":"433676834"}}},{"Relevance":1.0,"Distance":60.6,"MatchLevel":"street","MatchQuality":{"Country":1.0,"State":1.0,"County":1.0,"City":1.0,"PostalCode":1.0},"Location":{"LocationId":"NT_Tdi9gI5-.D5wWERuERPocA_l_1070682544_L","LocationType":"point","DisplayPosition":{"Latitude":47.44625,"Longitude":5.58534},"MapView":{"TopLeft":{"Latitude":47.44625,"Longitude":5.58534},"BottomRight":{"Latitude":47.44576,"Longitude":5.58632}},"Address":{"Label":"70100 Gray, France","Country":"FRA","State":"Bourgogne-Franche-Comté","County":"Haute-Saône","City":"Gray","PostalCode":"70100","AdditionalData":[{"value":"France","key":"CountryName"},{"value":"Bourgogne-Franche-Comté","key":"StateName"},{"value":"Haute-Saône","key":"CountyName"}]},"MapReference":{"ReferenceId":"1070682544","Spot":1.0,"SideOfStreet":"left","CountryId":"20000001","StateId":"20013306","CountyId":"20035503","CityId":"20036286"}}},{"Relevance":1.0,"Distance":60.6,"MatchLevel":"street","MatchQuality":{"Country":1.0,"State":1.0,"County":1.0,"City":1.0,"PostalCode":1.0},"Location":{"LocationId":"NT_Tdi9gI5-.D5wWERuERPocA_l_1074136473_L","LocationType":"point","DisplayPosition":{"Latitude":47.44625,"Longitude":5.58534},"MapView":{"TopLeft":{"Latitude":47.44672,"Longitude":5.58534},"BottomRight":{"Latitude":47.44625,"Longitude":5.58626}},"Address":{"Label":"70100 Gray, France","Country":"FRA","State":"Bourgogne-Franche-Comté","County":"Haute-Saône","City":"Gray","PostalCode":"70100","AdditionalData":[{"value":"France","key":"CountryName"},{"value":"Bourgogne-Franche-Comté","key":"StateName"},{"value":"Haute-Saône","key":"CountyName"}]},"MapReference":{"ReferenceId":"1074136473","Spot":0.0,"SideOfStreet":"left","CountryId":"20000001","StateId":"20013306","CountyId":"20035503","CityId":"20036286"}}},{"Relevance":1.0,"Distance":61.7,"MatchLevel":"houseNumber","MatchQuality":{"Country":1.0,"State":1.0,"County":1.0,"City":1.0,"Street":[1.0],"HouseNumber":1.0,"PostalCode":1.0},"MatchType":"interpolated","Location":{"LocationId":"NT_c0VG42Hg8mo8sMVOALIUFA_zA","LocationType":"point","DisplayPosition":{"Latitude":47.44567,"Longitude":5.58416},"MapView":{"TopLeft":{"Latitude":47.4467942,"Longitude":5.5824978},"BottomRight":{"Latitude":47.4445458,"Longitude":5.5858222}},"Address":{"Label":"3 Rue de Sonjour, 70100 Gray-la-Ville, France","Country":"FRA","State":"Bourgogne-Franche-Comté","County":"Haute-Saône","City":"Gray-la-Ville","Street":"Rue de Sonjour","HouseNumber":"3","PostalCode":"70100","AdditionalData":[{"value":"France","key":"CountryName"},{"value":"Bourgogne-Franche-Comté","key":"StateName"},{"value":"Haute-Saône","key":"CountyName"}]},"MapReference":{"ReferenceId":"718077638","Spot":0.67,"SideOfStreet":"right","CountryId":"20000001","StateId":"20013306","CountyId":"20035503","CityId":"20036289","AddressId":"317342284","RoadLinkId":"122952579"}}}]}]}}