{"Response":{"MetaInfo":{"Timestamp":"2020-03-28T10:12:04.567+0000","NextPageInformation":"2"},"View":[{"_type":"SearchResultsViewType","ViewId":0,"Result":[{"Relevance":1.0,"Distance":0.0,"Direction":0.0,"MatchLevel":"district","MatchQuality":{"Country":1.0,"State":1.0,"County":1.0,"City":1.0,"District":1.0,"PostalCode":1.0},"Location":{"LocationId":"NT_XwGkpUXNM-tZjM.IrQ6EZB","LocationType":"point","DisplayPosition":{"Latitude":47.4462511,"Longitude":19.0393985},"MapView":{"TopLeft":{"Latitude":47.48838,"Longitude":18.97026},"BottomRight":{"Latitude":47.43005,"Longitude":19.06542}},"Address":{"Label":"Budapest 11, Budapest, Magyarország","Country":"HUN","State":"Budapest","County":"Budapest","City":"Budapest","District":"Budapest 11","PostalCode":"1114","AdditionalData":[{"value":"Magyarország","key":"CountryName"},{"value":"Budapest","key":"StateName"},{"value":"Budapest","key":"CountyName"}]},"MapReference":{"ReferenceId":"583889821","SideOfStreet":"neither","CountryId":"20613038","StateId":"20616317","CountyId":"20616318","CityId":"26682433","DistrictId":"20616322"}}},{"Relevance":1.0,"Distance":3.9,"MatchLevel":"houseNumber","MatchQuality":{"Country":1.0,"State":1.0,"County":1.0,"City":1.0,"District":1.0,"Street":[1.0],"HouseNumber":1.0,"PostalCode":1.0},"MatchType":"interpolated","Location":{"LocationId":"NT_fMbQPM7BApFiQiwqhm4v3A_l_583896147_L_0A","LocationType":"point","DisplayPosition":{"Latitude":47.4462075,"Longitude":19.039545},"MapView":{"TopLeft":{"Latitude":47.4473317,"Longitude":19.0378827},"BottomRight":{"Latitude":47.4450834,"Longitude":19.0412073}},"Address":{"Label":"Abádi utca 4, Budapest 1116, Magyarország","Country":"HUN","State":"Budapest","County":"Budapest","City":"Budapest","District":"Budapest 11","Street":"Abádi utca","HouseNumber":"4","PostalCode":"1116","AdditionalData":[{"value":"Magyarország","key":"CountryName"},{"value":"Budapest","key":"StateName"},{"value":"Budapest","key":"CountyName"}]},"MapReference":{"ReferenceId":"583896147","Spot":0.57,"SideOfStreet":"left","CountryId":"20613038","StateId":"20616317","CountyId":"20616318","CityId":"26682433","DistrictId":"20616322"}}},{"Relevance":1.0,"Distance":25.6,"MatchLevel":"houseNumber","MatchQuality":{"Country":1.0,"State":1.0,"County":1.0,"City":1.0,"District":1.0,"Street":[1.0],"HouseNumber":1.0,"PostalCode":1.0},"MatchType":"interpolated","Location":{"LocationId":"NT_fMbQPM7BApFiQiwqhm4v3A_1ID","LocationType":"point","DisplayPosition":{"Latitude":47.44646,"Longitude":19.03959},"MapView":{"TopLeft":{"Latitude":47.4475842,"Longitude":19.0379277},"BottomRight":{"Latitude":47.4453358,"Longitude":19.0412523}},"Address":{"Label":"Abádi utca 52, Budapest 1116, Magyarország","Country":"HUN","State":"Budapest","County":"Budapest","City":"Budapest","District":"Budapest 11","Street":"Abádi utca","HouseNumber":"52","PostalCode":"1116","AdditionalData":[{"value":"Magyarország","key":"CountryName"},{"value":"Budapest","key":"StateName"},{"value":"Budapest","key":"CountyName"}]},"MapReference":{"ReferenceId":"583896076","Spot":0.05,"SideOfStreet":"left","CountryId":"20613038","StateId":"20616317","CountyId":"20616318","CityId":"26682433","DistrictId":"20616322","AddressId":"355823664","RoadLinkId":"60621377"}}},{"Relevance":1.0,"Distance":28.7,"MatchLevel":"houseNumber","MatchQuality":{"Country":1.0,"State":1.0,"County":1.0,"City":1.0,"District":1.0,"Street":[1.0],"HouseNumber":1.0,"PostalCode":1.0},"MatchType":"interpolated","Location":{"LocationId":"NT_QNdBDbnbNjCQjKtJkUS6.B_2A","LocationType":"point","DisplayPosition":{"Latitude":47.44601,"Longitude":19.03904},"MapView":{"TopLeft":{"Latitude":47.4471342,"Longitude":19.0373778},"BottomRight":{"Latitude":47.4448858,"Longitude":19.0407022}},"Address":{"Label":"Kunhegyes utca 6, Budapest 1116, Magyarország","Country":"HUN","State":"Budapest","County":"Budapest","City":"Budapest","District":"Budapest 11","Street":"Kunhegyes utca","HouseNumber":"6","PostalCode":"1116","AdditionalData":[{"value":"Magyarország","key":"CountryName"},{"value":"Budapest","key":"StateName"},{"value":"Budapest","key":"CountyName"}]},"MapReference":{"ReferenceId":"583896146","Spot":0.3,"SideOfStreet":"right","CountryId":"20613038","StateId":"20616317","CountyId":"20616318","CityId":"26682433","DistrictId":"20616322","AddressId":"356714034","RoadLinkId":"60627607"}}},{"Relevance":1.0,"Distance":29.5,"MatchLevel":"street","MatchQuality":{"Country":1.0,"State":1.0,"County":1.0,"City":1.0,"District":1.0,"Street":[1.0],"PostalCode":1.0},"Location":{"LocationId":"NT_QNdBDbnbNjCQjKtJkUS6.B_l_583896148_R","LocationType":"point","DisplayPosition":{"Latitude":47.4459856,"Longitude":19.0393864},"MapView":{"TopLeft":{"Latitude":47.44599,"Longitude":19.03929},"BottomRight":{"Latitude":47.44598,"Longitude":19.03951}},"Address":{"Label":"Kunhegyes utca, Budapest 1116, Magyarország","Country":"HUN","State":"Budapest","County":"Budapest","City":"Budapest","District":"Budapest 11","Street":"Kunhegyes utca","PostalCode":"1116","AdditionalData":[{"value":"Magyarország","key":"CountryName"},{"value":"Budapest","key":"StateName"},{"value":"Budapest","key":"CountyName"}]},"MapReference":{"ReferenceId":"583896148","Spot":0.56,"SideOfStreet":"right","CountryId":"20613038","StateId":"20616317","CountyId":"20616318","CityId":"26682433","DistrictId":"20616322"}}},{"Relevance":1.0,"Distance":30.2,"MatchLevel":"houseNumber","MatchQuality":{"Country":1.0,"State":1.0,"County":1.0,"City":1.0,"District":1.0,"Street":[1.0],"HouseNumber":1.0,"PostalCode":1.0},"MatchType":"interpolated","Location":{"LocationId":"NT_1iKZ1-mc1qnBOeUCUK6YlA_1A","LocationType":"point","DisplayPosition":{"Latitude":47.44637,"Longitude":19.03976},"MapView":{"TopLeft":{"Latitude":47.4474942,"Longitude":19.0380977},"BottomRight":{"Latitude":47.4452458,"Longitude":19.0414223}},"Address":{"Label":"Abádi tér 5, Budapest 1116, Magyarország","Country":"HUN","State":"Budapest","County":"Budapest","City":"Budapest","District":"Budapest 11","Street":"Abádi tér","HouseNumber":"5","PostalCode":"1116","AdditionalData":[{"value":"Magyarország","key":"CountryName"},{"value":"Budapest","key":"StateName"},{"value":"Budapest","key":"CountyName"}]},"MapReference":{"ReferenceId":"583896085","Spot":0.84,"SideOfStreet":"right","CountryId":"20613038","StateId":"20616317","CountyId":"20616318","CityId":"26682433","DistrictId":"20616322","AddressId":"355890418","RoadLinkId":"60417512"}}},{"Relevance":1.0,"Distance":33.1,"MatchLevel":"houseNumber","MatchQuality":{"Country":1.0,"State":1.0,"County":1.0,"City":1.0,"District":1.0,"Street":[1.0],"HouseNumber":1.0,"PostalCode":1.0},"MatchType":"interpolated","Location":{"LocationId":"NT_1iKZ1-mc1qnBOeUCUK6YlA_xkD","LocationType":"point","DisplayPosition":{"Latitude":47.44598,"Longitude":19.03958},"MapView":{"TopLeft":{"Latitude":47.4471042,"Longitude":19.0379178},"BottomRight":{"Latitude":47.4448558,"Longitude":19.0412422}},"Address":{"Label":"Abádi tér 19, Budapest 1116, Magyarország","Country":"HUN","State":"Budapest","County":"Budapest","City":"Budapest","District":"Budapest 11","Street":"Abádi tér","HouseNumber":"19","PostalCode":"1116","AdditionalData":[{"value":"Magyarország","key":"CountryName"},{"value":"Budapest","key":"StateName"},{"value":"Budapest","key":"CountyName"}]},"MapReference":{"ReferenceId":"583896154","Spot":0.88,"SideOfStreet":"left","CountryId":"20613038","StateId":"20616317","CountyId":"20616318","CityId":"26682433","DistrictId":"20616322","AddressId":"354854668","RoadLinkId":"121782637"}}},{"Relevance":1.0,"Distance":39.2,"MatchLevel":"houseNumber","MatchQuality":{"Country":1.0,"State":1.0,"County":1.0,"City":1.0,"District":1.0,"Street":[1.0],"HouseNumber":1.0,"PostalCode":1.0},"MatchType":"interpolated","Location":{"LocationId":"NT_a0a-mtz5cicCZO5e45i23C_xA","LocationType":"point","DisplayPosition":{"Latitude":47.44591,"Longitude":19.03928},"MapView":{"TopLeft":{"Latitude":47.4470342,"Longitude":19.0376178},"BottomRight":{"Latitude":47.4447858,"Longitude":19.0409422}},"Address":{"Label":"Szalóki utca 1, Budapest 1116, Magyarország","Country":"HUN","State":"Budapest","County":"Budapest","City":"Budapest","District":"Budapest 11","Street":"Szalóki utca","HouseNumber":"1","PostalCode":"1116","AdditionalData":[{"value":"Magyarország","key":"CountryName"},{"value":"Budapest","key":"StateName"},{"value":"Budapest","key":"CountyName"}]},"MapReference":{"ReferenceId":"583896619","Spot":0.96,"SideOfStreet":"right","CountryId":"20613038","StateId":"20616317","CountyId":"20616318","CityId":"26682433","DistrictId":"20616322","AddressId":"355528392","RoadLinkId":"60608170"}}},{"Relevance":1.0,"Distance":49.9,"MatchLevel":"houseNumber","MatchQuality":{"Country":1.0,"State":1.0,"County":1.0,"City":1.0,"District":1.0,"Street":[1.0],"HouseNumber":1.0,"PostalCode":1.0},"MatchType":"interpolated","Location":{"LocationId":"NT_8tN2nKRhE1WCNzOr.Hz2rA_1cD","LocationType":"point","DisplayPosition":{"Latitude":47.44633,"Longitude":19.0385},"MapView":{"TopLeft":{"Latitude":47.4474542,"Longitude":19.0368377},"BottomRight":{"Latitude":47.4452058,"Longitude":19.0401623}},"Address":{"Label":"Fegyvernek utca 57, Budapest 1116, Magyarország","Country":"HUN","State":"Budapest","County":"Budapest","City":"Budapest","District":"Budapest 11","Street":"Fegyvernek utca","HouseNumber":"57","PostalCode":"1116","AdditionalData":[{"value":"Magyarország","key":"CountryName"},{"value":"Budapest","key":"StateName"},{"value":"Budapest","key":"CountyName"}]},"MapReference":{"ReferenceId":"583896128","Spot":0.4,"SideOfStreet":"right","CountryId":"20613038","StateId":"20616317","CountyId":"20616318","CityId":"26682433","DistrictId":"20616322","AddressId":"355735118","RoadLinkId":"60606168"}}},{"Relevance":1.0,"Distance":57.4,"MatchLevel":"houseNumber","MatchQuality":{"Country":1.0,"State":1.0,"County":1.0,"City":1.0,"District":1.0,"Street":[1.0],"HouseNumber":1.0,"PostalCode":1.0},"MatchType":"interpolated","Location":{"LocationId":"NT_4paCdageeFu9J0XA0YyMbC_yA","LocationType":"point","DisplayPosition":{"Latitude":47.44584,"Longitude":19.04007},"MapView":{"TopLeft":{"Latitude":47.4469642,"Longitude":19.0384078},"BottomRight":{"Latitude":47.4447158,"Longitude":19.0417322}},"Address":{"Label":"Gyékényes utca 2, Budapest 1116, Magyarország","Country":"HUN","State":"Budapest","County":"Budapest","City":"Budapest","District":"Budapest 11","Street":"Gyékényes utca","HouseNumber":"2","PostalCode":"1116","AdditionalData":[{"value":"Magyarország","key":"CountryName"},{"value":"Budapest","key":"StateName"},{"value":"Budapest","key":"CountyName"}]},"MapReference":{"ReferenceId":"583896627","Spot":0.95,"SideOfStreet":"left","CountryId":"20613038","StateId":"20616317","CountyId":"20616318","CityId":"26682433","DistrictId":"20616322","AddressId":"354924761","RoadLinkId":"60682489"}}}]}]}}