{"Response":{"MetaInfo":{"Timestamp":"2020-03-28T10:42:46.928+0000","NextPageInformation":"2"},"View":[{"_type":"SearchResultsViewType","ViewId":0,"Result":[{"Relevance":1.0,"Distance":0.0,"Direction":0.0,"MatchLevel":"district","MatchQuality":{"Country":1.0,"State":1.0,"County":1.0,"City":1.0,"District":1.0,"PostalCode":1.0},"Location":{"LocationId":"NT_XwGkpUXNM-tZjM.IrQ6EZB","LocationType":"point","DisplayPosition":{"Latitude":47.4486641,"Longitude":19.0365094},"MapView":{"TopLeft":{"Latitude":47.48838,"Longitude":18.97026},"BottomRight":{"Latitude":47.43005,"Longitude":19.06542}},"Address":{"Label":"Budapest 11, Budapest, Magyarország","Country":"HUN","State":"Budapest","County":"Budapest","City":"Budapest","District":"Budapest 11","PostalCode":"1114","AdditionalData":[{"value":"Magyarország","key":"CountryName"},{"value":"Budapest","key":"StateName"},{"value":"Budapest","key":"CountyName"}]},"MapReference":{"ReferenceId":"583889821","SideOfStreet":"neither","CountryId":"20613038","StateId":"20616317","CountyId":"20616318","CityId":"26682433","DistrictId":"20616322"}}},{"Relevance":1.0,"Distance":36.4,"MatchLevel":"houseNumber","MatchQuality":{"Country":1.0,"State":1.0,"County":1.0,"City":1.0,"District":1.0,"Street":[1.0],"HouseNumber":1.0,"PostalCode":1.0},"MatchType":"interpolated","Location":{"LocationId":"NT_QXCxnPp7Jc9u5FK.oCVQPA_1A","LocationType":"point","DisplayPosition":{"Latitude":47.44828,"Longitude":19.03625},"MapView":{"TopLeft":{"Latitude":47.4494042,"Longitude":19.0345877},"BottomRight":{"Latitude":47.4471558,"Longitude":19.0379123}},"Address":{"Label":"Albertfalva utca 5, Budapest 1116, Magyarország","Country":"HUN","State":"Budapest","County":"Budapest","City":"Budapest","District":"Budapest 11","Street":"Albertfalva utca","HouseNumber":"5","PostalCode":"1116","AdditionalData":[{"value":"Magyarország","key":"CountryName"},{"value":"Budapest","key":"StateName"},{"value":"Budapest","key":"CountyName"}]},"MapReference":{"ReferenceId":"1251909745","Spot":0.33,"SideOfStreet":"right","CountryId":"20613038","StateId":"20616317","CountyId":"20616318","CityId":"26682433","DistrictId":"20616322","AddressId":"355046983","RoadLinkId":"575026123"}}},{"Relevance":1.0,"Distance":36.5,"MatchLevel":"houseNumber","MatchQuality":{"Country":1.0,"State":1.0,"County":1.0,"City":1.0,"District":1.0,"Street":[1.0],"HouseNumber":1.0,"PostalCode":1.0},"MatchType":"interpolated","Location":{"LocationId":"NT_QXCxnPp7Jc9u5FK.oCVQPA_zA","LocationType":"point","DisplayPosition":{"Latitude":47.44825,"Longitude":19.03662},"MapView":{"TopLeft":{"Latitude":47.4493742,"Longitude":19.0349577},"BottomRight":{"Latitude":47.4471258,"Longitude":19.0382823}},"Address":{"Label":"Albertfalva utca 3, Budapest 1116, Magyarország","Country":"HUN","State":"Budapest","County":"Budapest","City":"Budapest","District":"Budapest 11","Street":"Albertfalva utca","HouseNumber":"3","PostalCode":"1116","AdditionalData":[{"value":"Magyarország","key":"CountryName"},{"value":"Budapest","key":"StateName"},{"value":"Budapest","key":"CountyName"}]},"MapReference":{"ReferenceId":"1251909744","Spot":0.67,"SideOfStreet":"right","CountryId":"20613038","StateId":"20616317","CountyId":"20616318","CityId":"26682433","DistrictId":"20616322","AddressId":"355046985","RoadLinkId":"575026122"}}},{"Relevance":1.0,"Distance":42.1,"MatchLevel":"street","MatchQuality":{"Country":1.0,"State":1.0,"County":1.0,"City":1.0,"District":1.0,"Street":[1.0],"PostalCode":1.0},"Location":{"LocationId":"NT_oM569GsqJpfc4OLUtgOKjC_l_716696518_L","LocationType":"point","DisplayPosition":{"Latitude":47.4485773,"Longitude":19.037055},"MapView":{"TopLeft":{"Latitude":47.44886,"Longitude":19.03703},"BottomRight":{"Latitude":47.44833,"Longitude":19.0371}},"Address":{"Label":"Fehérvári út, Budapest 1116, Magyarország","Country":"HUN","State":"Budapest","County":"Budapest","City":"Budapest","District":"Budapest 11","Street":"Fehérvári út","PostalCode":"1116","AdditionalData":[{"value":"Magyarország","key":"CountryName"},{"value":"Budapest","key":"StateName"},{"value":"Budapest","key":"CountyName"}]},"MapReference":{"ReferenceId":"716696518","Spot":0.48,"SideOfStreet":"left","CountryId":"20613038","StateId":"20616317","CountyId":"20616318","CityId":"26682433","DistrictId":"20616322"}}},{"Relevance":1.0,"Distance":47.7,"MatchLevel":"houseNumber","MatchQuality":{"Country":1.0,"State":1.0,"County":1.0,"City":1.0,"District":1.0,"Street":[1.0],"HouseNumber":1.0,"PostalCode":1.0},"MatchType":"interpolated","Location":{"LocationId":"NT_S8pf6VTLdpdEONtfxNfdjB_xID","LocationType":"point","DisplayPosition":{"Latitude":47.44873,"Longitude":19.03572},"MapView":{"TopLeft":{"Latitude":47.4498542,"Longitude":19.0340577},"BottomRight":{"Latitude":47.4476058,"Longitude":19.0373823}},"Address":{"Label":"Érem utca 12, Budapest 1116, Magyarország","Country":"HUN","State":"Budapest","County":"Budapest","City":"Budapest","District":"Budapest 11","Street":"Érem utca","HouseNumber":"12","PostalCode":"1116","AdditionalData":[{"value":"Magyarország","key":"CountryName"},{"value":"Budapest","key":"StateName"},{"value":"Budapest","key":"CountyName"}]},"MapReference":{"ReferenceId":"925364373","Spot":0.4,"SideOfStreet":"right","CountryId":"20613038","StateId":"20616317","CountyId":"20616318","CityId":"26682433","DistrictId":"20616322","AddressId":"356455219","RoadLinkId":"280864105"}}},{"Relevance":1.0,"Distance":49.5,"MatchLevel":"street","MatchQuality":{"Country":1.0,"State":1.0,"County":1.0,"City":1.0,"District":1.0,"Street":[1.0],"PostalCode":1.0},"Location":{"LocationId":"NT_oM569GsqJpfc4OLUtgOKjC_l_925362650_L","LocationType":"point","DisplayPosition":{"Latitude":47.44886,"Longitude":19.0371},"MapView":{"TopLeft":{"Latitude":47.44916,"Longitude":19.0371},"BottomRight":{"Latitude":47.44886,"Longitude":19.03714}},"Address":{"Label":"Fehérvári út, Budapest 1116, Magyarország","Country":"HUN","State":"Budapest","County":"Budapest","City":"Budapest","District":"Budapest 11","Street":"Fehérvári út","PostalCode":"1116","AdditionalData":[{"value":"Magyarország","key":"CountryName"},{"value":"Budapest","key":"StateName"},{"value":"Budapest","key":"CountyName"}]},"MapReference":{"ReferenceId":"925362650","Spot":0.0,"SideOfStreet":"left","CountryId":"20613038","StateId":"20616317","CountyId":"20616318","CityId":"26682433","DistrictId":"20616322"}}},{"Relevance":1.0,"Distance":53.0,"MatchLevel":"houseNumber","MatchQuality":{"Country":1.0,"State":1.0,"County":1.0,"City":1.0,"District":1.0,"Street":[1.0],"HouseNumber":1.0,"PostalCode":1.0},"MatchType":"interpolated","Location":{"LocationId":"NT_oM569GsqJpfc4OLUtgOKjC_yAzN","LocationType":"point","DisplayPosition":{"Latitude":47.44854,"Longitude":19.03719},"MapView":{"TopLeft":{"Latitude":47.4496642,"Longitude":19.0355277},"BottomRight":{"Latitude":47.4474158,"Longitude":19.0388523}},"Address":{"Label":"Fehérvári út 207, Budapest 1116, Magyarország","Country":"HUN","State":"Budapest","County":"Budapest","City":"Budapest","District":"Budapest 11","Street":"Fehérvári út","HouseNumber":"207","PostalCode":"1116","AdditionalData":[{"value":"Magyarország","key":"CountryName"},{"value":"Budapest","key":"StateName"},{"value":"Budapest","key":"CountyName"}]},"MapReference":{"ReferenceId":"1190915451","Spot":0.13,"SideOfStreet":"right","CountryId":"20613038","StateId":"20616317","CountyId":"20616318","CityId":"26682433","DistrictId":"20616322","AddressId":"357593675","RoadLinkId":"500363983"}}},{"Relevance":1.0,"Distance":55.1,"MatchLevel":"houseNumber","MatchQuality":{"Country":1.0,"State":1.0,"County":1.0,"City":1.0,"District":1.0,"Street":[1.0],"HouseNumber":1.0,"PostalCode":1.0},"MatchType":"interpolated","Location":{"LocationId":"NT_QXCxnPp7Jc9u5FK.oCVQPA_3A","LocationType":"point","DisplayPosition":{"Latitude":47.44831,"Longitude":19.03585},"MapView":{"TopLeft":{"Latitude":47.4494342,"Longitude":19.0341877},"BottomRight":{"Latitude":47.4471858,"Longitude":19.0375123}},"Address":{"Label":"Albertfalva utca 7, Budapest 1116, Magyarország","Country":"HUN","State":"Budapest","County":"Budapest","City":"Budapest","District":"Budapest 11","Street":"Albertfalva utca","HouseNumber":"7","PostalCode":"1116","AdditionalData":[{"value":"Magyarország","key":"CountryName"},{"value":"Budapest","key":"StateName"},{"value":"Budapest","key":"CountyName"}]},"MapReference":{"ReferenceId":"583895696","Spot":0.34,"SideOfStreet":"right","CountryId":"20613038","StateId":"20616317","CountyId":"20616318","CityId":"26682433","DistrictId":"20616322","AddressId":"355502616","RoadLinkId":"60570316"}}},{"Relevance":1.0,"Distance":56.8,"MatchLevel":"street","MatchQuality":{"Country":1.0,"State":1.0,"County":1.0,"City":1.0,"District":1.0,"Street":[1.0],"PostalCode":1.0},"Location":{"LocationId":"NT_oM569GsqJpfc4OLUtgOKjC_l_716696517_L","LocationType":"point","DisplayPosition":{"Latitude":47.44833,"Longitude":19.03708},"MapView":{"TopLeft":{"Latitude":47.44833,"Longitude":19.03706},"BottomRight":{"Latitude":47.44821,"Longitude":19.03708}},"Address":{"Label":"Fehérvári út, Budapest 1116, Magyarország","Country":"HUN","State":"Budapest","County":"Budapest","City":"Budapest","District":"Budapest 11","Street":"Fehérvári út","PostalCode":"1116","AdditionalData":[{"value":"Magyarország","key":"CountryName"},{"value":"Budapest","key":"StateName"},{"value":"Budapest","key":"CountyName"}]},"MapReference":{"ReferenceId":"716696517","Spot":1.0,"SideOfStreet":"left","CountryId":"20613038","StateId":"20616317","CountyId":"20616318","CityId":"26682433","DistrictId":"20616322"}}},{"Relevance":1.0,"Distance":56.8,"MatchLevel":"street","MatchQuality":{"Country":1.0,"State":1.0,"County":1.0,"City":1.0,"District":1.0,"Street":[1.0],"PostalCode":1.0},"Location":{"LocationId":"NT_oM569GsqJpfc4OLUtgOKjC_l_716696520_L","LocationType":"point","DisplayPosition":{"Latitude":47.44833,"Longitude":19.03708},"MapView":{"TopLeft":{"Latitude":47.4484,"Longitude":19.03708},"BottomRight":{"Latitude":47.44833,"Longitude":19.03717}},"Address":{"Label":"Fehérvári út, Budapest 1116, Magyarország","Country":"HUN","State":"Budapest","County":"Budapest","City":"Budapest","District":"Budapest 11","Street":"Fehérvári út","PostalCode":"1116","AdditionalData":[{"value":"Magyarország","key":"CountryName"},{"value":"Budapest","key":"StateName"},{"value":"Budapest","key":"CountyName"}]},"MapReference":{"ReferenceId":"716696520","Spot":0.0,"SideOfStreet":"left","CountryId":"20613038","StateId":"20616317","CountyId":"20616318","CityId":"26682433","DistrictId":"20616322"}}}]}]}}