{"Response":{"MetaInfo":{"Timestamp":"2020-03-28T09:54:47.214+0000","NextPageInformation":"2"},"View":[{"_type":"SearchResultsViewType","ViewId":0,"Result":[{"Relevance":1.0,"Distance":0.0,"Direction":0.0,"MatchLevel":"district","MatchQuality":{"Country":1.0,"State":1.0,"County":1.0,"City":1.0,"District":1.0,"PostalCode":1.0},"Location":{"LocationId":"NT_3EmJ81KKQxWhTVd5UYq.KD","LocationType":"point","DisplayPosition":{"Latitude":47.4586579,"Longitude":20.2147421},"MapView":{"TopLeft":{"Latitude":47.46926,"Longitude":20.19616},"BottomRight":{"Latitude":47.44356,"Longitude":20.23246}},"Address":{"Label":"Jászkisér, Jász-Nagykun-Szolnok, Magyarország","Country":"HUN","State":"Jász-Nagykun-Szolnok","County":"Jászapáti Járás","City":"Jászkisér","District":"Jászkisér","PostalCode":"5137","AdditionalData":[{"value":"Magyarország","key":"CountryName"},{"value":"Jász-Nagykun-Szolnok","key":"StateName"},{"value":"Jászapáti Járás","key":"CountyName"}]},"MapReference":{"ReferenceId":"709513555","SideOfStreet":"neither","CountryId":"20613038","StateId":"20618140","CountyId":"26678123","CityId":"22696433","DistrictId":"26678325"}}},{"Relevance":1.0,"Distance":23.8,"MatchLevel":"houseNumber","MatchQuality":{"Country":1.0,"State":1.0,"County":1.0,"City":1.0,"District":1.0,"Street":[1.0],"HouseNumber":1.0,"PostalCode":1.0},"MatchType":"interpolated","Location":{"LocationId":"NT_hbMY4VlpzMss8D2WlWd5gC_yA","LocationType":"point","DisplayPosition":{"Latitude":47.4588,"Longitude":20.21429},"MapView":{"TopLeft":{"Latitude":47.4599242,"Longitude":20.2126273},"BottomRight":{"Latitude":47.4576758,"Longitude":20.2159527}},"Address":{"Label":"Viola utca 2, Jászkisér 5137, Magyarország","Country":"HUN","State":"Jász-Nagykun-Szolnok","County":"Jászapáti Járás","City":"Jászkisér","District":"Jászkisér","Street":"Viola utca","HouseNumber":"2","PostalCode":"5137","AdditionalData":[{"value":"Magyarország","key":"CountryName"},{"value":"Jász-Nagykun-Szolnok","key":"StateName"},{"value":"Jászapáti Járás","key":"CountyName"}]},"MapReference":{"ReferenceId":"708180019","Spot":0.89,"SideOfStreet":"right","CountryId":"20613038","StateId":"20618140","CountyId":"26678123","CityId":"22696433","DistrictId":"26678325","AddressId":"356315089","RoadLinkId":"113444302"}}},{"Relevance":1.0,"Distance":32.5,"MatchLevel":"houseNumber","MatchQuality":{"Country":1.0,"State":1.0,"County":1.0,"City":1.0,"District":1.0,"Street":[1.0],"HouseNumber":1.0,"PostalCode":1.0},"MatchType":"interpolated","Location":{"LocationId":"NT_kGFom7dmUkUDqqQrFhX1AD_zA","LocationType":"point","DisplayPosition":{"Latitude":47.45901,"Longitude":20.21462},"MapView":{"TopLeft":{"Latitude":47.4601342,"Longitude":20.2129573},"BottomRight":{"Latitude":47.4578858,"Longitude":20.2162827}},"Address":{"Label":"Kossuth tér 3, Jászkisér 5137, Magyarország","Country":"HUN","State":"Jász-Nagykun-Szolnok","County":"Jászapáti Járás","City":"Jászkisér","District":"Jászkisér","Street":"Kossuth tér","HouseNumber":"3","PostalCode":"5137","AdditionalData":[{"value":"Magyarország","key":"CountryName"},{"value":"Jász-Nagykun-Szolnok","key":"StateName"},{"value":"Jászapáti Járás","key":"CountyName"}]},"MapReference":{"ReferenceId":"708179942","Spot":0.9,"SideOfStreet":"left","CountryId":"20613038","StateId":"20618140","CountyId":"26678123","CityId":"22696433","DistrictId":"26678325","AddressId":"777195416","RoadLinkId":"113444219"}}},{"Relevance":1.0,"Distance":45.7,"MatchLevel":"houseNumber","MatchQuality":{"Country":1.0,"State":1.0,"County":1.0,"City":1.0,"District":1.0,"Street":[1.0],"HouseNumber":1.0,"PostalCode":1.0},"MatchType":"interpolated","Location":{"LocationId":"NT_tVnW06Pw4fDSNzNQZQGYeA_zA","LocationType":"point","DisplayPosition":{"Latitude":47.45816,"Longitude":20.21498},"MapView":{"TopLeft":{"Latitude":47.4592842,"Longitude":20.2133174},"BottomRight":{"Latitude":47.4570358,"Longitude":20.2166426}},"Address":{"Label":"Ladányi út 3, Jászkisér 5137, Magyarország","Country":"HUN","State":"Jász-Nagykun-Szolnok","County":"Jászapáti Járás","City":"Jászkisér","District":"Jászkisér","Street":"Ladányi út","HouseNumber":"3","PostalCode":"5137","AdditionalData":[{"value":"Magyarország","key":"CountryName"},{"value":"Jász-Nagykun-Szolnok","key":"StateName"},{"value":"Jászapáti Járás","key":"CountyName"}]},"MapReference":{"ReferenceId":"708179967","Spot":0.44,"SideOfStreet":"left","CountryId":"20613038","StateId":"20618140","CountyId":"26678123","CityId":"22696433","DistrictId":"26678325","AddressId":"355632181","RoadLinkId":"113444246"}}},{"Relevance":1.0,"Distance":54.6,"MatchLevel":"street","MatchQuality":{"Country":1.0,"State":1.0,"County":1.0,"City":1.0,"District":1.0,"Street":[1.0],"PostalCode":1.0},"Location":{"LocationId":"NT_w.qz12fwfpft2ZIAptXJZB_l_1193232660_L","LocationType":"point","DisplayPosition":{"Latitude":47.4586024,"Longitude":20.215464},"MapView":{"TopLeft":{"Latitude":47.45871,"Longitude":20.21546},"BottomRight":{"Latitude":47.45855,"Longitude":20.21551}},"Address":{"Label":"Hősök tér, Jászkisér 5137, Magyarország","Country":"HUN","State":"Jász-Nagykun-Szolnok","County":"Jászapáti Járás","City":"Jászkisér","District":"Jászkisér","Street":"Hősök tér","PostalCode":"5137","AdditionalData":[{"value":"Magyarország","key":"CountryName"},{"value":"Jász-Nagykun-Szolnok","key":"StateName"},{"value":"Jászapáti Járás","key":"CountyName"}]},"MapReference":{"ReferenceId":"1193232660","Spot":0.29,"SideOfStreet":"left","CountryId":"20613038","StateId":"20618140","CountyId":"26678123","CityId":"22696433","DistrictId":"26678325"}}},{"Relevance":1.0,"Distance":55.2,"MatchLevel":"houseNumber","MatchQuality":{"Country":1.0,"State":1.0,"County":1.0,"City":1.0,"District":1.0,"Street":[1.0],"HouseNumber":1.0,"PostalCode":1.0},"MatchType":"interpolated","Location":{"LocationId":"NT_kGFom7dmUkUDqqQrFhX1AD_xA","LocationType":"point","DisplayPosition":{"Latitude":47.45913,"Longitude":20.21429},"MapView":{"TopLeft":{"Latitude":47.4602542,"Longitude":20.2126273},"BottomRight":{"Latitude":47.4580058,"Longitude":20.2159527}},"Address":{"Label":"Kossuth tér 1, Jászkisér 5137, Magyarország","Country":"HUN","State":"Jász-Nagykun-Szolnok","County":"Jászapáti Járás","City":"Jászkisér","District":"Jászkisér","Street":"Kossuth tér","HouseNumber":"1","PostalCode":"5137","AdditionalData":[{"value":"Magyarország","key":"CountryName"},{"value":"Jász-Nagykun-Szolnok","key":"StateName"},{"value":"Jászapáti Járás","key":"CountyName"}]},"MapReference":{"ReferenceId":"708179930","Spot":0.56,"SideOfStreet":"left","CountryId":"20613038","StateId":"20618140","CountyId":"26678123","CityId":"22696433","DistrictId":"26678325","AddressId":"777202504","RoadLinkId":"113444206"}}},{"Relevance":1.0,"Distance":55.3,"MatchLevel":"street","MatchQuality":{"Country":1.0,"State":1.0,"County":1.0,"City":1.0,"District":1.0,"PostalCode":1.0},"Location":{"LocationId":"NT_X2I.wBuGhw6uElCJqD.rSA_l_708179945_L","LocationType":"point","DisplayPosition":{"Latitude":47.45855,"Longitude":20.21546},"MapView":{"TopLeft":{"Latitude":47.45855,"Longitude":20.21546},"BottomRight":{"Latitude":47.45843,"Longitude":20.21551}},"Address":{"Label":"Jászkisér 5137, Magyarország","Country":"HUN","State":"Jász-Nagykun-Szolnok","County":"Jászapáti Járás","City":"Jászkisér","District":"Jászkisér","PostalCode":"5137","AdditionalData":[{"value":"Magyarország","key":"CountryName"},{"value":"Jász-Nagykun-Szolnok","key":"StateName"},{"value":"Jászapáti Járás","key":"CountyName"}]},"MapReference":{"ReferenceId":"708179945","Spot":1.0,"SideOfStreet":"left","CountryId":"20613038","StateId":"20618140","CountyId":"26678123","CityId":"22696433","DistrictId":"26678325"}}},{"Relevance":1.0,"Distance":61.5,"MatchLevel":"houseNumber","MatchQuality":{"Country":1.0,"State":1.0,"County":1.0,"City":1.0,"District":1.0,"Street":[1.0],"HouseNumber":1.0,"PostalCode":1.0},"MatchType":"interpolated","Location":{"LocationId":"NT_ke8n3kN4XXkaUUXb5Zh5oC_yA","LocationType":"point","DisplayPosition":{"Latitude":47.45897,"Longitude":20.21385},"MapView":{"TopLeft":{"Latitude":47.4600942,"Longitude":20.2121873},"BottomRight":{"Latitude":47.4578458,"Longitude":20.2155127}},"Address":{"Label":"Liliom utca 2, Jászkisér 5137, Magyarország","Country":"HUN","State":"Jász-Nagykun-Szolnok","County":"Jászapáti Járás","City":"Jászkisér","District":"Jászkisér","Street":"Liliom utca","HouseNumber":"2","PostalCode":"5137","AdditionalData":[{"value":"Magyarország","key":"CountryName"},{"value":"Jász-Nagykun-Szolnok","key":"StateName"},{"value":"Jászapáti Járás","key":"CountyName"}]},"MapReference":{"ReferenceId":"708180009","Spot":0.9,"SideOfStreet":"right","CountryId":"20613038","StateId":"20618140","CountyId":"26678123","CityId":"22696433","DistrictId":"26678325","AddressId":"356673274","RoadLinkId":"113444291"}}},{"Relevance":1.0,"Distance":64.7,"MatchLevel":"houseNumber","MatchQuality":{"Country":1.0,"State":1.0,"County":1.0,"City":1.0,"District":1.0,"Street":[1.0],"HouseNumber":1.0,"PostalCode":1.0},"MatchType":"interpolated","Location":{"LocationId":"NT_cvlA1qk8ealIYUo8pdocyC_xA","LocationType":"point","DisplayPosition":{"Latitude":47.45841,"Longitude":20.21555},"MapView":{"TopLeft":{"Latitude":47.4595342,"Longitude":20.2138874},"BottomRight":{"Latitude":47.4572858,"Longitude":20.2172126}},"Address":{"Label":"Szabadság utca 1, Jászkisér 5137, Magyarország","Country":"HUN","State":"Jász-Nagykun-Szolnok","County":"Jászapáti Járás","City":"Jászkisér","District":"Jászkisér","Street":"Szabadság utca","HouseNumber":"1","PostalCode":"5137","AdditionalData":[{"value":"Magyarország","key":"CountryName"},{"value":"Jász-Nagykun-Szolnok","key":"StateName"},{"value":"Jászapáti Járás","key":"CountyName"}]},"MapReference":{"ReferenceId":"708179964","Spot":0.95,"SideOfStreet":"left","CountryId":"20613038","StateId":"20618140","CountyId":"26678123","CityId":"22696433","DistrictId":"26678325","AddressId":"357009526","RoadLinkId":"113444243"}}},{"Relevance":1.0,"Distance":67.8,"MatchLevel":"street","MatchQuality":{"Country":1.0,"State":1.0,"County":1.0,"City":1.0,"District":1.0,"PostalCode":1.0},"Location":{"LocationId":"NT_X2I.wBuGhw6uElCJqD.rSA_l_1193232658_L","LocationType":"point","DisplayPosition":{"Latitude":47.4591609,"Longitude":20.2152525},"MapView":{"TopLeft":{"Latitude":47.45961,"Longitude":20.21481},"BottomRight":{"Latitude":47.45871,"Longitude":20.21551}},"Address":{"Label":"Jászkisér 5137, Magyarország","Country":"HUN","State":"Jász-Nagykun-Szolnok","County":"Jászapáti Járás","City":"Jászkisér","District":"Jászkisér","PostalCode":"5137","AdditionalData":[{"value":"Magyarország","key":"CountryName"},{"value":"Jász-Nagykun-Szolnok","key":"StateName"},{"value":"Jászapáti Járás","key":"CountyName"}]},"MapReference":{"ReferenceId":"1193232658","Spot":0.47,"SideOfStreet":"left","CountryId":"20613038","StateId":"20618140","CountyId":"26678123","CityId":"22696433","DistrictId":"26678325"}}}]}]}}