{"Response":{"MetaInfo":{"Timestamp":"2020-03-28T10:29:57.447+0000","NextPageInformation":"2"},"View":[{"_type":"SearchResultsViewType","ViewId":0,"Result":[{"Relevance":1.0,"Distance":-1610.3,"MatchLevel":"landmark","MatchQuality":{"Country":1.0,"Name":1.0},"Location":{"LocationId":"NT_ugPmUODBXfRFrHTX7J9I2B","LocationType":"park","Name":"P.N.R. Loire-Anjou-Touraine","DisplayPosition":{"Latitude":47.28525,"Longitude":-0.13626},"MapView":{"TopLeft":{"Latitude":47.51625,"Longitude":-0.47805},"BottomRight":{"Latitude":47.05424,"Longitude":0.14808}},"Address":{"Label":"France","Country":"FRA","AdditionalData":[{"value":"France","key":"CountryName"}]},"MapReference":{"CountryId":"20000001","PlaceId":"1509231899"}}},{"Relevance":1.0,"Distance":0.0,"Direction":0.0,"MatchLevel":"district","MatchQuality":{"Country":1.0,"State":1.0,"County":1.0,"City":1.0,"District":1.0,"PostalCode":1.0},"Location":{"LocationId":"NT_p.g64gK5zVsCrB82RA3C1D","LocationType":"point","DisplayPosition":{"Latitude":47.4714311,"Longitude":-0.3512192},"MapView":{"TopLeft":{"Latitude":47.48082,"Longitude":-0.3614},"BottomRight":{"Latitude":47.46337,"Longitude":-0.33598}},"Address":{"Label":"Corné, Loire-Authion, Pays de la Loire, France","Country":"FRA","State":"Pays de la Loire","County":"Maine-et-Loire","City":"Loire-Authion","District":"Corné","PostalCode":"49630","AdditionalData":[{"value":"France","key":"CountryName"},{"value":"Pays de la Loire","key":"StateName"},{"value":"Maine-et-Loire","key":"CountyName"}]},"MapReference":{"ReferenceId":"558020756","SideOfStreet":"neither","CountryId":"20000001","StateId":"20068992","CountyId":"20070673","CityId":"20071547","DistrictId":"20070994"}}},{"Relevance":1.0,"Distance":6.9,"MatchLevel":"houseNumber","MatchQuality":{"Country":1.0,"State":1.0,"County":1.0,"City":1.0,"District":1.0,"Street":[1.0],"HouseNumber":1.0,"PostalCode":1.0},"MatchType":"interpolated","Location":{"LocationId":"NT_lFMsDpDLR0gQxAKE1R1.VB_0A","LocationType":"point","DisplayPosition":{"Latitude":47.47143,"Longitude":-0.35137},"MapView":{"TopLeft":{"Latitude":47.4725542,"Longitude":-0.3530331},"BottomRight":{"Latitude":47.4703058,"Longitude":-0.3497069}},"Address":{"Label":"4 Place Jan Rolland, 49630 Loire-Authion, France","Country":"FRA","State":"Pays de la Loire","County":"Maine-et-Loire","City":"Loire-Authion","District":"Corné","Street":"Place Jan Rolland","HouseNumber":"4","PostalCode":"49630","AdditionalData":[{"value":"France","key":"CountryName"},{"value":"Pays de la Loire","key":"StateName"},{"value":"Maine-et-Loire","key":"CountyName"}]},"MapReference":{"ReferenceId":"1062430412","Spot":0.85,"SideOfStreet":"right","CountryId":"20000001","StateId":"20068992","CountyId":"20070673","CityId":"20071547","DistrictId":"20070994","AddressId":"323902449","RoadLinkId":"384562042"}}},{"Relevance":1.0,"Distance":20.1,"MatchLevel":"street","MatchQuality":{"Country":1.0,"State":1.0,"County":1.0,"City":1.0,"District":1.0,"Street":[1.0],"PostalCode":1.0},"Location":{"LocationId":"NT_lFMsDpDLR0gQxAKE1R1.VB_l_1062430411_R","LocationType":"point","DisplayPosition":{"Latitude":47.47132,"Longitude":-0.35143},"MapView":{"TopLeft":{"Latitude":47.47132,"Longitude":-0.35147},"BottomRight":{"Latitude":47.47122,"Longitude":-0.35143}},"Address":{"Label":"Place Jan Rolland, 49630 Loire-Authion, France","Country":"FRA","State":"Pays de la Loire","County":"Maine-et-Loire","City":"Loire-Authion","District":"Corné","Street":"Place Jan Rolland","PostalCode":"49630","AdditionalData":[{"value":"France","key":"CountryName"},{"value":"Pays de la Loire","key":"StateName"},{"value":"Maine-et-Loire","key":"CountyName"}]},"MapReference":{"ReferenceId":"1062430411","Spot":1.0,"SideOfStreet":"right","CountryId":"20000001","StateId":"20068992","CountyId":"20070673","CityId":"20071547","DistrictId":"20070994"}}},{"Relevance":1.0,"Distance":30.9,"MatchLevel":"houseNumber","MatchQuality":{"Country":1.0,"State":1.0,"County":1.0,"City":1.0,"District":1.0,"Street":[1.0],"HouseNumber":1.0,"PostalCode":1.0},"MatchType":"interpolated","Location":{"LocationId":"NT_CZGQd1wHV5GP-pDwPOURdB_zYD","LocationType":"point","DisplayPosition":{"Latitude":47.47116,"Longitude":-0.35131},"MapView":{"TopLeft":{"Latitude":47.4722842,"Longitude":-0.352973},"BottomRight":{"Latitude":47.4700358,"Longitude":-0.349647}},"Address":{"Label":"36 Rue Royale, 49630 Loire-Authion, France","Country":"FRA","State":"Pays de la Loire","County":"Maine-et-Loire","City":"Loire-Authion","District":"Corné","Street":"Rue Royale","HouseNumber":"36","PostalCode":"49630","AdditionalData":[{"value":"France","key":"CountryName"},{"value":"Pays de la Loire","key":"StateName"},{"value":"Maine-et-Loire","key":"CountyName"}]},"MapReference":{"ReferenceId":"558020756","Spot":0.64,"SideOfStreet":"left","CountryId":"20000001","StateId":"20068992","CountyId":"20070673","CityId":"20071547","DistrictId":"20070994","AddressId":"323600053","RoadLinkId":"47671824"}}},{"Relevance":1.0,"Distance":43.9,"MatchLevel":"street","MatchQuality":{"Country":1.0,"State":1.0,"County":1.0,"City":1.0,"District":1.0,"Street":[1.0],"PostalCode":1.0},"Location":{"LocationId":"NT_mgzUiIK-9TwRkXASyPiKVB_l_558020759_L","LocationType":"point","DisplayPosition":{"Latitude":47.47106,"Longitude":-0.35102},"MapView":{"TopLeft":{"Latitude":47.47106,"Longitude":-0.35115},"BottomRight":{"Latitude":47.4706,"Longitude":-0.35102}},"Address":{"Label":"Rue Courte, 49630 Loire-Authion, France","Country":"FRA","State":"Pays de la Loire","County":"Maine-et-Loire","City":"Loire-Authion","District":"Corné","Street":"Rue Courte","PostalCode":"49630","AdditionalData":[{"value":"France","key":"CountryName"},{"value":"Pays de la Loire","key":"StateName"},{"value":"Maine-et-Loire","key":"CountyName"}]},"MapReference":{"ReferenceId":"558020759","Spot":1.0,"SideOfStreet":"left","CountryId":"20000001","StateId":"20068992","CountyId":"20070673","CityId":"20071547","DistrictId":"20070994"}}},{"Relevance":1.0,"Distance":44.3,"MatchLevel":"houseNumber","MatchQuality":{"Country":1.0,"State":1.0,"County":1.0,"City":1.0,"District":1.0,"Street":[1.0],"HouseNumber":1.0,"PostalCode":1.0},"MatchType":"interpolated","Location":{"LocationId":"NT_CZGQd1wHV5GP-pDwPOURdB_zID","LocationType":"point","DisplayPosition":{"Latitude":47.47129,"Longitude":-0.35177},"MapView":{"TopLeft":{"Latitude":47.4724142,"Longitude":-0.353433},"BottomRight":{"Latitude":47.4701658,"Longitude":-0.350107}},"Address":{"Label":"32 Rue Royale, 49630 Loire-Authion, France","Country":"FRA","State":"Pays de la Loire","County":"Maine-et-Loire","City":"Loire-Authion","District":"Corné","Street":"Rue Royale","HouseNumber":"32","PostalCode":"49630","AdditionalData":[{"value":"France","key":"CountryName"},{"value":"Pays de la Loire","key":"StateName"},{"value":"Maine-et-Loire","key":"CountyName"}]},"MapReference":{"ReferenceId":"558020752","Spot":0.84,"SideOfStreet":"left","CountryId":"20000001","StateId":"20068992","CountyId":"20070673","CityId":"20071547","DistrictId":"20070994","AddressId":"323906737","RoadLinkId":"48018741"}}},{"Relevance":1.0,"Distance":45.6,"MatchLevel":"houseNumber","MatchQuality":{"Country":1.0,"State":1.0,"County":1.0,"City":1.0,"District":1.0,"Street":[1.0],"HouseNumber":1.0,"PostalCode":1.0},"MatchType":"interpolated","Location":{"LocationId":"NT_CZGQd1wHV5GP-pDwPOURdB_zED","LocationType":"point","DisplayPosition":{"Latitude":47.47104,"Longitude":-0.35096},"MapView":{"TopLeft":{"Latitude":47.4721642,"Longitude":-0.352623},"BottomRight":{"Latitude":47.4699158,"Longitude":-0.349297}},"Address":{"Label":"31 Rue Royale, 49630 Loire-Authion, France","Country":"FRA","State":"Pays de la Loire","County":"Maine-et-Loire","City":"Loire-Authion","District":"Corné","Street":"Rue Royale","HouseNumber":"31","PostalCode":"49630","AdditionalData":[{"value":"France","key":"CountryName"},{"value":"Pays de la Loire","key":"StateName"},{"value":"Maine-et-Loire","key":"CountyName"}]},"MapReference":{"ReferenceId":"1062163184","Spot":0.71,"SideOfStreet":"right","CountryId":"20000001","StateId":"20068992","CountyId":"20070673","CityId":"20071547","DistrictId":"20070994","AddressId":"323719342","RoadLinkId":"384300821"}}},{"Relevance":1.0,"Distance":48.2,"MatchLevel":"street","MatchQuality":{"Country":1.0,"State":1.0,"County":1.0,"City":1.0,"District":1.0,"Street":[1.0],"PostalCode":1.0},"Location":{"LocationId":"NT_5rc0gQnrJ7bl43bTDpsZcD_l_558020754_R","LocationType":"point","DisplayPosition":{"Latitude":47.4713,"Longitude":-0.35183},"MapView":{"TopLeft":{"Latitude":47.4713,"Longitude":-0.35205},"BottomRight":{"Latitude":47.47087,"Longitude":-0.35183}},"Address":{"Label":"Rue de l'Étoile, 49630 Loire-Authion, France","Country":"FRA","State":"Pays de la Loire","County":"Maine-et-Loire","City":"Loire-Authion","District":"Corné","Street":"Rue de l'Étoile","PostalCode":"49630","AdditionalData":[{"value":"France","key":"CountryName"},{"value":"Pays de la Loire","key":"StateName"},{"value":"Maine-et-Loire","key":"CountyName"}]},"MapReference":{"ReferenceId":"558020754","Spot":1.0,"SideOfStreet":"right","CountryId":"20000001","StateId":"20068992","CountyId":"20070673","CityId":"20071547","DistrictId":"20070994"}}},{"Relevance":1.0,"Distance":49.3,"MatchLevel":"houseNumber","MatchQuality":{"Country":1.0,"State":1.0,"County":1.0,"City":1.0,"District":1.0,"Street":[1.0],"HouseNumber":1.0,"PostalCode":1.0},"MatchType":"interpolated","Location":{"LocationId":"NT_CZGQd1wHV5GP-pDwPOURdB_ycD","LocationType":"point","DisplayPosition":{"Latitude":47.4713,"Longitude":-0.35185},"MapView":{"TopLeft":{"Latitude":47.4724242,"Longitude":-0.353513},"BottomRight":{"Latitude":47.4701758,"Longitude":-0.350187}},"Address":{"Label":"27 Rue Royale, 49630 Loire-Authion, France","Country":"FRA","State":"Pays de la Loire","County":"Maine-et-Loire","City":"Loire-Authion","District":"Corné","Street":"Rue Royale","HouseNumber":"27","PostalCode":"49630","AdditionalData":[{"value":"France","key":"CountryName"},{"value":"Pays de la Loire","key":"StateName"},{"value":"Maine-et-Loire","key":"CountyName"}]},"MapReference":{"ReferenceId":"1062288033","Spot":0.1,"SideOfStreet":"right","CountryId":"20000001","StateId":"20068992","CountyId":"20070673","CityId":"20071547","DistrictId":"20070994","AddressId":"323598626","RoadLinkId":"384435683"}}}]}]}}