{"Response":{"MetaInfo":{"Timestamp":"2020-03-28T12:02:10.749+0000","NextPageInformation":"2"},"View":[{"_type":"SearchResultsViewType","ViewId":0,"Result":[{"Relevance":1.0,"Distance":0.0,"Direction":0.0,"MatchLevel":"district","MatchQuality":{"Country":1.0,"State":1.0,"County":1.0,"City":1.0,"District":1.0,"PostalCode":1.0},"Location":{"LocationId":"NT_G.xMTZKQrtBSSvuY70ywdD","LocationType":"point","DisplayPosition":{"Latitude":47.4071331,"Longitude":18.8309007},"MapView":{"TopLeft":{"Latitude":47.41508,"Longitude":18.81365},"BottomRight":{"Latitude":47.39733,"Longitude":18.84596}},"Address":{"Label":"Sóskút, Pest, Magyarország","Country":"HUN","State":"Pest","County":"Érdi Járás","City":"Sóskút","District":"Sóskút","PostalCode":"2038","AdditionalData":[{"value":"Magyarország","key":"CountryName"},{"value":"Pest","key":"StateName"},{"value":"Érdi Járás","key":"CountyName"}]},"MapReference":{"ReferenceId":"909232811","SideOfStreet":"neither","CountryId":"20613038","StateId":"20619051","CountyId":"26678487","CityId":"20619462","DistrictId":"26678638"}}},{"Relevance":1.0,"Distance":6.3,"MatchLevel":"street","MatchQuality":{"Country":1.0,"State":1.0,"County":1.0,"City":1.0,"District":1.0,"Street":[1.0],"PostalCode":1.0},"Location":{"LocationId":"NT_tSIHDQ0hgKSAdMKwzH-VGB_l_1233174584_R","LocationType":"point","DisplayPosition":{"Latitude":47.4071862,"Longitude":18.8308712},"MapView":{"TopLeft":{"Latitude":47.40772,"Longitude":18.83086},"BottomRight":{"Latitude":47.40718,"Longitude":18.83137}},"Address":{"Label":"Fő utca, Sóskút 2038, Magyarország","Country":"HUN","State":"Pest","County":"Érdi Járás","City":"Sóskút","District":"Sóskút","Street":"Fő utca","PostalCode":"2038","AdditionalData":[{"value":"Magyarország","key":"CountryName"},{"value":"Pest","key":"StateName"},{"value":"Érdi Járás","key":"CountyName"}]},"MapReference":{"ReferenceId":"1233174584","Spot":0.02,"SideOfStreet":"right","CountryId":"20613038","StateId":"20619051","CountyId":"26678487","CityId":"20619462","DistrictId":"26678638"}}},{"Relevance":1.0,"Distance":10.4,"MatchLevel":"houseNumber","MatchQuality":{"Country":1.0,"State":1.0,"County":1.0,"City":1.0,"District":1.0,"Street":[1.0],"HouseNumber":1.0,"PostalCode":1.0},"MatchType":"interpolated","Location":{"LocationId":"NT_tSIHDQ0hgKSAdMKwzH-VGB_0ED","LocationType":"point","DisplayPosition":{"Latitude":47.40715,"Longitude":18.83078},"MapView":{"TopLeft":{"Latitude":47.4082742,"Longitude":18.829119},"BottomRight":{"Latitude":47.4060258,"Longitude":18.832441}},"Address":{"Label":"Fő utca 41, Sóskút 2038, Magyarország","Country":"HUN","State":"Pest","County":"Érdi Járás","City":"Sóskút","District":"Sóskút","Street":"Fő utca","HouseNumber":"41","PostalCode":"2038","AdditionalData":[{"value":"Magyarország","key":"CountryName"},{"value":"Pest","key":"StateName"},{"value":"Érdi Járás","key":"CountyName"}]},"MapReference":{"ReferenceId":"1233180032","Spot":0.69,"SideOfStreet":"right","CountryId":"20613038","StateId":"20619051","CountyId":"26678487","CityId":"20619462","DistrictId":"26678638","AddressId":"354974173","RoadLinkId":"553333414"}}},{"Relevance":1.0,"Distance":14.1,"MatchLevel":"houseNumber","MatchQuality":{"Country":1.0,"State":1.0,"County":1.0,"City":1.0,"District":1.0,"Street":[1.0],"HouseNumber":1.0,"PostalCode":1.0},"MatchType":"interpolated","Location":{"LocationId":"NT_WvkCIEO6nhve9W.5NcnIvB_xA","LocationType":"point","DisplayPosition":{"Latitude":47.40726,"Longitude":18.83089},"MapView":{"TopLeft":{"Latitude":47.4083842,"Longitude":18.829229},"BottomRight":{"Latitude":47.4061358,"Longitude":18.832551}},"Address":{"Label":"Kőszikla utca 1, Sóskút 2038, Magyarország","Country":"HUN","State":"Pest","County":"Érdi Járás","City":"Sóskút","District":"Sóskút","Street":"Kőszikla utca","HouseNumber":"1","PostalCode":"2038","AdditionalData":[{"value":"Magyarország","key":"CountryName"},{"value":"Pest","key":"StateName"},{"value":"Érdi Járás","key":"CountyName"}]},"MapReference":{"ReferenceId":"1233189887","Spot":0.16,"SideOfStreet":"left","CountryId":"20613038","StateId":"20619051","CountyId":"26678487","CityId":"20619462","DistrictId":"26678638","AddressId":"357207150","RoadLinkId":"553345766"}}},{"Relevance":1.0,"Distance":23.1,"MatchLevel":"street","MatchQuality":{"Country":1.0,"State":1.0,"County":1.0,"City":1.0,"District":1.0,"Street":[1.0],"PostalCode":1.0},"Location":{"LocationId":"NT_j2l0mf2-3JebY9Cx9.mx.C_l_1233180031_R","LocationType":"point","DisplayPosition":{"Latitude":47.40709,"Longitude":18.8306},"MapView":{"TopLeft":{"Latitude":47.40709,"Longitude":18.83052},"BottomRight":{"Latitude":47.40707,"Longitude":18.8306}},"Address":{"Label":"Fő utca, Sóskút 2038, Magyarország","Country":"HUN","State":"Pest","County":"Érdi Járás","City":"Sóskút","District":"Sóskút","Street":"Fő utca","PostalCode":"2038","AdditionalData":[{"value":"Magyarország","key":"CountryName"},{"value":"Pest","key":"StateName"},{"value":"Érdi Járás","key":"CountyName"}]},"MapReference":{"ReferenceId":"1233180031","Spot":1.0,"SideOfStreet":"right","CountryId":"20613038","StateId":"20619051","CountyId":"26678487","CityId":"20619462","DistrictId":"26678638"}}},{"Relevance":1.0,"Distance":28.3,"MatchLevel":"houseNumber","MatchQuality":{"Country":1.0,"State":1.0,"County":1.0,"City":1.0,"District":1.0,"Street":[1.0],"HouseNumber":1.0,"PostalCode":1.0},"MatchType":"interpolated","Location":{"LocationId":"NT_hXow7970kgkf.VE2.XPylD_2A","LocationType":"point","DisplayPosition":{"Latitude":47.40671,"Longitude":18.8303},"MapView":{"TopLeft":{"Latitude":47.4078342,"Longitude":18.828639},"BottomRight":{"Latitude":47.4055858,"Longitude":18.831961}},"Address":{"Label":"Flórián tér 6, Sóskút 2038, Magyarország","Country":"HUN","State":"Pest","County":"Érdi Járás","City":"Sóskút","District":"Sóskút","Street":"Flórián tér","HouseNumber":"6","PostalCode":"2038","AdditionalData":[{"value":"Magyarország","key":"CountryName"},{"value":"Pest","key":"StateName"},{"value":"Érdi Járás","key":"CountyName"}]},"MapReference":{"ReferenceId":"598122309","Spot":0.9,"SideOfStreet":"right","CountryId":"20613038","StateId":"20619051","CountyId":"26678487","CityId":"20619462","DistrictId":"26678638","AddressId":"355063446","RoadLinkId":"60606076"}}},{"Relevance":1.0,"Distance":29.5,"MatchLevel":"houseNumber","MatchQuality":{"Country":1.0,"State":1.0,"County":1.0,"City":1.0,"District":1.0,"Street":[1.0],"HouseNumber":1.0,"PostalCode":1.0},"MatchType":"interpolated","Location":{"LocationId":"NT_tSIHDQ0hgKSAdMKwzH-VGB_yYD","LocationType":"point","DisplayPosition":{"Latitude":47.40707,"Longitude":18.83052},"MapView":{"TopLeft":{"Latitude":47.4081942,"Longitude":18.828859},"BottomRight":{"Latitude":47.4059458,"Longitude":18.832181}},"Address":{"Label":"Fő utca 26, Sóskút 2038, Magyarország","Country":"HUN","State":"Pest","County":"Érdi Járás","City":"Sóskút","District":"Sóskút","Street":"Fő utca","HouseNumber":"26","PostalCode":"2038","AdditionalData":[{"value":"Magyarország","key":"CountryName"},{"value":"Pest","key":"StateName"},{"value":"Érdi Járás","key":"CountyName"}]},"MapReference":{"ReferenceId":"1233174586","Spot":1.0,"SideOfStreet":"left","CountryId":"20613038","StateId":"20619051","CountyId":"26678487","CityId":"20619462","DistrictId":"26678638","AddressId":"355835659","RoadLinkId":"553326949"}}},{"Relevance":1.0,"Distance":29.5,"MatchLevel":"street","MatchQuality":{"Country":1.0,"State":1.0,"County":1.0,"City":1.0,"District":1.0,"PostalCode":1.0},"Location":{"LocationId":"NT_oWjQKXBn.zxuJ8J4weMFwD_l_598122263_R","LocationType":"point","DisplayPosition":{"Latitude":47.40707,"Longitude":18.83052},"MapView":{"TopLeft":{"Latitude":47.40707,"Longitude":18.83023},"BottomRight":{"Latitude":47.40673,"Longitude":18.83052}},"Address":{"Label":"Sóskút 2038, Magyarország","Country":"HUN","State":"Pest","County":"Érdi Járás","City":"Sóskút","District":"Sóskút","PostalCode":"2038","AdditionalData":[{"value":"Magyarország","key":"CountryName"},{"value":"Pest","key":"StateName"},{"value":"Érdi Járás","key":"CountyName"}]},"MapReference":{"ReferenceId":"598122263","Spot":1.0,"SideOfStreet":"right","CountryId":"20613038","StateId":"20619051","CountyId":"26678487","CityId":"20619462","DistrictId":"26678638"}}},{"Relevance":1.0,"Distance":35.4,"MatchLevel":"houseNumber","MatchQuality":{"Country":1.0,"State":1.0,"County":1.0,"City":1.0,"District":1.0,"Street":[1.0],"HouseNumber":1.0,"PostalCode":1.0},"MatchType":"interpolated","Location":{"LocationId":"NT_ksRqAmYawGsu-rLW2nP48B_zID","LocationType":"point","DisplayPosition":{"Latitude":47.40727,"Longitude":18.83153},"MapView":{"TopLeft":{"Latitude":47.4083942,"Longitude":18.829869},"BottomRight":{"Latitude":47.4061458,"Longitude":18.833191}},"Address":{"Label":"Ady Endre utca 32, Sóskút 2038, Magyarország","Country":"HUN","State":"Pest","County":"Érdi Járás","City":"Sóskút","District":"Sóskút","Street":"Ady Endre utca","HouseNumber":"32","PostalCode":"2038","AdditionalData":[{"value":"Magyarország","key":"CountryName"},{"value":"Pest","key":"StateName"},{"value":"Érdi Járás","key":"CountyName"}]},"MapReference":{"ReferenceId":"598122348","Spot":0.68,"SideOfStreet":"left","CountryId":"20613038","StateId":"20619051","CountyId":"26678487","CityId":"20619462","DistrictId":"26678638","AddressId":"356306657","RoadLinkId":"60786843"}}},{"Relevance":1.0,"Distance":63.1,"MatchLevel":"houseNumber","MatchQuality":{"Country":1.0,"State":1.0,"County":1.0,"City":1.0,"District":1.0,"Street":[1.0],"HouseNumber":1.0,"PostalCode":1.0},"MatchType":"interpolated","Location":{"LocationId":"NT_WvkCIEO6nhve9W.5NcnIvB_1A","LocationType":"point","DisplayPosition":{"Latitude":47.40769,"Longitude":18.83106},"MapView":{"TopLeft":{"Latitude":47.4088142,"Longitude":18.829399},"BottomRight":{"Latitude":47.4065658,"Longitude":18.832721}},"Address":{"Label":"Kőszikla utca 5, Sóskút 2038, Magyarország","Country":"HUN","State":"Pest","County":"Érdi Járás","City":"Sóskút","District":"Sóskút","Street":"Kőszikla utca","HouseNumber":"5","PostalCode":"2038","AdditionalData":[{"value":"Magyarország","key":"CountryName"},{"value":"Pest","key":"StateName"},{"value":"Érdi Járás","key":"CountyName"}]},"MapReference":{"ReferenceId":"1233189888","Spot":0.0,"SideOfStreet":"left","CountryId":"20613038","StateId":"20619051","CountyId":"26678487","CityId":"20619462","DistrictId":"26678638","AddressId":"357207146","RoadLinkId":"553345767"}}}]}]}}