{"Response":{"MetaInfo":{"Timestamp":"2020-03-28T11:21:55.241+0000","NextPageInformation":"2"},"View":[{"_type":"SearchResultsViewType","ViewId":0,"Result":[{"Relevance":1.0,"Distance":-31.1,"MatchLevel":"landmark","MatchQuality":{"Country":1.0,"State":1.0,"County":1.0,"City":1.0,"District":1.0,"Street":[1.0],"HouseNumber":1.0,"PostalCode":1.0,"Name":1.0},"Location":{"LocationId":"NT_CWAF0JYGfWty.yNLE2jFhB_p_WVa.vWSds.0-KvS9jWjirB","LocationType":"hospital","Name":"Nyírő Gyula Kórház","DisplayPosition":{"Latitude":47.52791,"Longitude":19.07953},"MapView":{"TopLeft":{"Latitude":47.5290342,"Longitude":19.0778652},"BottomRight":{"Latitude":47.5267858,"Longitude":19.0811948}},"Address":{"Label":"Lehel utca 59, Budapest 1135, Magyarország","Country":"HUN","State":"Budapest","County":"Budapest","City":"Budapest","District":"Budapest 13","Street":"Lehel utca","HouseNumber":"59","PostalCode":"1135","AdditionalData":[{"value":"Magyarország","key":"CountryName"},{"value":"Budapest","key":"StateName"},{"value":"Budapest","key":"CountyName"}]},"MapReference":{"CountryId":"20613038","StateId":"20616317","CountyId":"20616318","CityId":"26682433","DistrictId":"20616324","PlaceId":"1010123817"}}},{"Relevance":1.0,"Distance":0.0,"Direction":0.0,"MatchLevel":"district","MatchQuality":{"Country":1.0,"State":1.0,"County":1.0,"City":1.0,"District":1.0,"PostalCode":1.0},"Location":{"LocationId":"NT_jBF0riGQ.hD2Oyx4I5InrD","LocationType":"point","DisplayPosition":{"Latitude":47.5278817,"Longitude":19.0813282},"MapView":{"TopLeft":{"Latitude":47.56209,"Longitude":19.04019},"BottomRight":{"Latitude":47.51052,"Longitude":19.09819}},"Address":{"Label":"Budapest 13, Budapest, Magyarország","Country":"HUN","State":"Budapest","County":"Budapest","City":"Budapest","District":"Budapest 13","PostalCode":"1137","AdditionalData":[{"value":"Magyarország","key":"CountryName"},{"value":"Budapest","key":"StateName"},{"value":"Budapest","key":"CountyName"}]},"MapReference":{"ReferenceId":"981737749","SideOfStreet":"neither","CountryId":"20613038","StateId":"20616317","CountyId":"20616318","CityId":"26682433","DistrictId":"20616324"}}},{"Relevance":1.0,"Distance":29.9,"MatchLevel":"houseNumber","MatchQuality":{"Country":1.0,"State":1.0,"County":1.0,"City":1.0,"District":1.0,"Street":[1.0],"HouseNumber":1.0,"PostalCode":1.0},"MatchType":"interpolated","Location":{"LocationId":"NT_lzUoTQJIAxNZ9n6xhbjAiC_xQD","LocationType":"point","DisplayPosition":{"Latitude":47.52758,"Longitude":19.08158},"MapView":{"TopLeft":{"Latitude":47.5287042,"Longitude":19.0799152},"BottomRight":{"Latitude":47.5264558,"Longitude":19.0832448}},"Address":{"Label":"Jász utca 14, Budapest 1135, Magyarország","Country":"HUN","State":"Budapest","County":"Budapest","City":"Budapest","District":"Budapest 13","Street":"Jász utca","HouseNumber":"14","PostalCode":"1135","AdditionalData":[{"value":"Magyarország","key":"CountryName"},{"value":"Budapest","key":"StateName"},{"value":"Budapest","key":"CountyName"}]},"MapReference":{"ReferenceId":"583876414","Spot":0.97,"SideOfStreet":"left","CountryId":"20613038","StateId":"20616317","CountyId":"20616318","CityId":"26682433","DistrictId":"20616324","AddressId":"357137603","RoadLinkId":"60306530"}}},{"Relevance":1.0,"Distance":30.8,"MatchLevel":"houseNumber","MatchQuality":{"Country":1.0,"State":1.0,"County":1.0,"City":1.0,"District":1.0,"Street":[1.0],"HouseNumber":1.0,"PostalCode":1.0},"MatchType":"interpolated","Location":{"LocationId":"NT_lzUoTQJIAxNZ9n6xhbjAiC_yMTY","LocationType":"point","DisplayPosition":{"Latitude":47.52771,"Longitude":19.08165},"MapView":{"TopLeft":{"Latitude":47.5288342,"Longitude":19.0799852},"BottomRight":{"Latitude":47.5265858,"Longitude":19.0833148}},"Address":{"Label":"Jász utca 23a, Budapest 1135, Magyarország","Country":"HUN","State":"Budapest","County":"Budapest","City":"Budapest","District":"Budapest 13","Street":"Jász utca","HouseNumber":"23a","PostalCode":"1135","AdditionalData":[{"value":"Magyarország","key":"CountryName"},{"value":"Budapest","key":"StateName"},{"value":"Budapest","key":"CountyName"}]},"MapReference":{"ReferenceId":"583876262","Spot":0.08,"SideOfStreet":"right","CountryId":"20613038","StateId":"20616317","CountyId":"20616318","CityId":"26682433","DistrictId":"20616324","AddressId":"711641959","RoadLinkId":"60672928"}}},{"Relevance":1.0,"Distance":59.2,"MatchLevel":"houseNumber","MatchQuality":{"Country":1.0,"State":1.0,"County":1.0,"City":1.0,"District":1.0,"Street":[1.0],"HouseNumber":1.0,"PostalCode":1.0},"MatchType":"interpolated","Location":{"LocationId":"NT_9yQwivIfGL3vsuwnNC-EkD_yA","LocationType":"point","DisplayPosition":{"Latitude":47.52746,"Longitude":19.08181},"MapView":{"TopLeft":{"Latitude":47.5285842,"Longitude":19.0801452},"BottomRight":{"Latitude":47.5263358,"Longitude":19.0834748}},"Address":{"Label":"Kerekes utca 2, Budapest 1135, Magyarország","Country":"HUN","State":"Budapest","County":"Budapest","City":"Budapest","District":"Budapest 13","Street":"Kerekes utca","HouseNumber":"2","PostalCode":"1135","AdditionalData":[{"value":"Magyarország","key":"CountryName"},{"value":"Budapest","key":"StateName"},{"value":"Budapest","key":"CountyName"}]},"MapReference":{"ReferenceId":"1251624132","Spot":0.44,"SideOfStreet":"right","CountryId":"20613038","StateId":"20616317","CountyId":"20616318","CityId":"26682433","DistrictId":"20616324","AddressId":"356993356","RoadLinkId":"574680055"}}},{"Relevance":1.0,"Distance":84.9,"MatchLevel":"houseNumber","MatchQuality":{"Country":1.0,"State":1.0,"County":1.0,"City":1.0,"District":1.0,"Street":[1.0],"HouseNumber":1.0,"PostalCode":1.0},"MatchType":"interpolated","Location":{"LocationId":"NT_9yQwivIfGL3vsuwnNC-EkD_0IG","LocationType":"point","DisplayPosition":{"Latitude":47.5273,"Longitude":19.08206},"MapView":{"TopLeft":{"Latitude":47.5284242,"Longitude":19.0803952},"BottomRight":{"Latitude":47.5261758,"Longitude":19.0837248}},"Address":{"Label":"Kerekes utca 4b, Budapest 1135, Magyarország","Country":"HUN","State":"Budapest","County":"Budapest","City":"Budapest","District":"Budapest 13","Street":"Kerekes utca","HouseNumber":"4b","PostalCode":"1135","AdditionalData":[{"value":"Magyarország","key":"CountryName"},{"value":"Budapest","key":"StateName"},{"value":"Budapest","key":"CountyName"}]},"MapReference":{"ReferenceId":"1251753557","Spot":0.93,"SideOfStreet":"right","CountryId":"20613038","StateId":"20616317","CountyId":"20616318","CityId":"26682433","DistrictId":"20616324","AddressId":"711619425","RoadLinkId":"574842065"}}},{"Relevance":1.0,"Distance":110.8,"MatchLevel":"houseNumber","MatchQuality":{"Country":1.0,"State":1.0,"County":1.0,"City":1.0,"District":1.0,"Street":[1.0],"HouseNumber":1.0,"PostalCode":1.0},"MatchType":"interpolated","Location":{"LocationId":"NT_cg39F9KqL8bJXLbvTexNAC_1kD","LocationType":"point","DisplayPosition":{"Latitude":47.52825,"Longitude":19.07972},"MapView":{"TopLeft":{"Latitude":47.5293742,"Longitude":19.0780551},"BottomRight":{"Latitude":47.5271258,"Longitude":19.0813849}},"Address":{"Label":"Lehel utca 59, Budapest 1135, Magyarország","Country":"HUN","State":"Budapest","County":"Budapest","City":"Budapest","District":"Budapest 13","Street":"Lehel utca","HouseNumber":"59","PostalCode":"1135","AdditionalData":[{"value":"Magyarország","key":"CountryName"},{"value":"Budapest","key":"StateName"},{"value":"Budapest","key":"CountyName"}]},"MapReference":{"ReferenceId":"783385477","Spot":0.56,"SideOfStreet":"right","CountryId":"20613038","StateId":"20616317","CountyId":"20616318","CityId":"26682433","DistrictId":"20616324","AddressId":"355045512","RoadLinkId":"176200172"}}},{"Relevance":1.0,"Distance":115.6,"MatchLevel":"houseNumber","MatchQuality":{"Country":1.0,"State":1.0,"County":1.0,"City":1.0,"District":1.0,"Street":[1.0],"HouseNumber":1.0,"PostalCode":1.0},"MatchType":"interpolated","Location":{"LocationId":"NT_cg39F9KqL8bJXLbvTexNAC_2ED","LocationType":"point","DisplayPosition":{"Latitude":47.52855,"Longitude":19.07989},"MapView":{"TopLeft":{"Latitude":47.5296742,"Longitude":19.0782251},"BottomRight":{"Latitude":47.5274258,"Longitude":19.0815549}},"Address":{"Label":"Lehel utca 61, Budapest 1135, Magyarország","Country":"HUN","State":"Budapest","County":"Budapest","City":"Budapest","District":"Budapest 13","Street":"Lehel utca","HouseNumber":"61","PostalCode":"1135","AdditionalData":[{"value":"Magyarország","key":"CountryName"},{"value":"Budapest","key":"StateName"},{"value":"Budapest","key":"CountyName"}]},"MapReference":{"ReferenceId":"783385478","Spot":0.03,"SideOfStreet":"right","CountryId":"20613038","StateId":"20616317","CountyId":"20616318","CityId":"26682433","DistrictId":"20616324","AddressId":"357352959","RoadLinkId":"176200173"}}},{"Relevance":1.0,"Distance":120.4,"MatchLevel":"houseNumber","MatchQuality":{"Country":1.0,"State":1.0,"County":1.0,"City":1.0,"District":1.0,"Street":[1.0],"HouseNumber":1.0,"PostalCode":1.0},"MatchType":"interpolated","Location":{"LocationId":"NT_RIMNfalG8g2hmN70GTOddD_ycD","LocationType":"point","DisplayPosition":{"Latitude":47.52872,"Longitude":19.08281},"MapView":{"TopLeft":{"Latitude":47.5298442,"Longitude":19.0811451},"BottomRight":{"Latitude":47.5275958,"Longitude":19.0844749}},"Address":{"Label":"Szegedi út 27, Budapest 1135, Magyarország","Country":"HUN","State":"Budapest","County":"Budapest","City":"Budapest","District":"Budapest 13","Street":"Szegedi út","HouseNumber":"27","PostalCode":"1135","AdditionalData":[{"value":"Magyarország","key":"CountryName"},{"value":"Budapest","key":"StateName"},{"value":"Budapest","key":"CountyName"}]},"MapReference":{"ReferenceId":"988737586","Spot":0.43,"SideOfStreet":"left","CountryId":"20613038","StateId":"20616317","CountyId":"20616318","CityId":"26682433","DistrictId":"20616324","AddressId":"356917834","RoadLinkId":"317788241"}}},{"Relevance":1.0,"Distance":120.5,"MatchLevel":"houseNumber","MatchQuality":{"Country":1.0,"State":1.0,"County":1.0,"City":1.0,"District":1.0,"Street":[1.0],"HouseNumber":1.0,"PostalCode":1.0},"MatchType":"interpolated","Location":{"LocationId":"NT_fiGdh0dGNtmu9FpW2NQMzD_yA","LocationType":"point","DisplayPosition":{"Latitude":47.52672,"Longitude":19.08132},"MapView":{"TopLeft":{"Latitude":47.5278442,"Longitude":19.0796552},"BottomRight":{"Latitude":47.5255958,"Longitude":19.0829848}},"Address":{"Label":"Kisgömb utca 2, Budapest 1135, Magyarország","Country":"HUN","State":"Budapest","County":"Budapest","City":"Budapest","District":"Budapest 13","Street":"Kisgömb utca","HouseNumber":"2","PostalCode":"1135","AdditionalData":[{"value":"Magyarország","key":"CountryName"},{"value":"Budapest","key":"StateName"},{"value":"Budapest","key":"CountyName"}]},"MapReference":{"ReferenceId":"809639832","Spot":0.65,"SideOfStreet":"right","CountryId":"20613038","StateId":"20616317","CountyId":"20616318","CityId":"26682433","DistrictId":"20616324","AddressId":"356343607","RoadLinkId":"196985297"}}}]}]}}