{"Response":{"MetaInfo":{"Timestamp":"2020-03-28T09:54:59.889+0000","NextPageInformation":"2"},"View":[{"_type":"SearchResultsViewType","ViewId":0,"Result":[{"Relevance":1.0,"Distance":0.0,"Direction":0.0,"MatchLevel":"district","MatchQuality":{"Country":1.0,"State":1.0,"County":1.0,"City":1.0,"District":1.0,"PostalCode":1.0},"Location":{"LocationId":"NT_X92ooKF685aAntbrVIRzOD","LocationType":"point","DisplayPosition":{"Latitude":47.5201049,"Longitude":19.5442178},"MapView":{"TopLeft":{"Latitude":47.52916,"Longitude":19.52711},"BottomRight":{"Latitude":47.50771,"Longitude":19.55796}},"Address":{"Label":"Dány, Pest, Magyarország","Country":"HUN","State":"Pest","County":"Gödöllői Járás","City":"Dány","District":"Dány","PostalCode":"2118","AdditionalData":[{"value":"Magyarország","key":"CountryName"},{"value":"Pest","key":"StateName"},{"value":"Gödöllői Járás","key":"CountyName"}]},"MapReference":{"ReferenceId":"598114798","SideOfStreet":"neither","CountryId":"20613038","StateId":"20619051","CountyId":"26678488","CityId":"20619159","DistrictId":"26678622"}}},{"Relevance":1.0,"Distance":43.6,"MatchLevel":"houseNumber","MatchQuality":{"Country":1.0,"State":1.0,"County":1.0,"City":1.0,"District":1.0,"Street":[1.0],"HouseNumber":1.0,"PostalCode":1.0},"MatchType":"interpolated","Location":{"LocationId":"NT_i45.VXeGMvLBlr7fFDHsBD_0A","LocationType":"point","DisplayPosition":{"Latitude":47.52037,"Longitude":19.54379},"MapView":{"TopLeft":{"Latitude":47.5214942,"Longitude":19.5421254},"BottomRight":{"Latitude":47.5192458,"Longitude":19.5454546}},"Address":{"Label":"Tavasz utca 4, Dány 2118, Magyarország","Country":"HUN","State":"Pest","County":"Gödöllői Járás","City":"Dány","District":"Dány","Street":"Tavasz utca","HouseNumber":"4","PostalCode":"2118","AdditionalData":[{"value":"Magyarország","key":"CountryName"},{"value":"Pest","key":"StateName"},{"value":"Gödöllői Járás","key":"CountyName"}]},"MapReference":{"ReferenceId":"598114641","Spot":0.9,"SideOfStreet":"left","CountryId":"20613038","StateId":"20619051","CountyId":"26678488","CityId":"20619159","DistrictId":"26678622","AddressId":"356938943","RoadLinkId":"60415282"}}},{"Relevance":1.0,"Distance":63.0,"MatchLevel":"houseNumber","MatchQuality":{"Country":1.0,"State":1.0,"County":1.0,"City":1.0,"District":1.0,"Street":[1.0],"HouseNumber":1.0,"PostalCode":1.0},"MatchType":"interpolated","Location":{"LocationId":"NT_Kldtp46ALhKbi2DLOKL-aC_yUD","LocationType":"point","DisplayPosition":{"Latitude":47.52026,"Longitude":19.54324},"MapView":{"TopLeft":{"Latitude":47.5213842,"Longitude":19.5415754},"BottomRight":{"Latitude":47.5191358,"Longitude":19.5449046}},"Address":{"Label":"Kisköz utca 25, Dány 2118, Magyarország","Country":"HUN","State":"Pest","County":"Gödöllői Járás","City":"Dány","District":"Dány","Street":"Kisköz utca","HouseNumber":"25","PostalCode":"2118","AdditionalData":[{"value":"Magyarország","key":"CountryName"},{"value":"Pest","key":"StateName"},{"value":"Gödöllői Járás","key":"CountyName"}]},"MapReference":{"ReferenceId":"598114706","Spot":0.89,"SideOfStreet":"right","CountryId":"20613038","StateId":"20619051","CountyId":"26678488","CityId":"20619159","DistrictId":"26678622","AddressId":"355163479","RoadLinkId":"60620255"}}},{"Relevance":1.0,"Distance":64.0,"MatchLevel":"street","MatchQuality":{"Country":1.0,"State":1.0,"County":1.0,"City":1.0,"District":1.0,"PostalCode":1.0},"Location":{"LocationId":"NT_hSLZmWbX0GKgaXxeK6oV2D_l_598114581_R","LocationType":"point","DisplayPosition":{"Latitude":47.5205842,"Longitude":19.5437462},"MapView":{"TopLeft":{"Latitude":47.5217,"Longitude":19.54362},"BottomRight":{"Latitude":47.52046,"Longitude":19.54488}},"Address":{"Label":"Dány 2118, Magyarország","Country":"HUN","State":"Pest","County":"Gödöllői Járás","City":"Dány","District":"Dány","PostalCode":"2118","AdditionalData":[{"value":"Magyarország","key":"CountryName"},{"value":"Pest","key":"StateName"},{"value":"Gödöllői Járás","key":"CountyName"}]},"MapReference":{"ReferenceId":"598114581","Spot":0.1,"SideOfStreet":"right","CountryId":"20613038","StateId":"20619051","CountyId":"26678488","CityId":"20619159","DistrictId":"26678622"}}},{"Relevance":1.0,"Distance":82.7,"MatchLevel":"houseNumber","MatchQuality":{"Country":1.0,"State":1.0,"County":1.0,"City":1.0,"District":1.0,"Street":[1.0],"HouseNumber":1.0,"PostalCode":1.0},"MatchType":"interpolated","Location":{"LocationId":"NT_i45.VXeGMvLBlr7fFDHsBD_2A","LocationType":"point","DisplayPosition":{"Latitude":47.52058,"Longitude":19.54337},"MapView":{"TopLeft":{"Latitude":47.5217042,"Longitude":19.5417054},"BottomRight":{"Latitude":47.5194558,"Longitude":19.5450346}},"Address":{"Label":"Tavasz utca 6, Dány 2118, Magyarország","Country":"HUN","State":"Pest","County":"Gödöllői Járás","City":"Dány","District":"Dány","Street":"Tavasz utca","HouseNumber":"6","PostalCode":"2118","AdditionalData":[{"value":"Magyarország","key":"CountryName"},{"value":"Pest","key":"StateName"},{"value":"Gödöllői Járás","key":"CountyName"}]},"MapReference":{"ReferenceId":"598114582","Spot":0.1,"SideOfStreet":"left","CountryId":"20613038","StateId":"20619051","CountyId":"26678488","CityId":"20619159","DistrictId":"26678622","AddressId":"355896601","RoadLinkId":"60357846"}}},{"Relevance":1.0,"Distance":88.5,"MatchLevel":"houseNumber","MatchQuality":{"Country":1.0,"State":1.0,"County":1.0,"City":1.0,"District":1.0,"Street":[1.0],"HouseNumber":1.0,"PostalCode":1.0},"MatchType":"interpolated","Location":{"LocationId":"NT_kB076aRkpBvqGKAqmThnFD_l_598114640_L_xMD","LocationType":"point","DisplayPosition":{"Latitude":47.51959,"Longitude":19.5453201},"MapView":{"TopLeft":{"Latitude":47.5207142,"Longitude":19.5436555},"BottomRight":{"Latitude":47.5184659,"Longitude":19.5469846}},"Address":{"Label":"Pesti út 13, Dány 2118, Magyarország","Country":"HUN","State":"Pest","County":"Gödöllői Járás","City":"Dány","District":"Dány","Street":"Pesti út","HouseNumber":"13","PostalCode":"2118","AdditionalData":[{"value":"Magyarország","key":"CountryName"},{"value":"Pest","key":"StateName"},{"value":"Gödöllői Járás","key":"CountyName"}]},"MapReference":{"ReferenceId":"598114640","Spot":0.0,"SideOfStreet":"left","CountryId":"20613038","StateId":"20619051","CountyId":"26678488","CityId":"20619159","DistrictId":"26678622"}}},{"Relevance":1.0,"Distance":89.3,"MatchLevel":"houseNumber","MatchQuality":{"Country":1.0,"State":1.0,"County":1.0,"City":1.0,"District":1.0,"Street":[1.0],"HouseNumber":1.0,"PostalCode":1.0},"MatchType":"interpolated","Location":{"LocationId":"NT_TUFoT3S6QkzeAPIvzBxCQD_xcD","LocationType":"point","DisplayPosition":{"Latitude":47.51922,"Longitude":19.54458},"MapView":{"TopLeft":{"Latitude":47.5203442,"Longitude":19.5429154},"BottomRight":{"Latitude":47.5180958,"Longitude":19.5462446}},"Address":{"Label":"Pesti út 17, Dány 2118, Magyarország","Country":"HUN","State":"Pest","County":"Gödöllői Járás","City":"Dány","District":"Dány","Street":"Pesti út","HouseNumber":"17","PostalCode":"2118","AdditionalData":[{"value":"Magyarország","key":"CountryName"},{"value":"Pest","key":"StateName"},{"value":"Gödöllői Járás","key":"CountyName"}]},"MapReference":{"ReferenceId":"598114695","Spot":0.73,"SideOfStreet":"left","CountryId":"20613038","StateId":"20619051","CountyId":"26678488","CityId":"20619159","DistrictId":"26678622","AddressId":"355691616","RoadLinkId":"60563284"}}},{"Relevance":1.0,"Distance":105.8,"MatchLevel":"houseNumber","MatchQuality":{"Country":1.0,"State":1.0,"County":1.0,"City":1.0,"District":1.0,"Street":[1.0],"HouseNumber":1.0,"PostalCode":1.0},"MatchType":"interpolated","Location":{"LocationId":"NT_yxcb521XqthXTSYIv.fpVB_xA","LocationType":"point","DisplayPosition":{"Latitude":47.51938,"Longitude":19.54542},"MapView":{"TopLeft":{"Latitude":47.5205042,"Longitude":19.5437554},"BottomRight":{"Latitude":47.5182558,"Longitude":19.5470846}},"Address":{"Label":"Zöld utca 1, Dány 2118, Magyarország","Country":"HUN","State":"Pest","County":"Gödöllői Járás","City":"Dány","District":"Dány","Street":"Zöld utca","HouseNumber":"1","PostalCode":"2118","AdditionalData":[{"value":"Magyarország","key":"CountryName"},{"value":"Pest","key":"StateName"},{"value":"Gödöllői Járás","key":"CountyName"}]},"MapReference":{"ReferenceId":"778881368","Spot":0.52,"SideOfStreet":"left","CountryId":"20613038","StateId":"20619051","CountyId":"26678488","CityId":"20619159","DistrictId":"26678622","AddressId":"357551331","RoadLinkId":"172374427"}}},{"Relevance":1.0,"Distance":105.8,"MatchLevel":"landmark","MatchQuality":{"Country":1.0,"State":1.0,"County":1.0,"City":1.0,"District":1.0,"PostalCode":1.0,"Name":1.0},"Location":{"LocationId":"NT_Tg9BlA-WsWRh0ijEKxmPMB","LocationType":"cemetery","Name":"Dányi temető","DisplayPosition":{"Latitude":47.51948,"Longitude":19.54593},"MapView":{"TopLeft":{"Latitude":47.52008,"Longitude":19.54516},"BottomRight":{"Latitude":47.51888,"Longitude":19.54645}},"Address":{"Label":"Dány 2118, Magyarország","Country":"HUN","State":"Pest","County":"Gödöllői Járás","City":"Dány","District":"Dány","PostalCode":"2118","AdditionalData":[{"value":"Magyarország","key":"CountryName"},{"value":"Pest","key":"StateName"},{"value":"Gödöllői Járás","key":"CountyName"}]},"MapReference":{"CountryId":"20613038","StateId":"20619051","CountyId":"26678488","CityId":"20619159","DistrictId":"26678622","PlaceId":"1407676063"}}},{"Relevance":1.0,"Distance":105.8,"MatchLevel":"street","MatchQuality":{"Country":1.0,"State":1.0,"County":1.0,"City":1.0,"District":1.0,"Street":[1.0],"PostalCode":1.0},"Location":{"LocationId":"NT_TUFoT3S6QkzeAPIvzBxCQD_l_598114633_L","LocationType":"point","DisplayPosition":{"Latitude":47.51971,"Longitude":19.5455},"MapView":{"TopLeft":{"Latitude":47.52008,"Longitude":19.5455},"BottomRight":{"Latitude":47.51971,"Longitude":19.54591}},"Address":{"Label":"Pesti út, Dány 2118, Magyarország","Country":"HUN","State":"Pest","County":"Gödöllői Járás","City":"Dány","District":"Dány","Street":"Pesti út","PostalCode":"2118","AdditionalData":[{"value":"Magyarország","key":"CountryName"},{"value":"Pest","key":"StateName"},{"value":"Gödöllői Járás","key":"CountyName"}]},"MapReference":{"ReferenceId":"598114633","Spot":0.0,"SideOfStreet":"left","CountryId":"20613038","StateId":"20619051","CountyId":"26678488","CityId":"20619159","DistrictId":"26678622"}}}]}]}}