{"Response":{"MetaInfo":{"Timestamp":"2020-03-28T12:02:19.575+0000","NextPageInformation":"2"},"View":[{"_type":"SearchResultsViewType","ViewId":0,"Result":[{"Relevance":1.0,"Distance":0.0,"Direction":0.0,"MatchLevel":"district","MatchQuality":{"Country":1.0,"State":1.0,"County":1.0,"City":1.0,"District":1.0,"PostalCode":1.0},"Location":{"LocationId":"NT_bS.3tyX8qL9MVzo62S.0RD","LocationType":"point","DisplayPosition":{"Latitude":47.5152911,"Longitude":18.8283982},"MapView":{"TopLeft":{"Latitude":47.52766,"Longitude":18.80617},"BottomRight":{"Latitude":47.50309,"Longitude":18.85998}},"Address":{"Label":"Páty, Pest, Magyarország","Country":"HUN","State":"Pest","County":"Budakeszi Járás","City":"Páty","District":"Páty","PostalCode":"2071","AdditionalData":[{"value":"Magyarország","key":"CountryName"},{"value":"Pest","key":"StateName"},{"value":"Budakeszi Járás","key":"CountyName"}]},"MapReference":{"ReferenceId":"779166800","SideOfStreet":"neither","CountryId":"20613038","StateId":"20619051","CountyId":"26678483","CityId":"20619390","DistrictId":"26678653"}}},{"Relevance":1.0,"Distance":7.9,"MatchLevel":"houseNumber","MatchQuality":{"Country":1.0,"State":1.0,"County":1.0,"City":1.0,"District":1.0,"Street":[1.0],"HouseNumber":1.0,"PostalCode":1.0},"MatchType":"interpolated","Location":{"LocationId":"NT_xQsyhanZ5KlqNxtyN1DxkC_zA","LocationType":"point","DisplayPosition":{"Latitude":47.51516,"Longitude":18.8282},"MapView":{"TopLeft":{"Latitude":47.5162842,"Longitude":18.8265356},"BottomRight":{"Latitude":47.5140358,"Longitude":18.8298644}},"Address":{"Label":"Széchenyi utca 3, Páty 2071, Magyarország","Country":"HUN","State":"Pest","County":"Budakeszi Járás","City":"Páty","District":"Páty","Street":"Széchenyi utca","HouseNumber":"3","PostalCode":"2071","AdditionalData":[{"value":"Magyarország","key":"CountryName"},{"value":"Pest","key":"StateName"},{"value":"Budakeszi Járás","key":"CountyName"}]},"MapReference":{"ReferenceId":"1234001929","Spot":0.29,"SideOfStreet":"right","CountryId":"20613038","StateId":"20619051","CountyId":"26678483","CityId":"20619390","DistrictId":"26678653","AddressId":"356885338","RoadLinkId":"554321016"}}},{"Relevance":1.0,"Distance":44.5,"MatchLevel":"houseNumber","MatchQuality":{"Country":1.0,"State":1.0,"County":1.0,"City":1.0,"District":1.0,"Street":[1.0],"HouseNumber":1.0,"PostalCode":1.0},"MatchType":"interpolated","Location":{"LocationId":"NT_u3t6MO7rJPZGxAPqeHo8aD_xcD","LocationType":"point","DisplayPosition":{"Latitude":47.51478,"Longitude":18.82872},"MapView":{"TopLeft":{"Latitude":47.5159042,"Longitude":18.8270556},"BottomRight":{"Latitude":47.5136558,"Longitude":18.8303844}},"Address":{"Label":"Rákóczi utca 17, Páty 2071, Magyarország","Country":"HUN","State":"Pest","County":"Budakeszi Járás","City":"Páty","District":"Páty","Street":"Rákóczi utca","HouseNumber":"17","PostalCode":"2071","AdditionalData":[{"value":"Magyarország","key":"CountryName"},{"value":"Pest","key":"StateName"},{"value":"Budakeszi Járás","key":"CountyName"}]},"MapReference":{"ReferenceId":"1233992592","Spot":0.2,"SideOfStreet":"left","CountryId":"20613038","StateId":"20619051","CountyId":"26678483","CityId":"20619390","DistrictId":"26678653","AddressId":"357152625","RoadLinkId":"554311148"}}},{"Relevance":1.0,"Distance":70.5,"MatchLevel":"street","MatchQuality":{"Country":1.0,"State":1.0,"County":1.0,"City":1.0,"District":1.0,"PostalCode":1.0},"Location":{"LocationId":"NT_aTv0M9gFNlsXBhkHSiuXYD_l_779166803_L","LocationType":"point","DisplayPosition":{"Latitude":47.51562,"Longitude":18.8292},"MapView":{"TopLeft":{"Latitude":47.51586,"Longitude":18.8292},"BottomRight":{"Latitude":47.51507,"Longitude":18.82957}},"Address":{"Label":"Páty 2071, Magyarország","Country":"HUN","State":"Pest","County":"Budakeszi Járás","City":"Páty","District":"Páty","PostalCode":"2071","AdditionalData":[{"value":"Magyarország","key":"CountryName"},{"value":"Pest","key":"StateName"},{"value":"Budakeszi Járás","key":"CountyName"}]},"MapReference":{"ReferenceId":"779166803","Spot":0.6,"SideOfStreet":"left","CountryId":"20613038","StateId":"20619051","CountyId":"26678483","CityId":"20619390","DistrictId":"26678653"}}},{"Relevance":1.0,"Distance":71.5,"MatchLevel":"houseNumber","MatchQuality":{"Country":1.0,"State":1.0,"County":1.0,"City":1.0,"District":1.0,"Street":[1.0],"HouseNumber":1.0,"PostalCode":1.0},"MatchType":"interpolated","Location":{"LocationId":"NT_u3t6MO7rJPZGxAPqeHo8aD_zQD","LocationType":"point","DisplayPosition":{"Latitude":47.51465,"Longitude":18.82832},"MapView":{"TopLeft":{"Latitude":47.5157742,"Longitude":18.8266556},"BottomRight":{"Latitude":47.5135258,"Longitude":18.8299844}},"Address":{"Label":"Rákóczi utca 34, Páty 2071, Magyarország","Country":"HUN","State":"Pest","County":"Budakeszi Járás","City":"Páty","District":"Páty","Street":"Rákóczi utca","HouseNumber":"34","PostalCode":"2071","AdditionalData":[{"value":"Magyarország","key":"CountryName"},{"value":"Pest","key":"StateName"},{"value":"Budakeszi Járás","key":"CountyName"}]},"MapReference":{"ReferenceId":"598339157","Spot":0.39,"SideOfStreet":"right","CountryId":"20613038","StateId":"20619051","CountyId":"26678483","CityId":"20619390","DistrictId":"26678653","AddressId":"356525000","RoadLinkId":"60635379"}}},{"Relevance":1.0,"Distance":77.2,"MatchLevel":"street","MatchQuality":{"Country":1.0,"State":1.0,"County":1.0,"City":1.0,"District":1.0,"Street":[1.0],"PostalCode":1.0},"Location":{"LocationId":"NT_nWXf.ajSXYBxGV-GPruNLD_l_598339158_R","LocationType":"point","DisplayPosition":{"Latitude":47.51461,"Longitude":18.8282},"MapView":{"TopLeft":{"Latitude":47.51461,"Longitude":18.8282},"BottomRight":{"Latitude":47.51239,"Longitude":18.82947}},"Address":{"Label":"Kincsem köz, Páty 2071, Magyarország","Country":"HUN","State":"Pest","County":"Budakeszi Járás","City":"Páty","District":"Páty","Street":"Kincsem köz","PostalCode":"2071","AdditionalData":[{"value":"Magyarország","key":"CountryName"},{"value":"Pest","key":"StateName"},{"value":"Budakeszi Járás","key":"CountyName"}]},"MapReference":{"ReferenceId":"598339158","Spot":1.0,"SideOfStreet":"right","CountryId":"20613038","StateId":"20619051","CountyId":"26678483","CityId":"20619390","DistrictId":"26678653"}}},{"Relevance":1.0,"Distance":92.8,"MatchLevel":"street","MatchQuality":{"Country":1.0,"State":1.0,"County":1.0,"City":1.0,"District":1.0,"PostalCode":1.0},"Location":{"LocationId":"NT_aTv0M9gFNlsXBhkHSiuXYD_l_779166802_L","LocationType":"point","DisplayPosition":{"Latitude":47.51551,"Longitude":18.82959},"MapView":{"TopLeft":{"Latitude":47.5156,"Longitude":18.82959},"BottomRight":{"Latitude":47.51516,"Longitude":18.82984}},"Address":{"Label":"Páty 2071, Magyarország","Country":"HUN","State":"Pest","County":"Budakeszi Járás","City":"Páty","District":"Páty","PostalCode":"2071","AdditionalData":[{"value":"Magyarország","key":"CountryName"},{"value":"Pest","key":"StateName"},{"value":"Budakeszi Járás","key":"CountyName"}]},"MapReference":{"ReferenceId":"779166802","Spot":0.81,"SideOfStreet":"left","CountryId":"20613038","StateId":"20619051","CountyId":"26678483","CityId":"20619390","DistrictId":"26678653"}}},{"Relevance":1.0,"Distance":94.8,"MatchLevel":"houseNumber","MatchQuality":{"Country":1.0,"State":1.0,"County":1.0,"City":1.0,"District":1.0,"Street":[1.0],"HouseNumber":1.0,"PostalCode":1.0},"MatchType":"interpolated","Location":{"LocationId":"NT_u3t6MO7rJPZGxAPqeHo8aD_xMD","LocationType":"point","DisplayPosition":{"Latitude":47.51513,"Longitude":18.82976},"MapView":{"TopLeft":{"Latitude":47.5162542,"Longitude":18.8280956},"BottomRight":{"Latitude":47.5140058,"Longitude":18.8314244}},"Address":{"Label":"Rákóczi utca 13, Páty 2071, Magyarország","Country":"HUN","State":"Pest","County":"Budakeszi Járás","City":"Páty","District":"Páty","Street":"Rákóczi utca","HouseNumber":"13","PostalCode":"2071","AdditionalData":[{"value":"Magyarország","key":"CountryName"},{"value":"Pest","key":"StateName"},{"value":"Budakeszi Járás","key":"CountyName"}]},"MapReference":{"ReferenceId":"779166807","Spot":0.7,"SideOfStreet":"left","CountryId":"20613038","StateId":"20619051","CountyId":"26678483","CityId":"20619390","DistrictId":"26678653","AddressId":"355204881","RoadLinkId":"172671092"}}},{"Relevance":1.0,"Distance":111.9,"MatchLevel":"houseNumber","MatchQuality":{"Country":1.0,"State":1.0,"County":1.0,"City":1.0,"District":1.0,"Street":[1.0],"HouseNumber":1.0,"PostalCode":1.0},"MatchType":"interpolated","Location":{"LocationId":"NT_u3t6MO7rJPZGxAPqeHo8aD_xkD","LocationType":"point","DisplayPosition":{"Latitude":47.51438,"Longitude":18.82754},"MapView":{"TopLeft":{"Latitude":47.5155042,"Longitude":18.8258756},"BottomRight":{"Latitude":47.5132558,"Longitude":18.8292044}},"Address":{"Label":"Rákóczi utca 19, Páty 2071, Magyarország","Country":"HUN","State":"Pest","County":"Budakeszi Járás","City":"Páty","District":"Páty","Street":"Rákóczi utca","HouseNumber":"19","PostalCode":"2071","AdditionalData":[{"value":"Magyarország","key":"CountryName"},{"value":"Pest","key":"StateName"},{"value":"Budakeszi Járás","key":"CountyName"}]},"MapReference":{"ReferenceId":"598339156","Spot":0.46,"SideOfStreet":"left","CountryId":"20613038","StateId":"20619051","CountyId":"26678483","CityId":"20619390","DistrictId":"26678653","AddressId":"357341420","RoadLinkId":"60726587"}}},{"Relevance":1.0,"Distance":133.1,"MatchLevel":"houseNumber","MatchQuality":{"Country":1.0,"State":1.0,"County":1.0,"City":1.0,"District":1.0,"Street":[1.0],"HouseNumber":1.0,"PostalCode":1.0},"MatchType":"interpolated","Location":{"LocationId":"NT_xQsyhanZ5KlqNxtyN1DxkC_xcD","LocationType":"point","DisplayPosition":{"Latitude":47.51629,"Longitude":18.82741},"MapView":{"TopLeft":{"Latitude":47.5174142,"Longitude":18.8257455},"BottomRight":{"Latitude":47.5151658,"Longitude":18.8290745}},"Address":{"Label":"Széchenyi utca 17, Páty 2071, Magyarország","Country":"HUN","State":"Pest","County":"Budakeszi Járás","City":"Páty","District":"Páty","Street":"Széchenyi utca","HouseNumber":"17","PostalCode":"2071","AdditionalData":[{"value":"Magyarország","key":"CountryName"},{"value":"Pest","key":"StateName"},{"value":"Budakeszi Járás","key":"CountyName"}]},"MapReference":{"ReferenceId":"1234001930","Spot":0.04,"SideOfStreet":"right","CountryId":"20613038","StateId":"20619051","CountyId":"26678483","CityId":"20619390","DistrictId":"26678653","AddressId":"356885324","RoadLinkId":"554321017"}}}]}]}}