{"Response":{"MetaInfo":{"Timestamp":"2020-03-28T10:13:50.405+0000","NextPageInformation":"2"},"View":[{"_type":"SearchResultsViewType","ViewId":0,"Result":[{"Relevance":1.0,"Distance":0.0,"Direction":0.0,"MatchLevel":"district","MatchQuality":{"Country":1.0,"State":1.0,"County":1.0,"City":1.0,"District":1.0,"PostalCode":1.0},"Location":{"LocationId":"NT_riALPQ5.W-B2wMtS1QlMCB","LocationType":"point","DisplayPosition":{"Latitude":47.5346626,"Longitude":15.5093585},"MapView":{"TopLeft":{"Latitude":47.54624,"Longitude":15.49876},"BottomRight":{"Latitude":47.52859,"Longitude":15.52872}},"Address":{"Label":"Mitterdorf im Mürztal, Sankt Barbara im Mürztal, Steiermark, Österreich","Country":"AUT","State":"Steiermark","County":"Bruck-Mürzzuschlag","City":"Sankt Barbara im Mürztal","District":"Mitterdorf im Mürztal","PostalCode":"8662","AdditionalData":[{"value":"Österreich","key":"CountryName"},{"value":"Steiermark","key":"StateName"},{"value":"Bruck-Mürzzuschlag","key":"CountyName"}]},"MapReference":{"ReferenceId":"572595501","SideOfStreet":"neither","CountryId":"20128885","StateId":"20134876","CountyId":"26061367","CityId":"20136324","DistrictId":"20136294"}}},{"Relevance":1.0,"Distance":13.7,"MatchLevel":"houseNumber","MatchQuality":{"Country":1.0,"State":1.0,"County":1.0,"City":1.0,"District":1.0,"Street":[1.0],"HouseNumber":1.0,"PostalCode":1.0},"MatchType":"interpolated","Location":{"LocationId":"NT_B2RxEjV2oyWLigWnulL.4C_1A","LocationType":"point","DisplayPosition":{"Latitude":47.53487,"Longitude":15.50943},"MapView":{"TopLeft":{"Latitude":47.5359942,"Longitude":15.5077649},"BottomRight":{"Latitude":47.5337458,"Longitude":15.5110951}},"Address":{"Label":"Feldgasse 5, 8662 Sankt Barbara im Mürztal, Österreich","Country":"AUT","State":"Steiermark","County":"Bruck-Mürzzuschlag","City":"Sankt Barbara im Mürztal","District":"Mitterdorf im Mürztal","Street":"Feldgasse","HouseNumber":"5","PostalCode":"8662","AdditionalData":[{"value":"Österreich","key":"CountryName"},{"value":"Steiermark","key":"StateName"},{"value":"Bruck-Mürzzuschlag","key":"CountyName"}]},"MapReference":{"ReferenceId":"572595475","Spot":0.38,"SideOfStreet":"right","CountryId":"20128885","StateId":"20134876","CountyId":"26061367","CityId":"20136324","DistrictId":"20136294","AddressId":"161232715","RoadLinkId":"28248141"}}},{"Relevance":1.0,"Distance":21.1,"MatchLevel":"street","MatchQuality":{"Country":1.0,"State":1.0,"County":1.0,"City":1.0,"District":1.0,"PostalCode":1.0},"Location":{"LocationId":"NT_2wkvyZ130DVMhJ3-vTaUmC_l_572593259_R","LocationType":"point","DisplayPosition":{"Latitude":47.53484,"Longitude":15.50926},"MapView":{"TopLeft":{"Latitude":47.53503,"Longitude":15.50926},"BottomRight":{"Latitude":47.53484,"Longitude":15.50958}},"Address":{"Label":"8662 Sankt Barbara im Mürztal, Österreich","Country":"AUT","State":"Steiermark","County":"Bruck-Mürzzuschlag","City":"Sankt Barbara im Mürztal","District":"Mitterdorf im Mürztal","PostalCode":"8662","AdditionalData":[{"value":"Österreich","key":"CountryName"},{"value":"Steiermark","key":"StateName"},{"value":"Bruck-Mürzzuschlag","key":"CountyName"}]},"MapReference":{"ReferenceId":"572593259","Spot":0.0,"SideOfStreet":"right","CountryId":"20128885","StateId":"20134876","CountyId":"26061367","CityId":"20136324","DistrictId":"20136294"}}},{"Relevance":1.0,"Distance":21.3,"MatchLevel":"houseNumber","MatchQuality":{"Country":1.0,"State":1.0,"County":1.0,"City":1.0,"District":1.0,"Street":[1.0],"HouseNumber":1.0,"PostalCode":1.0},"MatchType":"interpolated","Location":{"LocationId":"NT_B2RxEjV2oyWLigWnulL.4C_0A","LocationType":"point","DisplayPosition":{"Latitude":47.53484,"Longitude":15.50925},"MapView":{"TopLeft":{"Latitude":47.5359642,"Longitude":15.5075849},"BottomRight":{"Latitude":47.5337158,"Longitude":15.5109151}},"Address":{"Label":"Feldgasse 4, 8662 Sankt Barbara im Mürztal, Österreich","Country":"AUT","State":"Steiermark","County":"Bruck-Mürzzuschlag","City":"Sankt Barbara im Mürztal","District":"Mitterdorf im Mürztal","Street":"Feldgasse","HouseNumber":"4","PostalCode":"8662","AdditionalData":[{"value":"Österreich","key":"CountryName"},{"value":"Steiermark","key":"StateName"},{"value":"Bruck-Mürzzuschlag","key":"CountyName"}]},"MapReference":{"ReferenceId":"572595474","Spot":0.94,"SideOfStreet":"left","CountryId":"20128885","StateId":"20134876","CountyId":"26061367","CityId":"20136324","DistrictId":"20136294","AddressId":"161232683","RoadLinkId":"28526533"}}},{"Relevance":1.0,"Distance":25.3,"MatchLevel":"street","MatchQuality":{"Country":1.0,"State":1.0,"County":1.0,"City":1.0,"District":1.0,"PostalCode":1.0},"Location":{"LocationId":"NT_2wkvyZ130DVMhJ3-vTaUmC_l_572593260_R","LocationType":"point","DisplayPosition":{"Latitude":47.5348,"Longitude":15.50909},"MapView":{"TopLeft":{"Latitude":47.53507,"Longitude":15.50887},"BottomRight":{"Latitude":47.5348,"Longitude":15.50909}},"Address":{"Label":"8662 Sankt Barbara im Mürztal, Österreich","Country":"AUT","State":"Steiermark","County":"Bruck-Mürzzuschlag","City":"Sankt Barbara im Mürztal","District":"Mitterdorf im Mürztal","PostalCode":"8662","AdditionalData":[{"value":"Österreich","key":"CountryName"},{"value":"Steiermark","key":"StateName"},{"value":"Bruck-Mürzzuschlag","key":"CountyName"}]},"MapReference":{"ReferenceId":"572593260","Spot":0.0,"SideOfStreet":"right","CountryId":"20128885","StateId":"20134876","CountyId":"26061367","CityId":"20136324","DistrictId":"20136294"}}},{"Relevance":1.0,"Distance":39.5,"MatchLevel":"houseNumber","MatchQuality":{"Country":1.0,"State":1.0,"County":1.0,"City":1.0,"District":1.0,"Street":[1.0],"HouseNumber":1.0,"PostalCode":1.0},"MatchType":"interpolated","Location":{"LocationId":"NT_ixzHhvAlCMH2nrjHYg8hxA_yA","LocationType":"point","DisplayPosition":{"Latitude":47.53431,"Longitude":15.50942},"MapView":{"TopLeft":{"Latitude":47.5354342,"Longitude":15.507755},"BottomRight":{"Latitude":47.5331858,"Longitude":15.511085}},"Address":{"Label":"Kloepferstraße 2, 8662 Sankt Barbara im Mürztal, Österreich","Country":"AUT","State":"Steiermark","County":"Bruck-Mürzzuschlag","City":"Sankt Barbara im Mürztal","District":"Mitterdorf im Mürztal","Street":"Kloepferstraße","HouseNumber":"2","PostalCode":"8662","AdditionalData":[{"value":"Österreich","key":"CountryName"},{"value":"Steiermark","key":"StateName"},{"value":"Bruck-Mürzzuschlag","key":"CountyName"}]},"MapReference":{"ReferenceId":"572595496","Spot":0.58,"SideOfStreet":"left","CountryId":"20128885","StateId":"20134876","CountyId":"26061367","CityId":"20136324","DistrictId":"20136294","AddressId":"161424855","RoadLinkId":"28738484"}}},{"Relevance":1.0,"Distance":42.6,"MatchLevel":"street","MatchQuality":{"Country":1.0,"State":1.0,"County":1.0,"City":1.0,"District":1.0,"Street":[1.0],"PostalCode":1.0},"Location":{"LocationId":"NT_-mm0177u0YT9suVHk1B2hA_l_572593254_L","LocationType":"point","DisplayPosition":{"Latitude":47.5350041,"Longitude":15.5096146},"MapView":{"TopLeft":{"Latitude":47.53503,"Longitude":15.50958},"BottomRight":{"Latitude":47.53494,"Longitude":15.5097}},"Address":{"Label":"Neugasse, 8662 Sankt Barbara im Mürztal, Österreich","Country":"AUT","State":"Steiermark","County":"Bruck-Mürzzuschlag","City":"Sankt Barbara im Mürztal","District":"Mitterdorf im Mürztal","Street":"Neugasse","PostalCode":"8662","AdditionalData":[{"value":"Österreich","key":"CountryName"},{"value":"Steiermark","key":"StateName"},{"value":"Bruck-Mürzzuschlag","key":"CountyName"}]},"MapReference":{"ReferenceId":"572593254","Spot":0.71,"SideOfStreet":"left","CountryId":"20128885","StateId":"20134876","CountyId":"26061367","CityId":"20136324","DistrictId":"20136294"}}},{"Relevance":1.0,"Distance":45.4,"MatchLevel":"houseNumber","MatchQuality":{"Country":1.0,"State":1.0,"County":1.0,"City":1.0,"District":1.0,"Street":[1.0],"HouseNumber":1.0,"PostalCode":1.0},"MatchType":"interpolated","Location":{"LocationId":"NT_B2RxEjV2oyWLigWnulL.4C_3A","LocationType":"point","DisplayPosition":{"Latitude":47.53472,"Longitude":15.50888},"MapView":{"TopLeft":{"Latitude":47.5358442,"Longitude":15.5072149},"BottomRight":{"Latitude":47.5335958,"Longitude":15.5105451}},"Address":{"Label":"Feldgasse 7, 8662 Sankt Barbara im Mürztal, Österreich","Country":"AUT","State":"Steiermark","County":"Bruck-Mürzzuschlag","City":"Sankt Barbara im Mürztal","District":"Mitterdorf im Mürztal","Street":"Feldgasse","HouseNumber":"7","PostalCode":"8662","AdditionalData":[{"value":"Österreich","key":"CountryName"},{"value":"Steiermark","key":"StateName"},{"value":"Bruck-Mürzzuschlag","key":"CountyName"}]},"MapReference":{"ReferenceId":"572595492","Spot":0.65,"SideOfStreet":"right","CountryId":"20128885","StateId":"20134876","CountyId":"26061367","CityId":"20136324","DistrictId":"20136294","AddressId":"161232707","RoadLinkId":"28183630"}}},{"Relevance":1.0,"Distance":52.6,"MatchLevel":"houseNumber","MatchQuality":{"Country":1.0,"State":1.0,"County":1.0,"City":1.0,"District":1.0,"Street":[1.0],"HouseNumber":1.0,"PostalCode":1.0},"MatchType":"interpolated","Location":{"LocationId":"NT_-mm0177u0YT9suVHk1B2hA_xID","LocationType":"point","DisplayPosition":{"Latitude":47.53442,"Longitude":15.51006},"MapView":{"TopLeft":{"Latitude":47.5355442,"Longitude":15.508395},"BottomRight":{"Latitude":47.5332958,"Longitude":15.511725}},"Address":{"Label":"Neugasse 12, 8662 Sankt Barbara im Mürztal, Österreich","Country":"AUT","State":"Steiermark","County":"Bruck-Mürzzuschlag","City":"Sankt Barbara im Mürztal","District":"Mitterdorf im Mürztal","Street":"Neugasse","HouseNumber":"12","PostalCode":"8662","AdditionalData":[{"value":"Österreich","key":"CountryName"},{"value":"Steiermark","key":"StateName"},{"value":"Bruck-Mürzzuschlag","key":"CountyName"}]},"MapReference":{"ReferenceId":"572593305","Spot":0.79,"SideOfStreet":"left","CountryId":"20128885","StateId":"20134876","CountyId":"26061367","CityId":"20136324","DistrictId":"20136294","AddressId":"161229753","RoadLinkId":"28092484"}}},{"Relevance":1.0,"Distance":62.2,"MatchLevel":"houseNumber","MatchQuality":{"Country":1.0,"State":1.0,"County":1.0,"City":1.0,"District":1.0,"Street":[1.0],"HouseNumber":1.0,"PostalCode":1.0},"MatchType":"interpolated","Location":{"LocationId":"NT_B2RxEjV2oyWLigWnulL.4C_zA","LocationType":"point","DisplayPosition":{"Latitude":47.53498,"Longitude":15.51004},"MapView":{"TopLeft":{"Latitude":47.5361042,"Longitude":15.5083749},"BottomRight":{"Latitude":47.5338558,"Longitude":15.5117051}},"Address":{"Label":"Feldgasse 3, 8662 Sankt Barbara im Mürztal, Österreich","Country":"AUT","State":"Steiermark","County":"Bruck-Mürzzuschlag","City":"Sankt Barbara im Mürztal","District":"Mitterdorf im Mürztal","Street":"Feldgasse","HouseNumber":"3","PostalCode":"8662","AdditionalData":[{"value":"Österreich","key":"CountryName"},{"value":"Steiermark","key":"StateName"},{"value":"Bruck-Mürzzuschlag","key":"CountyName"}]},"MapReference":{"ReferenceId":"1121871205","Spot":0.38,"SideOfStreet":"right","CountryId":"20128885","StateId":"20134876","CountyId":"26061367","CityId":"20136324","DistrictId":"20136294","AddressId":"411938446","RoadLinkId":"432087877"}}}]}]}}