{"Response":{"MetaInfo":{"Timestamp":"2020-03-28T11:22:13.382+0000","NextPageInformation":"2"},"View":[{"_type":"SearchResultsViewType","ViewId":0,"Result":[{"Relevance":1.0,"Distance":0.0,"Direction":0.0,"MatchLevel":"district","MatchQuality":{"Country":1.0,"State":1.0,"County":1.0,"City":1.0,"District":1.0,"PostalCode":1.0},"Location":{"LocationId":"NT_jBF0riGQ.hD2Oyx4I5InrD","LocationType":"point","DisplayPosition":{"Latitude":47.5181659,"Longitude":19.0664477},"MapView":{"TopLeft":{"Latitude":47.56209,"Longitude":19.04019},"BottomRight":{"Latitude":47.51052,"Longitude":19.09819}},"Address":{"Label":"Budapest 13, Budapest, Magyarország","Country":"HUN","State":"Budapest","County":"Budapest","City":"Budapest","District":"Budapest 13","PostalCode":"1137","AdditionalData":[{"value":"Magyarország","key":"CountryName"},{"value":"Budapest","key":"StateName"},{"value":"Budapest","key":"CountyName"}]},"MapReference":{"ReferenceId":"981737749","SideOfStreet":"neither","CountryId":"20613038","StateId":"20616317","CountyId":"20616318","CityId":"26682433","DistrictId":"20616324"}}},{"Relevance":1.0,"Distance":11.0,"MatchLevel":"houseNumber","MatchQuality":{"Country":1.0,"State":1.0,"County":1.0,"City":1.0,"District":1.0,"Street":[1.0],"HouseNumber":1.0,"PostalCode":1.0},"MatchType":"interpolated","Location":{"LocationId":"NT_GaqbssCoaxRz2M-5I1ONoB_xUTY","LocationType":"point","DisplayPosition":{"Latitude":47.5182,"Longitude":19.06628},"MapView":{"TopLeft":{"Latitude":47.5193242,"Longitude":19.0646155},"BottomRight":{"Latitude":47.5170758,"Longitude":19.0679445}},"Address":{"Label":"Dévai utca 15a, Budapest 1134, Magyarország","Country":"HUN","State":"Budapest","County":"Budapest","City":"Budapest","District":"Budapest 13","Street":"Dévai utca","HouseNumber":"15a","PostalCode":"1134","AdditionalData":[{"value":"Magyarország","key":"CountryName"},{"value":"Budapest","key":"StateName"},{"value":"Budapest","key":"CountyName"}]},"MapReference":{"ReferenceId":"810631852","Spot":0.5,"SideOfStreet":"right","CountryId":"20613038","StateId":"20616317","CountyId":"20616318","CityId":"26682433","DistrictId":"20616324","AddressId":"711641050","RoadLinkId":"197913467"}}},{"Relevance":1.0,"Distance":81.6,"MatchLevel":"houseNumber","MatchQuality":{"Country":1.0,"State":1.0,"County":1.0,"City":1.0,"District":1.0,"Street":[1.0],"HouseNumber":1.0,"PostalCode":1.0},"MatchType":"interpolated","Location":{"LocationId":"NT_GaqbssCoaxRz2M-5I1ONoB_1A","LocationType":"point","DisplayPosition":{"Latitude":47.51756,"Longitude":19.06706},"MapView":{"TopLeft":{"Latitude":47.5186842,"Longitude":19.0653955},"BottomRight":{"Latitude":47.5164358,"Longitude":19.0687245}},"Address":{"Label":"Dévai utca 5, Budapest 1134, Magyarország","Country":"HUN","State":"Budapest","County":"Budapest","City":"Budapest","District":"Budapest 13","Street":"Dévai utca","HouseNumber":"5","PostalCode":"1134","AdditionalData":[{"value":"Magyarország","key":"CountryName"},{"value":"Budapest","key":"StateName"},{"value":"Budapest","key":"CountyName"}]},"MapReference":{"ReferenceId":"810631851","Spot":1.0,"SideOfStreet":"right","CountryId":"20613038","StateId":"20616317","CountyId":"20616318","CityId":"26682433","DistrictId":"20616324","AddressId":"356664733","RoadLinkId":"197913466"}}},{"Relevance":1.0,"Distance":87.0,"MatchLevel":"houseNumber","MatchQuality":{"Country":1.0,"State":1.0,"County":1.0,"City":1.0,"District":1.0,"Street":[1.0],"HouseNumber":1.0,"PostalCode":1.0},"MatchType":"interpolated","Location":{"LocationId":"NT_4YUYzvPlg534fm.E0flIgB_xcTY","LocationType":"point","DisplayPosition":{"Latitude":47.51896,"Longitude":19.06572},"MapView":{"TopLeft":{"Latitude":47.5200842,"Longitude":19.0640554},"BottomRight":{"Latitude":47.5178358,"Longitude":19.0673846}},"Address":{"Label":"Lehel utca 17a, Budapest 1134, Magyarország","Country":"HUN","State":"Budapest","County":"Budapest","City":"Budapest","District":"Budapest 13","Street":"Lehel utca","HouseNumber":"17a","PostalCode":"1134","AdditionalData":[{"value":"Magyarország","key":"CountryName"},{"value":"Budapest","key":"StateName"},{"value":"Budapest","key":"CountyName"}]},"MapReference":{"ReferenceId":"583928796","Spot":0.19,"SideOfStreet":"right","CountryId":"20613038","StateId":"20616317","CountyId":"20616318","CityId":"26682433","DistrictId":"20616324","AddressId":"711619591","RoadLinkId":"60715935"}}},{"Relevance":1.0,"Distance":90.7,"MatchLevel":"houseNumber","MatchQuality":{"Country":1.0,"State":1.0,"County":1.0,"City":1.0,"District":1.0,"Street":[1.0],"HouseNumber":1.0,"PostalCode":1.0},"MatchType":"interpolated","Location":{"LocationId":"NT_cgWiW0o8mX7iE-RUzmpYyB_xAD","LocationType":"point","DisplayPosition":{"Latitude":47.5186,"Longitude":19.06773},"MapView":{"TopLeft":{"Latitude":47.5197242,"Longitude":19.0660655},"BottomRight":{"Latitude":47.5174758,"Longitude":19.0693945}},"Address":{"Label":"Lőportár utca 10, Budapest 1134, Magyarország","Country":"HUN","State":"Budapest","County":"Budapest","City":"Budapest","District":"Budapest 13","Street":"Lőportár utca","HouseNumber":"10","PostalCode":"1134","AdditionalData":[{"value":"Magyarország","key":"CountryName"},{"value":"Budapest","key":"StateName"},{"value":"Budapest","key":"CountyName"}]},"MapReference":{"ReferenceId":"854258441","Spot":0.73,"SideOfStreet":"left","CountryId":"20613038","StateId":"20616317","CountyId":"20616318","CityId":"26682433","DistrictId":"20616324","AddressId":"356863529","RoadLinkId":"232608819"}}},{"Relevance":1.0,"Distance":93.9,"MatchLevel":"houseNumber","MatchQuality":{"Country":1.0,"State":1.0,"County":1.0,"City":1.0,"District":1.0,"Street":[1.0],"HouseNumber":1.0,"PostalCode":1.0},"MatchType":"interpolated","Location":{"LocationId":"NT_kJNVq8BKZz66.UkErwKB4C_xAD","LocationType":"point","DisplayPosition":{"Latitude":47.51729,"Longitude":19.06704},"MapView":{"TopLeft":{"Latitude":47.5184142,"Longitude":19.0653755},"BottomRight":{"Latitude":47.5161658,"Longitude":19.0687045}},"Address":{"Label":"Szabolcs utca 10, Budapest 1134, Magyarország","Country":"HUN","State":"Budapest","County":"Budapest","City":"Budapest","District":"Budapest 13","Street":"Szabolcs utca","HouseNumber":"10","PostalCode":"1134","AdditionalData":[{"value":"Magyarország","key":"CountryName"},{"value":"Budapest","key":"StateName"},{"value":"Budapest","key":"CountyName"}]},"MapReference":{"ReferenceId":"583878682","Spot":0.56,"SideOfStreet":"left","CountryId":"20613038","StateId":"20616317","CountyId":"20616318","CityId":"26682433","DistrictId":"20616324","AddressId":"355696802","RoadLinkId":"60794327"}}},{"Relevance":1.0,"Distance":95.9,"MatchLevel":"houseNumber","MatchQuality":{"Country":1.0,"State":1.0,"County":1.0,"City":1.0,"District":1.0,"Street":[1.0],"HouseNumber":1.0,"PostalCode":1.0},"MatchType":"interpolated","Location":{"LocationId":"NT_4YUYzvPlg534fm.E0flIgB_xMD","LocationType":"point","DisplayPosition":{"Latitude":47.51865,"Longitude":19.06514},"MapView":{"TopLeft":{"Latitude":47.5197742,"Longitude":19.0634755},"BottomRight":{"Latitude":47.5175258,"Longitude":19.0668045}},"Address":{"Label":"Lehel utca 13, Budapest 1134, Magyarország","Country":"HUN","State":"Budapest","County":"Budapest","City":"Budapest","District":"Budapest 13","Street":"Lehel utca","HouseNumber":"13","PostalCode":"1134","AdditionalData":[{"value":"Magyarország","key":"CountryName"},{"value":"Budapest","key":"StateName"},{"value":"Budapest","key":"CountyName"}]},"MapReference":{"ReferenceId":"988978312","Spot":0.24,"SideOfStreet":"right","CountryId":"20613038","StateId":"20616317","CountyId":"20616318","CityId":"26682433","DistrictId":"20616324","AddressId":"354995586","RoadLinkId":"318042407"}}},{"Relevance":1.0,"Distance":96.2,"MatchLevel":"houseNumber","MatchQuality":{"Country":1.0,"State":1.0,"County":1.0,"City":1.0,"District":1.0,"Street":[1.0],"HouseNumber":1.0,"PostalCode":1.0},"MatchType":"interpolated","Location":{"LocationId":"NT_cgWiW0o8mX7iE-RUzmpYyB_xQjY","LocationType":"point","DisplayPosition":{"Latitude":47.51904,"Longitude":19.0672},"MapView":{"TopLeft":{"Latitude":47.5201642,"Longitude":19.0655354},"BottomRight":{"Latitude":47.5179158,"Longitude":19.0688646}},"Address":{"Label":"Lőportár utca 14b, Budapest 1134, Magyarország","Country":"HUN","State":"Budapest","County":"Budapest","City":"Budapest","District":"Budapest 13","Street":"Lőportár utca","HouseNumber":"14b","PostalCode":"1134","AdditionalData":[{"value":"Magyarország","key":"CountryName"},{"value":"Budapest","key":"StateName"},{"value":"Budapest","key":"CountyName"}]},"MapReference":{"ReferenceId":"854258442","Spot":0.44,"SideOfStreet":"left","CountryId":"20613038","StateId":"20616317","CountyId":"20616318","CityId":"26682433","DistrictId":"20616324","AddressId":"711642275","RoadLinkId":"232608820"}}},{"Relevance":1.0,"Distance":102.2,"MatchLevel":"houseNumber","MatchQuality":{"Country":1.0,"State":1.0,"County":1.0,"City":1.0,"District":1.0,"Street":[1.0],"HouseNumber":1.0,"PostalCode":1.0},"MatchType":"interpolated","Location":{"LocationId":"NT_kJNVq8BKZz66.UkErwKB4C_xID","LocationType":"point","DisplayPosition":{"Latitude":47.51769,"Longitude":19.0678},"MapView":{"TopLeft":{"Latitude":47.5188142,"Longitude":19.0661355},"BottomRight":{"Latitude":47.5165658,"Longitude":19.0694645}},"Address":{"Label":"Szabolcs utca 12, Budapest 1134, Magyarország","Country":"HUN","State":"Budapest","County":"Budapest","City":"Budapest","District":"Budapest 13","Street":"Szabolcs utca","HouseNumber":"12","PostalCode":"1134","AdditionalData":[{"value":"Magyarország","key":"CountryName"},{"value":"Budapest","key":"StateName"},{"value":"Budapest","key":"CountyName"}]},"MapReference":{"ReferenceId":"583878611","Spot":0.47,"SideOfStreet":"left","CountryId":"20613038","StateId":"20616317","CountyId":"20616318","CityId":"26682433","DistrictId":"20616324","AddressId":"354809564","RoadLinkId":"60612100"}}},{"Relevance":1.0,"Distance":103.9,"MatchLevel":"street","MatchQuality":{"Country":1.0,"State":1.0,"County":1.0,"City":1.0,"District":1.0,"Street":[1.0],"PostalCode":1.0},"Location":{"LocationId":"NT_GaqbssCoaxRz2M-5I1ONoB_l_583928793_L","LocationType":"point","DisplayPosition":{"Latitude":47.51884,"Longitude":19.06549},"MapView":{"TopLeft":{"Latitude":47.51892,"Longitude":19.06534},"BottomRight":{"Latitude":47.51884,"Longitude":19.06549}},"Address":{"Label":"Dévai utca, Budapest 1134, Magyarország","Country":"HUN","State":"Budapest","County":"Budapest","City":"Budapest","District":"Budapest 13","Street":"Dévai utca","PostalCode":"1134","AdditionalData":[{"value":"Magyarország","key":"CountryName"},{"value":"Budapest","key":"StateName"},{"value":"Budapest","key":"CountyName"}]},"MapReference":{"ReferenceId":"583928793","Spot":0.0,"SideOfStreet":"left","CountryId":"20613038","StateId":"20616317","CountyId":"20616318","CityId":"26682433","DistrictId":"20616324"}}}]}]}}