{"Response":{"MetaInfo":{"Timestamp":"2020-03-28T09:54:48.930+0000","NextPageInformation":"2"},"View":[{"_type":"SearchResultsViewType","ViewId":0,"Result":[{"Relevance":1.0,"Distance":0.0,"Direction":0.0,"MatchLevel":"district","MatchQuality":{"Country":1.0,"State":1.0,"County":1.0,"City":1.0,"District":1.0,"PostalCode":1.0},"Location":{"LocationId":"NT_-pm5g8HCU3d9Vw20vwizHB","LocationType":"point","DisplayPosition":{"Latitude":47.5191425,"Longitude":18.9792186},"MapView":{"TopLeft":{"Latitude":47.52165,"Longitude":18.96666},"BottomRight":{"Latitude":47.47633,"Longitude":19.03019}},"Address":{"Label":"Budapest 12, Budapest, Magyarország","Country":"HUN","State":"Budapest","County":"Budapest","City":"Budapest","District":"Budapest 12","PostalCode":"1124","AdditionalData":[{"value":"Magyarország","key":"CountryName"},{"value":"Budapest","key":"StateName"},{"value":"Budapest","key":"CountyName"}]},"MapReference":{"ReferenceId":"926493445","SideOfStreet":"neither","CountryId":"20613038","StateId":"20616317","CountyId":"20616318","CityId":"26682433","DistrictId":"20616323"}}},{"Relevance":1.0,"Distance":15.5,"MatchLevel":"houseNumber","MatchQuality":{"Country":1.0,"State":1.0,"County":1.0,"City":1.0,"District":1.0,"Street":[1.0],"HouseNumber":1.0,"PostalCode":1.0},"MatchType":"interpolated","Location":{"LocationId":"NT_cA.Z9qIoDAlg4aEdQa7cwC_zYzY","LocationType":"point","DisplayPosition":{"Latitude":47.51935,"Longitude":18.97907},"MapView":{"TopLeft":{"Latitude":47.5204742,"Longitude":18.9774054},"BottomRight":{"Latitude":47.5182258,"Longitude":18.9807346}},"Address":{"Label":"Budakeszi út 36c, Budapest 1121, Magyarország","Country":"HUN","State":"Budapest","County":"Budapest","City":"Budapest","District":"Budapest 12","Street":"Budakeszi út","HouseNumber":"36c","PostalCode":"1121","AdditionalData":[{"value":"Magyarország","key":"CountryName"},{"value":"Budapest","key":"StateName"},{"value":"Budapest","key":"CountyName"}]},"MapReference":{"ReferenceId":"1158714851","Spot":0.63,"SideOfStreet":"left","CountryId":"20613038","StateId":"20616317","CountyId":"20616318","CityId":"26682433","DistrictId":"20616323","AddressId":"713261049","RoadLinkId":"465264219"}}},{"Relevance":1.0,"Distance":68.7,"MatchLevel":"houseNumber","MatchQuality":{"Country":1.0,"State":1.0,"County":1.0,"City":1.0,"District":1.0,"Street":[1.0],"HouseNumber":1.0,"PostalCode":1.0},"MatchType":"interpolated","Location":{"LocationId":"NT_b6PLWArf3A7NZOdacnyYEA_zIG","LocationType":"point","DisplayPosition":{"Latitude":47.51844,"Longitude":18.97907},"MapView":{"TopLeft":{"Latitude":47.5195642,"Longitude":18.9774055},"BottomRight":{"Latitude":47.5173158,"Longitude":18.9807345}},"Address":{"Label":"Árnyas út 3b, Budapest 1121, Magyarország","Country":"HUN","State":"Budapest","County":"Budapest","City":"Budapest","District":"Budapest 12","Street":"Árnyas út","HouseNumber":"3b","PostalCode":"1121","AdditionalData":[{"value":"Magyarország","key":"CountryName"},{"value":"Budapest","key":"StateName"},{"value":"Budapest","key":"CountyName"}]},"MapReference":{"ReferenceId":"583878458","Spot":0.43,"SideOfStreet":"right","CountryId":"20613038","StateId":"20616317","CountyId":"20616318","CityId":"26682433","DistrictId":"20616323","AddressId":"711635438","RoadLinkId":"60346269"}}},{"Relevance":1.0,"Distance":92.7,"MatchLevel":"houseNumber","MatchQuality":{"Country":1.0,"State":1.0,"County":1.0,"City":1.0,"District":1.0,"Street":[1.0],"HouseNumber":1.0,"PostalCode":1.0},"MatchType":"interpolated","Location":{"LocationId":"NT_cA.Z9qIoDAlg4aEdQa7cwC_zYTY","LocationType":"point","DisplayPosition":{"Latitude":47.51914,"Longitude":18.98048},"MapView":{"TopLeft":{"Latitude":47.5202642,"Longitude":18.9788154},"BottomRight":{"Latitude":47.5180158,"Longitude":18.9821446}},"Address":{"Label":"Budakeszi út 36a, Budapest 1121, Magyarország","Country":"HUN","State":"Budapest","County":"Budapest","City":"Budapest","District":"Budapest 12","Street":"Budakeszi út","HouseNumber":"36a","PostalCode":"1121","AdditionalData":[{"value":"Magyarország","key":"CountryName"},{"value":"Budapest","key":"StateName"},{"value":"Budapest","key":"CountyName"}]},"MapReference":{"ReferenceId":"847786871","Spot":0.88,"SideOfStreet":"left","CountryId":"20613038","StateId":"20616317","CountyId":"20616318","CityId":"26682433","DistrictId":"20616323","AddressId":"711636888","RoadLinkId":"228409668"}}},{"Relevance":1.0,"Distance":103.4,"MatchLevel":"houseNumber","MatchQuality":{"Country":1.0,"State":1.0,"County":1.0,"City":1.0,"District":1.0,"Street":[1.0],"HouseNumber":1.0,"PostalCode":1.0},"MatchType":"interpolated","Location":{"LocationId":"NT_cA.Z9qIoDAlg4aEdQa7cwC_zgD","LocationType":"point","DisplayPosition":{"Latitude":47.51952,"Longitude":18.97796},"MapView":{"TopLeft":{"Latitude":47.5206442,"Longitude":18.9762954},"BottomRight":{"Latitude":47.5183958,"Longitude":18.9796246}},"Address":{"Label":"Budakeszi út 38, Budapest 1121, Magyarország","Country":"HUN","State":"Budapest","County":"Budapest","City":"Budapest","District":"Budapest 12","Street":"Budakeszi út","HouseNumber":"38","PostalCode":"1121","AdditionalData":[{"value":"Magyarország","key":"CountryName"},{"value":"Budapest","key":"StateName"},{"value":"Budapest","key":"CountyName"}]},"MapReference":{"ReferenceId":"1158714852","Spot":0.67,"SideOfStreet":"left","CountryId":"20613038","StateId":"20616317","CountyId":"20616318","CityId":"26682433","DistrictId":"20616323","AddressId":"356940263","RoadLinkId":"465264220"}}},{"Relevance":1.0,"Distance":115.8,"MatchLevel":"street","MatchQuality":{"Country":1.0,"State":1.0,"County":1.0,"City":1.0,"District":1.0,"Street":[1.0],"PostalCode":1.0},"Location":{"LocationId":"NT_cA.Z9qIoDAlg4aEdQa7cwC_l_1254270385_L","LocationType":"point","DisplayPosition":{"Latitude":47.51955,"Longitude":18.9778},"MapView":{"TopLeft":{"Latitude":47.51957,"Longitude":18.97762},"BottomRight":{"Latitude":47.51955,"Longitude":18.9778}},"Address":{"Label":"Budakeszi út, Budapest 1121, Magyarország","Country":"HUN","State":"Budapest","County":"Budapest","City":"Budapest","District":"Budapest 12","Street":"Budakeszi út","PostalCode":"1121","AdditionalData":[{"value":"Magyarország","key":"CountryName"},{"value":"Budapest","key":"StateName"},{"value":"Budapest","key":"CountyName"}]},"MapReference":{"ReferenceId":"1254270385","Spot":0.0,"SideOfStreet":"left","CountryId":"20613038","StateId":"20616317","CountyId":"20616318","CityId":"26682433","DistrictId":"20616323"}}},{"Relevance":1.0,"Distance":129.1,"MatchLevel":"street","MatchQuality":{"Country":1.0,"State":1.0,"County":1.0,"City":1.0,"District":1.0,"Street":[1.0],"PostalCode":1.0},"Location":{"LocationId":"NT_cA.Z9qIoDAlg4aEdQa7cwC_l_1254270386_L","LocationType":"point","DisplayPosition":{"Latitude":47.51957,"Longitude":18.97762},"MapView":{"TopLeft":{"Latitude":47.51961,"Longitude":18.97739},"BottomRight":{"Latitude":47.51957,"Longitude":18.97762}},"Address":{"Label":"Budakeszi út, Budapest 1121, Magyarország","Country":"HUN","State":"Budapest","County":"Budapest","City":"Budapest","District":"Budapest 12","Street":"Budakeszi út","PostalCode":"1121","AdditionalData":[{"value":"Magyarország","key":"CountryName"},{"value":"Budapest","key":"StateName"},{"value":"Budapest","key":"CountyName"}]},"MapReference":{"ReferenceId":"1254270386","Spot":0.0,"SideOfStreet":"left","CountryId":"20613038","StateId":"20616317","CountyId":"20616318","CityId":"26682433","DistrictId":"20616323"}}},{"Relevance":1.0,"Distance":152.1,"MatchLevel":"houseNumber","MatchQuality":{"Country":1.0,"State":1.0,"County":1.0,"City":1.0,"District":1.0,"Street":[1.0],"HouseNumber":1.0,"PostalCode":1.0},"MatchType":"interpolated","Location":{"LocationId":"NT_cA.Z9qIoDAlg4aEdQa7cwC_zQzY","LocationType":"point","DisplayPosition":{"Latitude":47.51902,"Longitude":18.98125},"MapView":{"TopLeft":{"Latitude":47.5201442,"Longitude":18.9795854},"BottomRight":{"Latitude":47.5178958,"Longitude":18.9829146}},"Address":{"Label":"Budakeszi út 34c, Budapest 1121, Magyarország","Country":"HUN","State":"Budapest","County":"Budapest","City":"Budapest","District":"Budapest 12","Street":"Budakeszi út","HouseNumber":"34c","PostalCode":"1121","AdditionalData":[{"value":"Magyarország","key":"CountryName"},{"value":"Budapest","key":"StateName"},{"value":"Budapest","key":"CountyName"}]},"MapReference":{"ReferenceId":"847786870","Spot":0.48,"SideOfStreet":"left","CountryId":"20613038","StateId":"20616317","CountyId":"20616318","CityId":"26682433","DistrictId":"20616323","AddressId":"711636898","RoadLinkId":"228409670"}}},{"Relevance":1.0,"Distance":152.1,"MatchLevel":"houseNumber","MatchQuality":{"Country":1.0,"State":1.0,"County":1.0,"City":1.0,"District":1.0,"Street":[1.0],"HouseNumber":1.0,"PostalCode":1.0},"MatchType":"interpolated","Location":{"LocationId":"NT_FU.h8tTbFdcEWy4yTvI-oA_1EzY","LocationType":"point","DisplayPosition":{"Latitude":47.51962,"Longitude":18.97732},"MapView":{"TopLeft":{"Latitude":47.5207442,"Longitude":18.9756554},"BottomRight":{"Latitude":47.5184958,"Longitude":18.9789846}},"Address":{"Label":"Budakeszi út 51c, Budapest 1121, Magyarország","Country":"HUN","State":"Budapest","County":"Budapest","City":"Budapest","District":"Budapest 12","Street":"Budakeszi út","HouseNumber":"51c","PostalCode":"1121","AdditionalData":[{"value":"Magyarország","key":"CountryName"},{"value":"Budapest","key":"StateName"},{"value":"Budapest","key":"CountyName"}]},"MapReference":{"ReferenceId":"1254270387","Spot":0.29,"SideOfStreet":"right","CountryId":"20613038","StateId":"20616317","CountyId":"20616318","CityId":"26682433","DistrictId":"20616323","AddressId":"713261025","RoadLinkId":"577516634"}}},{"Relevance":1.0,"Distance":174.1,"MatchLevel":"houseNumber","MatchQuality":{"Country":1.0,"State":1.0,"County":1.0,"City":1.0,"District":1.0,"Street":[1.0],"HouseNumber":1.0,"PostalCode":1.0},"MatchType":"interpolated","Location":{"LocationId":"NT_cA.Z9qIoDAlg4aEdQa7cwC_0ID","LocationType":"point","DisplayPosition":{"Latitude":47.51968,"Longitude":18.97698},"MapView":{"TopLeft":{"Latitude":47.5208042,"Longitude":18.9753154},"BottomRight":{"Latitude":47.5185558,"Longitude":18.9786446}},"Address":{"Label":"Budakeszi út 42, Budapest 1121, Magyarország","Country":"HUN","State":"Budapest","County":"Budapest","City":"Budapest","District":"Budapest 12","Street":"Budakeszi út","HouseNumber":"42","PostalCode":"1121","AdditionalData":[{"value":"Magyarország","key":"CountryName"},{"value":"Budapest","key":"StateName"},{"value":"Budapest","key":"CountyName"}]},"MapReference":{"ReferenceId":"1158714854","Spot":0.09,"SideOfStreet":"left","CountryId":"20613038","StateId":"20616317","CountyId":"20616318","CityId":"26682433","DistrictId":"20616323","AddressId":"355016606","RoadLinkId":"465264226"}}}]}]}}