{"Response":{"MetaInfo":{"Timestamp":"2020-03-28T11:22:09.127+0000","NextPageInformation":"2"},"View":[{"_type":"SearchResultsViewType","ViewId":0,"Result":[{"Relevance":1.0,"Distance":0.0,"Direction":0.0,"MatchLevel":"district","MatchQuality":{"Country":1.0,"State":1.0,"County":1.0,"City":1.0,"District":1.0,"PostalCode":1.0},"Location":{"LocationId":"NT_EgohxLRw1CQm6ddG4VNcNB","LocationType":"point","DisplayPosition":{"Latitude":47.5585871,"Longitude":19.1043529},"MapView":{"TopLeft":{"Latitude":47.60244,"Longitude":19.07089},"BottomRight":{"Latitude":47.54212,"Longitude":19.12343}},"Address":{"Label":"Budapest 4, Budapest, Magyarország","Country":"HUN","State":"Budapest","County":"Budapest","City":"Budapest","District":"Budapest 4","PostalCode":"1042","AdditionalData":[{"value":"Magyarország","key":"CountryName"},{"value":"Budapest","key":"StateName"},{"value":"Budapest","key":"CountyName"}]},"MapReference":{"ReferenceId":"583870915","SideOfStreet":"neither","CountryId":"20613038","StateId":"20616317","CountyId":"20616318","CityId":"26682433","DistrictId":"20616337"}}},{"Relevance":1.0,"Distance":11.5,"MatchLevel":"street","MatchQuality":{"Country":1.0,"State":1.0,"County":1.0,"City":1.0,"District":1.0,"PostalCode":1.0},"Location":{"LocationId":"NT_dKYVytFW.ygEyxQrRO-SRD_l_924316847_L","LocationType":"point","DisplayPosition":{"Latitude":47.55869,"Longitude":19.10437},"MapView":{"TopLeft":{"Latitude":47.55891,"Longitude":19.10425},"BottomRight":{"Latitude":47.55869,"Longitude":19.10437}},"Address":{"Label":"Budapest 1045, Magyarország","Country":"HUN","State":"Budapest","County":"Budapest","City":"Budapest","District":"Budapest 4","PostalCode":"1045","AdditionalData":[{"value":"Magyarország","key":"CountryName"},{"value":"Budapest","key":"StateName"},{"value":"Budapest","key":"CountyName"}]},"MapReference":{"ReferenceId":"924316847","Spot":0.0,"SideOfStreet":"left","CountryId":"20613038","StateId":"20616317","CountyId":"20616318","CityId":"26682433","DistrictId":"20616337"}}},{"Relevance":1.0,"Distance":11.6,"MatchLevel":"houseNumber","MatchQuality":{"Country":1.0,"State":1.0,"County":1.0,"City":1.0,"District":1.0,"Street":[1.0],"HouseNumber":1.0,"PostalCode":1.0},"MatchType":"interpolated","Location":{"LocationId":"NT_HiBO9FnIVuep4XxNa07NXB_l_924316844_R_xATO","LocationType":"point","DisplayPosition":{"Latitude":47.5586568,"Longitude":19.1042039},"MapView":{"TopLeft":{"Latitude":47.5597809,"Longitude":19.1025381},"BottomRight":{"Latitude":47.5575326,"Longitude":19.1058697}},"Address":{"Label":"Nyár utca 109, Budapest 1045, Magyarország","Country":"HUN","State":"Budapest","County":"Budapest","City":"Budapest","District":"Budapest 4","Street":"Nyár utca","HouseNumber":"109","PostalCode":"1045","AdditionalData":[{"value":"Magyarország","key":"CountryName"},{"value":"Budapest","key":"StateName"},{"value":"Budapest","key":"CountyName"}]},"MapReference":{"ReferenceId":"924316844","Spot":0.53,"SideOfStreet":"right","CountryId":"20613038","StateId":"20616317","CountyId":"20616318","CityId":"26682433","DistrictId":"20616337"}}},{"Relevance":1.0,"Distance":11.8,"MatchLevel":"houseNumber","MatchQuality":{"Country":1.0,"State":1.0,"County":1.0,"City":1.0,"District":1.0,"Street":[1.0],"HouseNumber":1.0,"PostalCode":1.0},"MatchType":"interpolated","Location":{"LocationId":"NT_YQNThDg2lwdEtPkJQbSDOA_xATN","LocationType":"point","DisplayPosition":{"Latitude":47.55869,"Longitude":19.10439},"MapView":{"TopLeft":{"Latitude":47.5598142,"Longitude":19.1027242},"BottomRight":{"Latitude":47.5575658,"Longitude":19.1060558}},"Address":{"Label":"Nyár utca 105, Budapest 1041, Magyarország","Country":"HUN","State":"Budapest","County":"Budapest","City":"Budapest","District":"Budapest 4","Street":"Nyár utca","HouseNumber":"105","PostalCode":"1041","AdditionalData":[{"value":"Magyarország","key":"CountryName"},{"value":"Budapest","key":"StateName"},{"value":"Budapest","key":"CountyName"}]},"MapReference":{"ReferenceId":"924316845","Spot":0.02,"SideOfStreet":"right","CountryId":"20613038","StateId":"20616317","CountyId":"20616318","CityId":"26682433","DistrictId":"20616337","AddressId":"355839630","RoadLinkId":"279691029"}}},{"Relevance":1.0,"Distance":20.9,"MatchLevel":"landmark","MatchQuality":{"Country":1.0,"State":1.0,"County":1.0,"City":1.0,"District":1.0,"Street":[1.0],"HouseNumber":1.0,"PostalCode":1.0,"Name":1.0},"Location":{"LocationId":"NT_dnwESnRNLeWQpZUBF2s7CC_p_0F.sThiWbdbI0fGLwoA30D","LocationType":"hospital","Name":"Károlyi Sándor Kórház","DisplayPosition":{"Latitude":47.55839,"Longitude":19.10281},"MapView":{"TopLeft":{"Latitude":47.5595142,"Longitude":19.1011442},"BottomRight":{"Latitude":47.5572658,"Longitude":19.1044758}},"Address":{"Label":"Nyár utca 103, Budapest 1045, Magyarország","Country":"HUN","State":"Budapest","County":"Budapest","City":"Budapest","District":"Budapest 4","Street":"Nyár utca","HouseNumber":"103","PostalCode":"1045","AdditionalData":[{"value":"Magyarország","key":"CountryName"},{"value":"Budapest","key":"StateName"},{"value":"Budapest","key":"CountyName"}]},"MapReference":{"CountryId":"20613038","StateId":"20616317","CountyId":"20616318","CityId":"26682433","DistrictId":"20616337","PlaceId":"1010121238"}}},{"Relevance":1.0,"Distance":25.2,"MatchLevel":"street","MatchQuality":{"Country":1.0,"State":1.0,"County":1.0,"City":1.0,"District":1.0,"PostalCode":1.0},"Location":{"LocationId":"NT_dKYVytFW.ygEyxQrRO-SRD_l_924316843_R","LocationType":"point","DisplayPosition":{"Latitude":47.55862,"Longitude":19.10402},"MapView":{"TopLeft":{"Latitude":47.55883,"Longitude":19.10391},"BottomRight":{"Latitude":47.55862,"Longitude":19.10402}},"Address":{"Label":"Budapest 1045, Magyarország","Country":"HUN","State":"Budapest","County":"Budapest","City":"Budapest","District":"Budapest 4","PostalCode":"1045","AdditionalData":[{"value":"Magyarország","key":"CountryName"},{"value":"Budapest","key":"StateName"},{"value":"Budapest","key":"CountyName"}]},"MapReference":{"ReferenceId":"924316843","Spot":0.0,"SideOfStreet":"right","CountryId":"20613038","StateId":"20616317","CountyId":"20616318","CityId":"26682433","DistrictId":"20616337"}}},{"Relevance":1.0,"Distance":36.7,"MatchLevel":"street","MatchQuality":{"Country":1.0,"State":1.0,"County":1.0,"City":1.0,"District":1.0,"PostalCode":1.0},"Location":{"LocationId":"NT_dKYVytFW.ygEyxQrRO-SRD_l_924316846_R","LocationType":"point","DisplayPosition":{"Latitude":47.55891,"Longitude":19.10425},"MapView":{"TopLeft":{"Latitude":47.55891,"Longitude":19.10391},"BottomRight":{"Latitude":47.55883,"Longitude":19.10425}},"Address":{"Label":"Budapest 1045, Magyarország","Country":"HUN","State":"Budapest","County":"Budapest","City":"Budapest","District":"Budapest 4","PostalCode":"1045","AdditionalData":[{"value":"Magyarország","key":"CountryName"},{"value":"Budapest","key":"StateName"},{"value":"Budapest","key":"CountyName"}]},"MapReference":{"ReferenceId":"924316846","Spot":1.0,"SideOfStreet":"right","CountryId":"20613038","StateId":"20616317","CountyId":"20616318","CityId":"26682433","DistrictId":"20616337"}}},{"Relevance":1.0,"Distance":37.0,"MatchLevel":"street","MatchQuality":{"Country":1.0,"State":1.0,"County":1.0,"City":1.0,"District":1.0,"PostalCode":1.0},"Location":{"LocationId":"NT_dKYVytFW.ygEyxQrRO-SRD_l_924316848_R","LocationType":"point","DisplayPosition":{"Latitude":47.5589162,"Longitude":19.1042769},"MapView":{"TopLeft":{"Latitude":47.55918,"Longitude":19.10425},"BottomRight":{"Latitude":47.55891,"Longitude":19.10542}},"Address":{"Label":"Budapest 1045, Magyarország","Country":"HUN","State":"Budapest","County":"Budapest","City":"Budapest","District":"Budapest 4","PostalCode":"1045","AdditionalData":[{"value":"Magyarország","key":"CountryName"},{"value":"Budapest","key":"StateName"},{"value":"Budapest","key":"CountyName"}]},"MapReference":{"ReferenceId":"924316848","Spot":0.02,"SideOfStreet":"right","CountryId":"20613038","StateId":"20616317","CountyId":"20616318","CityId":"26682433","DistrictId":"20616337"}}},{"Relevance":1.0,"Distance":41.9,"MatchLevel":"houseNumber","MatchQuality":{"Country":1.0,"State":1.0,"County":1.0,"City":1.0,"District":1.0,"Street":[1.0],"HouseNumber":1.0,"PostalCode":1.0},"MatchType":"interpolated","Location":{"LocationId":"NT_HiBO9FnIVuep4XxNa07NXB_l_783378624_R_xAzN","LocationType":"point","DisplayPosition":{"Latitude":47.5585757,"Longitude":19.1037941},"MapView":{"TopLeft":{"Latitude":47.5596998,"Longitude":19.1021283},"BottomRight":{"Latitude":47.5574515,"Longitude":19.1054599}},"Address":{"Label":"Nyár utca 107, Budapest 1045, Magyarország","Country":"HUN","State":"Budapest","County":"Budapest","City":"Budapest","District":"Budapest 4","Street":"Nyár utca","HouseNumber":"107","PostalCode":"1045","AdditionalData":[{"value":"Magyarország","key":"CountryName"},{"value":"Budapest","key":"StateName"},{"value":"Budapest","key":"CountyName"}]},"MapReference":{"ReferenceId":"783378624","Spot":0.5,"SideOfStreet":"right","CountryId":"20613038","StateId":"20616317","CountyId":"20616318","CityId":"26682433","DistrictId":"20616337"}}},{"Relevance":1.0,"Distance":42.8,"MatchLevel":"street","MatchQuality":{"Country":1.0,"State":1.0,"County":1.0,"City":1.0,"District":1.0,"PostalCode":1.0},"Location":{"LocationId":"NT_dKYVytFW.ygEyxQrRO-SRD_l_924316842_R","LocationType":"point","DisplayPosition":{"Latitude":47.55883,"Longitude":19.10391},"MapView":{"TopLeft":{"Latitude":47.55943,"Longitude":19.10358},"BottomRight":{"Latitude":47.55883,"Longitude":19.10391}},"Address":{"Label":"Budapest 1045, Magyarország","Country":"HUN","State":"Budapest","County":"Budapest","City":"Budapest","District":"Budapest 4","PostalCode":"1045","AdditionalData":[{"value":"Magyarország","key":"CountryName"},{"value":"Budapest","key":"StateName"},{"value":"Budapest","key":"CountyName"}]},"MapReference":{"ReferenceId":"924316842","Spot":0.0,"SideOfStreet":"right","CountryId":"20613038","StateId":"20616317","CountyId":"20616318","CityId":"26682433","DistrictId":"20616337"}}}]}]}}