{"Response":{"MetaInfo":{"Timestamp":"2020-03-28T10:02:45.349+0000","NextPageInformation":"2"},"View":[{"_type":"SearchResultsViewType","ViewId":0,"Result":[{"Relevance":1.0,"Distance":0.0,"Direction":0.0,"MatchLevel":"district","MatchQuality":{"Country":1.0,"State":1.0,"County":1.0,"City":1.0,"District":1.0,"PostalCode":1.0},"Location":{"LocationId":"NT_Hbwm.dBANCt.CbynReN-TB","LocationType":"point","DisplayPosition":{"Latitude":47.5843625,"Longitude":7.9101239},"MapView":{"TopLeft":{"Latitude":47.60623,"Longitude":7.90391},"BottomRight":{"Latitude":47.57785,"Longitude":7.92274}},"Address":{"Label":"Öflingen, Wehr, Baden-Württemberg, Deutschland","Country":"DEU","State":"Baden-Württemberg","County":"Waldshut","City":"Wehr","District":"Öflingen","PostalCode":"79664","AdditionalData":[{"value":"Deutschland","key":"CountryName"},{"value":"Baden-Württemberg","key":"StateName"},{"value":"Waldshut","key":"CountyName"}]},"MapReference":{"ReferenceId":"810582124","SideOfStreet":"neither","CountryId":"20147700","StateId":"20171489","CountyId":"20175669","CityId":"20175803","DistrictId":"20175807"}}},{"Relevance":1.0,"Distance":9.8,"MatchLevel":"houseNumber","MatchQuality":{"Country":1.0,"State":1.0,"County":1.0,"City":1.0,"District":1.0,"Street":[1.0],"HouseNumber":1.0,"PostalCode":1.0},"MatchType":"interpolated","Location":{"LocationId":"NT_YY-VT-Zb1HFFpKp5VGaQCB_xUD","LocationType":"point","DisplayPosition":{"Latitude":47.58426,"Longitude":7.91005},"MapView":{"TopLeft":{"Latitude":47.5853842,"Longitude":7.9083834},"BottomRight":{"Latitude":47.5831358,"Longitude":7.9117166}},"Address":{"Label":"Basler Straße 15, 79664 Wehr, Deutschland","Country":"DEU","State":"Baden-Württemberg","County":"Waldshut","City":"Wehr","District":"Öflingen","Street":"Basler Straße","HouseNumber":"15","PostalCode":"79664","AdditionalData":[{"value":"Deutschland","key":"CountryName"},{"value":"Baden-Württemberg","key":"StateName"},{"value":"Waldshut","key":"CountyName"}]},"MapReference":{"ReferenceId":"52947902","Spot":0.53,"SideOfStreet":"right","CountryId":"20147700","StateId":"20171489","CountyId":"20175669","CityId":"20175803","DistrictId":"20175807","AddressId":"177849812","RoadLinkId":"38539988"}}},{"Relevance":1.0,"Distance":82.7,"MatchLevel":"street","MatchQuality":{"Country":1.0,"State":1.0,"County":1.0,"City":1.0,"District":1.0,"Street":[1.0],"PostalCode":1.0},"Location":{"LocationId":"NT_YY-VT-Zb1HFFpKp5VGaQCB_l_1205313485_L","LocationType":"point","DisplayPosition":{"Latitude":47.58506,"Longitude":7.90974},"MapView":{"TopLeft":{"Latitude":47.58512,"Longitude":7.90948},"BottomRight":{"Latitude":47.58506,"Longitude":7.90974}},"Address":{"Label":"Basler Straße, 79664 Wehr, Deutschland","Country":"DEU","State":"Baden-Württemberg","County":"Waldshut","City":"Wehr","District":"Öflingen","Street":"Basler Straße","PostalCode":"79664","AdditionalData":[{"value":"Deutschland","key":"CountryName"},{"value":"Baden-Württemberg","key":"StateName"},{"value":"Waldshut","key":"CountyName"}]},"MapReference":{"ReferenceId":"1205313485","Spot":0.0,"SideOfStreet":"left","CountryId":"20147700","StateId":"20171489","CountyId":"20175669","CityId":"20175803","DistrictId":"20175807"}}},{"Relevance":1.0,"Distance":106.5,"MatchLevel":"houseNumber","MatchQuality":{"Country":1.0,"State":1.0,"County":1.0,"City":1.0,"District":1.0,"Street":[1.0],"HouseNumber":1.0,"PostalCode":1.0},"MatchType":"interpolated","Location":{"LocationId":"NT_RYsxNaDkrHwEnuTFFR9gsD_1A","LocationType":"point","DisplayPosition":{"Latitude":47.5836,"Longitude":7.91097},"MapView":{"TopLeft":{"Latitude":47.5847242,"Longitude":7.9093034},"BottomRight":{"Latitude":47.5824758,"Longitude":7.9126366}},"Address":{"Label":"Dettingenstraße 5, 79664 Wehr, Deutschland","Country":"DEU","State":"Baden-Württemberg","County":"Waldshut","City":"Wehr","District":"Öflingen","Street":"Dettingenstraße","HouseNumber":"5","PostalCode":"79664","AdditionalData":[{"value":"Deutschland","key":"CountryName"},{"value":"Baden-Württemberg","key":"StateName"},{"value":"Waldshut","key":"CountyName"}]},"MapReference":{"ReferenceId":"67341809","Spot":0.55,"SideOfStreet":"left","CountryId":"20147700","StateId":"20171489","CountyId":"20175669","CityId":"20175803","DistrictId":"20175807","AddressId":"180128557","RoadLinkId":"38185255"}}},{"Relevance":1.0,"Distance":109.4,"MatchLevel":"street","MatchQuality":{"Country":1.0,"State":1.0,"County":1.0,"City":1.0,"District":1.0,"Street":[1.0],"PostalCode":1.0},"Location":{"LocationId":"NT_YY-VT-Zb1HFFpKp5VGaQCB_l_920690677_R","LocationType":"point","DisplayPosition":{"Latitude":47.58358,"Longitude":7.90924},"MapView":{"TopLeft":{"Latitude":47.58455,"Longitude":7.90782},"BottomRight":{"Latitude":47.58358,"Longitude":7.90924}},"Address":{"Label":"Basler Straße, 79664 Wehr, Deutschland","Country":"DEU","State":"Baden-Württemberg","County":"Waldshut","City":"Wehr","District":"Öflingen","Street":"Basler Straße","PostalCode":"79664","AdditionalData":[{"value":"Deutschland","key":"CountryName"},{"value":"Baden-Württemberg","key":"StateName"},{"value":"Waldshut","key":"CountyName"}]},"MapReference":{"ReferenceId":"920690677","Spot":0.0,"SideOfStreet":"right","CountryId":"20147700","StateId":"20171489","CountyId":"20175669","CityId":"20175803","DistrictId":"20175807"}}},{"Relevance":1.0,"Distance":110.0,"MatchLevel":"houseNumber","MatchQuality":{"Country":1.0,"State":1.0,"County":1.0,"City":1.0,"District":1.0,"Street":[1.0],"HouseNumber":1.0,"PostalCode":1.0},"MatchType":"interpolated","Location":{"LocationId":"NT_YY-VT-Zb1HFFpKp5VGaQCB_xgD","LocationType":"point","DisplayPosition":{"Latitude":47.58519,"Longitude":7.90932},"MapView":{"TopLeft":{"Latitude":47.5863142,"Longitude":7.9076533},"BottomRight":{"Latitude":47.5840658,"Longitude":7.9109867}},"Address":{"Label":"Basler Straße 18, 79664 Wehr, Deutschland","Country":"DEU","State":"Baden-Württemberg","County":"Waldshut","City":"Wehr","District":"Öflingen","Street":"Basler Straße","HouseNumber":"18","PostalCode":"79664","AdditionalData":[{"value":"Deutschland","key":"CountryName"},{"value":"Baden-Württemberg","key":"StateName"},{"value":"Waldshut","key":"CountyName"}]},"MapReference":{"ReferenceId":"1205313486","Spot":0.34,"SideOfStreet":"left","CountryId":"20147700","StateId":"20171489","CountyId":"20175669","CityId":"20175803","DistrictId":"20175807","AddressId":"180491896","RoadLinkId":"518908449"}}},{"Relevance":1.0,"Distance":114.2,"MatchLevel":"street","MatchQuality":{"Country":1.0,"State":1.0,"County":1.0,"City":1.0,"District":1.0,"Street":[1.0],"PostalCode":1.0},"Location":{"LocationId":"NT_YY-VT-Zb1HFFpKp5VGaQCB_l_563876879_R","LocationType":"point","DisplayPosition":{"Latitude":47.5834715,"Longitude":7.9093679},"MapView":{"TopLeft":{"Latitude":47.58358,"Longitude":7.90924},"BottomRight":{"Latitude":47.58315,"Longitude":7.90973}},"Address":{"Label":"Basler Straße, 79664 Wehr, Deutschland","Country":"DEU","State":"Baden-Württemberg","County":"Waldshut","City":"Wehr","District":"Öflingen","Street":"Basler Straße","PostalCode":"79664","AdditionalData":[{"value":"Deutschland","key":"CountryName"},{"value":"Baden-Württemberg","key":"StateName"},{"value":"Waldshut","key":"CountyName"}]},"MapReference":{"ReferenceId":"563876879","Spot":0.74,"SideOfStreet":"right","CountryId":"20147700","StateId":"20171489","CountyId":"20175669","CityId":"20175803","DistrictId":"20175807"}}},{"Relevance":1.0,"Distance":114.5,"MatchLevel":"street","MatchQuality":{"Country":1.0,"State":1.0,"County":1.0,"City":1.0,"District":1.0,"Street":[1.0],"PostalCode":1.0},"Location":{"LocationId":"NT_YY-VT-Zb1HFFpKp5VGaQCB_l_67331667_R","LocationType":"point","DisplayPosition":{"Latitude":47.58334,"Longitude":7.9103},"MapView":{"TopLeft":{"Latitude":47.58334,"Longitude":7.9103},"BottomRight":{"Latitude":47.58306,"Longitude":7.91036}},"Address":{"Label":"Basler Straße, 79664 Wehr, Deutschland","Country":"DEU","State":"Baden-Württemberg","County":"Waldshut","City":"Wehr","District":"Öflingen","Street":"Basler Straße","PostalCode":"79664","AdditionalData":[{"value":"Deutschland","key":"CountryName"},{"value":"Baden-Württemberg","key":"StateName"},{"value":"Waldshut","key":"CountyName"}]},"MapReference":{"ReferenceId":"67331667","Spot":1.0,"SideOfStreet":"right","CountryId":"20147700","StateId":"20171489","CountyId":"20175669","CityId":"20175803","DistrictId":"20175807"}}},{"Relevance":1.0,"Distance":114.6,"MatchLevel":"street","MatchQuality":{"Country":1.0,"State":1.0,"County":1.0,"City":1.0,"District":1.0,"PostalCode":1.0},"Location":{"LocationId":"NT_Hj7LdZS4rAQUkR30gn0HrD_l_52762838_L","LocationType":"point","DisplayPosition":{"Latitude":47.5833372,"Longitude":7.9102816},"MapView":{"TopLeft":{"Latitude":47.58334,"Longitude":7.90992},"BottomRight":{"Latitude":47.58276,"Longitude":7.9103}},"Address":{"Label":"79664 Wehr, Deutschland","Country":"DEU","State":"Baden-Württemberg","County":"Waldshut","City":"Wehr","District":"Öflingen","PostalCode":"79664","AdditionalData":[{"value":"Deutschland","key":"CountryName"},{"value":"Baden-Württemberg","key":"StateName"},{"value":"Waldshut","key":"CountyName"}]},"MapReference":{"ReferenceId":"52762838","Spot":0.98,"SideOfStreet":"left","CountryId":"20147700","StateId":"20171489","CountyId":"20175669","CityId":"20175803","DistrictId":"20175807"}}},{"Relevance":1.0,"Distance":137.5,"MatchLevel":"street","MatchQuality":{"Country":1.0,"State":1.0,"County":1.0,"City":1.0,"District":1.0,"PostalCode":1.0},"Location":{"LocationId":"NT_Hj7LdZS4rAQUkR30gn0HrD_l_67331686_R","LocationType":"point","DisplayPosition":{"Latitude":47.58535,"Longitude":7.90902},"MapView":{"TopLeft":{"Latitude":47.58535,"Longitude":7.90782},"BottomRight":{"Latitude":47.58455,"Longitude":7.90902}},"Address":{"Label":"79664 Wehr, Deutschland","Country":"DEU","State":"Baden-Württemberg","County":"Waldshut","City":"Wehr","District":"Öflingen","PostalCode":"79664","AdditionalData":[{"value":"Deutschland","key":"CountryName"},{"value":"Baden-Württemberg","key":"StateName"},{"value":"Waldshut","key":"CountyName"}]},"MapReference":{"ReferenceId":"67331686","Spot":1.0,"SideOfStreet":"right","CountryId":"20147700","StateId":"20171489","CountyId":"20175669","CityId":"20175803","DistrictId":"20175807"}}}]}]}}