{"Response":{"MetaInfo":{"Timestamp":"2020-03-28T10:42:31.537+0000","NextPageInformation":"2"},"View":[{"_type":"SearchResultsViewType","ViewId":0,"Result":[{"Relevance":1.0,"Distance":0.0,"Direction":0.0,"MatchLevel":"district","MatchQuality":{"Country":1.0,"State":1.0,"County":1.0,"City":1.0,"District":1.0,"PostalCode":1.0},"Location":{"LocationId":"NT_bS.3tyX8qL9MVzo62S.0RD","LocationType":"point","DisplayPosition":{"Latitude":47.5154249,"Longitude":18.8257085},"MapView":{"TopLeft":{"Latitude":47.52766,"Longitude":18.80617},"BottomRight":{"Latitude":47.50309,"Longitude":18.85998}},"Address":{"Label":"Páty, Pest, Magyarország","Country":"HUN","State":"Pest","County":"Budakeszi Járás","City":"Páty","District":"Páty","PostalCode":"2071","AdditionalData":[{"value":"Magyarország","key":"CountryName"},{"value":"Pest","key":"StateName"},{"value":"Budakeszi Járás","key":"CountyName"}]},"MapReference":{"ReferenceId":"779166800","SideOfStreet":"neither","CountryId":"20613038","StateId":"20619051","CountyId":"26678483","CityId":"20619390","DistrictId":"26678653"}}},{"Relevance":1.0,"Distance":16.2,"MatchLevel":"houseNumber","MatchQuality":{"Country":1.0,"State":1.0,"County":1.0,"City":1.0,"District":1.0,"Street":[1.0],"HouseNumber":1.0,"PostalCode":1.0},"MatchType":"interpolated","Location":{"LocationId":"NT_Yboo0KeaWB38Ai4q3uq7kA_xYD","LocationType":"point","DisplayPosition":{"Latitude":47.51562,"Longitude":18.82598},"MapView":{"TopLeft":{"Latitude":47.5167442,"Longitude":18.8243155},"BottomRight":{"Latitude":47.5144958,"Longitude":18.8276445}},"Address":{"Label":"Árpád utca 16, Páty 2071, Magyarország","Country":"HUN","State":"Pest","County":"Budakeszi Járás","City":"Páty","District":"Páty","Street":"Árpád utca","HouseNumber":"16","PostalCode":"2071","AdditionalData":[{"value":"Magyarország","key":"CountryName"},{"value":"Pest","key":"StateName"},{"value":"Budakeszi Járás","key":"CountyName"}]},"MapReference":{"ReferenceId":"1234001912","Spot":0.55,"SideOfStreet":"left","CountryId":"20613038","StateId":"20619051","CountyId":"26678483","CityId":"20619390","DistrictId":"26678653","AddressId":"356275802","RoadLinkId":"554320999"}}},{"Relevance":1.0,"Distance":52.8,"MatchLevel":"houseNumber","MatchQuality":{"Country":1.0,"State":1.0,"County":1.0,"City":1.0,"District":1.0,"Street":[1.0],"HouseNumber":1.0,"PostalCode":1.0},"MatchType":"interpolated","Location":{"LocationId":"NT_Yboo0KeaWB38Ai4q3uq7kA_yAD","LocationType":"point","DisplayPosition":{"Latitude":47.51599,"Longitude":18.82572},"MapView":{"TopLeft":{"Latitude":47.5171142,"Longitude":18.8240555},"BottomRight":{"Latitude":47.5148658,"Longitude":18.8273845}},"Address":{"Label":"Árpád utca 20, Páty 2071, Magyarország","Country":"HUN","State":"Pest","County":"Budakeszi Járás","City":"Páty","District":"Páty","Street":"Árpád utca","HouseNumber":"20","PostalCode":"2071","AdditionalData":[{"value":"Magyarország","key":"CountryName"},{"value":"Pest","key":"StateName"},{"value":"Budakeszi Járás","key":"CountyName"}]},"MapReference":{"ReferenceId":"1234514671","Spot":0.0,"SideOfStreet":"left","CountryId":"20613038","StateId":"20619051","CountyId":"26678483","CityId":"20619390","DistrictId":"26678653","AddressId":"356275798","RoadLinkId":"554894811"}}},{"Relevance":1.0,"Distance":53.3,"MatchLevel":"street","MatchQuality":{"Country":1.0,"State":1.0,"County":1.0,"City":1.0,"District":1.0,"Street":[1.0],"PostalCode":1.0},"Location":{"LocationId":"NT_Yboo0KeaWB38Ai4q3uq7kA_l_1234001914_L","LocationType":"point","DisplayPosition":{"Latitude":47.51516,"Longitude":18.8263},"MapView":{"TopLeft":{"Latitude":47.51516,"Longitude":18.8263},"BottomRight":{"Latitude":47.51493,"Longitude":18.82646}},"Address":{"Label":"Árpád utca, Páty 2071, Magyarország","Country":"HUN","State":"Pest","County":"Budakeszi Járás","City":"Páty","District":"Páty","Street":"Árpád utca","PostalCode":"2071","AdditionalData":[{"value":"Magyarország","key":"CountryName"},{"value":"Pest","key":"StateName"},{"value":"Budakeszi Járás","key":"CountyName"}]},"MapReference":{"ReferenceId":"1234001914","Spot":1.0,"SideOfStreet":"left","CountryId":"20613038","StateId":"20619051","CountyId":"26678483","CityId":"20619390","DistrictId":"26678653"}}},{"Relevance":1.0,"Distance":70.7,"MatchLevel":"houseNumber","MatchQuality":{"Country":1.0,"State":1.0,"County":1.0,"City":1.0,"District":1.0,"Street":[1.0],"HouseNumber":1.0,"PostalCode":1.0},"MatchType":"interpolated","Location":{"LocationId":"NT_Yboo0KeaWB38Ai4q3uq7kA_4A","LocationType":"point","DisplayPosition":{"Latitude":47.51493,"Longitude":18.82646},"MapView":{"TopLeft":{"Latitude":47.5160542,"Longitude":18.8247956},"BottomRight":{"Latitude":47.5138058,"Longitude":18.8281244}},"Address":{"Label":"Árpád utca 8, Páty 2071, Magyarország","Country":"HUN","State":"Pest","County":"Budakeszi Járás","City":"Páty","District":"Páty","Street":"Árpád utca","HouseNumber":"8","PostalCode":"2071","AdditionalData":[{"value":"Magyarország","key":"CountryName"},{"value":"Pest","key":"StateName"},{"value":"Budakeszi Járás","key":"CountyName"}]},"MapReference":{"ReferenceId":"1234001913","Spot":1.0,"SideOfStreet":"left","CountryId":"20613038","StateId":"20619051","CountyId":"26678483","CityId":"20619390","DistrictId":"26678653","AddressId":"356275810","RoadLinkId":"554321000"}}},{"Relevance":1.0,"Distance":115.1,"MatchLevel":"houseNumber","MatchQuality":{"Country":1.0,"State":1.0,"County":1.0,"City":1.0,"District":1.0,"Street":[1.0],"HouseNumber":1.0,"PostalCode":1.0},"MatchType":"interpolated","Location":{"LocationId":"NT_Yboo0KeaWB38Ai4q3uq7kA_yYD","LocationType":"point","DisplayPosition":{"Latitude":47.51644,"Longitude":18.82541},"MapView":{"TopLeft":{"Latitude":47.5175642,"Longitude":18.8237455},"BottomRight":{"Latitude":47.5153158,"Longitude":18.8270745}},"Address":{"Label":"Árpád utca 26, Páty 2071, Magyarország","Country":"HUN","State":"Pest","County":"Budakeszi Járás","City":"Páty","District":"Páty","Street":"Árpád utca","HouseNumber":"26","PostalCode":"2071","AdditionalData":[{"value":"Magyarország","key":"CountryName"},{"value":"Pest","key":"StateName"},{"value":"Budakeszi Járás","key":"CountyName"}]},"MapReference":{"ReferenceId":"1234001916","Spot":0.26,"SideOfStreet":"left","CountryId":"20613038","StateId":"20619051","CountyId":"26678483","CityId":"20619390","DistrictId":"26678653","AddressId":"356275792","RoadLinkId":"554321003"}}},{"Relevance":1.0,"Distance":115.5,"MatchLevel":"street","MatchQuality":{"Country":1.0,"State":1.0,"County":1.0,"City":1.0,"District":1.0,"PostalCode":1.0},"Location":{"LocationId":"NT_aTv0M9gFNlsXBhkHSiuXYD_l_1234001938_R","LocationType":"point","DisplayPosition":{"Latitude":47.51542,"Longitude":18.82417},"MapView":{"TopLeft":{"Latitude":47.51542,"Longitude":18.82361},"BottomRight":{"Latitude":47.5153,"Longitude":18.82417}},"Address":{"Label":"Páty 2071, Magyarország","Country":"HUN","State":"Pest","County":"Budakeszi Járás","City":"Páty","District":"Páty","PostalCode":"2071","AdditionalData":[{"value":"Magyarország","key":"CountryName"},{"value":"Pest","key":"StateName"},{"value":"Budakeszi Járás","key":"CountyName"}]},"MapReference":{"ReferenceId":"1234001938","Spot":1.0,"SideOfStreet":"right","CountryId":"20613038","StateId":"20619051","CountyId":"26678483","CityId":"20619390","DistrictId":"26678653"}}},{"Relevance":1.0,"Distance":140.3,"MatchLevel":"houseNumber","MatchQuality":{"Country":1.0,"State":1.0,"County":1.0,"City":1.0,"District":1.0,"Street":[1.0],"HouseNumber":1.0,"PostalCode":1.0},"MatchType":"interpolated","Location":{"LocationId":"NT_FyvANU8ibxiqvS5ysfCmPA_zA","LocationType":"point","DisplayPosition":{"Latitude":47.51606,"Longitude":18.82398},"MapView":{"TopLeft":{"Latitude":47.5171842,"Longitude":18.8223155},"BottomRight":{"Latitude":47.5149358,"Longitude":18.8256445}},"Address":{"Label":"Várady József utca 3, Páty 2071, Magyarország","Country":"HUN","State":"Pest","County":"Budakeszi Járás","City":"Páty","District":"Páty","Street":"Várady József utca","HouseNumber":"3","PostalCode":"2071","AdditionalData":[{"value":"Magyarország","key":"CountryName"},{"value":"Pest","key":"StateName"},{"value":"Budakeszi Járás","key":"CountyName"}]},"MapReference":{"ReferenceId":"1234001932","Spot":0.59,"SideOfStreet":"right","CountryId":"20613038","StateId":"20619051","CountyId":"26678483","CityId":"20619390","DistrictId":"26678653","AddressId":"356684730","RoadLinkId":"554321019"}}},{"Relevance":1.0,"Distance":154.6,"MatchLevel":"houseNumber","MatchQuality":{"Country":1.0,"State":1.0,"County":1.0,"City":1.0,"District":1.0,"Street":[1.0],"HouseNumber":1.0,"PostalCode":1.0},"MatchType":"interpolated","Location":{"LocationId":"NT_u3t6MO7rJPZGxAPqeHo8aD_yUD","LocationType":"point","DisplayPosition":{"Latitude":47.51392,"Longitude":18.8262},"MapView":{"TopLeft":{"Latitude":47.5150442,"Longitude":18.8245356},"BottomRight":{"Latitude":47.5127958,"Longitude":18.8278644}},"Address":{"Label":"Rákóczi utca 25, Páty 2071, Magyarország","Country":"HUN","State":"Pest","County":"Budakeszi Járás","City":"Páty","District":"Páty","Street":"Rákóczi utca","HouseNumber":"25","PostalCode":"2071","AdditionalData":[{"value":"Magyarország","key":"CountryName"},{"value":"Pest","key":"StateName"},{"value":"Budakeszi Járás","key":"CountyName"}]},"MapReference":{"ReferenceId":"1233990789","Spot":0.43,"SideOfStreet":"left","CountryId":"20613038","StateId":"20619051","CountyId":"26678483","CityId":"20619390","DistrictId":"26678653","AddressId":"356352092","RoadLinkId":"554309056"}}},{"Relevance":1.0,"Distance":161.8,"MatchLevel":"houseNumber","MatchQuality":{"Country":1.0,"State":1.0,"County":1.0,"City":1.0,"District":1.0,"Street":[1.0],"HouseNumber":1.0,"PostalCode":1.0},"MatchType":"interpolated","Location":{"LocationId":"NT_sTm1jtJY-fzENg1gjrQpFD_2cjN","LocationType":"point","DisplayPosition":{"Latitude":47.51666,"Longitude":18.82457},"MapView":{"TopLeft":{"Latitude":47.5177842,"Longitude":18.8229055},"BottomRight":{"Latitude":47.5155358,"Longitude":18.8262345}},"Address":{"Label":"Petőfi utca 676, Páty 2071, Magyarország","Country":"HUN","State":"Pest","County":"Budakeszi Járás","City":"Páty","District":"Páty","Street":"Petőfi utca","HouseNumber":"676","PostalCode":"2071","AdditionalData":[{"value":"Magyarország","key":"CountryName"},{"value":"Pest","key":"StateName"},{"value":"Budakeszi Járás","key":"CountyName"}]},"MapReference":{"ReferenceId":"1234001919","Spot":0.05,"SideOfStreet":"left","CountryId":"20613038","StateId":"20619051","CountyId":"26678483","CityId":"20619390","DistrictId":"26678653","AddressId":"711455812","RoadLinkId":"554321006"}}}]}]}}