{"Response":{"MetaInfo":{"Timestamp":"2020-03-28T11:37:49.129+0000","NextPageInformation":"2"},"View":[{"_type":"SearchResultsViewType","ViewId":0,"Result":[{"Relevance":1.0,"Distance":0.0,"Direction":0.0,"MatchLevel":"district","MatchQuality":{"Country":1.0,"State":1.0,"County":1.0,"City":1.0,"District":1.0,"PostalCode":1.0},"Location":{"LocationId":"NT_76TqDtZX03XKoXMjytsiOA","LocationType":"point","DisplayPosition":{"Latitude":47.5879203,"Longitude":16.4675322},"MapView":{"TopLeft":{"Latitude":47.59743,"Longitude":16.45367},"BottomRight":{"Latitude":47.58502,"Longitude":16.47526}},"Address":{"Label":"Lackenbach, Burgenland, Österreich","Country":"AUT","State":"Burgenland","County":"Oberpullendorf","City":"Lackenbach","District":"Lackenbach","PostalCode":"7322","AdditionalData":[{"value":"Österreich","key":"CountryName"},{"value":"Burgenland","key":"StateName"},{"value":"Oberpullendorf","key":"CountyName"}]},"MapReference":{"ReferenceId":"561127790","SideOfStreet":"neither","CountryId":"20128885","StateId":"20128890","CountyId":"20129281","CityId":"20129312","DistrictId":"20129314"}}},{"Relevance":1.0,"Distance":15.4,"MatchLevel":"houseNumber","MatchQuality":{"Country":1.0,"State":1.0,"County":1.0,"City":1.0,"District":1.0,"Street":[1.0],"HouseNumber":1.0,"PostalCode":1.0},"MatchType":"interpolated","Location":{"LocationId":"NT_nQh.lNelZz-M1ubETgqWNC_ykD","LocationType":"point","DisplayPosition":{"Latitude":47.58769,"Longitude":16.4676},"MapView":{"TopLeft":{"Latitude":47.5888142,"Longitude":16.4659333},"BottomRight":{"Latitude":47.5865658,"Longitude":16.4692667}},"Address":{"Label":"Schlossgasse 29, 7322 Lackenbach, Österreich","Country":"AUT","State":"Burgenland","County":"Oberpullendorf","City":"Lackenbach","District":"Lackenbach","Street":"Schlossgasse","HouseNumber":"29","PostalCode":"7322","AdditionalData":[{"value":"Österreich","key":"CountryName"},{"value":"Burgenland","key":"StateName"},{"value":"Oberpullendorf","key":"CountyName"}]},"MapReference":{"ReferenceId":"62790056","Spot":0.04,"SideOfStreet":"right","CountryId":"20128885","StateId":"20128890","CountyId":"20129281","CityId":"20129312","DistrictId":"20129314","AddressId":"160973400","RoadLinkId":"28166783"}}},{"Relevance":1.0,"Distance":27.5,"MatchLevel":"landmark","MatchQuality":{"Country":1.0,"State":1.0,"County":1.0,"City":1.0,"PostalCode":1.0,"Name":1.0},"Location":{"LocationId":"NT_Wm.i5UfByqhS0AGzKXnJvB","LocationType":"river","Name":"Selitzabach","DisplayPosition":{"Latitude":47.60465,"Longitude":16.45184},"MapView":{"TopLeft":{"Latitude":47.637,"Longitude":16.4382},"BottomRight":{"Latitude":47.5826,"Longitude":16.47976}},"Address":{"Label":"7322 Lackenbach, Österreich","Country":"AUT","State":"Burgenland","County":"Oberpullendorf","City":"Lackenbach","PostalCode":"7322","AdditionalData":[{"value":"Österreich","key":"CountryName"},{"value":"Burgenland","key":"StateName"},{"value":"Oberpullendorf","key":"CountyName"}]},"MapReference":{"CountryId":"20128885","StateId":"20128890","CountyId":"20129281","CityId":"20129312","PlaceId":"1446756002"}}},{"Relevance":1.0,"Distance":43.9,"MatchLevel":"houseNumber","MatchQuality":{"Country":1.0,"State":1.0,"County":1.0,"City":1.0,"District":1.0,"Street":[1.0],"HouseNumber":1.0,"PostalCode":1.0},"MatchType":"interpolated","Location":{"LocationId":"NT_GjpbgaGAgH3aTk8Sf.4eWB_l_62812949_R_1A","LocationType":"point","DisplayPosition":{"Latitude":47.587532,"Longitude":16.46764},"MapView":{"TopLeft":{"Latitude":47.5886562,"Longitude":16.4659733},"BottomRight":{"Latitude":47.5864079,"Longitude":16.4693067}},"Address":{"Label":"Schloss 5, 7322 Lackenbach, Österreich","Country":"AUT","State":"Burgenland","County":"Oberpullendorf","City":"Lackenbach","District":"Lackenbach","Street":"Schloss","HouseNumber":"5","PostalCode":"7322","AdditionalData":[{"value":"Österreich","key":"CountryName"},{"value":"Burgenland","key":"StateName"},{"value":"Oberpullendorf","key":"CountyName"}]},"MapReference":{"ReferenceId":"62812949","Spot":0.51,"SideOfStreet":"right","CountryId":"20128885","StateId":"20128890","CountyId":"20129281","CityId":"20129312","DistrictId":"20129314"}}},{"Relevance":1.0,"Distance":45.3,"MatchLevel":"houseNumber","MatchQuality":{"Country":1.0,"State":1.0,"County":1.0,"City":1.0,"District":1.0,"Street":[1.0],"HouseNumber":1.0,"PostalCode":1.0},"MatchType":"interpolated","Location":{"LocationId":"NT_nQh.lNelZz-M1ubETgqWNC_yED","LocationType":"point","DisplayPosition":{"Latitude":47.5879,"Longitude":16.4669},"MapView":{"TopLeft":{"Latitude":47.5890242,"Longitude":16.4652333},"BottomRight":{"Latitude":47.5867758,"Longitude":16.4685667}},"Address":{"Label":"Schlossgasse 21, 7322 Lackenbach, Österreich","Country":"AUT","State":"Burgenland","County":"Oberpullendorf","City":"Lackenbach","District":"Lackenbach","Street":"Schlossgasse","HouseNumber":"21","PostalCode":"7322","AdditionalData":[{"value":"Österreich","key":"CountryName"},{"value":"Burgenland","key":"StateName"},{"value":"Oberpullendorf","key":"CountyName"}]},"MapReference":{"ReferenceId":"62790057","Spot":0.0,"SideOfStreet":"right","CountryId":"20128885","StateId":"20128890","CountyId":"20129281","CityId":"20129312","DistrictId":"20129314","AddressId":"160919061","RoadLinkId":"28856479"}}},{"Relevance":1.0,"Distance":96.0,"MatchLevel":"houseNumber","MatchQuality":{"Country":1.0,"State":1.0,"County":1.0,"City":1.0,"District":1.0,"Street":[1.0],"HouseNumber":1.0,"PostalCode":1.0},"MatchType":"interpolated","Location":{"LocationId":"NT_mAyYcY4FU1XG2Hv8zwb1qA_xA","LocationType":"point","DisplayPosition":{"Latitude":47.58843,"Longitude":16.4686},"MapView":{"TopLeft":{"Latitude":47.5895542,"Longitude":16.4669332},"BottomRight":{"Latitude":47.5873058,"Longitude":16.4702668}},"Address":{"Label":"Bahnstraße 1, 7322 Lackenbach, Österreich","Country":"AUT","State":"Burgenland","County":"Oberpullendorf","City":"Lackenbach","District":"Lackenbach","Street":"Bahnstraße","HouseNumber":"1","PostalCode":"7322","AdditionalData":[{"value":"Österreich","key":"CountryName"},{"value":"Burgenland","key":"StateName"},{"value":"Oberpullendorf","key":"CountyName"}]},"MapReference":{"ReferenceId":"561127784","Spot":0.9,"SideOfStreet":"left","CountryId":"20128885","StateId":"20128890","CountyId":"20129281","CityId":"20129312","DistrictId":"20129314","AddressId":"813011128","RoadLinkId":"28812579"}}},{"Relevance":1.0,"Distance":110.7,"MatchLevel":"street","MatchQuality":{"Country":1.0,"State":1.0,"County":1.0,"City":1.0,"District":1.0,"Street":[1.0],"PostalCode":1.0},"Location":{"LocationId":"NT_mAyYcY4FU1XG2Hv8zwb1qA_l_561129973_L","LocationType":"point","DisplayPosition":{"Latitude":47.58852,"Longitude":16.46871},"MapView":{"TopLeft":{"Latitude":47.5887,"Longitude":16.46871},"BottomRight":{"Latitude":47.58852,"Longitude":16.46921}},"Address":{"Label":"Bahnstraße, 7322 Lackenbach, Österreich","Country":"AUT","State":"Burgenland","County":"Oberpullendorf","City":"Lackenbach","District":"Lackenbach","Street":"Bahnstraße","PostalCode":"7322","AdditionalData":[{"value":"Österreich","key":"CountryName"},{"value":"Burgenland","key":"StateName"},{"value":"Oberpullendorf","key":"CountyName"}]},"MapReference":{"ReferenceId":"561129973","Spot":0.0,"SideOfStreet":"left","CountryId":"20128885","StateId":"20128890","CountyId":"20129281","CityId":"20129312","DistrictId":"20129314"}}},{"Relevance":1.0,"Distance":120.5,"MatchLevel":"houseNumber","MatchQuality":{"Country":1.0,"State":1.0,"County":1.0,"City":1.0,"District":1.0,"Street":[1.0],"HouseNumber":1.0,"PostalCode":1.0},"MatchType":"interpolated","Location":{"LocationId":"NT_mAyYcY4FU1XG2Hv8zwb1qA_yA","LocationType":"point","DisplayPosition":{"Latitude":47.58872,"Longitude":16.4688},"MapView":{"TopLeft":{"Latitude":47.5898442,"Longitude":16.4671332},"BottomRight":{"Latitude":47.5875958,"Longitude":16.4704668}},"Address":{"Label":"Bahnstraße 2, 7322 Lackenbach, Österreich","Country":"AUT","State":"Burgenland","County":"Oberpullendorf","City":"Lackenbach","District":"Lackenbach","Street":"Bahnstraße","HouseNumber":"2","PostalCode":"7322","AdditionalData":[{"value":"Österreich","key":"CountryName"},{"value":"Burgenland","key":"StateName"},{"value":"Oberpullendorf","key":"CountyName"}]},"MapReference":{"ReferenceId":"561129969","Spot":0.34,"SideOfStreet":"left","CountryId":"20128885","StateId":"20128890","CountyId":"20129281","CityId":"20129312","DistrictId":"20129314","AddressId":"160969629","RoadLinkId":"28014998"}}},{"Relevance":1.0,"Distance":137.2,"MatchLevel":"houseNumber","MatchQuality":{"Country":1.0,"State":1.0,"County":1.0,"City":1.0,"District":1.0,"Street":[1.0],"HouseNumber":1.0,"PostalCode":1.0},"MatchType":"interpolated","Location":{"LocationId":"NT_sb6AnNMStTzVWxE36xVpNA_3A","LocationType":"point","DisplayPosition":{"Latitude":47.58885,"Longitude":16.46621},"MapView":{"TopLeft":{"Latitude":47.5899742,"Longitude":16.4645432},"BottomRight":{"Latitude":47.5877258,"Longitude":16.4678768}},"Address":{"Label":"Brunnengasse 7, 7322 Lackenbach, Österreich","Country":"AUT","State":"Burgenland","County":"Oberpullendorf","City":"Lackenbach","District":"Lackenbach","Street":"Brunnengasse","HouseNumber":"7","PostalCode":"7322","AdditionalData":[{"value":"Österreich","key":"CountryName"},{"value":"Burgenland","key":"StateName"},{"value":"Oberpullendorf","key":"CountyName"}]},"MapReference":{"ReferenceId":"561129983","Spot":0.4,"SideOfStreet":"right","CountryId":"20128885","StateId":"20128890","CountyId":"20129281","CityId":"20129312","DistrictId":"20129314","AddressId":"160925353","RoadLinkId":"28260180"}}},{"Relevance":1.0,"Distance":147.6,"MatchLevel":"houseNumber","MatchQuality":{"Country":1.0,"State":1.0,"County":1.0,"City":1.0,"District":1.0,"Street":[1.0],"HouseNumber":1.0,"PostalCode":1.0},"MatchType":"interpolated","Location":{"LocationId":"NT_nQh.lNelZz-M1ubETgqWNC_zA","LocationType":"point","DisplayPosition":{"Latitude":47.58852,"Longitude":16.46566},"MapView":{"TopLeft":{"Latitude":47.5896442,"Longitude":16.4639932},"BottomRight":{"Latitude":47.5873958,"Longitude":16.4673268}},"Address":{"Label":"Schlossgasse 3, 7322 Lackenbach, Österreich","Country":"AUT","State":"Burgenland","County":"Oberpullendorf","City":"Lackenbach","District":"Lackenbach","Street":"Schlossgasse","HouseNumber":"3","PostalCode":"7322","AdditionalData":[{"value":"Österreich","key":"CountryName"},{"value":"Burgenland","key":"StateName"},{"value":"Oberpullendorf","key":"CountyName"}]},"MapReference":{"ReferenceId":"1104647124","Spot":0.41,"SideOfStreet":"right","CountryId":"20128885","StateId":"20128890","CountyId":"20129281","CityId":"20129312","DistrictId":"20129314","AddressId":"160973321","RoadLinkId":"416451578"}}}]}]}}