{"Response":{"MetaInfo":{"Timestamp":"2020-03-28T11:35:06.667+0000","NextPageInformation":"2"},"View":[{"_type":"SearchResultsViewType","ViewId":0,"Result":[{"Relevance":1.0,"Distance":0.0,"Direction":0.0,"MatchLevel":"district","MatchQuality":{"Country":1.0,"County":1.0,"City":1.0,"District":1.0,"PostalCode":1.0},"Location":{"LocationId":"NT_jUVf2rd6DxZVGpr5lx3MOC","LocationType":"point","DisplayPosition":{"Latitude":47.5319255,"Longitude":25.5433451},"MapView":{"TopLeft":{"Latitude":47.54226,"Longitude":25.51626},"BottomRight":{"Latitude":47.51148,"Longitude":25.60248}},"Address":{"Label":"Câmpulung Moldovenesc, România","Country":"ROU","County":"Suceava","City":"Câmpulung Moldovenesc","District":"Câmpulung Moldovenesc","PostalCode":"725100","AdditionalData":[{"value":"România","key":"CountryName"},{"value":"Suceava","key":"CountyName"}]},"MapReference":{"ReferenceId":"837111850","SideOfStreet":"neither","CountryId":"20656215","CountyId":"20662478","CityId":"23765673","DistrictId":"23769412"}}},{"Relevance":1.0,"Distance":42.8,"MatchLevel":"houseNumber","MatchQuality":{"Country":1.0,"County":1.0,"City":1.0,"District":1.0,"Street":[1.0],"HouseNumber":1.0,"PostalCode":1.0},"MatchType":"interpolated","Location":{"LocationId":"NT_4-kSi3of3VxDf3yITZMQID_yIE","LocationType":"point","DisplayPosition":{"Latitude":47.53153,"Longitude":25.54321},"MapView":{"TopLeft":{"Latitude":47.5326542,"Longitude":25.541545},"BottomRight":{"Latitude":47.5304058,"Longitude":25.544875}},"Address":{"Label":"Strada Războieni 2B, 725100 Câmpulung Moldovenesc, România","Country":"ROU","County":"Suceava","City":"Câmpulung Moldovenesc","District":"Câmpulung Moldovenesc","Street":"Strada Războieni","HouseNumber":"2B","PostalCode":"725100","AdditionalData":[{"value":"România","key":"CountryName"},{"value":"Suceava","key":"CountyName"}]},"MapReference":{"ReferenceId":"837111844","Spot":0.29,"SideOfStreet":"right","CountryId":"20656215","CountyId":"20662478","CityId":"23765673","DistrictId":"23769412","AddressId":"686995309","RoadLinkId":"220144205"}}},{"Relevance":1.0,"Distance":59.6,"MatchLevel":"houseNumber","MatchQuality":{"Country":1.0,"County":1.0,"City":1.0,"District":1.0,"Street":[1.0],"HouseNumber":1.0,"PostalCode":1.0},"MatchType":"interpolated","Location":{"LocationId":"NT_CsvOvH0mlfkTO6ZPIwuX6A_yA","LocationType":"point","DisplayPosition":{"Latitude":47.53131,"Longitude":25.54412},"MapView":{"TopLeft":{"Latitude":47.5324342,"Longitude":25.5424551},"BottomRight":{"Latitude":47.5301858,"Longitude":25.5457849}},"Address":{"Label":"Strada Dragoș Vodă 2, 725100 Câmpulung Moldovenesc, România","Country":"ROU","County":"Suceava","City":"Câmpulung Moldovenesc","District":"Câmpulung Moldovenesc","Street":"Strada Dragoș Vodă","HouseNumber":"2","PostalCode":"725100","AdditionalData":[{"value":"România","key":"CountryName"},{"value":"Suceava","key":"CountyName"}]},"MapReference":{"ReferenceId":"837111845","Spot":0.01,"SideOfStreet":"left","CountryId":"20656215","CountyId":"20662478","CityId":"23765673","DistrictId":"23769412","AddressId":"686996386","RoadLinkId":"220144213"}}},{"Relevance":1.0,"Distance":114.9,"MatchLevel":"houseNumber","MatchQuality":{"Country":1.0,"County":1.0,"City":1.0,"District":1.0,"Street":[1.0],"HouseNumber":1.0,"PostalCode":1.0},"MatchType":"interpolated","Location":{"LocationId":"NT_t98nsK3FZQuwgJsF34HlGB_yUD","LocationType":"point","DisplayPosition":{"Latitude":47.53298,"Longitude":25.54356},"MapView":{"TopLeft":{"Latitude":47.5341042,"Longitude":25.541895},"BottomRight":{"Latitude":47.5318558,"Longitude":25.545225}},"Address":{"Label":"Strada Sirenei 25, 725100 Câmpulung Moldovenesc, România","Country":"ROU","County":"Suceava","City":"Câmpulung Moldovenesc","District":"Câmpulung Moldovenesc","Street":"Strada Sirenei","HouseNumber":"25","PostalCode":"725100","AdditionalData":[{"value":"România","key":"CountryName"},{"value":"Suceava","key":"CountyName"}]},"MapReference":{"ReferenceId":"837111812","Spot":0.39,"SideOfStreet":"left","CountryId":"20656215","CountyId":"20662478","CityId":"23765673","DistrictId":"23769412","AddressId":"686995418","RoadLinkId":"220144094"}}},{"Relevance":1.0,"Distance":138.3,"MatchLevel":"houseNumber","MatchQuality":{"Country":1.0,"County":1.0,"City":1.0,"District":1.0,"Street":[1.0],"HouseNumber":1.0,"PostalCode":1.0},"MatchType":"interpolated","Location":{"LocationId":"NT_TfJlk0ilHq7-V.ngqTE1XD_yA","LocationType":"point","DisplayPosition":{"Latitude":47.53093,"Longitude":25.54445},"MapView":{"TopLeft":{"Latitude":47.5320542,"Longitude":25.5427851},"BottomRight":{"Latitude":47.5298058,"Longitude":25.5461149}},"Address":{"Label":"Strada Petru Rareș 2, 725100 Câmpulung Moldovenesc, România","Country":"ROU","County":"Suceava","City":"Câmpulung Moldovenesc","District":"Câmpulung Moldovenesc","Street":"Strada Petru Rareș","HouseNumber":"2","PostalCode":"725100","AdditionalData":[{"value":"România","key":"CountryName"},{"value":"Suceava","key":"CountyName"}]},"MapReference":{"ReferenceId":"837111846","Spot":0.7,"SideOfStreet":"left","CountryId":"20656215","CountyId":"20662478","CityId":"23765673","DistrictId":"23769412","AddressId":"686996372","RoadLinkId":"220144211"}}},{"Relevance":1.0,"Distance":161.5,"MatchLevel":"houseNumber","MatchQuality":{"Country":1.0,"County":1.0,"City":1.0,"District":1.0,"Street":[1.0],"HouseNumber":1.0,"PostalCode":1.0},"MatchType":"interpolated","Location":{"LocationId":"NT_t98nsK3FZQuwgJsF34HlGB_yMD","LocationType":"point","DisplayPosition":{"Latitude":47.53262,"Longitude":25.54525},"MapView":{"TopLeft":{"Latitude":47.5337442,"Longitude":25.543585},"BottomRight":{"Latitude":47.5314958,"Longitude":25.546915}},"Address":{"Label":"Strada Sirenei 23, 725100 Câmpulung Moldovenesc, România","Country":"ROU","County":"Suceava","City":"Câmpulung Moldovenesc","District":"Câmpulung Moldovenesc","Street":"Strada Sirenei","HouseNumber":"23","PostalCode":"725100","AdditionalData":[{"value":"România","key":"CountryName"},{"value":"Suceava","key":"CountyName"}]},"MapReference":{"ReferenceId":"837111813","Spot":0.84,"SideOfStreet":"left","CountryId":"20656215","CountyId":"20662478","CityId":"23765673","DistrictId":"23769412","AddressId":"686995355","RoadLinkId":"220144095"}}},{"Relevance":1.0,"Distance":161.7,"MatchLevel":"street","MatchQuality":{"Country":1.0,"County":1.0,"City":1.0,"District":1.0,"Street":[1.0],"PostalCode":1.0},"Location":{"LocationId":"NT_pHvEH064SXOY6.SPgsXluA_l_838071275_R","LocationType":"point","DisplayPosition":{"Latitude":47.5316525,"Longitude":25.5412294},"MapView":{"TopLeft":{"Latitude":47.53212,"Longitude":25.54107},"BottomRight":{"Latitude":47.52785,"Longitude":25.54618}},"Address":{"Label":"Strada Constantin Grămadă, 725100 Câmpulung Moldovenesc, România","Country":"ROU","County":"Suceava","City":"Câmpulung Moldovenesc","District":"Câmpulung Moldovenesc","Street":"Strada Constantin Grămadă","PostalCode":"725100","AdditionalData":[{"value":"România","key":"CountryName"},{"value":"Suceava","key":"CountyName"}]},"MapReference":{"ReferenceId":"838071275","Spot":0.93,"SideOfStreet":"right","CountryId":"20656215","CountyId":"20662478","CityId":"23765673","DistrictId":"23769412"}}},{"Relevance":1.0,"Distance":172.2,"MatchLevel":"street","MatchQuality":{"Country":1.0,"County":1.0,"City":1.0,"District":1.0,"Street":[1.0],"PostalCode":1.0},"Location":{"LocationId":"NT_pHvEH064SXOY6.SPgsXluA_l_837111843_R","LocationType":"point","DisplayPosition":{"Latitude":47.53212,"Longitude":25.54107},"MapView":{"TopLeft":{"Latitude":47.53317,"Longitude":25.54099},"BottomRight":{"Latitude":47.53212,"Longitude":25.54124}},"Address":{"Label":"Strada Constantin Grămadă, 725100 Câmpulung Moldovenesc, România","Country":"ROU","County":"Suceava","City":"Câmpulung Moldovenesc","District":"Câmpulung Moldovenesc","Street":"Strada Constantin Grămadă","PostalCode":"725100","AdditionalData":[{"value":"România","key":"CountryName"},{"value":"Suceava","key":"CountyName"}]},"MapReference":{"ReferenceId":"837111843","Spot":0.0,"SideOfStreet":"right","CountryId":"20656215","CountyId":"20662478","CityId":"23765673","DistrictId":"23769412"}}},{"Relevance":1.0,"Distance":214.2,"MatchLevel":"houseNumber","MatchQuality":{"Country":1.0,"County":1.0,"City":1.0,"District":1.0,"Street":[1.0],"HouseNumber":1.0,"PostalCode":1.0},"MatchType":"interpolated","Location":{"LocationId":"NT_OBjqdKvao5KbJrx6XhnGBA_3A","LocationType":"point","DisplayPosition":{"Latitude":47.53388,"Longitude":25.543},"MapView":{"TopLeft":{"Latitude":47.5350042,"Longitude":25.541335},"BottomRight":{"Latitude":47.5327558,"Longitude":25.544665}},"Address":{"Label":"Strada Vasile Alecsandri 7, 725100 Câmpulung Moldovenesc, România","Country":"ROU","County":"Suceava","City":"Câmpulung Moldovenesc","District":"Câmpulung Moldovenesc","Street":"Strada Vasile Alecsandri","HouseNumber":"7","PostalCode":"725100","AdditionalData":[{"value":"România","key":"CountryName"},{"value":"Suceava","key":"CountyName"}]},"MapReference":{"ReferenceId":"837111808","Spot":0.09,"SideOfStreet":"left","CountryId":"20656215","CountyId":"20662478","CityId":"23765673","DistrictId":"23769412","AddressId":"686995447","RoadLinkId":"220144281"}}},{"Relevance":1.0,"Distance":230.1,"MatchLevel":"street","MatchQuality":{"Country":1.0,"County":1.0,"City":1.0,"District":1.0,"PostalCode":1.0},"Location":{"LocationId":"NT_lJPlHnQ-WhNNJjT5-0oAxA_l_801445253_R","LocationType":"point","DisplayPosition":{"Latitude":47.53399,"Longitude":25.54313},"MapView":{"TopLeft":{"Latitude":47.53454,"Longitude":25.54313},"BottomRight":{"Latitude":47.53399,"Longitude":25.54338}},"Address":{"Label":"725100 Câmpulung Moldovenesc, România","Country":"ROU","County":"Suceava","City":"Câmpulung Moldovenesc","District":"Câmpulung Moldovenesc","PostalCode":"725100","AdditionalData":[{"value":"România","key":"CountryName"},{"value":"Suceava","key":"CountyName"}]},"MapReference":{"ReferenceId":"801445253","Spot":0.0,"SideOfStreet":"right","CountryId":"20656215","CountyId":"20662478","CityId":"23765673","DistrictId":"23769412"}}}]}]}}