{"Response":{"MetaInfo":{"Timestamp":"2020-03-28T09:54:54.855+0000","NextPageInformation":"2"},"View":[{"_type":"SearchResultsViewType","ViewId":0,"Result":[{"Relevance":1.0,"Distance":0.0,"Direction":0.0,"MatchLevel":"district","MatchQuality":{"Country":1.0,"State":1.0,"County":1.0,"City":1.0,"District":1.0,"PostalCode":1.0},"Location":{"LocationId":"NT_rLeOgWJf-KEe6VCOaVkEUD","LocationType":"point","DisplayPosition":{"Latitude":47.6666151,"Longitude":19.0740212},"MapView":{"TopLeft":{"Latitude":47.7118,"Longitude":19.02963},"BottomRight":{"Latitude":47.63968,"Longitude":19.08955}},"Address":{"Label":"Szentendre, Pest, Magyarország","Country":"HUN","State":"Pest","County":"Szentendrei Járás","City":"Szentendre","District":"Szentendre","PostalCode":"2000","AdditionalData":[{"value":"Magyarország","key":"CountryName"},{"value":"Pest","key":"StateName"},{"value":"Szentendrei Járás","key":"CountyName"}]},"MapReference":{"ReferenceId":"598259592","SideOfStreet":"neither","CountryId":"20613038","StateId":"20619051","CountyId":"26678472","CityId":"20619477","DistrictId":"26678569"}}},{"Relevance":1.0,"Distance":7.8,"MatchLevel":"houseNumber","MatchQuality":{"Country":1.0,"State":1.0,"County":1.0,"City":1.0,"District":1.0,"Street":[1.0],"HouseNumber":1.0,"PostalCode":1.0},"MatchType":"interpolated","Location":{"LocationId":"NT_mCvehi3irMSkHbPEr7XLJA_l_598097276_L_2A","LocationType":"point","DisplayPosition":{"Latitude":47.666615,"Longitude":19.074125},"MapView":{"TopLeft":{"Latitude":47.6677392,"Longitude":19.0724557},"BottomRight":{"Latitude":47.6654909,"Longitude":19.0757943}},"Address":{"Label":"Kanonok utca 6, Szentendre 2000, Magyarország","Country":"HUN","State":"Pest","County":"Szentendrei Járás","City":"Szentendre","District":"Szentendre","Street":"Kanonok utca","HouseNumber":"6","PostalCode":"2000","AdditionalData":[{"value":"Magyarország","key":"CountryName"},{"value":"Pest","key":"StateName"},{"value":"Szentendrei Járás","key":"CountyName"}]},"MapReference":{"ReferenceId":"598097276","Spot":0.5,"SideOfStreet":"left","CountryId":"20613038","StateId":"20619051","CountyId":"26678472","CityId":"20619477","DistrictId":"26678569"}}},{"Relevance":1.0,"Distance":8.4,"MatchLevel":"houseNumber","MatchQuality":{"Country":1.0,"State":1.0,"County":1.0,"City":1.0,"District":1.0,"Street":[1.0],"HouseNumber":1.0,"PostalCode":1.0},"MatchType":"interpolated","Location":{"LocationId":"NT_GxOdNrVyM3yi8Ewtnd0bYD_ycD","LocationType":"point","DisplayPosition":{"Latitude":47.66661,"Longitude":19.0739},"MapView":{"TopLeft":{"Latitude":47.6677342,"Longitude":19.0722307},"BottomRight":{"Latitude":47.6654858,"Longitude":19.0755693}},"Address":{"Label":"Bükkös part 27, Szentendre 2000, Magyarország","Country":"HUN","State":"Pest","County":"Szentendrei Járás","City":"Szentendre","District":"Szentendre","Street":"Bükkös part","HouseNumber":"27","PostalCode":"2000","AdditionalData":[{"value":"Magyarország","key":"CountryName"},{"value":"Pest","key":"StateName"},{"value":"Szentendrei Járás","key":"CountyName"}]},"MapReference":{"ReferenceId":"598097277","Spot":0.11,"SideOfStreet":"right","CountryId":"20613038","StateId":"20619051","CountyId":"26678472","CityId":"20619477","DistrictId":"26678569","AddressId":"356221840","RoadLinkId":"60819395"}}},{"Relevance":1.0,"Distance":12.9,"MatchLevel":"street","MatchQuality":{"Country":1.0,"State":1.0,"County":1.0,"City":1.0,"District":1.0,"PostalCode":1.0},"Location":{"LocationId":"NT_S-Qj-RP7izLhQ0vms8tk.C_l_859265999_L","LocationType":"point","DisplayPosition":{"Latitude":47.6665,"Longitude":19.07404},"MapView":{"TopLeft":{"Latitude":47.6665,"Longitude":19.07382},"BottomRight":{"Latitude":47.66632,"Longitude":19.07404}},"Address":{"Label":"Szentendre 2000, Magyarország","Country":"HUN","State":"Pest","County":"Szentendrei Járás","City":"Szentendre","District":"Szentendre","PostalCode":"2000","AdditionalData":[{"value":"Magyarország","key":"CountryName"},{"value":"Pest","key":"StateName"},{"value":"Szentendrei Járás","key":"CountyName"}]},"MapReference":{"ReferenceId":"859265999","Spot":1.0,"SideOfStreet":"left","CountryId":"20613038","StateId":"20619051","CountyId":"26678472","CityId":"20619477","DistrictId":"26678569"}}},{"Relevance":1.0,"Distance":15.3,"MatchLevel":"houseNumber","MatchQuality":{"Country":1.0,"State":1.0,"County":1.0,"City":1.0,"District":1.0,"Street":[1.0],"HouseNumber":1.0,"PostalCode":1.0},"MatchType":"interpolated","Location":{"LocationId":"NT_GxOdNrVyM3yi8Ewtnd0bYD_yUD","LocationType":"point","DisplayPosition":{"Latitude":47.66648,"Longitude":19.07406},"MapView":{"TopLeft":{"Latitude":47.6676042,"Longitude":19.0723907},"BottomRight":{"Latitude":47.6653558,"Longitude":19.0757293}},"Address":{"Label":"Bükkös part 25, Szentendre 2000, Magyarország","Country":"HUN","State":"Pest","County":"Szentendrei Járás","City":"Szentendre","District":"Szentendre","Street":"Bükkös part","HouseNumber":"25","PostalCode":"2000","AdditionalData":[{"value":"Magyarország","key":"CountryName"},{"value":"Pest","key":"StateName"},{"value":"Szentendrei Járás","key":"CountyName"}]},"MapReference":{"ReferenceId":"598097323","Spot":0.93,"SideOfStreet":"right","CountryId":"20613038","StateId":"20619051","CountyId":"26678472","CityId":"20619477","DistrictId":"26678569","AddressId":"357021914","RoadLinkId":"60589946"}}},{"Relevance":1.0,"Distance":37.1,"MatchLevel":"houseNumber","MatchQuality":{"Country":1.0,"State":1.0,"County":1.0,"City":1.0,"District":1.0,"Street":[1.0],"HouseNumber":1.0,"PostalCode":1.0},"MatchType":"interpolated","Location":{"LocationId":"NT_GxOdNrVyM3yi8Ewtnd0bYD_ygD","LocationType":"point","DisplayPosition":{"Latitude":47.66642,"Longitude":19.07362},"MapView":{"TopLeft":{"Latitude":47.6675442,"Longitude":19.0719507},"BottomRight":{"Latitude":47.6652958,"Longitude":19.0752893}},"Address":{"Label":"Bükkös part 28, Szentendre 2000, Magyarország","Country":"HUN","State":"Pest","County":"Szentendrei Járás","City":"Szentendre","District":"Szentendre","Street":"Bükkös part","HouseNumber":"28","PostalCode":"2000","AdditionalData":[{"value":"Magyarország","key":"CountryName"},{"value":"Pest","key":"StateName"},{"value":"Szentendrei Járás","key":"CountyName"}]},"MapReference":{"ReferenceId":"859265998","Spot":0.5,"SideOfStreet":"left","CountryId":"20613038","StateId":"20619051","CountyId":"26678472","CityId":"20619477","DistrictId":"26678569","AddressId":"355516394","RoadLinkId":"234952654"}}},{"Relevance":1.0,"Distance":40.7,"MatchLevel":"houseNumber","MatchQuality":{"Country":1.0,"State":1.0,"County":1.0,"City":1.0,"District":1.0,"Street":[1.0],"HouseNumber":1.0,"PostalCode":1.0},"MatchType":"interpolated","Location":{"LocationId":"NT_GxOdNrVyM3yi8Ewtnd0bYD_l_598097261_R_yMD","LocationType":"point","DisplayPosition":{"Latitude":47.66652,"Longitude":19.07342},"MapView":{"TopLeft":{"Latitude":47.6676442,"Longitude":19.0717507},"BottomRight":{"Latitude":47.6653959,"Longitude":19.0750892}},"Address":{"Label":"Bükkös part 23, Szentendre 2000, Magyarország","Country":"HUN","State":"Pest","County":"Szentendrei Járás","City":"Szentendre","District":"Szentendre","Street":"Bükkös part","HouseNumber":"23","PostalCode":"2000","AdditionalData":[{"value":"Magyarország","key":"CountryName"},{"value":"Pest","key":"StateName"},{"value":"Szentendrei Járás","key":"CountyName"}]},"MapReference":{"ReferenceId":"598097261","Spot":0.0,"SideOfStreet":"right","CountryId":"20613038","StateId":"20619051","CountyId":"26678472","CityId":"20619477","DistrictId":"26678569"}}},{"Relevance":1.0,"Distance":43.4,"MatchLevel":"houseNumber","MatchQuality":{"Country":1.0,"State":1.0,"County":1.0,"City":1.0,"District":1.0,"Street":[1.0],"HouseNumber":1.0,"PostalCode":1.0},"MatchType":"interpolated","Location":{"LocationId":"NT_g5-MZnurT3EMh8e.JSza7C_1A","LocationType":"point","DisplayPosition":{"Latitude":47.66676,"Longitude":19.07456},"MapView":{"TopLeft":{"Latitude":47.6678842,"Longitude":19.0728907},"BottomRight":{"Latitude":47.6656358,"Longitude":19.0762293}},"Address":{"Label":"Janicsár utca 5, Szentendre 2000, Magyarország","Country":"HUN","State":"Pest","County":"Szentendrei Járás","City":"Szentendre","District":"Szentendre","Street":"Janicsár utca","HouseNumber":"5","PostalCode":"2000","AdditionalData":[{"value":"Magyarország","key":"CountryName"},{"value":"Pest","key":"StateName"},{"value":"Szentendrei Járás","key":"CountyName"}]},"MapReference":{"ReferenceId":"598097233","Spot":0.51,"SideOfStreet":"right","CountryId":"20613038","StateId":"20619051","CountyId":"26678472","CityId":"20619477","DistrictId":"26678569","AddressId":"357358962","RoadLinkId":"60560143"}}},{"Relevance":1.0,"Distance":45.2,"MatchLevel":"houseNumber","MatchQuality":{"Country":1.0,"State":1.0,"County":1.0,"City":1.0,"District":1.0,"Street":[1.0],"HouseNumber":1.0,"PostalCode":1.0},"MatchType":"interpolated","Location":{"LocationId":"NT_WFoFFxkmO6VWWEgeXvxY4C_yA","LocationType":"point","DisplayPosition":{"Latitude":47.66647,"Longitude":19.07337},"MapView":{"TopLeft":{"Latitude":47.6675942,"Longitude":19.0717007},"BottomRight":{"Latitude":47.6653458,"Longitude":19.0750393}},"Address":{"Label":"Sánc köz 2, Szentendre 2000, Magyarország","Country":"HUN","State":"Pest","County":"Szentendrei Járás","City":"Szentendre","District":"Szentendre","Street":"Sánc köz","HouseNumber":"2","PostalCode":"2000","AdditionalData":[{"value":"Magyarország","key":"CountryName"},{"value":"Pest","key":"StateName"},{"value":"Szentendrei Járás","key":"CountyName"}]},"MapReference":{"ReferenceId":"598097359","Spot":0.91,"SideOfStreet":"right","CountryId":"20613038","StateId":"20619051","CountyId":"26678472","CityId":"20619477","DistrictId":"26678569","AddressId":"357153540","RoadLinkId":"60769091"}}},{"Relevance":1.0,"Distance":50.6,"MatchLevel":"houseNumber","MatchQuality":{"Country":1.0,"State":1.0,"County":1.0,"City":1.0,"District":1.0,"Street":[1.0],"HouseNumber":1.0,"PostalCode":1.0},"MatchType":"interpolated","Location":{"LocationId":"NT_y0FQK7hlOMLMLKjlDkuytC_yA","LocationType":"point","DisplayPosition":{"Latitude":47.66623,"Longitude":19.0746},"MapView":{"TopLeft":{"Latitude":47.6673542,"Longitude":19.0729308},"BottomRight":{"Latitude":47.6651058,"Longitude":19.0762692}},"Address":{"Label":"Vak Bottyán utca 2, Szentendre 2000, Magyarország","Country":"HUN","State":"Pest","County":"Szentendrei Járás","City":"Szentendre","District":"Szentendre","Street":"Vak Bottyán utca","HouseNumber":"2","PostalCode":"2000","AdditionalData":[{"value":"Magyarország","key":"CountryName"},{"value":"Pest","key":"StateName"},{"value":"Szentendrei Járás","key":"CountyName"}]},"MapReference":{"ReferenceId":"598097322","Spot":0.45,"SideOfStreet":"left","CountryId":"20613038","StateId":"20619051","CountyId":"26678472","CityId":"20619477","DistrictId":"26678569","AddressId":"356296711","RoadLinkId":"60751186"}}}]}]}}