{"Response":{"MetaInfo":{"Timestamp":"2020-03-28T10:57:27.574+0000","NextPageInformation":"2"},"View":[{"_type":"SearchResultsViewType","ViewId":0,"Result":[{"Relevance":1.0,"Distance":0.0,"Direction":0.0,"MatchLevel":"city","MatchQuality":{"Country":1.0,"State":1.0,"County":1.0,"City":1.0,"PostalCode":1.0},"Location":{"LocationId":"NT_36mnSVJAUPEaSwYvMYWo5A","LocationType":"point","DisplayPosition":{"Latitude":47.6907874,"Longitude":8.7660203},"MapView":{"TopLeft":{"Latitude":47.7164,"Longitude":8.72664},"BottomRight":{"Latitude":47.67493,"Longitude":8.80913}},"Address":{"Label":"Gailingen am Hochrhein, Baden-Württemberg, Deutschland","Country":"DEU","State":"Baden-Württemberg","County":"Konstanz","City":"Gailingen am Hochrhein","PostalCode":"78262","AdditionalData":[{"value":"Deutschland","key":"CountryName"},{"value":"Baden-Württemberg","key":"StateName"},{"value":"Konstanz","key":"CountyName"}]},"MapReference":{"ReferenceId":"76841299","SideOfStreet":"neither","CountryId":"20147700","StateId":"20171489","CountyId":"20175328","CityId":"20175367"}}},{"Relevance":1.0,"Distance":2.6,"MatchLevel":"street","MatchQuality":{"Country":1.0,"State":1.0,"County":1.0,"City":1.0,"Street":[1.0],"PostalCode":1.0},"Location":{"LocationId":"NT_f7VP6z9bnh1X.Qsmc45M.A_l_72785501_L","LocationType":"point","DisplayPosition":{"Latitude":47.6908037,"Longitude":8.7659958},"MapView":{"TopLeft":{"Latitude":47.69171,"Longitude":8.76598},"BottomRight":{"Latitude":47.69078,"Longitude":8.7666}},"Address":{"Label":"Jugendwerk, 78262 Gailingen am Hochrhein, Deutschland","Country":"DEU","State":"Baden-Württemberg","County":"Konstanz","City":"Gailingen am Hochrhein","Street":"Jugendwerk","PostalCode":"78262","AdditionalData":[{"value":"Deutschland","key":"CountryName"},{"value":"Baden-Württemberg","key":"StateName"},{"value":"Konstanz","key":"CountyName"}]},"MapReference":{"ReferenceId":"72785501","Spot":0.03,"SideOfStreet":"neither","CountryId":"20147700","StateId":"20171489","CountyId":"20175328","CityId":"20175367"}}},{"Relevance":1.0,"Distance":3.1,"MatchLevel":"street","MatchQuality":{"Country":1.0,"State":1.0,"County":1.0,"City":1.0,"Street":[1.0],"PostalCode":1.0},"Location":{"LocationId":"NT_cHYIxBA10G01ywOqL9OsmB_l_778881353_R","LocationType":"point","DisplayPosition":{"Latitude":47.69078,"Longitude":8.76598},"MapView":{"TopLeft":{"Latitude":47.69184,"Longitude":8.764},"BottomRight":{"Latitude":47.69078,"Longitude":8.76598}},"Address":{"Label":"Kapellenstraße, 78262 Gailingen am Hochrhein, Deutschland","Country":"DEU","State":"Baden-Württemberg","County":"Konstanz","City":"Gailingen am Hochrhein","Street":"Kapellenstraße","PostalCode":"78262","AdditionalData":[{"value":"Deutschland","key":"CountryName"},{"value":"Baden-Württemberg","key":"StateName"},{"value":"Konstanz","key":"CountyName"}]},"MapReference":{"ReferenceId":"778881353","Spot":0.0,"SideOfStreet":"right","CountryId":"20147700","StateId":"20171489","CountyId":"20175328","CityId":"20175367"}}},{"Relevance":1.0,"Distance":111.4,"MatchLevel":"street","MatchQuality":{"Country":1.0,"State":1.0,"County":1.0,"City":1.0,"Street":[1.0],"PostalCode":1.0},"Location":{"LocationId":"NT_f7VP6z9bnh1X.Qsmc45M.A_l_1223041968_L","LocationType":"point","DisplayPosition":{"Latitude":47.69171,"Longitude":8.7666},"MapView":{"TopLeft":{"Latitude":47.69171,"Longitude":8.7666},"BottomRight":{"Latitude":47.69152,"Longitude":8.76717}},"Address":{"Label":"Jugendwerk, 78262 Gailingen am Hochrhein, Deutschland","Country":"DEU","State":"Baden-Württemberg","County":"Konstanz","City":"Gailingen am Hochrhein","Street":"Jugendwerk","PostalCode":"78262","AdditionalData":[{"value":"Deutschland","key":"CountryName"},{"value":"Baden-Württemberg","key":"StateName"},{"value":"Konstanz","key":"CountyName"}]},"MapReference":{"ReferenceId":"1223041968","Spot":1.0,"SideOfStreet":"left","CountryId":"20147700","StateId":"20171489","CountyId":"20175328","CityId":"20175367"}}},{"Relevance":1.0,"Distance":114.9,"MatchLevel":"houseNumber","MatchQuality":{"Country":1.0,"State":1.0,"County":1.0,"City":1.0,"Street":[1.0],"HouseNumber":1.0,"PostalCode":1.0},"MatchType":"interpolated","Location":{"LocationId":"NT_cHYIxBA10G01ywOqL9OsmB_zED","LocationType":"point","DisplayPosition":{"Latitude":47.69004,"Longitude":8.76708},"MapView":{"TopLeft":{"Latitude":47.6911642,"Longitude":8.76541},"BottomRight":{"Latitude":47.6889158,"Longitude":8.76875}},"Address":{"Label":"Kapellenstraße 31, 78262 Gailingen am Hochrhein, Deutschland","Country":"DEU","State":"Baden-Württemberg","County":"Konstanz","City":"Gailingen am Hochrhein","Street":"Kapellenstraße","HouseNumber":"31","PostalCode":"78262","AdditionalData":[{"value":"Deutschland","key":"CountryName"},{"value":"Baden-Württemberg","key":"StateName"},{"value":"Konstanz","key":"CountyName"}]},"MapReference":{"ReferenceId":"72785460","Spot":0.6,"SideOfStreet":"right","CountryId":"20147700","StateId":"20171489","CountyId":"20175328","CityId":"20175367","AddressId":"178061312","RoadLinkId":"38931745"}}},{"Relevance":1.0,"Distance":118.5,"MatchLevel":"street","MatchQuality":{"Country":1.0,"State":1.0,"County":1.0,"City":1.0,"Street":[1.0],"PostalCode":1.0},"Location":{"LocationId":"NT_f7VP6z9bnh1X.Qsmc45M.A_l_1223041967_L","LocationType":"point","DisplayPosition":{"Latitude":47.69152,"Longitude":8.76717},"MapView":{"TopLeft":{"Latitude":47.69152,"Longitude":8.76717},"BottomRight":{"Latitude":47.69068,"Longitude":8.76982}},"Address":{"Label":"Jugendwerk, 78262 Gailingen am Hochrhein, Deutschland","Country":"DEU","State":"Baden-Württemberg","County":"Konstanz","City":"Gailingen am Hochrhein","Street":"Jugendwerk","PostalCode":"78262","AdditionalData":[{"value":"Deutschland","key":"CountryName"},{"value":"Baden-Württemberg","key":"StateName"},{"value":"Konstanz","key":"CountyName"}]},"MapReference":{"ReferenceId":"1223041967","Spot":1.0,"SideOfStreet":"left","CountryId":"20147700","StateId":"20171489","CountyId":"20175328","CityId":"20175367"}}},{"Relevance":1.0,"Distance":118.5,"MatchLevel":"street","MatchQuality":{"Country":1.0,"State":1.0,"County":1.0,"City":1.0,"PostalCode":1.0},"Location":{"LocationId":"NT_vr1S6LQh8QnM2718naj8BC_l_1223049498_L","LocationType":"point","DisplayPosition":{"Latitude":47.69152,"Longitude":8.76717},"MapView":{"TopLeft":{"Latitude":47.69232,"Longitude":8.76717},"BottomRight":{"Latitude":47.69152,"Longitude":8.7704}},"Address":{"Label":"78262 Gailingen am Hochrhein, Deutschland","Country":"DEU","State":"Baden-Württemberg","County":"Konstanz","City":"Gailingen am Hochrhein","PostalCode":"78262","AdditionalData":[{"value":"Deutschland","key":"CountryName"},{"value":"Baden-Württemberg","key":"StateName"},{"value":"Konstanz","key":"CountyName"}]},"MapReference":{"ReferenceId":"1223049498","Spot":0.0,"SideOfStreet":"left","CountryId":"20147700","StateId":"20171489","CountyId":"20175328","CityId":"20175367"}}},{"Relevance":1.0,"Distance":142.0,"MatchLevel":"street","MatchQuality":{"Country":1.0,"State":1.0,"County":1.0,"City":1.0,"PostalCode":1.0},"Location":{"LocationId":"NT_vr1S6LQh8QnM2718naj8BC_l_1223049495_R","LocationType":"point","DisplayPosition":{"Latitude":47.6895604,"Longitude":8.7654922},"MapView":{"TopLeft":{"Latitude":47.69101,"Longitude":8.75673},"BottomRight":{"Latitude":47.68814,"Longitude":8.76911}},"Address":{"Label":"78262 Gailingen am Hochrhein, Deutschland","Country":"DEU","State":"Baden-Württemberg","County":"Konstanz","City":"Gailingen am Hochrhein","PostalCode":"78262","AdditionalData":[{"value":"Deutschland","key":"CountryName"},{"value":"Baden-Württemberg","key":"StateName"},{"value":"Konstanz","key":"CountyName"}]},"MapReference":{"ReferenceId":"1223049495","Spot":0.3,"SideOfStreet":"right","CountryId":"20147700","StateId":"20171489","CountyId":"20175328","CityId":"20175367"}}},{"Relevance":1.0,"Distance":191.2,"MatchLevel":"street","MatchQuality":{"Country":1.0,"State":1.0,"County":1.0,"City":1.0,"District":1.0,"Street":[1.0],"PostalCode":1.0},"Location":{"LocationId":"NT_2CkEDcqxAHPq2WPm-M4OmB_l_778880075_R","LocationType":"point","DisplayPosition":{"Latitude":47.69184,"Longitude":8.764},"MapView":{"TopLeft":{"Latitude":47.69202,"Longitude":8.76368},"BottomRight":{"Latitude":47.69184,"Longitude":8.764}},"Address":{"Label":"Kapellenstraße, 78262 Gailingen am Hochrhein, Deutschland","Country":"DEU","State":"Baden-Württemberg","County":"Konstanz","City":"Gailingen am Hochrhein","District":"Gailingen am Hochrhein","Street":"Kapellenstraße","PostalCode":"78262","AdditionalData":[{"value":"Deutschland","key":"CountryName"},{"value":"Baden-Württemberg","key":"StateName"},{"value":"Konstanz","key":"CountyName"}]},"MapReference":{"ReferenceId":"778880075","Spot":0.0,"SideOfStreet":"right","CountryId":"20147700","StateId":"20171489","CountyId":"20175328","CityId":"20175367","DistrictId":"20175369"}}},{"Relevance":1.0,"Distance":220.1,"MatchLevel":"houseNumber","MatchQuality":{"Country":1.0,"State":1.0,"County":1.0,"City":1.0,"District":1.0,"Street":[1.0],"HouseNumber":1.0,"PostalCode":1.0},"MatchType":"interpolated","Location":{"LocationId":"NT_W8Wsddz.GvRBzhhhF6VbNA_yA","LocationType":"point","DisplayPosition":{"Latitude":47.69216,"Longitude":8.76376},"MapView":{"TopLeft":{"Latitude":47.6932842,"Longitude":8.7620899},"BottomRight":{"Latitude":47.6910358,"Longitude":8.7654301}},"Address":{"Label":"Hohenklingenstraße 2, 78262 Gailingen am Hochrhein, Deutschland","Country":"DEU","State":"Baden-Württemberg","County":"Konstanz","City":"Gailingen am Hochrhein","District":"Gailingen am Hochrhein","Street":"Hohenklingenstraße","HouseNumber":"2","PostalCode":"78262","AdditionalData":[{"value":"Deutschland","key":"CountryName"},{"value":"Baden-Württemberg","key":"StateName"},{"value":"Konstanz","key":"CountyName"}]},"MapReference":{"ReferenceId":"778882132","Spot":0.18,"SideOfStreet":"right","CountryId":"20147700","StateId":"20171489","CountyId":"20175328","CityId":"20175367","DistrictId":"20175369","AddressId":"178939593","RoadLinkId":"172375305"}}}]}]}}