{"Response":{"MetaInfo":{"Timestamp":"2020-03-28T10:12:14.016+0000","NextPageInformation":"2"},"View":[{"_type":"SearchResultsViewType","ViewId":0,"Result":[{"Relevance":1.0,"Distance":0.0,"Direction":0.0,"MatchLevel":"district","MatchQuality":{"Country":1.0,"State":1.0,"County":1.0,"City":1.0,"District":1.0,"PostalCode":1.0},"Location":{"LocationId":"NT_qSePWWsVKOnDTJy44xzZZC","LocationType":"point","DisplayPosition":{"Latitude":47.6752921,"Longitude":17.6310116},"MapView":{"TopLeft":{"Latitude":47.73344,"Longitude":17.58718},"BottomRight":{"Latitude":47.64414,"Longitude":17.73342}},"Address":{"Label":"Győr, Győr-Moson-Sopron, Magyarország","Country":"HUN","State":"Győr-Moson-Sopron","County":"Győri Járás","City":"Győr","District":"Győr","PostalCode":"9021","AdditionalData":[{"value":"Magyarország","key":"CountryName"},{"value":"Győr-Moson-Sopron","key":"StateName"},{"value":"Győri Járás","key":"CountyName"}]},"MapReference":{"ReferenceId":"711122551","SideOfStreet":"neither","CountryId":"20613038","StateId":"20616900","CountyId":"26679915","CityId":"20617089","DistrictId":"26680122"}}},{"Relevance":1.0,"Distance":13.7,"MatchLevel":"houseNumber","MatchQuality":{"Country":1.0,"State":1.0,"County":1.0,"City":1.0,"District":1.0,"Street":[1.0],"HouseNumber":1.0,"PostalCode":1.0},"MatchType":"interpolated","Location":{"LocationId":"NT_U.AsCKW5ll6ZamGobAKz-B_zcD","LocationType":"point","DisplayPosition":{"Latitude":47.67543,"Longitude":17.63094},"MapView":{"TopLeft":{"Latitude":47.6765542,"Longitude":17.6292705},"BottomRight":{"Latitude":47.6743058,"Longitude":17.6326095}},"Address":{"Label":"Kálvária utca 37, Győr 9024, Magyarország","Country":"HUN","State":"Győr-Moson-Sopron","County":"Győri Járás","City":"Győr","District":"Győr","Street":"Kálvária utca","HouseNumber":"37","PostalCode":"9024","AdditionalData":[{"value":"Magyarország","key":"CountryName"},{"value":"Győr-Moson-Sopron","key":"StateName"},{"value":"Győri Járás","key":"CountyName"}]},"MapReference":{"ReferenceId":"816066011","Spot":0.82,"SideOfStreet":"right","CountryId":"20613038","StateId":"20616900","CountyId":"26679915","CityId":"20617089","DistrictId":"26680122","AddressId":"355723718","RoadLinkId":"203458268"}}},{"Relevance":1.0,"Distance":28.3,"MatchLevel":"street","MatchQuality":{"Country":1.0,"State":1.0,"County":1.0,"City":1.0,"District":1.0,"Street":[1.0],"PostalCode":1.0},"Location":{"LocationId":"NT_dKr0BQxPsj1c8giDSvmq3A_l_1215614365_R","LocationType":"point","DisplayPosition":{"Latitude":47.67513,"Longitude":17.63072},"MapView":{"TopLeft":{"Latitude":47.67538,"Longitude":17.63027},"BottomRight":{"Latitude":47.67513,"Longitude":17.63072}},"Address":{"Label":"821, Győr 9024, Magyarország","Country":"HUN","State":"Győr-Moson-Sopron","County":"Győri Járás","City":"Győr","District":"Győr","Street":"821","PostalCode":"9024","AdditionalData":[{"value":"Magyarország","key":"CountryName"},{"value":"Győr-Moson-Sopron","key":"StateName"},{"value":"Győri Járás","key":"CountyName"}]},"MapReference":{"ReferenceId":"1215614365","Spot":0.0,"SideOfStreet":"right","CountryId":"20613038","StateId":"20616900","CountyId":"26679915","CityId":"20617089","DistrictId":"26680122"}}},{"Relevance":1.0,"Distance":29.1,"MatchLevel":"street","MatchQuality":{"Country":1.0,"State":1.0,"County":1.0,"City":1.0,"District":1.0,"Street":[1.0],"PostalCode":1.0},"Location":{"LocationId":"NT_dKr0BQxPsj1c8giDSvmq3A_l_1215614364_R","LocationType":"point","DisplayPosition":{"Latitude":47.675045,"Longitude":17.6308822},"MapView":{"TopLeft":{"Latitude":47.67513,"Longitude":17.63072},"BottomRight":{"Latitude":47.67491,"Longitude":17.63114}},"Address":{"Label":"821, Győr 9024, Magyarország","Country":"HUN","State":"Győr-Moson-Sopron","County":"Győri Járás","City":"Győr","District":"Győr","Street":"821","PostalCode":"9024","AdditionalData":[{"value":"Magyarország","key":"CountryName"},{"value":"Győr-Moson-Sopron","key":"StateName"},{"value":"Győri Járás","key":"CountyName"}]},"MapReference":{"ReferenceId":"1215614364","Spot":0.61,"SideOfStreet":"right","CountryId":"20613038","StateId":"20616900","CountyId":"26679915","CityId":"20617089","DistrictId":"26680122"}}},{"Relevance":1.0,"Distance":38.4,"MatchLevel":"houseNumber","MatchQuality":{"Country":1.0,"State":1.0,"County":1.0,"City":1.0,"District":1.0,"Street":[1.0],"HouseNumber":1.0,"PostalCode":1.0},"MatchType":"interpolated","Location":{"LocationId":"NT_Dxetw9t4sdlfVx2b-GUBEC_0A","LocationType":"point","DisplayPosition":{"Latitude":47.67525,"Longitude":17.63152},"MapView":{"TopLeft":{"Latitude":47.6763742,"Longitude":17.6298505},"BottomRight":{"Latitude":47.6741258,"Longitude":17.6331895}},"Address":{"Label":"Fészek utca 4, Győr 9024, Magyarország","Country":"HUN","State":"Győr-Moson-Sopron","County":"Győri Járás","City":"Győr","District":"Győr","Street":"Fészek utca","HouseNumber":"4","PostalCode":"9024","AdditionalData":[{"value":"Magyarország","key":"CountryName"},{"value":"Győr-Moson-Sopron","key":"StateName"},{"value":"Győri Járás","key":"CountyName"}]},"MapReference":{"ReferenceId":"816066010","Spot":0.08,"SideOfStreet":"right","CountryId":"20613038","StateId":"20616900","CountyId":"26679915","CityId":"20617089","DistrictId":"26680122","AddressId":"357602619","RoadLinkId":"203458267"}}},{"Relevance":1.0,"Distance":38.7,"MatchLevel":"houseNumber","MatchQuality":{"Country":1.0,"State":1.0,"County":1.0,"City":1.0,"District":1.0,"Street":[1.0],"HouseNumber":1.0,"PostalCode":1.0},"MatchType":"interpolated","Location":{"LocationId":"NT_U.AsCKW5ll6ZamGobAKz-B_zUD","LocationType":"point","DisplayPosition":{"Latitude":47.67564,"Longitude":17.63103},"MapView":{"TopLeft":{"Latitude":47.6767642,"Longitude":17.6293605},"BottomRight":{"Latitude":47.6745158,"Longitude":17.6326995}},"Address":{"Label":"Kálvária utca 35, Győr 9024, Magyarország","Country":"HUN","State":"Győr-Moson-Sopron","County":"Győri Járás","City":"Győr","District":"Győr","Street":"Kálvária utca","HouseNumber":"35","PostalCode":"9024","AdditionalData":[{"value":"Magyarország","key":"CountryName"},{"value":"Győr-Moson-Sopron","key":"StateName"},{"value":"Győri Járás","key":"CountyName"}]},"MapReference":{"ReferenceId":"710409491","Spot":0.03,"SideOfStreet":"right","CountryId":"20613038","StateId":"20616900","CountyId":"26679915","CityId":"20617089","DistrictId":"26680122","AddressId":"356862882","RoadLinkId":"115603895"}}},{"Relevance":1.0,"Distance":43.6,"MatchLevel":"street","MatchQuality":{"Country":1.0,"State":1.0,"County":1.0,"City":1.0,"District":1.0,"Street":[1.0],"PostalCode":1.0},"Location":{"LocationId":"NT_dKr0BQxPsj1c8giDSvmq3A_l_1215614328_R","LocationType":"point","DisplayPosition":{"Latitude":47.67491,"Longitude":17.63114},"MapView":{"TopLeft":{"Latitude":47.67491,"Longitude":17.63114},"BottomRight":{"Latitude":47.67476,"Longitude":17.63143}},"Address":{"Label":"821, Győr 9024, Magyarország","Country":"HUN","State":"Győr-Moson-Sopron","County":"Győri Járás","City":"Győr","District":"Győr","Street":"821","PostalCode":"9024","AdditionalData":[{"value":"Magyarország","key":"CountryName"},{"value":"Győr-Moson-Sopron","key":"StateName"},{"value":"Győri Járás","key":"CountyName"}]},"MapReference":{"ReferenceId":"1215614328","Spot":1.0,"SideOfStreet":"right","CountryId":"20613038","StateId":"20616900","CountyId":"26679915","CityId":"20617089","DistrictId":"26680122"}}},{"Relevance":1.0,"Distance":50.2,"MatchLevel":"houseNumber","MatchQuality":{"Country":1.0,"State":1.0,"County":1.0,"City":1.0,"District":1.0,"Street":[1.0],"HouseNumber":1.0,"PostalCode":1.0},"MatchType":"interpolated","Location":{"LocationId":"NT_Dxetw9t4sdlfVx2b-GUBEC_yA","LocationType":"point","DisplayPosition":{"Latitude":47.67495,"Longitude":17.63145},"MapView":{"TopLeft":{"Latitude":47.6760742,"Longitude":17.6297805},"BottomRight":{"Latitude":47.6738258,"Longitude":17.6331195}},"Address":{"Label":"Fészek utca 2, Győr 9024, Magyarország","Country":"HUN","State":"Győr-Moson-Sopron","County":"Győri Járás","City":"Győr","District":"Győr","Street":"Fészek utca","HouseNumber":"2","PostalCode":"9024","AdditionalData":[{"value":"Magyarország","key":"CountryName"},{"value":"Győr-Moson-Sopron","key":"StateName"},{"value":"Győri Járás","key":"CountyName"}]},"MapReference":{"ReferenceId":"816066009","Spot":0.08,"SideOfStreet":"right","CountryId":"20613038","StateId":"20616900","CountyId":"26679915","CityId":"20617089","DistrictId":"26680122","AddressId":"357484235","RoadLinkId":"203458266"}}},{"Relevance":1.0,"Distance":52.6,"MatchLevel":"houseNumber","MatchQuality":{"Country":1.0,"State":1.0,"County":1.0,"City":1.0,"District":1.0,"Street":[1.0],"HouseNumber":1.0,"PostalCode":1.0},"MatchType":"interpolated","Location":{"LocationId":"NT_U.AsCKW5ll6ZamGobAKz-B_yQD","LocationType":"point","DisplayPosition":{"Latitude":47.6755,"Longitude":17.63038},"MapView":{"TopLeft":{"Latitude":47.6766242,"Longitude":17.6287105},"BottomRight":{"Latitude":47.6743758,"Longitude":17.6320495}},"Address":{"Label":"Kálvária utca 24, Győr 9024, Magyarország","Country":"HUN","State":"Győr-Moson-Sopron","County":"Győri Járás","City":"Győr","District":"Győr","Street":"Kálvária utca","HouseNumber":"24","PostalCode":"9024","AdditionalData":[{"value":"Magyarország","key":"CountryName"},{"value":"Győr-Moson-Sopron","key":"StateName"},{"value":"Győri Járás","key":"CountyName"}]},"MapReference":{"ReferenceId":"1215620848","Spot":0.51,"SideOfStreet":"left","CountryId":"20613038","StateId":"20616900","CountyId":"26679915","CityId":"20617089","DistrictId":"26680122","AddressId":"357207200","RoadLinkId":"531801856"}}},{"Relevance":1.0,"Distance":54.1,"MatchLevel":"houseNumber","MatchQuality":{"Country":1.0,"State":1.0,"County":1.0,"City":1.0,"District":1.0,"Street":[1.0],"HouseNumber":1.0,"PostalCode":1.0},"MatchType":"interpolated","Location":{"LocationId":"NT_U.AsCKW5ll6ZamGobAKz-B_zkD","LocationType":"point","DisplayPosition":{"Latitude":47.67513,"Longitude":17.63033},"MapView":{"TopLeft":{"Latitude":47.6762542,"Longitude":17.6286605},"BottomRight":{"Latitude":47.6740058,"Longitude":17.6319995}},"Address":{"Label":"Kálvária utca 39, Győr 9024, Magyarország","Country":"HUN","State":"Győr-Moson-Sopron","County":"Győri Járás","City":"Győr","District":"Győr","Street":"Kálvária utca","HouseNumber":"39","PostalCode":"9024","AdditionalData":[{"value":"Magyarország","key":"CountryName"},{"value":"Győr-Moson-Sopron","key":"StateName"},{"value":"Győri Járás","key":"CountyName"}]},"MapReference":{"ReferenceId":"707659235","Spot":0.76,"SideOfStreet":"left","CountryId":"20613038","StateId":"20616900","CountyId":"26679915","CityId":"20617089","DistrictId":"26680122","AddressId":"355164514","RoadLinkId":"113219454"}}}]}]}}