{"Response":{"MetaInfo":{"Timestamp":"2020-03-28T11:35:32.424+0000","NextPageInformation":"2"},"View":[{"_type":"SearchResultsViewType","ViewId":0,"Result":[{"Relevance":1.0,"Distance":0.0,"Direction":0.0,"MatchLevel":"district","MatchQuality":{"Country":1.0,"County":1.0,"City":1.0,"District":1.0,"PostalCode":1.0},"Location":{"LocationId":"NT_p6e6VmbiOhHRNYBWxdLuJB","LocationType":"point","DisplayPosition":{"Latitude":47.6558136,"Longitude":23.5523972},"MapView":{"TopLeft":{"Latitude":47.71547,"Longitude":23.49853},"BottomRight":{"Latitude":47.63034,"Longitude":23.64194}},"Address":{"Label":"Baia Mare, România","Country":"ROU","County":"Maramureș","City":"Baia Mare","District":"Baia Mare","PostalCode":"430242","AdditionalData":[{"value":"România","key":"CountryName"},{"value":"Maramureș","key":"CountyName"}]},"MapReference":{"ReferenceId":"1230270394","SideOfStreet":"neither","CountryId":"20656215","CountyId":"20660757","CityId":"20660764","DistrictId":"20660765"}}},{"Relevance":1.0,"Distance":9.7,"MatchLevel":"street","MatchQuality":{"Country":1.0,"County":1.0,"City":1.0,"District":1.0,"Street":[1.0],"PostalCode":1.0},"Location":{"LocationId":"NT_i68VOdcwkIRy7oSDb4BEuB_l_979276697_R","LocationType":"point","DisplayPosition":{"Latitude":47.6557655,"Longitude":23.5522885},"MapView":{"TopLeft":{"Latitude":47.65583,"Longitude":23.55226},"BottomRight":{"Latitude":47.65522,"Longitude":23.55253}},"Address":{"Label":"Strada George Coșbuc, 430242 Baia Mare, România","Country":"ROU","County":"Maramureș","City":"Baia Mare","District":"Baia Mare","Street":"Strada George Coșbuc","PostalCode":"430242","AdditionalData":[{"value":"România","key":"CountryName"},{"value":"Maramureș","key":"CountyName"}]},"MapReference":{"ReferenceId":"979276697","Spot":0.89,"SideOfStreet":"right","CountryId":"20656215","CountyId":"20660757","CityId":"20660764","DistrictId":"20660765"}}},{"Relevance":1.0,"Distance":43.5,"MatchLevel":"houseNumber","MatchQuality":{"Country":1.0,"County":1.0,"City":1.0,"District":1.0,"Street":[1.0],"HouseNumber":1.0,"PostalCode":1.0},"MatchType":"interpolated","Location":{"LocationId":"NT_.5hvXMnsqp1BTM6rRFbc9C_zETQ","LocationType":"point","DisplayPosition":{"Latitude":47.65566,"Longitude":23.55189},"MapView":{"TopLeft":{"Latitude":47.6567842,"Longitude":23.5502211},"BottomRight":{"Latitude":47.6545358,"Longitude":23.5535589}},"Address":{"Label":"Strada George Coșbuc 31A, 430031 Baia Mare, România","Country":"ROU","County":"Maramureș","City":"Baia Mare","District":"Baia Mare","Street":"Strada George Coșbuc","HouseNumber":"31A","PostalCode":"430031","AdditionalData":[{"value":"România","key":"CountryName"},{"value":"Maramureș","key":"CountyName"}]},"MapReference":{"ReferenceId":"979276701","Spot":0.81,"SideOfStreet":"right","CountryId":"20656215","CountyId":"20660757","CityId":"20660764","DistrictId":"20660765","AddressId":"746932869","RoadLinkId":"312336437"}}},{"Relevance":1.0,"Distance":55.2,"MatchLevel":"houseNumber","MatchQuality":{"Country":1.0,"County":1.0,"City":1.0,"District":1.0,"Street":[1.0],"HouseNumber":1.0,"PostalCode":1.0},"MatchType":"interpolated","Location":{"LocationId":"NT_i68VOdcwkIRy7oSDb4BEuB_l_986372239_R_ycD","LocationType":"point","DisplayPosition":{"Latitude":47.656092,"Longitude":23.5530652},"MapView":{"TopLeft":{"Latitude":47.6572161,"Longitude":23.5513963},"BottomRight":{"Latitude":47.6549678,"Longitude":23.5547341}},"Address":{"Label":"Strada George Coșbuc 27, 430242 Baia Mare, România","Country":"ROU","County":"Maramureș","City":"Baia Mare","District":"Baia Mare","Street":"Strada George Coșbuc","HouseNumber":"27","PostalCode":"430242","AdditionalData":[{"value":"România","key":"CountryName"},{"value":"Maramureș","key":"CountyName"}]},"MapReference":{"ReferenceId":"986372239","Spot":0.49,"SideOfStreet":"right","CountryId":"20656215","CountyId":"20660757","CityId":"20660764","DistrictId":"20660765"}}},{"Relevance":1.0,"Distance":58.3,"MatchLevel":"street","MatchQuality":{"Country":1.0,"County":1.0,"City":1.0,"District":1.0,"PostalCode":1.0},"Location":{"LocationId":"NT_tq5NlwIINd0gJJbVnHnXsC_l_979243508_L","LocationType":"point","DisplayPosition":{"Latitude":47.65597,"Longitude":23.55314},"MapView":{"TopLeft":{"Latitude":47.65609,"Longitude":23.55314},"BottomRight":{"Latitude":47.65588,"Longitude":23.55458}},"Address":{"Label":"430242 Baia Mare, România","Country":"ROU","County":"Maramureș","City":"Baia Mare","District":"Baia Mare","PostalCode":"430242","AdditionalData":[{"value":"România","key":"CountryName"},{"value":"Maramureș","key":"CountyName"}]},"MapReference":{"ReferenceId":"979243508","Spot":0.09,"SideOfStreet":"left","CountryId":"20656215","CountyId":"20660757","CityId":"20660764","DistrictId":"20660765"}}},{"Relevance":1.0,"Distance":63.4,"MatchLevel":"street","MatchQuality":{"Country":1.0,"County":1.0,"City":1.0,"District":1.0,"PostalCode":1.0},"Location":{"LocationId":"NT_tq5NlwIINd0gJJbVnHnXsC_l_979276700_R","LocationType":"point","DisplayPosition":{"Latitude":47.65528,"Longitude":23.5521},"MapView":{"TopLeft":{"Latitude":47.65528,"Longitude":23.5521},"BottomRight":{"Latitude":47.65512,"Longitude":23.55217}},"Address":{"Label":"430242 Baia Mare, România","Country":"ROU","County":"Maramureș","City":"Baia Mare","District":"Baia Mare","PostalCode":"430242","AdditionalData":[{"value":"România","key":"CountryName"},{"value":"Maramureș","key":"CountyName"}]},"MapReference":{"ReferenceId":"979276700","Spot":1.0,"SideOfStreet":"right","CountryId":"20656215","CountyId":"20660757","CityId":"20660764","DistrictId":"20660765"}}},{"Relevance":1.0,"Distance":64.3,"MatchLevel":"street","MatchQuality":{"Country":1.0,"County":1.0,"City":1.0,"District":1.0,"PostalCode":1.0},"Location":{"LocationId":"NT_tq5NlwIINd0gJJbVnHnXsC_l_979243507_R","LocationType":"point","DisplayPosition":{"Latitude":47.65588,"Longitude":23.55325},"MapView":{"TopLeft":{"Latitude":47.65595,"Longitude":23.55325},"BottomRight":{"Latitude":47.65588,"Longitude":23.5546}},"Address":{"Label":"430242 Baia Mare, România","Country":"ROU","County":"Maramureș","City":"Baia Mare","District":"Baia Mare","PostalCode":"430242","AdditionalData":[{"value":"România","key":"CountryName"},{"value":"Maramureș","key":"CountyName"}]},"MapReference":{"ReferenceId":"979243507","Spot":0.0,"SideOfStreet":"right","CountryId":"20656215","CountyId":"20660757","CityId":"20660764","DistrictId":"20660765"}}},{"Relevance":1.0,"Distance":66.8,"MatchLevel":"street","MatchQuality":{"Country":1.0,"County":1.0,"City":1.0,"District":1.0,"Street":[1.0],"PostalCode":1.0},"Location":{"LocationId":"NT_i68VOdcwkIRy7oSDb4BEuB_l_979276699_L","LocationType":"point","DisplayPosition":{"Latitude":47.65522,"Longitude":23.55253},"MapView":{"TopLeft":{"Latitude":47.65522,"Longitude":23.55217},"BottomRight":{"Latitude":47.65512,"Longitude":23.55253}},"Address":{"Label":"Strada George Coșbuc, 430242 Baia Mare, România","Country":"ROU","County":"Maramureș","City":"Baia Mare","District":"Baia Mare","Street":"Strada George Coșbuc","PostalCode":"430242","AdditionalData":[{"value":"România","key":"CountryName"},{"value":"Maramureș","key":"CountyName"}]},"MapReference":{"ReferenceId":"979276699","Spot":1.0,"SideOfStreet":"left","CountryId":"20656215","CountyId":"20660757","CityId":"20660764","DistrictId":"20660765"}}},{"Relevance":1.0,"Distance":79.0,"MatchLevel":"street","MatchQuality":{"Country":1.0,"County":1.0,"City":1.0,"District":1.0,"PostalCode":1.0},"Location":{"LocationId":"NT_tq5NlwIINd0gJJbVnHnXsC_l_1208236754_L","LocationType":"point","DisplayPosition":{"Latitude":47.65512,"Longitude":23.55217},"MapView":{"TopLeft":{"Latitude":47.65512,"Longitude":23.5519},"BottomRight":{"Latitude":47.65504,"Longitude":23.55217}},"Address":{"Label":"430242 Baia Mare, România","Country":"ROU","County":"Maramureș","City":"Baia Mare","District":"Baia Mare","PostalCode":"430242","AdditionalData":[{"value":"România","key":"CountryName"},{"value":"Maramureș","key":"CountyName"}]},"MapReference":{"ReferenceId":"1208236754","Spot":1.0,"SideOfStreet":"left","CountryId":"20656215","CountyId":"20660757","CityId":"20660764","DistrictId":"20660765"}}},{"Relevance":1.0,"Distance":93.7,"MatchLevel":"street","MatchQuality":{"Country":1.0,"County":1.0,"City":1.0,"District":1.0,"PostalCode":1.0},"Location":{"LocationId":"NT_rM2M2i7Zi5UL85341EOZLA_l_1208236752_R","LocationType":"point","DisplayPosition":{"Latitude":47.65504,"Longitude":23.5519},"MapView":{"TopLeft":{"Latitude":47.65504,"Longitude":23.5519},"BottomRight":{"Latitude":47.65445,"Longitude":23.55204}},"Address":{"Label":"430033 Baia Mare, România","Country":"ROU","County":"Maramureș","City":"Baia Mare","District":"Baia Mare","PostalCode":"430033","AdditionalData":[{"value":"România","key":"CountryName"},{"value":"Maramureș","key":"CountyName"}]},"MapReference":{"ReferenceId":"1208236752","Spot":1.0,"SideOfStreet":"right","CountryId":"20656215","CountyId":"20660757","CityId":"20660764","DistrictId":"20660765"}}}]}]}}