{"Response":{"MetaInfo":{"Timestamp":"2020-03-28T10:04:44.790+0000","NextPageInformation":"2"},"View":[{"_type":"SearchResultsViewType","ViewId":0,"Result":[{"Relevance":1.0,"Distance":0.0,"Direction":0.0,"MatchLevel":"district","MatchQuality":{"Country":1.0,"State":1.0,"County":1.0,"City":1.0,"District":1.0,"PostalCode":1.0},"Location":{"LocationId":"NT_mmxqv6JzR6MlNRJwBr0GBB","LocationType":"point","DisplayPosition":{"Latitude":47.6414728,"Longitude":8.0779927},"MapView":{"TopLeft":{"Latitude":47.64633,"Longitude":8.06096},"BottomRight":{"Latitude":47.63563,"Longitude":8.08532}},"Address":{"Label":"Görwihl, Baden-Württemberg, Deutschland","Country":"DEU","State":"Baden-Württemberg","County":"Waldshut","City":"Görwihl","District":"Görwihl","PostalCode":"79733","AdditionalData":[{"value":"Deutschland","key":"CountryName"},{"value":"Baden-Württemberg","key":"StateName"},{"value":"Waldshut","key":"CountyName"}]},"MapReference":{"ReferenceId":"810600861","SideOfStreet":"neither","CountryId":"20147700","StateId":"20171489","CountyId":"20175669","CityId":"20175701","DistrictId":"20175705"}}},{"Relevance":1.0,"Distance":15.1,"MatchLevel":"houseNumber","MatchQuality":{"Country":1.0,"State":1.0,"County":1.0,"City":1.0,"District":1.0,"Street":[1.0],"HouseNumber":1.0,"PostalCode":1.0},"MatchType":"interpolated","Location":{"LocationId":"NT_oRK.PaUyOMcMwfMwYm6bAC_0A","LocationType":"point","DisplayPosition":{"Latitude":47.64115,"Longitude":8.07795},"MapView":{"TopLeft":{"Latitude":47.6422742,"Longitude":8.0762816},"BottomRight":{"Latitude":47.6400258,"Longitude":8.0796184}},"Address":{"Label":"Marktplatz 4, 79733 Görwihl, Deutschland","Country":"DEU","State":"Baden-Württemberg","County":"Waldshut","City":"Görwihl","District":"Görwihl","Street":"Marktplatz","HouseNumber":"4","PostalCode":"79733","AdditionalData":[{"value":"Deutschland","key":"CountryName"},{"value":"Baden-Württemberg","key":"StateName"},{"value":"Waldshut","key":"CountyName"}]},"MapReference":{"ReferenceId":"67312198","Spot":0.5,"SideOfStreet":"left","CountryId":"20147700","StateId":"20171489","CountyId":"20175669","CityId":"20175701","DistrictId":"20175705","AddressId":"179901471","RoadLinkId":"38215446"}}},{"Relevance":1.0,"Distance":32.7,"MatchLevel":"houseNumber","MatchQuality":{"Country":1.0,"State":1.0,"County":1.0,"City":1.0,"District":1.0,"Street":[1.0],"HouseNumber":1.0,"PostalCode":1.0},"MatchType":"interpolated","Location":{"LocationId":"NT_4PAInRi9uFirKiUrKGgBrA_zED","LocationType":"point","DisplayPosition":{"Latitude":47.64177,"Longitude":8.07823},"MapView":{"TopLeft":{"Latitude":47.6428942,"Longitude":8.0765615},"BottomRight":{"Latitude":47.6406458,"Longitude":8.0798985}},"Address":{"Label":"Hauptstraße 31, 79733 Görwihl, Deutschland","Country":"DEU","State":"Baden-Württemberg","County":"Waldshut","City":"Görwihl","District":"Görwihl","Street":"Hauptstraße","HouseNumber":"31","PostalCode":"79733","AdditionalData":[{"value":"Deutschland","key":"CountryName"},{"value":"Baden-Württemberg","key":"StateName"},{"value":"Waldshut","key":"CountyName"}]},"MapReference":{"ReferenceId":"810600860","Spot":0.58,"SideOfStreet":"left","CountryId":"20147700","StateId":"20171489","CountyId":"20175669","CityId":"20175701","DistrictId":"20175705","AddressId":"177924022","RoadLinkId":"197886879"}}},{"Relevance":1.0,"Distance":38.2,"MatchLevel":"street","MatchQuality":{"Country":1.0,"State":1.0,"County":1.0,"City":1.0,"District":1.0,"Street":[1.0],"PostalCode":1.0},"Location":{"LocationId":"NT_4PAInRi9uFirKiUrKGgBrA_l_810600859_L","LocationType":"point","DisplayPosition":{"Latitude":47.64132,"Longitude":8.07845},"MapView":{"TopLeft":{"Latitude":47.64132,"Longitude":8.07845},"BottomRight":{"Latitude":47.64125,"Longitude":8.0785}},"Address":{"Label":"Hauptstraße, 79733 Görwihl, Deutschland","Country":"DEU","State":"Baden-Württemberg","County":"Waldshut","City":"Görwihl","District":"Görwihl","Street":"Hauptstraße","PostalCode":"79733","AdditionalData":[{"value":"Deutschland","key":"CountryName"},{"value":"Baden-Württemberg","key":"StateName"},{"value":"Waldshut","key":"CountyName"}]},"MapReference":{"ReferenceId":"810600859","Spot":1.0,"SideOfStreet":"left","CountryId":"20147700","StateId":"20171489","CountyId":"20175669","CityId":"20175701","DistrictId":"20175705"}}},{"Relevance":1.0,"Distance":55.9,"MatchLevel":"houseNumber","MatchQuality":{"Country":1.0,"State":1.0,"County":1.0,"City":1.0,"District":1.0,"Street":[1.0],"HouseNumber":1.0,"PostalCode":1.0},"MatchType":"interpolated","Location":{"LocationId":"NT_oRK.PaUyOMcMwfMwYm6bAC_4A","LocationType":"point","DisplayPosition":{"Latitude":47.64114,"Longitude":8.07736},"MapView":{"TopLeft":{"Latitude":47.6422642,"Longitude":8.0756916},"BottomRight":{"Latitude":47.6400158,"Longitude":8.0790284}},"Address":{"Label":"Marktplatz 8, 79733 Görwihl, Deutschland","Country":"DEU","State":"Baden-Württemberg","County":"Waldshut","City":"Görwihl","District":"Görwihl","Street":"Marktplatz","HouseNumber":"8","PostalCode":"79733","AdditionalData":[{"value":"Deutschland","key":"CountryName"},{"value":"Baden-Württemberg","key":"StateName"},{"value":"Waldshut","key":"CountyName"}]},"MapReference":{"ReferenceId":"67312197","Spot":0.96,"SideOfStreet":"left","CountryId":"20147700","StateId":"20171489","CountyId":"20175669","CityId":"20175701","DistrictId":"20175705","AddressId":"177790259","RoadLinkId":"38807468"}}},{"Relevance":1.0,"Distance":65.3,"MatchLevel":"houseNumber","MatchQuality":{"Country":1.0,"State":1.0,"County":1.0,"City":1.0,"District":1.0,"Street":[1.0],"HouseNumber":1.0,"PostalCode":1.0},"MatchType":"interpolated","Location":{"LocationId":"NT_cp5l1iiLUlHlxVmR-1kESC_xA","LocationType":"point","DisplayPosition":{"Latitude":47.64122,"Longitude":8.07878},"MapView":{"TopLeft":{"Latitude":47.6423442,"Longitude":8.0771116},"BottomRight":{"Latitude":47.6400958,"Longitude":8.0804484}},"Address":{"Label":"Kirchstraße 1, 79733 Görwihl, Deutschland","Country":"DEU","State":"Baden-Württemberg","County":"Waldshut","City":"Görwihl","District":"Görwihl","Street":"Kirchstraße","HouseNumber":"1","PostalCode":"79733","AdditionalData":[{"value":"Deutschland","key":"CountryName"},{"value":"Baden-Württemberg","key":"StateName"},{"value":"Waldshut","key":"CountyName"}]},"MapReference":{"ReferenceId":"1225749992","Spot":0.2,"SideOfStreet":"left","CountryId":"20147700","StateId":"20171489","CountyId":"20175669","CityId":"20175701","DistrictId":"20175705","AddressId":"208776260","RoadLinkId":"544025183"}}},{"Relevance":1.0,"Distance":71.0,"MatchLevel":"houseNumber","MatchQuality":{"Country":1.0,"State":1.0,"County":1.0,"City":1.0,"District":1.0,"Street":[1.0],"HouseNumber":1.0,"PostalCode":1.0},"MatchType":"interpolated","Location":{"LocationId":"NT_e4yxSULe9.v-hgnq-X1doC_xA","LocationType":"point","DisplayPosition":{"Latitude":47.64205,"Longitude":8.07737},"MapView":{"TopLeft":{"Latitude":47.6431742,"Longitude":8.0757015},"BottomRight":{"Latitude":47.6409258,"Longitude":8.0790385}},"Address":{"Label":"Im Moos 1, 79733 Görwihl, Deutschland","Country":"DEU","State":"Baden-Württemberg","County":"Waldshut","City":"Görwihl","District":"Görwihl","Street":"Im Moos","HouseNumber":"1","PostalCode":"79733","AdditionalData":[{"value":"Deutschland","key":"CountryName"},{"value":"Baden-Württemberg","key":"StateName"},{"value":"Waldshut","key":"CountyName"}]},"MapReference":{"ReferenceId":"76836850","Spot":0.25,"SideOfStreet":"right","CountryId":"20147700","StateId":"20171489","CountyId":"20175669","CityId":"20175701","DistrictId":"20175705","AddressId":"179076930","RoadLinkId":"38123452"}}},{"Relevance":1.0,"Distance":77.3,"MatchLevel":"houseNumber","MatchQuality":{"Country":1.0,"State":1.0,"County":1.0,"City":1.0,"District":1.0,"Street":[1.0],"HouseNumber":1.0,"PostalCode":1.0},"MatchType":"interpolated","Location":{"LocationId":"NT_e4yxSULe9.v-hgnq-X1doC_1A","LocationType":"point","DisplayPosition":{"Latitude":47.64191,"Longitude":8.07699},"MapView":{"TopLeft":{"Latitude":47.6430342,"Longitude":8.0753215},"BottomRight":{"Latitude":47.6407858,"Longitude":8.0786585}},"Address":{"Label":"Im Moos 5, 79733 Görwihl, Deutschland","Country":"DEU","State":"Baden-Württemberg","County":"Waldshut","City":"Görwihl","District":"Görwihl","Street":"Im Moos","HouseNumber":"5","PostalCode":"79733","AdditionalData":[{"value":"Deutschland","key":"CountryName"},{"value":"Baden-Württemberg","key":"StateName"},{"value":"Waldshut","key":"CountyName"}]},"MapReference":{"ReferenceId":"76836849","Spot":0.86,"SideOfStreet":"right","CountryId":"20147700","StateId":"20171489","CountyId":"20175669","CityId":"20175701","DistrictId":"20175705","AddressId":"767371006","RoadLinkId":"38339020"}}},{"Relevance":1.0,"Distance":80.1,"MatchLevel":"houseNumber","MatchQuality":{"Country":1.0,"State":1.0,"County":1.0,"City":1.0,"District":1.0,"Street":[1.0],"HouseNumber":1.0,"PostalCode":1.0},"MatchType":"interpolated","Location":{"LocationId":"NT_4PAInRi9uFirKiUrKGgBrA_zMD","LocationType":"point","DisplayPosition":{"Latitude":47.64222,"Longitude":8.07803},"MapView":{"TopLeft":{"Latitude":47.6433442,"Longitude":8.0763615},"BottomRight":{"Latitude":47.6410958,"Longitude":8.0796985}},"Address":{"Label":"Hauptstraße 33, 79733 Görwihl, Deutschland","Country":"DEU","State":"Baden-Württemberg","County":"Waldshut","City":"Görwihl","District":"Görwihl","Street":"Hauptstraße","HouseNumber":"33","PostalCode":"79733","AdditionalData":[{"value":"Deutschland","key":"CountryName"},{"value":"Baden-Württemberg","key":"StateName"},{"value":"Waldshut","key":"CountyName"}]},"MapReference":{"ReferenceId":"810600861","Spot":0.28,"SideOfStreet":"left","CountryId":"20147700","StateId":"20171489","CountyId":"20175669","CityId":"20175701","DistrictId":"20175705","AddressId":"179697713","RoadLinkId":"197886880"}}},{"Relevance":1.0,"Distance":92.4,"MatchLevel":"houseNumber","MatchQuality":{"Country":1.0,"State":1.0,"County":1.0,"City":1.0,"District":1.0,"Street":[1.0],"HouseNumber":1.0,"PostalCode":1.0},"MatchType":"interpolated","Location":{"LocationId":"NT_nq7VtoakyKNTgwnP4WO2FB_xA","LocationType":"point","DisplayPosition":{"Latitude":47.64062,"Longitude":8.07764},"MapView":{"TopLeft":{"Latitude":47.6417442,"Longitude":8.0759716},"BottomRight":{"Latitude":47.6394958,"Longitude":8.0793084}},"Address":{"Label":"Fischergasse 1, 79733 Görwihl, Deutschland","Country":"DEU","State":"Baden-Württemberg","County":"Waldshut","City":"Görwihl","District":"Görwihl","Street":"Fischergasse","HouseNumber":"1","PostalCode":"79733","AdditionalData":[{"value":"Deutschland","key":"CountryName"},{"value":"Baden-Württemberg","key":"StateName"},{"value":"Waldshut","key":"CountyName"}]},"MapReference":{"ReferenceId":"67311124","Spot":0.46,"SideOfStreet":"right","CountryId":"20147700","StateId":"20171489","CountyId":"20175669","CityId":"20175701","DistrictId":"20175705","AddressId":"177822651","RoadLinkId":"38087101"}}}]}]}}