{"Response":{"MetaInfo":{"Timestamp":"2020-03-28T10:14:52.776+0000","NextPageInformation":"2"},"View":[{"_type":"SearchResultsViewType","ViewId":0,"Result":[{"Relevance":1.0,"Distance":0.0,"Direction":0.0,"MatchLevel":"district","MatchQuality":{"Country":1.0,"State":1.0,"County":1.0,"City":1.0,"District":1.0,"PostalCode":1.0},"Location":{"LocationId":"NT_0DC1QrhK1BAj3ZJuiPN.FA","LocationType":"point","DisplayPosition":{"Latitude":47.6083809,"Longitude":13.7839871},"MapView":{"TopLeft":{"Latitude":47.61857,"Longitude":13.76796},"BottomRight":{"Latitude":47.59154,"Longitude":13.80984}},"Address":{"Label":"Bad Aussee, Steiermark, Österreich","Country":"AUT","State":"Steiermark","County":"Liezen","City":"Bad Aussee","District":"Bad Aussee","PostalCode":"8990","AdditionalData":[{"value":"Österreich","key":"CountryName"},{"value":"Steiermark","key":"StateName"},{"value":"Liezen","key":"CountyName"}]},"MapReference":{"ReferenceId":"973320953","SideOfStreet":"neither","CountryId":"20128885","StateId":"20134876","CountyId":"20136088","CityId":"20136108","DistrictId":"20136110"}}},{"Relevance":1.0,"Distance":20.4,"MatchLevel":"houseNumber","MatchQuality":{"Country":1.0,"State":1.0,"County":1.0,"City":1.0,"District":1.0,"Street":[1.0],"HouseNumber":1.0,"PostalCode":1.0},"MatchType":"interpolated","Location":{"LocationId":"NT_UWTAwv0Dp5dCE-ixtid3XB_xADN","LocationType":"point","DisplayPosition":{"Latitude":47.60847,"Longitude":13.78377},"MapView":{"TopLeft":{"Latitude":47.6095942,"Longitude":13.7821026},"BottomRight":{"Latitude":47.6073458,"Longitude":13.7854374}},"Address":{"Label":"Oppauer Platz 104, 8990 Bad Aussee, Österreich","Country":"AUT","State":"Steiermark","County":"Liezen","City":"Bad Aussee","District":"Bad Aussee","Street":"Oppauer Platz","HouseNumber":"104","PostalCode":"8990","AdditionalData":[{"value":"Österreich","key":"CountryName"},{"value":"Steiermark","key":"StateName"},{"value":"Liezen","key":"CountyName"}]},"MapReference":{"ReferenceId":"572422692","Spot":0.36,"SideOfStreet":"right","CountryId":"20128885","StateId":"20134876","CountyId":"20136088","CityId":"20136108","DistrictId":"20136110","AddressId":"161406442","RoadLinkId":"28985921"}}},{"Relevance":1.0,"Distance":23.9,"MatchLevel":"houseNumber","MatchQuality":{"Country":1.0,"State":1.0,"County":1.0,"City":1.0,"District":1.0,"Street":[1.0],"HouseNumber":1.0,"PostalCode":1.0},"MatchType":"interpolated","Location":{"LocationId":"NT_Vzga6LVY6E.xpAXXuFBFpC_xQjM","LocationType":"point","DisplayPosition":{"Latitude":47.60817,"Longitude":13.78405},"MapView":{"TopLeft":{"Latitude":47.6092942,"Longitude":13.7823826},"BottomRight":{"Latitude":47.6070458,"Longitude":13.7857174}},"Address":{"Label":"Pratergasse 142, 8990 Bad Aussee, Österreich","Country":"AUT","State":"Steiermark","County":"Liezen","City":"Bad Aussee","District":"Bad Aussee","Street":"Pratergasse","HouseNumber":"142","PostalCode":"8990","AdditionalData":[{"value":"Österreich","key":"CountryName"},{"value":"Steiermark","key":"StateName"},{"value":"Liezen","key":"CountyName"}]},"MapReference":{"ReferenceId":"572422691","Spot":0.88,"SideOfStreet":"right","CountryId":"20128885","StateId":"20134876","CountyId":"20136088","CityId":"20136108","DistrictId":"20136110","AddressId":"161019983","RoadLinkId":"28959537"}}},{"Relevance":1.0,"Distance":26.1,"MatchLevel":"houseNumber","MatchQuality":{"Country":1.0,"State":1.0,"County":1.0,"City":1.0,"District":1.0,"Street":[1.0],"HouseNumber":1.0,"PostalCode":1.0},"MatchType":"interpolated","Location":{"LocationId":"NT_JhCQFb59-ixdvEZMyO9PjC_xMjM","LocationType":"point","DisplayPosition":{"Latitude":47.60838,"Longitude":13.78341},"MapView":{"TopLeft":{"Latitude":47.6095042,"Longitude":13.7817426},"BottomRight":{"Latitude":47.6072558,"Longitude":13.7850774}},"Address":{"Label":"Bahnhofstraße 132, 8990 Bad Aussee, Österreich","Country":"AUT","State":"Steiermark","County":"Liezen","City":"Bad Aussee","District":"Bad Aussee","Street":"Bahnhofstraße","HouseNumber":"132","PostalCode":"8990","AdditionalData":[{"value":"Österreich","key":"CountryName"},{"value":"Steiermark","key":"StateName"},{"value":"Liezen","key":"CountyName"}]},"MapReference":{"ReferenceId":"572422477","Spot":0.58,"SideOfStreet":"right","CountryId":"20128885","StateId":"20134876","CountyId":"20136088","CityId":"20136108","DistrictId":"20136110","AddressId":"161024564","RoadLinkId":"28954513"}}},{"Relevance":1.0,"Distance":31.5,"MatchLevel":"houseNumber","MatchQuality":{"Country":1.0,"State":1.0,"County":1.0,"City":1.0,"District":1.0,"Street":[1.0],"HouseNumber":1.0,"PostalCode":1.0},"MatchType":"interpolated","Location":{"LocationId":"NT_Vzga6LVY6E.xpAXXuFBFpC_zgDO","LocationType":"point","DisplayPosition":{"Latitude":47.60835,"Longitude":13.78444},"MapView":{"TopLeft":{"Latitude":47.6094742,"Longitude":13.7827726},"BottomRight":{"Latitude":47.6072258,"Longitude":13.7861074}},"Address":{"Label":"Pratergasse 388, 8990 Bad Aussee, Österreich","Country":"AUT","State":"Steiermark","County":"Liezen","City":"Bad Aussee","District":"Bad Aussee","Street":"Pratergasse","HouseNumber":"388","PostalCode":"8990","AdditionalData":[{"value":"Österreich","key":"CountryName"},{"value":"Steiermark","key":"StateName"},{"value":"Liezen","key":"CountyName"}]},"MapReference":{"ReferenceId":"572474745","Spot":0.85,"SideOfStreet":"left","CountryId":"20128885","StateId":"20134876","CountyId":"20136088","CityId":"20136108","DistrictId":"20136110","AddressId":"161019973","RoadLinkId":"28784595"}}},{"Relevance":1.0,"Distance":37.9,"MatchLevel":"houseNumber","MatchQuality":{"Country":1.0,"State":1.0,"County":1.0,"City":1.0,"District":1.0,"Street":[1.0],"HouseNumber":1.0,"PostalCode":1.0},"MatchType":"interpolated","Location":{"LocationId":"NT_Vzga6LVY6E.xpAXXuFBFpC_xQzM","LocationType":"point","DisplayPosition":{"Latitude":47.60837,"Longitude":13.78452},"MapView":{"TopLeft":{"Latitude":47.6094942,"Longitude":13.7828526},"BottomRight":{"Latitude":47.6072458,"Longitude":13.7861874}},"Address":{"Label":"Pratergasse 143, 8990 Bad Aussee, Österreich","Country":"AUT","State":"Steiermark","County":"Liezen","City":"Bad Aussee","District":"Bad Aussee","Street":"Pratergasse","HouseNumber":"143","PostalCode":"8990","AdditionalData":[{"value":"Österreich","key":"CountryName"},{"value":"Steiermark","key":"StateName"},{"value":"Liezen","key":"CountyName"}]},"MapReference":{"ReferenceId":"62888638","Spot":1.0,"SideOfStreet":"left","CountryId":"20128885","StateId":"20134876","CountyId":"20136088","CityId":"20136108","DistrictId":"20136110","AddressId":"161019970","RoadLinkId":"28471909"}}},{"Relevance":1.0,"Distance":55.3,"MatchLevel":"houseNumber","MatchQuality":{"Country":1.0,"State":1.0,"County":1.0,"City":1.0,"District":1.0,"Street":[1.0],"HouseNumber":1.0,"PostalCode":1.0},"MatchType":"interpolated","Location":{"LocationId":"NT_Vzga6LVY6E.xpAXXuFBFpC_yUTM","LocationType":"point","DisplayPosition":{"Latitude":47.60798,"Longitude":13.78474},"MapView":{"TopLeft":{"Latitude":47.6091042,"Longitude":13.7830726},"BottomRight":{"Latitude":47.6068558,"Longitude":13.7864074}},"Address":{"Label":"Pratergasse 251, 8990 Bad Aussee, Österreich","Country":"AUT","State":"Steiermark","County":"Liezen","City":"Bad Aussee","District":"Bad Aussee","Street":"Pratergasse","HouseNumber":"251","PostalCode":"8990","AdditionalData":[{"value":"Österreich","key":"CountryName"},{"value":"Steiermark","key":"StateName"},{"value":"Liezen","key":"CountyName"}]},"MapReference":{"ReferenceId":"62888637","Spot":0.48,"SideOfStreet":"left","CountryId":"20128885","StateId":"20134876","CountyId":"20136088","CityId":"20136108","DistrictId":"20136110","AddressId":"161019969","RoadLinkId":"29073708"}}},{"Relevance":1.0,"Distance":57.6,"MatchLevel":"street","MatchQuality":{"Country":1.0,"State":1.0,"County":1.0,"City":1.0,"District":1.0,"Street":[1.0],"PostalCode":1.0},"Location":{"LocationId":"NT_X1MIrOukWzCiS48fnt2ISD_l_62894948_L","LocationType":"point","DisplayPosition":{"Latitude":47.60874,"Longitude":13.78454},"MapView":{"TopLeft":{"Latitude":47.60887,"Longitude":13.78454},"BottomRight":{"Latitude":47.60865,"Longitude":13.78467}},"Address":{"Label":"Mercedes-Mittelpunkt-Brücke, 8990 Bad Aussee, Österreich","Country":"AUT","State":"Steiermark","County":"Liezen","City":"Bad Aussee","District":"Bad Aussee","Street":"Mercedes-Mittelpunkt-Brücke","PostalCode":"8990","AdditionalData":[{"value":"Österreich","key":"CountryName"},{"value":"Steiermark","key":"StateName"},{"value":"Liezen","key":"CountyName"}]},"MapReference":{"ReferenceId":"62894948","Spot":0.51,"SideOfStreet":"left","CountryId":"20128885","StateId":"20134876","CountyId":"20136088","CityId":"20136108","DistrictId":"20136110"}}},{"Relevance":1.0,"Distance":58.1,"MatchLevel":"houseNumber","MatchQuality":{"Country":1.0,"State":1.0,"County":1.0,"City":1.0,"District":1.0,"Street":[1.0],"HouseNumber":1.0,"PostalCode":1.0},"MatchType":"interpolated","Location":{"LocationId":"NT_JhCQFb59-ixdvEZMyO9PjC_xMDM","LocationType":"point","DisplayPosition":{"Latitude":47.60787,"Longitude":13.78362},"MapView":{"TopLeft":{"Latitude":47.6089942,"Longitude":13.7819526},"BottomRight":{"Latitude":47.6067458,"Longitude":13.7852874}},"Address":{"Label":"Bahnhofstraße 130, 8990 Bad Aussee, Österreich","Country":"AUT","State":"Steiermark","County":"Liezen","City":"Bad Aussee","District":"Bad Aussee","Street":"Bahnhofstraße","HouseNumber":"130","PostalCode":"8990","AdditionalData":[{"value":"Österreich","key":"CountryName"},{"value":"Steiermark","key":"StateName"},{"value":"Liezen","key":"CountyName"}]},"MapReference":{"ReferenceId":"572422476","Spot":0.98,"SideOfStreet":"right","CountryId":"20128885","StateId":"20134876","CountyId":"20136088","CityId":"20136108","DistrictId":"20136110","AddressId":"161024576","RoadLinkId":"28024647"}}},{"Relevance":1.0,"Distance":59.3,"MatchLevel":"street","MatchQuality":{"Country":1.0,"State":1.0,"County":1.0,"City":1.0,"District":1.0,"Street":[1.0],"PostalCode":1.0},"Location":{"LocationId":"NT_X1MIrOukWzCiS48fnt2ISD_l_62894946_R","LocationType":"point","DisplayPosition":{"Latitude":47.60865,"Longitude":13.78467},"MapView":{"TopLeft":{"Latitude":47.60876,"Longitude":13.78467},"BottomRight":{"Latitude":47.60865,"Longitude":13.78489}},"Address":{"Label":"Mercedes-Mittelpunkt-Brücke, 8990 Bad Aussee, Österreich","Country":"AUT","State":"Steiermark","County":"Liezen","City":"Bad Aussee","District":"Bad Aussee","Street":"Mercedes-Mittelpunkt-Brücke","PostalCode":"8990","AdditionalData":[{"value":"Österreich","key":"CountryName"},{"value":"Steiermark","key":"StateName"},{"value":"Liezen","key":"CountyName"}]},"MapReference":{"ReferenceId":"62894946","Spot":0.0,"SideOfStreet":"right","CountryId":"20128885","StateId":"20134876","CountyId":"20136088","CityId":"20136108","DistrictId":"20136110"}}}]}]}}