{"Response":{"MetaInfo":{"Timestamp":"2020-03-28T10:30:54.482+0000","NextPageInformation":"2"},"View":[{"_type":"SearchResultsViewType","ViewId":0,"Result":[{"Relevance":1.0,"Distance":0.0,"Direction":0.0,"MatchLevel":"city","MatchQuality":{"Country":1.0,"State":1.0,"County":1.0,"City":1.0,"PostalCode":1.0},"Location":{"LocationId":"NT_R1CFNfopsg1j2y5MPV6nLA","LocationType":"point","DisplayPosition":{"Latitude":47.6410653,"Longitude":6.8765407},"MapView":{"TopLeft":{"Latitude":47.67077,"Longitude":6.78731},"BottomRight":{"Latitude":47.62061,"Longitude":6.89479}},"Address":{"Label":"Belfort, Bourgogne-Franche-Comté, France","Country":"FRA","State":"Bourgogne-Franche-Comté","County":"Territoire de Belfort","City":"Belfort","PostalCode":"90000","AdditionalData":[{"value":"France","key":"CountryName"},{"value":"Bourgogne-Franche-Comté","key":"StateName"},{"value":"Territoire de Belfort","key":"CountyName"}]},"MapReference":{"ReferenceId":"545719815","SideOfStreet":"neither","CountryId":"20000001","StateId":"20013306","CountyId":"20044221","CityId":"20044251"}}},{"Relevance":1.0,"Distance":14.3,"MatchLevel":"houseNumber","MatchQuality":{"Country":1.0,"State":1.0,"County":1.0,"City":1.0,"Street":[1.0],"HouseNumber":1.0,"PostalCode":1.0},"MatchType":"interpolated","Location":{"LocationId":"NT_mxev2p0irnoQBnuIwPrdFB_xMD","LocationType":"point","DisplayPosition":{"Latitude":47.64064,"Longitude":6.87682},"MapView":{"TopLeft":{"Latitude":47.6417642,"Longitude":6.8751516},"BottomRight":{"Latitude":47.6395158,"Longitude":6.8784884}},"Address":{"Label":"13 Rue Gustave Lang, 90000 Belfort, France","Country":"FRA","State":"Bourgogne-Franche-Comté","County":"Territoire de Belfort","City":"Belfort","Street":"Rue Gustave Lang","HouseNumber":"13","PostalCode":"90000","AdditionalData":[{"value":"France","key":"CountryName"},{"value":"Bourgogne-Franche-Comté","key":"StateName"},{"value":"Territoire de Belfort","key":"CountyName"}]},"MapReference":{"ReferenceId":"545718937","Spot":0.45,"SideOfStreet":"left","CountryId":"20000001","StateId":"20013306","CountyId":"20044221","CityId":"20044251","AddressId":"708788877","RoadLinkId":"44152838"}}},{"Relevance":1.0,"Distance":29.5,"MatchLevel":"houseNumber","MatchQuality":{"Country":1.0,"State":1.0,"County":1.0,"City":1.0,"Street":[1.0],"HouseNumber":1.0,"PostalCode":1.0},"MatchType":"interpolated","Location":{"LocationId":"NT_AfaJb-ext36.gU51rm6GvD_xQD","LocationType":"point","DisplayPosition":{"Latitude":47.6416,"Longitude":6.87636},"MapView":{"TopLeft":{"Latitude":47.6427242,"Longitude":6.8746915},"BottomRight":{"Latitude":47.6404758,"Longitude":6.8780285}},"Address":{"Label":"14 Rue Georges Besse, 90000 Belfort, France","Country":"FRA","State":"Bourgogne-Franche-Comté","County":"Territoire de Belfort","City":"Belfort","Street":"Rue Georges Besse","HouseNumber":"14","PostalCode":"90000","AdditionalData":[{"value":"France","key":"CountryName"},{"value":"Bourgogne-Franche-Comté","key":"StateName"},{"value":"Territoire de Belfort","key":"CountyName"}]},"MapReference":{"ReferenceId":"545718885","Spot":0.62,"SideOfStreet":"right","CountryId":"20000001","StateId":"20013306","CountyId":"20044221","CityId":"20044251","AddressId":"708789040","RoadLinkId":"44372674"}}},{"Relevance":1.0,"Distance":88.3,"MatchLevel":"street","MatchQuality":{"Country":1.0,"State":1.0,"County":1.0,"City":1.0,"Street":[1.0],"PostalCode":1.0},"Location":{"LocationId":"NT_jbHb.zszhF4xvELHc6ChRD_l_545718904_L","LocationType":"point","DisplayPosition":{"Latitude":47.64144,"Longitude":6.87758},"MapView":{"TopLeft":{"Latitude":47.64144,"Longitude":6.87758},"BottomRight":{"Latitude":47.64079,"Longitude":6.87789}},"Address":{"Label":"Rue René Cassin, 90000 Belfort, France","Country":"FRA","State":"Bourgogne-Franche-Comté","County":"Territoire de Belfort","City":"Belfort","Street":"Rue René Cassin","PostalCode":"90000","AdditionalData":[{"value":"France","key":"CountryName"},{"value":"Bourgogne-Franche-Comté","key":"StateName"},{"value":"Territoire de Belfort","key":"CountyName"}]},"MapReference":{"ReferenceId":"545718904","Spot":1.0,"SideOfStreet":"left","CountryId":"20000001","StateId":"20013306","CountyId":"20044221","CityId":"20044251"}}},{"Relevance":1.0,"Distance":98.3,"MatchLevel":"street","MatchQuality":{"Country":1.0,"State":1.0,"County":1.0,"City":1.0,"Street":[1.0],"PostalCode":1.0},"Location":{"LocationId":"NT_apHDPAVR-v0ArTz50GwfEB_l_545718947_R","LocationType":"point","DisplayPosition":{"Latitude":47.64026,"Longitude":6.876},"MapView":{"TopLeft":{"Latitude":47.64026,"Longitude":6.876},"BottomRight":{"Latitude":47.64012,"Longitude":6.8761}},"Address":{"Label":"Allée Loris Séropian, 90000 Belfort, France","Country":"FRA","State":"Bourgogne-Franche-Comté","County":"Territoire de Belfort","City":"Belfort","Street":"Allée Loris Séropian","PostalCode":"90000","AdditionalData":[{"value":"France","key":"CountryName"},{"value":"Bourgogne-Franche-Comté","key":"StateName"},{"value":"Territoire de Belfort","key":"CountyName"}]},"MapReference":{"ReferenceId":"545718947","Spot":1.0,"SideOfStreet":"right","CountryId":"20000001","StateId":"20013306","CountyId":"20044221","CityId":"20044251"}}},{"Relevance":1.0,"Distance":98.4,"MatchLevel":"street","MatchQuality":{"Country":1.0,"State":1.0,"County":1.0,"City":1.0,"Street":[1.0],"PostalCode":1.0},"Location":{"LocationId":"NT_apHDPAVR-v0ArTz50GwfEB_l_545718946_L","LocationType":"point","DisplayPosition":{"Latitude":47.64018,"Longitude":6.8765407},"MapView":{"TopLeft":{"Latitude":47.64018,"Longitude":6.8761},"BottomRight":{"Latitude":47.64012,"Longitude":6.8782}},"Address":{"Label":"Allée Loris Séropian, 90000 Belfort, France","Country":"FRA","State":"Bourgogne-Franche-Comté","County":"Territoire de Belfort","City":"Belfort","Street":"Allée Loris Séropian","PostalCode":"90000","AdditionalData":[{"value":"France","key":"CountryName"},{"value":"Bourgogne-Franche-Comté","key":"StateName"},{"value":"Territoire de Belfort","key":"CountyName"}]},"MapReference":{"ReferenceId":"545718946","Spot":0.21,"SideOfStreet":"left","CountryId":"20000001","StateId":"20013306","CountyId":"20044221","CityId":"20044251"}}},{"Relevance":1.0,"Distance":105.6,"MatchLevel":"street","MatchQuality":{"Country":1.0,"State":1.0,"County":1.0,"City":1.0,"Street":[1.0],"PostalCode":1.0},"Location":{"LocationId":"NT_jbHb.zszhF4xvELHc6ChRD_l_786424045_L","LocationType":"point","DisplayPosition":{"Latitude":47.64079,"Longitude":6.87789},"MapView":{"TopLeft":{"Latitude":47.64079,"Longitude":6.87789},"BottomRight":{"Latitude":47.6407,"Longitude":6.87793}},"Address":{"Label":"Rue René Cassin, 90000 Belfort, France","Country":"FRA","State":"Bourgogne-Franche-Comté","County":"Territoire de Belfort","City":"Belfort","Street":"Rue René Cassin","PostalCode":"90000","AdditionalData":[{"value":"France","key":"CountryName"},{"value":"Bourgogne-Franche-Comté","key":"StateName"},{"value":"Territoire de Belfort","key":"CountyName"}]},"MapReference":{"ReferenceId":"786424045","Spot":1.0,"SideOfStreet":"left","CountryId":"20000001","StateId":"20013306","CountyId":"20044221","CityId":"20044251"}}},{"Relevance":1.0,"Distance":105.6,"MatchLevel":"street","MatchQuality":{"Country":1.0,"State":1.0,"County":1.0,"City":1.0,"Street":[1.0],"PostalCode":1.0},"Location":{"LocationId":"NT_hku837CfTbwpBzC-ivyp3B_l_1150750084_L","LocationType":"point","DisplayPosition":{"Latitude":47.64079,"Longitude":6.87789},"MapView":{"TopLeft":{"Latitude":47.64092,"Longitude":6.87789},"BottomRight":{"Latitude":47.64079,"Longitude":6.87849}},"Address":{"Label":"Rue Xavier Bichat, 90000 Belfort, France","Country":"FRA","State":"Bourgogne-Franche-Comté","County":"Territoire de Belfort","City":"Belfort","Street":"Rue Xavier Bichat","PostalCode":"90000","AdditionalData":[{"value":"France","key":"CountryName"},{"value":"Bourgogne-Franche-Comté","key":"StateName"},{"value":"Territoire de Belfort","key":"CountyName"}]},"MapReference":{"ReferenceId":"1150750084","Spot":0.0,"SideOfStreet":"left","CountryId":"20000001","StateId":"20013306","CountyId":"20044221","CityId":"20044251"}}},{"Relevance":1.0,"Distance":110.2,"MatchLevel":"street","MatchQuality":{"Country":1.0,"State":1.0,"County":1.0,"City":1.0,"Street":[1.0],"PostalCode":1.0},"Location":{"LocationId":"NT_apHDPAVR-v0ArTz50GwfEB_l_545720116_L","LocationType":"point","DisplayPosition":{"Latitude":47.64012,"Longitude":6.8761},"MapView":{"TopLeft":{"Latitude":47.64012,"Longitude":6.87388},"BottomRight":{"Latitude":47.63895,"Longitude":6.8761}},"Address":{"Label":"Allée Loris Séropian, 90000 Belfort, France","Country":"FRA","State":"Bourgogne-Franche-Comté","County":"Territoire de Belfort","City":"Belfort","Street":"Allée Loris Séropian","PostalCode":"90000","AdditionalData":[{"value":"France","key":"CountryName"},{"value":"Bourgogne-Franche-Comté","key":"StateName"},{"value":"Territoire de Belfort","key":"CountyName"}]},"MapReference":{"ReferenceId":"545720116","Spot":1.0,"SideOfStreet":"left","CountryId":"20000001","StateId":"20013306","CountyId":"20044221","CityId":"20044251"}}},{"Relevance":1.0,"Distance":111.7,"MatchLevel":"street","MatchQuality":{"Country":1.0,"State":1.0,"County":1.0,"City":1.0,"Street":[1.0],"PostalCode":1.0},"Location":{"LocationId":"NT_jbHb.zszhF4xvELHc6ChRD_l_786424044_L","LocationType":"point","DisplayPosition":{"Latitude":47.6407,"Longitude":6.87793},"MapView":{"TopLeft":{"Latitude":47.6407,"Longitude":6.87793},"BottomRight":{"Latitude":47.6406,"Longitude":6.87798}},"Address":{"Label":"Rue René Cassin, 90000 Belfort, France","Country":"FRA","State":"Bourgogne-Franche-Comté","County":"Territoire de Belfort","City":"Belfort","Street":"Rue René Cassin","PostalCode":"90000","AdditionalData":[{"value":"France","key":"CountryName"},{"value":"Bourgogne-Franche-Comté","key":"StateName"},{"value":"Territoire de Belfort","key":"CountyName"}]},"MapReference":{"ReferenceId":"786424044","Spot":1.0,"SideOfStreet":"left","CountryId":"20000001","StateId":"20013306","CountyId":"20044221","CityId":"20044251"}}}]}]}}