{"Response":{"MetaInfo":{"Timestamp":"2020-03-28T11:22:16.264+0000","NextPageInformation":"2"},"View":[{"_type":"SearchResultsViewType","ViewId":0,"Result":[{"Relevance":1.0,"Distance":0.0,"Direction":0.0,"MatchLevel":"district","MatchQuality":{"Country":1.0,"State":1.0,"County":1.0,"City":1.0,"District":1.0,"PostalCode":1.0},"Location":{"LocationId":"NT_qSePWWsVKOnDTJy44xzZZC","LocationType":"point","DisplayPosition":{"Latitude":47.6875213,"Longitude":17.6265795},"MapView":{"TopLeft":{"Latitude":47.73344,"Longitude":17.58718},"BottomRight":{"Latitude":47.64414,"Longitude":17.73342}},"Address":{"Label":"Győr, Győr-Moson-Sopron, Magyarország","Country":"HUN","State":"Győr-Moson-Sopron","County":"Győri Járás","City":"Győr","District":"Győr","PostalCode":"9021","AdditionalData":[{"value":"Magyarország","key":"CountryName"},{"value":"Győr-Moson-Sopron","key":"StateName"},{"value":"Győri Járás","key":"CountyName"}]},"MapReference":{"ReferenceId":"711122551","SideOfStreet":"neither","CountryId":"20613038","StateId":"20616900","CountyId":"26679915","CityId":"20617089","DistrictId":"26680122"}}},{"Relevance":1.0,"Distance":17.3,"MatchLevel":"street","MatchQuality":{"Country":1.0,"State":1.0,"County":1.0,"City":1.0,"District":1.0,"Street":[1.0],"PostalCode":1.0},"Location":{"LocationId":"NT_mj4CWdPRUdQ9musWSnJMcD_l_598284384_R","LocationType":"point","DisplayPosition":{"Latitude":47.68761,"Longitude":17.62639},"MapView":{"TopLeft":{"Latitude":47.68801,"Longitude":17.62589},"BottomRight":{"Latitude":47.68761,"Longitude":17.62639}},"Address":{"Label":"Imaház utca, Győr 9025, Magyarország","Country":"HUN","State":"Győr-Moson-Sopron","County":"Győri Járás","City":"Győr","District":"Győr","Street":"Imaház utca","PostalCode":"9025","AdditionalData":[{"value":"Magyarország","key":"CountryName"},{"value":"Győr-Moson-Sopron","key":"StateName"},{"value":"Győri Járás","key":"CountyName"}]},"MapReference":{"ReferenceId":"598284384","Spot":0.0,"SideOfStreet":"right","CountryId":"20613038","StateId":"20616900","CountyId":"26679915","CityId":"20617089","DistrictId":"26680122"}}},{"Relevance":1.0,"Distance":28.0,"MatchLevel":"houseNumber","MatchQuality":{"Country":1.0,"State":1.0,"County":1.0,"City":1.0,"District":1.0,"Street":[1.0],"HouseNumber":1.0,"PostalCode":1.0},"MatchType":"interpolated","Location":{"LocationId":"NT_3iF9Y2Sbyzjb0vQDvepaGA_l_598472881_R_0MD","LocationType":"point","DisplayPosition":{"Latitude":47.6871904,"Longitude":17.6262992},"MapView":{"TopLeft":{"Latitude":47.6883145,"Longitude":17.6246293},"BottomRight":{"Latitude":47.6860662,"Longitude":17.6279691}},"Address":{"Label":"Híd utca 43, Győr 9025, Magyarország","Country":"HUN","State":"Győr-Moson-Sopron","County":"Győri Járás","City":"Győr","District":"Győr","Street":"Híd utca","HouseNumber":"43","PostalCode":"9025","AdditionalData":[{"value":"Magyarország","key":"CountryName"},{"value":"Győr-Moson-Sopron","key":"StateName"},{"value":"Győri Járás","key":"CountyName"}]},"MapReference":{"ReferenceId":"598472881","Spot":0.51,"SideOfStreet":"right","CountryId":"20613038","StateId":"20616900","CountyId":"26679915","CityId":"20617089","DistrictId":"26680122"}}},{"Relevance":1.0,"Distance":34.3,"MatchLevel":"houseNumber","MatchQuality":{"Country":1.0,"State":1.0,"County":1.0,"City":1.0,"District":1.0,"Street":[1.0],"HouseNumber":1.0,"PostalCode":1.0},"MatchType":"interpolated","Location":{"LocationId":"NT_3iF9Y2Sbyzjb0vQDvepaGA_yA","LocationType":"point","DisplayPosition":{"Latitude":47.68738,"Longitude":17.62597},"MapView":{"TopLeft":{"Latitude":47.6885042,"Longitude":17.6243001},"BottomRight":{"Latitude":47.6862558,"Longitude":17.6276399}},"Address":{"Label":"Híd utca 2, Győr 9025, Magyarország","Country":"HUN","State":"Győr-Moson-Sopron","County":"Győri Járás","City":"Győr","District":"Győr","Street":"Híd utca","HouseNumber":"2","PostalCode":"9025","AdditionalData":[{"value":"Magyarország","key":"CountryName"},{"value":"Győr-Moson-Sopron","key":"StateName"},{"value":"Győri Járás","key":"CountyName"}]},"MapReference":{"ReferenceId":"598472879","Spot":0.16,"SideOfStreet":"right","CountryId":"20613038","StateId":"20616900","CountyId":"26679915","CityId":"20617089","DistrictId":"26680122","AddressId":"357568274","RoadLinkId":"60753113"}}},{"Relevance":1.0,"Distance":42.0,"MatchLevel":"street","MatchQuality":{"Country":1.0,"State":1.0,"County":1.0,"City":1.0,"District":1.0,"Street":[1.0],"PostalCode":1.0},"Location":{"LocationId":"NT_QeqHz2kDofseZYsO3h31uB_l_816858287_L","LocationType":"point","DisplayPosition":{"Latitude":47.6878598,"Longitude":17.6268289},"MapView":{"TopLeft":{"Latitude":47.68835,"Longitude":17.62646},"BottomRight":{"Latitude":47.68767,"Longitude":17.62766}},"Address":{"Label":"Fürdő tér, Győr 9025, Magyarország","Country":"HUN","State":"Győr-Moson-Sopron","County":"Győri Járás","City":"Győr","District":"Győr","Street":"Fürdő tér","PostalCode":"9025","AdditionalData":[{"value":"Magyarország","key":"CountryName"},{"value":"Győr-Moson-Sopron","key":"StateName"},{"value":"Győri Járás","key":"CountyName"}]},"MapReference":{"ReferenceId":"816858287","Spot":0.58,"SideOfStreet":"left","CountryId":"20613038","StateId":"20616900","CountyId":"26679915","CityId":"20617089","DistrictId":"26680122"}}},{"Relevance":1.0,"Distance":46.1,"MatchLevel":"street","MatchQuality":{"Country":1.0,"State":1.0,"County":1.0,"City":1.0,"District":1.0,"Street":[1.0],"PostalCode":1.0},"Location":{"LocationId":"NT_6bkte-ukCqmapQLPjMOp2D_l_818753049_R","LocationType":"point","DisplayPosition":{"Latitude":47.68731,"Longitude":17.62605},"MapView":{"TopLeft":{"Latitude":47.68731,"Longitude":17.62581},"BottomRight":{"Latitude":47.68717,"Longitude":17.62605}},"Address":{"Label":"Bercsényi liget, Győr 9025, Magyarország","Country":"HUN","State":"Győr-Moson-Sopron","County":"Győri Járás","City":"Győr","District":"Győr","Street":"Bercsényi liget","PostalCode":"9025","AdditionalData":[{"value":"Magyarország","key":"CountryName"},{"value":"Győr-Moson-Sopron","key":"StateName"},{"value":"Győri Járás","key":"CountyName"}]},"MapReference":{"ReferenceId":"818753049","Spot":1.0,"SideOfStreet":"right","CountryId":"20613038","StateId":"20616900","CountyId":"26679915","CityId":"20617089","DistrictId":"26680122"}}},{"Relevance":1.0,"Distance":49.1,"MatchLevel":"street","MatchQuality":{"Country":1.0,"State":1.0,"County":1.0,"City":1.0,"District":1.0,"Street":[1.0],"PostalCode":1.0},"Location":{"LocationId":"NT_3iF9Y2Sbyzjb0vQDvepaGA_l_598472880_R","LocationType":"point","DisplayPosition":{"Latitude":47.68708,"Longitude":17.62656},"MapView":{"TopLeft":{"Latitude":47.68708,"Longitude":17.62656},"BottomRight":{"Latitude":47.68692,"Longitude":17.62683}},"Address":{"Label":"Híd utca, Győr 9025, Magyarország","Country":"HUN","State":"Győr-Moson-Sopron","County":"Győri Járás","City":"Győr","District":"Győr","Street":"Híd utca","PostalCode":"9025","AdditionalData":[{"value":"Magyarország","key":"CountryName"},{"value":"Győr-Moson-Sopron","key":"StateName"},{"value":"Győri Járás","key":"CountyName"}]},"MapReference":{"ReferenceId":"598472880","Spot":1.0,"SideOfStreet":"right","CountryId":"20613038","StateId":"20616900","CountyId":"26679915","CityId":"20617089","DistrictId":"26680122"}}},{"Relevance":1.0,"Distance":49.1,"MatchLevel":"street","MatchQuality":{"Country":1.0,"State":1.0,"County":1.0,"City":1.0,"District":1.0,"Street":[1.0],"PostalCode":1.0},"Location":{"LocationId":"NT_6bkte-ukCqmapQLPjMOp2D_l_598472878_L","LocationType":"point","DisplayPosition":{"Latitude":47.68708,"Longitude":17.62656},"MapView":{"TopLeft":{"Latitude":47.68708,"Longitude":17.62543},"BottomRight":{"Latitude":47.68638,"Longitude":17.62656}},"Address":{"Label":"Bercsényi liget, Győr 9025, Magyarország","Country":"HUN","State":"Győr-Moson-Sopron","County":"Győri Járás","City":"Győr","District":"Győr","Street":"Bercsényi liget","PostalCode":"9025","AdditionalData":[{"value":"Magyarország","key":"CountryName"},{"value":"Győr-Moson-Sopron","key":"StateName"},{"value":"Győri Járás","key":"CountyName"}]},"MapReference":{"ReferenceId":"598472878","Spot":1.0,"SideOfStreet":"left","CountryId":"20613038","StateId":"20616900","CountyId":"26679915","CityId":"20617089","DistrictId":"26680122"}}},{"Relevance":1.0,"Distance":62.9,"MatchLevel":"houseNumber","MatchQuality":{"Country":1.0,"State":1.0,"County":1.0,"City":1.0,"District":1.0,"Street":[1.0],"HouseNumber":1.0,"PostalCode":1.0},"MatchType":"interpolated","Location":{"LocationId":"NT_1aPVtRtmrY18h6R3lGKR7B_1A","LocationType":"point","DisplayPosition":{"Latitude":47.68692,"Longitude":17.62698},"MapView":{"TopLeft":{"Latitude":47.6880442,"Longitude":17.6253101},"BottomRight":{"Latitude":47.6857958,"Longitude":17.6286499}},"Address":{"Label":"Ráth Mátyás tér 5, Győr 9025, Magyarország","Country":"HUN","State":"Győr-Moson-Sopron","County":"Győri Járás","City":"Győr","District":"Győr","Street":"Ráth Mátyás tér","HouseNumber":"5","PostalCode":"9025","AdditionalData":[{"value":"Magyarország","key":"CountryName"},{"value":"Győr-Moson-Sopron","key":"StateName"},{"value":"Győri Járás","key":"CountyName"}]},"MapReference":{"ReferenceId":"913162044","Spot":0.05,"SideOfStreet":"left","CountryId":"20613038","StateId":"20616900","CountyId":"26679915","CityId":"20617089","DistrictId":"26680122","AddressId":"357082824","RoadLinkId":"270924225"}}},{"Relevance":1.0,"Distance":65.7,"MatchLevel":"houseNumber","MatchQuality":{"Country":1.0,"State":1.0,"County":1.0,"City":1.0,"District":1.0,"Street":[1.0],"HouseNumber":1.0,"PostalCode":1.0},"MatchType":"interpolated","Location":{"LocationId":"NT_QeqHz2kDofseZYsO3h31uB_xA","LocationType":"point","DisplayPosition":{"Latitude":47.68814,"Longitude":17.62611},"MapView":{"TopLeft":{"Latitude":47.6892642,"Longitude":17.6244401},"BottomRight":{"Latitude":47.6870158,"Longitude":17.6277799}},"Address":{"Label":"Fürdő tér 1, Győr 9025, Magyarország","Country":"HUN","State":"Győr-Moson-Sopron","County":"Győri Járás","City":"Győr","District":"Győr","Street":"Fürdő tér","HouseNumber":"1","PostalCode":"9025","AdditionalData":[{"value":"Magyarország","key":"CountryName"},{"value":"Győr-Moson-Sopron","key":"StateName"},{"value":"Győri Járás","key":"CountyName"}]},"MapReference":{"ReferenceId":"598284329","Spot":0.39,"SideOfStreet":"right","CountryId":"20613038","StateId":"20616900","CountyId":"26679915","CityId":"20617089","DistrictId":"26680122","AddressId":"356348875","RoadLinkId":"60672704"}}}]}]}}