{"Response":{"MetaInfo":{"Timestamp":"2020-03-28T11:41:48.645+0000","NextPageInformation":"2"},"View":[{"_type":"SearchResultsViewType","ViewId":0,"Result":[{"Relevance":1.0,"Distance":-28.1,"MatchLevel":"landmark","MatchQuality":{"Country":1.0,"State":1.0,"County":1.0,"City":1.0,"District":1.0,"Street":[1.0],"HouseNumber":1.0,"PostalCode":1.0,"Name":1.0},"Location":{"LocationId":"NT_a3.HLxWUgdwVhAKIe-lMgB_p_gxcYlCMTrdH3J5lE7NpMqA","LocationType":"hospital","Name":"Spital Waldshut","DisplayPosition":{"Latitude":47.6229,"Longitude":8.20868},"MapView":{"TopLeft":{"Latitude":47.6240242,"Longitude":8.2070121},"BottomRight":{"Latitude":47.6217758,"Longitude":8.2103479}},"Address":{"Label":"Kaiserstraße 93, 79761 Waldshut-Tiengen, Deutschland","Country":"DEU","State":"Baden-Württemberg","County":"Waldshut","City":"Waldshut-Tiengen","District":"Waldshut","Street":"Kaiserstraße","HouseNumber":"93","PostalCode":"79761","AdditionalData":[{"value":"Deutschland","key":"CountryName"},{"value":"Baden-Württemberg","key":"StateName"},{"value":"Waldshut","key":"CountyName"}]},"MapReference":{"CountryId":"20147700","StateId":"20171489","CountyId":"20175669","CityId":"20175829","DistrictId":"20175839","PlaceId":"57560428"}}},{"Relevance":1.0,"Distance":0.0,"Direction":0.0,"MatchLevel":"district","MatchQuality":{"Country":1.0,"State":1.0,"County":1.0,"City":1.0,"District":1.0,"PostalCode":1.0},"Location":{"LocationId":"NT_7D.dF8lqKwygVr3smHs2PC","LocationType":"point","DisplayPosition":{"Latitude":47.6226554,"Longitude":8.2088941},"MapView":{"TopLeft":{"Latitude":47.63359,"Longitude":8.19682},"BottomRight":{"Latitude":47.61569,"Longitude":8.23172}},"Address":{"Label":"Waldshut, Waldshut-Tiengen, Baden-Württemberg, Deutschland","Country":"DEU","State":"Baden-Württemberg","County":"Waldshut","City":"Waldshut-Tiengen","District":"Waldshut","PostalCode":"79761","AdditionalData":[{"value":"Deutschland","key":"CountryName"},{"value":"Baden-Württemberg","key":"StateName"},{"value":"Waldshut","key":"CountyName"}]},"MapReference":{"ReferenceId":"72894872","SideOfStreet":"neither","CountryId":"20147700","StateId":"20171489","CountyId":"20175669","CityId":"20175829","DistrictId":"20175839"}}},{"Relevance":1.0,"Distance":19.7,"MatchLevel":"houseNumber","MatchQuality":{"Country":1.0,"State":1.0,"County":1.0,"City":1.0,"District":1.0,"Street":[1.0],"HouseNumber":1.0,"PostalCode":1.0},"MatchType":"interpolated","Location":{"LocationId":"NT_NzBcRtE66ZX48gaHPWltWB_5MD","LocationType":"point","DisplayPosition":{"Latitude":47.62291,"Longitude":8.20893},"MapView":{"TopLeft":{"Latitude":47.6240342,"Longitude":8.2072621},"BottomRight":{"Latitude":47.6217858,"Longitude":8.2105979}},"Address":{"Label":"Kaiserstraße 93, 79761 Waldshut-Tiengen, Deutschland","Country":"DEU","State":"Baden-Württemberg","County":"Waldshut","City":"Waldshut-Tiengen","District":"Waldshut","Street":"Kaiserstraße","HouseNumber":"93","PostalCode":"79761","AdditionalData":[{"value":"Deutschland","key":"CountryName"},{"value":"Baden-Württemberg","key":"StateName"},{"value":"Waldshut","key":"CountyName"}]},"MapReference":{"ReferenceId":"799446241","Spot":0.81,"SideOfStreet":"right","CountryId":"20147700","StateId":"20171489","CountyId":"20175669","CityId":"20175829","DistrictId":"20175839","AddressId":"179063638","RoadLinkId":"190194536"}}},{"Relevance":1.0,"Distance":44.3,"MatchLevel":"houseNumber","MatchQuality":{"Country":1.0,"State":1.0,"County":1.0,"City":1.0,"District":1.0,"Street":[1.0],"HouseNumber":1.0,"PostalCode":1.0},"MatchType":"interpolated","Location":{"LocationId":"NT_NzBcRtE66ZX48gaHPWltWB_5ED","LocationType":"point","DisplayPosition":{"Latitude":47.62293,"Longitude":8.20944},"MapView":{"TopLeft":{"Latitude":47.6240542,"Longitude":8.2077721},"BottomRight":{"Latitude":47.6218058,"Longitude":8.2111079}},"Address":{"Label":"Kaiserstraße 91, 79761 Waldshut-Tiengen, Deutschland","Country":"DEU","State":"Baden-Württemberg","County":"Waldshut","City":"Waldshut-Tiengen","District":"Waldshut","Street":"Kaiserstraße","HouseNumber":"91","PostalCode":"79761","AdditionalData":[{"value":"Deutschland","key":"CountryName"},{"value":"Baden-Württemberg","key":"StateName"},{"value":"Waldshut","key":"CountyName"}]},"MapReference":{"ReferenceId":"799446242","Spot":0.43,"SideOfStreet":"right","CountryId":"20147700","StateId":"20171489","CountyId":"20175669","CityId":"20175829","DistrictId":"20175839","AddressId":"179212648","RoadLinkId":"190194537"}}},{"Relevance":1.0,"Distance":68.2,"MatchLevel":"street","MatchQuality":{"Country":1.0,"State":1.0,"County":1.0,"City":1.0,"District":1.0,"Street":[1.0],"PostalCode":1.0},"Location":{"LocationId":"NT_yLl8SFT1-j1cPJ5gywSPHD_l_78592783_R","LocationType":"point","DisplayPosition":{"Latitude":47.62312,"Longitude":8.2083},"MapView":{"TopLeft":{"Latitude":47.62318,"Longitude":8.20773},"BottomRight":{"Latitude":47.62292,"Longitude":8.20831}},"Address":{"Label":"B500, 79761 Waldshut-Tiengen, Deutschland","Country":"DEU","State":"Baden-Württemberg","County":"Waldshut","City":"Waldshut-Tiengen","District":"Waldshut","Street":"B500","PostalCode":"79761","AdditionalData":[{"value":"Deutschland","key":"CountryName"},{"value":"Baden-Württemberg","key":"StateName"},{"value":"Waldshut","key":"CountyName"}]},"MapReference":{"ReferenceId":"78592783","Spot":0.91,"SideOfStreet":"right","CountryId":"20147700","StateId":"20171489","CountyId":"20175669","CityId":"20175829","DistrictId":"20175839"}}},{"Relevance":1.0,"Distance":70.0,"MatchLevel":"houseNumber","MatchQuality":{"Country":1.0,"State":1.0,"County":1.0,"City":1.0,"District":1.0,"Street":[1.0],"HouseNumber":1.0,"PostalCode":1.0},"MatchType":"interpolated","Location":{"LocationId":"NT_NzBcRtE66ZX48gaHPWltWB_4kD","LocationType":"point","DisplayPosition":{"Latitude":47.62287,"Longitude":8.20998},"MapView":{"TopLeft":{"Latitude":47.6239942,"Longitude":8.2083121},"BottomRight":{"Latitude":47.6217458,"Longitude":8.2116479}},"Address":{"Label":"Kaiserstraße 89, 79761 Waldshut-Tiengen, Deutschland","Country":"DEU","State":"Baden-Württemberg","County":"Waldshut","City":"Waldshut-Tiengen","District":"Waldshut","Street":"Kaiserstraße","HouseNumber":"89","PostalCode":"79761","AdditionalData":[{"value":"Deutschland","key":"CountryName"},{"value":"Baden-Württemberg","key":"StateName"},{"value":"Waldshut","key":"CountyName"}]},"MapReference":{"ReferenceId":"72894641","Spot":0.58,"SideOfStreet":"left","CountryId":"20147700","StateId":"20171489","CountyId":"20175669","CityId":"20175829","DistrictId":"20175839","AddressId":"180057748","RoadLinkId":"38616884"}}},{"Relevance":1.0,"Distance":72.9,"MatchLevel":"street","MatchQuality":{"Country":1.0,"State":1.0,"County":1.0,"City":1.0,"District":1.0,"Street":[1.0],"PostalCode":1.0},"Location":{"LocationId":"NT_yLl8SFT1-j1cPJ5gywSPHD_l_78592787_R","LocationType":"point","DisplayPosition":{"Latitude":47.62318,"Longitude":8.20831},"MapView":{"TopLeft":{"Latitude":47.62338,"Longitude":8.20825},"BottomRight":{"Latitude":47.62318,"Longitude":8.20831}},"Address":{"Label":"B500, 79761 Waldshut-Tiengen, Deutschland","Country":"DEU","State":"Baden-Württemberg","County":"Waldshut","City":"Waldshut-Tiengen","District":"Waldshut","Street":"B500","PostalCode":"79761","AdditionalData":[{"value":"Deutschland","key":"CountryName"},{"value":"Baden-Württemberg","key":"StateName"},{"value":"Waldshut","key":"CountyName"}]},"MapReference":{"ReferenceId":"78592787","Spot":0.0,"SideOfStreet":"right","CountryId":"20147700","StateId":"20171489","CountyId":"20175669","CityId":"20175829","DistrictId":"20175839"}}},{"Relevance":1.0,"Distance":73.0,"MatchLevel":"street","MatchQuality":{"Country":1.0,"State":1.0,"County":1.0,"City":1.0,"District":1.0,"Street":[1.0],"PostalCode":1.0},"Location":{"LocationId":"NT_NzBcRtE66ZX48gaHPWltWB_l_78592784_L","LocationType":"point","DisplayPosition":{"Latitude":47.62284,"Longitude":8.20796},"MapView":{"TopLeft":{"Latitude":47.62294,"Longitude":8.20717},"BottomRight":{"Latitude":47.62282,"Longitude":8.20796}},"Address":{"Label":"Kaiserstraße, 79761 Waldshut-Tiengen, Deutschland","Country":"DEU","State":"Baden-Württemberg","County":"Waldshut","City":"Waldshut-Tiengen","District":"Waldshut","Street":"Kaiserstraße","PostalCode":"79761","AdditionalData":[{"value":"Deutschland","key":"CountryName"},{"value":"Baden-Württemberg","key":"StateName"},{"value":"Waldshut","key":"CountyName"}]},"MapReference":{"ReferenceId":"78592784","Spot":0.0,"SideOfStreet":"left","CountryId":"20147700","StateId":"20171489","CountyId":"20175669","CityId":"20175829","DistrictId":"20175839"}}},{"Relevance":1.0,"Distance":77.9,"MatchLevel":"houseNumber","MatchQuality":{"Country":1.0,"State":1.0,"County":1.0,"City":1.0,"District":1.0,"Street":[1.0],"HouseNumber":1.0,"PostalCode":1.0},"MatchType":"interpolated","Location":{"LocationId":"NT_C0TzreVaFNJ.470LafzTIA_xADM","LocationType":"point","DisplayPosition":{"Latitude":47.62297,"Longitude":8.20981},"MapView":{"TopLeft":{"Latitude":47.6240942,"Longitude":8.2081421},"BottomRight":{"Latitude":47.6218458,"Longitude":8.2114779}},"Address":{"Label":"Im Wallgraben 100, 79761 Waldshut-Tiengen, Deutschland","Country":"DEU","State":"Baden-Württemberg","County":"Waldshut","City":"Waldshut-Tiengen","District":"Waldshut","Street":"Im Wallgraben","HouseNumber":"100","PostalCode":"79761","AdditionalData":[{"value":"Deutschland","key":"CountryName"},{"value":"Baden-Württemberg","key":"StateName"},{"value":"Waldshut","key":"CountyName"}]},"MapReference":{"ReferenceId":"867123621","Spot":0.0,"SideOfStreet":"left","CountryId":"20147700","StateId":"20171489","CountyId":"20175669","CityId":"20175829","DistrictId":"20175839","AddressId":"256053352","RoadLinkId":"239923168"}}},{"Relevance":1.0,"Distance":79.8,"MatchLevel":"street","MatchQuality":{"Country":1.0,"State":1.0,"County":1.0,"City":1.0,"District":1.0,"PostalCode":1.0},"Location":{"LocationId":"NT_eFrCKEyJu.mHuoQs6Dj9iD_l_1041040577_R","LocationType":"point","DisplayPosition":{"Latitude":47.6219379,"Longitude":8.2088594},"MapView":{"TopLeft":{"Latitude":47.62205,"Longitude":8.20584},"BottomRight":{"Latitude":47.62125,"Longitude":8.21302}},"Address":{"Label":"79761 Waldshut-Tiengen, Deutschland","Country":"DEU","State":"Baden-Württemberg","County":"Waldshut","City":"Waldshut-Tiengen","District":"Waldshut","PostalCode":"79761","AdditionalData":[{"value":"Deutschland","key":"CountryName"},{"value":"Baden-Württemberg","key":"StateName"},{"value":"Waldshut","key":"CountyName"}]},"MapReference":{"ReferenceId":"1041040577","Spot":0.58,"SideOfStreet":"right","CountryId":"20147700","StateId":"20171489","CountyId":"20175669","CityId":"20175829","DistrictId":"20175839"}}}]}]}}