{"Response":{"MetaInfo":{"Timestamp":"2020-03-28T11:50:28.534+0000","NextPageInformation":"2"},"View":[{"_type":"SearchResultsViewType","ViewId":0,"Result":[{"Relevance":1.0,"Distance":0.0,"Direction":0.0,"MatchLevel":"district","MatchQuality":{"Country":1.0,"State":1.0,"County":1.0,"City":1.0,"District":1.0,"PostalCode":1.0},"Location":{"LocationId":"NT_JScPPnt.YWXOtWs8am35mD","LocationType":"point","DisplayPosition":{"Latitude":47.697851,"Longitude":-2.342455},"MapView":{"TopLeft":{"Latitude":47.71121,"Longitude":-2.36358},"BottomRight":{"Latitude":47.68423,"Longitude":-2.3235}},"Address":{"Label":"La Vacherie, Rochefort-en-Terre, Bretagne, France","Country":"FRA","State":"Bretagne","County":"Morbihan","City":"Rochefort-en-Terre","District":"La Vacherie","PostalCode":"56220","AdditionalData":[{"value":"France","key":"CountryName"},{"value":"Bretagne","key":"StateName"},{"value":"Morbihan","key":"CountyName"}]},"MapReference":{"ReferenceId":"983717051","SideOfStreet":"neither","CountryId":"20000001","StateId":"20060199","CountyId":"20074367","CityId":"20074957"}}},{"Relevance":1.0,"Distance":12.0,"MatchLevel":"houseNumber","MatchQuality":{"Country":1.0,"State":1.0,"County":1.0,"City":1.0,"Street":[1.0],"HouseNumber":1.0,"PostalCode":1.0},"MatchType":"interpolated","Location":{"LocationId":"NT_h9pDG3gLjuqBEzVZVZuwqC_1A","LocationType":"point","DisplayPosition":{"Latitude":47.69796,"Longitude":-2.3426},"MapView":{"TopLeft":{"Latitude":47.6990842,"Longitude":-2.3442703},"BottomRight":{"Latitude":47.6968358,"Longitude":-2.3409297}},"Address":{"Label":"5 Rue de Graslin, 56220 Rochefort-en-Terre, France","Country":"FRA","State":"Bretagne","County":"Morbihan","City":"Rochefort-en-Terre","Street":"Rue de Graslin","HouseNumber":"5","PostalCode":"56220","AdditionalData":[{"value":"France","key":"CountryName"},{"value":"Bretagne","key":"StateName"},{"value":"Morbihan","key":"CountyName"}]},"MapReference":{"ReferenceId":"808102574","Spot":0.47,"SideOfStreet":"right","CountryId":"20000001","StateId":"20060199","CountyId":"20074367","CityId":"20074957","AddressId":"320365064","RoadLinkId":"195441683"}}},{"Relevance":1.0,"Distance":50.9,"MatchLevel":"houseNumber","MatchQuality":{"Country":1.0,"State":1.0,"County":1.0,"City":1.0,"Street":[1.0],"HouseNumber":1.0,"PostalCode":1.0},"MatchType":"interpolated","Location":{"LocationId":"NT_h9pDG3gLjuqBEzVZVZuwqC_4A","LocationType":"point","DisplayPosition":{"Latitude":47.69815,"Longitude":-2.34194},"MapView":{"TopLeft":{"Latitude":47.6992742,"Longitude":-2.3436103},"BottomRight":{"Latitude":47.6970258,"Longitude":-2.3402697}},"Address":{"Label":"8 Rue de Graslin, 56220 Rochefort-en-Terre, France","Country":"FRA","State":"Bretagne","County":"Morbihan","City":"Rochefort-en-Terre","Street":"Rue de Graslin","HouseNumber":"8","PostalCode":"56220","AdditionalData":[{"value":"France","key":"CountryName"},{"value":"Bretagne","key":"StateName"},{"value":"Morbihan","key":"CountyName"}]},"MapReference":{"ReferenceId":"905901962","Spot":0.38,"SideOfStreet":"left","CountryId":"20000001","StateId":"20060199","CountyId":"20074367","CityId":"20074957","AddressId":"590855665","RoadLinkId":"266801905"}}},{"Relevance":1.0,"Distance":54.6,"MatchLevel":"houseNumber","MatchQuality":{"Country":1.0,"State":1.0,"County":1.0,"City":1.0,"Street":[1.0],"HouseNumber":1.0,"PostalCode":1.0},"MatchType":"interpolated","Location":{"LocationId":"NT_h9pDG3gLjuqBEzVZVZuwqC_xA","LocationType":"point","DisplayPosition":{"Latitude":47.69799,"Longitude":-2.34171},"MapView":{"TopLeft":{"Latitude":47.6991142,"Longitude":-2.3433803},"BottomRight":{"Latitude":47.6968658,"Longitude":-2.3400397}},"Address":{"Label":"1 Rue de Graslin, 56220 Rochefort-en-Terre, France","Country":"FRA","State":"Bretagne","County":"Morbihan","City":"Rochefort-en-Terre","Street":"Rue de Graslin","HouseNumber":"1","PostalCode":"56220","AdditionalData":[{"value":"France","key":"CountryName"},{"value":"Bretagne","key":"StateName"},{"value":"Morbihan","key":"CountyName"}]},"MapReference":{"ReferenceId":"814349135","Spot":0.12,"SideOfStreet":"right","CountryId":"20000001","StateId":"20060199","CountyId":"20074367","CityId":"20074957","AddressId":"570466233","RoadLinkId":"201646136"}}},{"Relevance":1.0,"Distance":85.0,"MatchLevel":"houseNumber","MatchQuality":{"Country":1.0,"State":1.0,"County":1.0,"City":1.0,"Street":[1.0],"HouseNumber":1.0,"PostalCode":1.0},"MatchType":"interpolated","Location":{"LocationId":"NT_MPpVAAZia4yfhRBk.FATQA_l_905901963_R_zA","LocationType":"point","DisplayPosition":{"Latitude":47.6982729,"Longitude":-2.34142},"MapView":{"TopLeft":{"Latitude":47.6993971,"Longitude":-2.3430902},"BottomRight":{"Latitude":47.6971488,"Longitude":-2.3397497}},"Address":{"Label":"3 Rue de Graslin, 56220 Rochefort-en-Terre, France","Country":"FRA","State":"Bretagne","County":"Morbihan","City":"Rochefort-en-Terre","Street":"Rue de Graslin","HouseNumber":"3","PostalCode":"56220","AdditionalData":[{"value":"France","key":"CountryName"},{"value":"Bretagne","key":"StateName"},{"value":"Morbihan","key":"CountyName"}]},"MapReference":{"ReferenceId":"905901963","Spot":0.51,"SideOfStreet":"right","CountryId":"20000001","StateId":"20060199","CountyId":"20074367","CityId":"20074957"}}},{"Relevance":1.0,"Distance":89.5,"MatchLevel":"houseNumber","MatchQuality":{"Country":1.0,"State":1.0,"County":1.0,"City":1.0,"Street":[1.0],"HouseNumber":1.0,"PostalCode":1.0},"MatchType":"interpolated","Location":{"LocationId":"NT_h9pDG3gLjuqBEzVZVZuwqC_5A","LocationType":"point","DisplayPosition":{"Latitude":47.6977,"Longitude":-2.34363},"MapView":{"TopLeft":{"Latitude":47.6988242,"Longitude":-2.3453003},"BottomRight":{"Latitude":47.6965758,"Longitude":-2.3419597}},"Address":{"Label":"9 Rue de Graslin, 56220 Rochefort-en-Terre, France","Country":"FRA","State":"Bretagne","County":"Morbihan","City":"Rochefort-en-Terre","Street":"Rue de Graslin","HouseNumber":"9","PostalCode":"56220","AdditionalData":[{"value":"France","key":"CountryName"},{"value":"Bretagne","key":"StateName"},{"value":"Morbihan","key":"CountyName"}]},"MapReference":{"ReferenceId":"983717051","Spot":0.4,"SideOfStreet":"right","CountryId":"20000001","StateId":"20060199","CountyId":"20074367","CityId":"20074957","AddressId":"590787241","RoadLinkId":"314978444"}}},{"Relevance":1.0,"Distance":102.0,"MatchLevel":"houseNumber","MatchQuality":{"Country":1.0,"State":1.0,"County":1.0,"City":1.0,"Street":[1.0],"HouseNumber":1.0,"PostalCode":1.0},"MatchType":"interpolated","Location":{"LocationId":"NT_mK21cnICSv4kN.NN-1xmkC_l_905901977_L_3A","LocationType":"point","DisplayPosition":{"Latitude":47.6987369,"Longitude":-2.3416508},"MapView":{"TopLeft":{"Latitude":47.6998611,"Longitude":-2.3433211},"BottomRight":{"Latitude":47.6976128,"Longitude":-2.3399806}},"Address":{"Label":"7 Rue Saint-Roch, 56220 Rochefort-en-Terre, France","Country":"FRA","State":"Bretagne","County":"Morbihan","City":"Rochefort-en-Terre","Street":"Rue Saint-Roch","HouseNumber":"7","PostalCode":"56220","AdditionalData":[{"value":"France","key":"CountryName"},{"value":"Bretagne","key":"StateName"},{"value":"Morbihan","key":"CountyName"}]},"MapReference":{"ReferenceId":"905901977","Spot":0.54,"SideOfStreet":"left","CountryId":"20000001","StateId":"20060199","CountyId":"20074367","CityId":"20074957"}}},{"Relevance":1.0,"Distance":105.8,"MatchLevel":"houseNumber","MatchQuality":{"Country":1.0,"State":1.0,"County":1.0,"City":1.0,"Street":[1.0],"HouseNumber":1.0,"PostalCode":1.0},"MatchType":"interpolated","Location":{"LocationId":"NT_9c4OAprZqlWeUNWAeZK7gC_1A","LocationType":"point","DisplayPosition":{"Latitude":47.69884,"Longitude":-2.34219},"MapView":{"TopLeft":{"Latitude":47.6999642,"Longitude":-2.3438603},"BottomRight":{"Latitude":47.6977158,"Longitude":-2.3405197}},"Address":{"Label":"5 Rue Saint-Roch, 56220 Rochefort-en-Terre, France","Country":"FRA","State":"Bretagne","County":"Morbihan","City":"Rochefort-en-Terre","Street":"Rue Saint-Roch","HouseNumber":"5","PostalCode":"56220","AdditionalData":[{"value":"France","key":"CountryName"},{"value":"Bretagne","key":"StateName"},{"value":"Morbihan","key":"CountyName"}]},"MapReference":{"ReferenceId":"883619826","Spot":1.0,"SideOfStreet":"left","CountryId":"20000001","StateId":"20060199","CountyId":"20074367","CityId":"20074957","AddressId":"320250396","RoadLinkId":"250789535"}}},{"Relevance":1.0,"Distance":112.9,"MatchLevel":"houseNumber","MatchQuality":{"Country":1.0,"State":1.0,"County":1.0,"City":1.0,"Street":[1.0],"HouseNumber":1.0,"PostalCode":1.0},"MatchType":"interpolated","Location":{"LocationId":"NT_mK21cnICSv4kN.NN-1xmkC_l_905901976_L_1A","LocationType":"point","DisplayPosition":{"Latitude":47.6986803,"Longitude":-2.341332},"MapView":{"TopLeft":{"Latitude":47.6998045,"Longitude":-2.3430023},"BottomRight":{"Latitude":47.6975562,"Longitude":-2.3396617}},"Address":{"Label":"5 Rue Saint-Roch, 56220 Rochefort-en-Terre, France","Country":"FRA","State":"Bretagne","County":"Morbihan","City":"Rochefort-en-Terre","Street":"Rue Saint-Roch","HouseNumber":"5","PostalCode":"56220","AdditionalData":[{"value":"France","key":"CountryName"},{"value":"Bretagne","key":"StateName"},{"value":"Morbihan","key":"CountyName"}]},"MapReference":{"ReferenceId":"905901976","Spot":0.53,"SideOfStreet":"left","CountryId":"20000001","StateId":"20060199","CountyId":"20074367","CityId":"20074957"}}},{"Relevance":1.0,"Distance":115.5,"MatchLevel":"houseNumber","MatchQuality":{"Country":1.0,"State":1.0,"County":1.0,"City":1.0,"Street":[1.0],"HouseNumber":1.0,"PostalCode":1.0},"MatchType":"interpolated","Location":{"LocationId":"NT_h9pDG3gLjuqBEzVZVZuwqC_xgD","LocationType":"point","DisplayPosition":{"Latitude":47.69769,"Longitude":-2.34398},"MapView":{"TopLeft":{"Latitude":47.6988142,"Longitude":-2.3456503},"BottomRight":{"Latitude":47.6965658,"Longitude":-2.3423097}},"Address":{"Label":"18 Rue de Graslin, 56220 Rochefort-en-Terre, France","Country":"FRA","State":"Bretagne","County":"Morbihan","City":"Rochefort-en-Terre","Street":"Rue de Graslin","HouseNumber":"18","PostalCode":"56220","AdditionalData":[{"value":"France","key":"CountryName"},{"value":"Bretagne","key":"StateName"},{"value":"Morbihan","key":"CountyName"}]},"MapReference":{"ReferenceId":"983717052","Spot":0.18,"SideOfStreet":"left","CountryId":"20000001","StateId":"20060199","CountyId":"20074367","CityId":"20074957","AddressId":"590805271","RoadLinkId":"314978447"}}}]}]}}