{"Response":{"MetaInfo":{"Timestamp":"2020-03-28T11:21:55.002+0000","NextPageInformation":"2"},"View":[{"_type":"SearchResultsViewType","ViewId":0,"Result":[{"Relevance":1.0,"Distance":0.0,"Direction":0.0,"MatchLevel":"district","MatchQuality":{"Country":1.0,"State":1.0,"County":1.0,"City":1.0,"District":1.0,"PostalCode":1.0},"Location":{"LocationId":"NT_mR3RmS9rOKJpUIO-L0ZG0B","LocationType":"point","DisplayPosition":{"Latitude":47.6963129,"Longitude":16.5817516},"MapView":{"TopLeft":{"Latitude":47.7053,"Longitude":16.53447},"BottomRight":{"Latitude":47.65832,"Longitude":16.62362}},"Address":{"Label":"Sopron, Győr-Moson-Sopron, Magyarország","Country":"HUN","State":"Győr-Moson-Sopron","County":"Soproni Járás","City":"Sopron","District":"Sopron","PostalCode":"9400","AdditionalData":[{"value":"Magyarország","key":"CountryName"},{"value":"Győr-Moson-Sopron","key":"StateName"},{"value":"Soproni Járás","key":"CountyName"}]},"MapReference":{"ReferenceId":"583923115","SideOfStreet":"neither","CountryId":"20613038","StateId":"20616900","CountyId":"26679919","CityId":"20617376","DistrictId":"26680188"}}},{"Relevance":1.0,"Distance":13.0,"MatchLevel":"street","MatchQuality":{"Country":1.0,"State":1.0,"County":1.0,"City":1.0,"District":1.0,"Street":[1.0],"PostalCode":1.0},"Location":{"LocationId":"NT_WmL38A2BNRc16Q1Yi0e1JD_l_840189506_R","LocationType":"point","DisplayPosition":{"Latitude":47.69627,"Longitude":16.58159},"MapView":{"TopLeft":{"Latitude":47.69656,"Longitude":16.5815},"BottomRight":{"Latitude":47.69627,"Longitude":16.58159}},"Address":{"Label":"Uszoda utca, Sopron 9400, Magyarország","Country":"HUN","State":"Győr-Moson-Sopron","County":"Soproni Járás","City":"Sopron","District":"Sopron","Street":"Uszoda utca","PostalCode":"9400","AdditionalData":[{"value":"Magyarország","key":"CountryName"},{"value":"Győr-Moson-Sopron","key":"StateName"},{"value":"Soproni Járás","key":"CountyName"}]},"MapReference":{"ReferenceId":"840189506","Spot":0.0,"SideOfStreet":"right","CountryId":"20613038","StateId":"20616900","CountyId":"26679919","CityId":"20617376","DistrictId":"26680188"}}},{"Relevance":1.0,"Distance":13.0,"MatchLevel":"street","MatchQuality":{"Country":1.0,"State":1.0,"County":1.0,"City":1.0,"District":1.0,"Street":[1.0],"PostalCode":1.0},"Location":{"LocationId":"NT_WmL38A2BNRc16Q1Yi0e1JD_l_840189509_R","LocationType":"point","DisplayPosition":{"Latitude":47.69627,"Longitude":16.58159},"MapView":{"TopLeft":{"Latitude":47.69627,"Longitude":16.58135},"BottomRight":{"Latitude":47.69619,"Longitude":16.58159}},"Address":{"Label":"Uszoda utca, Sopron 9400, Magyarország","Country":"HUN","State":"Győr-Moson-Sopron","County":"Soproni Járás","City":"Sopron","District":"Sopron","Street":"Uszoda utca","PostalCode":"9400","AdditionalData":[{"value":"Magyarország","key":"CountryName"},{"value":"Győr-Moson-Sopron","key":"StateName"},{"value":"Soproni Járás","key":"CountyName"}]},"MapReference":{"ReferenceId":"840189509","Spot":1.0,"SideOfStreet":"right","CountryId":"20613038","StateId":"20616900","CountyId":"26679919","CityId":"20617376","DistrictId":"26680188"}}},{"Relevance":1.0,"Distance":13.8,"MatchLevel":"street","MatchQuality":{"Country":1.0,"State":1.0,"County":1.0,"City":1.0,"District":1.0,"Street":[1.0],"PostalCode":1.0},"Location":{"LocationId":"NT_WmL38A2BNRc16Q1Yi0e1JD_l_840189505_R","LocationType":"point","DisplayPosition":{"Latitude":47.6962282,"Longitude":16.5816161},"MapView":{"TopLeft":{"Latitude":47.69627,"Longitude":16.58159},"BottomRight":{"Latitude":47.69591,"Longitude":16.58187}},"Address":{"Label":"Uszoda utca, Sopron 9400, Magyarország","Country":"HUN","State":"Győr-Moson-Sopron","County":"Soproni Járás","City":"Sopron","District":"Sopron","Street":"Uszoda utca","PostalCode":"9400","AdditionalData":[{"value":"Magyarország","key":"CountryName"},{"value":"Győr-Moson-Sopron","key":"StateName"},{"value":"Soproni Járás","key":"CountyName"}]},"MapReference":{"ReferenceId":"840189505","Spot":0.89,"SideOfStreet":"right","CountryId":"20613038","StateId":"20616900","CountyId":"26679919","CityId":"20617376","DistrictId":"26680188"}}},{"Relevance":1.0,"Distance":33.0,"MatchLevel":"street","MatchQuality":{"Country":1.0,"State":1.0,"County":1.0,"City":1.0,"District":1.0,"Street":[1.0],"PostalCode":1.0},"Location":{"LocationId":"NT_oUg37YtTMvoZPA6HKzcdZD_l_840189508_R","LocationType":"point","DisplayPosition":{"Latitude":47.69619,"Longitude":16.58135},"MapView":{"TopLeft":{"Latitude":47.69644,"Longitude":16.58124},"BottomRight":{"Latitude":47.69619,"Longitude":16.58135}},"Address":{"Label":"Lackner Kristóf utca, Sopron 9400, Magyarország","Country":"HUN","State":"Győr-Moson-Sopron","County":"Soproni Járás","City":"Sopron","District":"Sopron","Street":"Lackner Kristóf utca","PostalCode":"9400","AdditionalData":[{"value":"Magyarország","key":"CountryName"},{"value":"Győr-Moson-Sopron","key":"StateName"},{"value":"Soproni Járás","key":"CountyName"}]},"MapReference":{"ReferenceId":"840189508","Spot":0.0,"SideOfStreet":"right","CountryId":"20613038","StateId":"20616900","CountyId":"26679919","CityId":"20617376","DistrictId":"26680188"}}},{"Relevance":1.0,"Distance":34.4,"MatchLevel":"street","MatchQuality":{"Country":1.0,"State":1.0,"County":1.0,"City":1.0,"District":1.0,"Street":[1.0],"PostalCode":1.0},"Location":{"LocationId":"NT_oUg37YtTMvoZPA6HKzcdZD_l_914309361_R","LocationType":"point","DisplayPosition":{"Latitude":47.6961328,"Longitude":16.5813775},"MapView":{"TopLeft":{"Latitude":47.69619,"Longitude":16.58135},"BottomRight":{"Latitude":47.69488,"Longitude":16.58178}},"Address":{"Label":"Lackner Kristóf utca, Sopron 9400, Magyarország","Country":"HUN","State":"Győr-Moson-Sopron","County":"Soproni Járás","City":"Sopron","District":"Sopron","Street":"Lackner Kristóf utca","PostalCode":"9400","AdditionalData":[{"value":"Magyarország","key":"CountryName"},{"value":"Győr-Moson-Sopron","key":"StateName"},{"value":"Soproni Járás","key":"CountyName"}]},"MapReference":{"ReferenceId":"914309361","Spot":0.95,"SideOfStreet":"right","CountryId":"20613038","StateId":"20616900","CountyId":"26679919","CityId":"20617376","DistrictId":"26680188"}}},{"Relevance":1.0,"Distance":40.8,"MatchLevel":"street","MatchQuality":{"Country":1.0,"State":1.0,"County":1.0,"City":1.0,"District":1.0,"Street":[1.0],"PostalCode":1.0},"Location":{"LocationId":"NT_oUg37YtTMvoZPA6HKzcdZD_l_598463151_R","LocationType":"point","DisplayPosition":{"Latitude":47.69644,"Longitude":16.58124},"MapView":{"TopLeft":{"Latitude":47.69658,"Longitude":16.58118},"BottomRight":{"Latitude":47.69644,"Longitude":16.58124}},"Address":{"Label":"Lackner Kristóf utca, Sopron 9400, Magyarország","Country":"HUN","State":"Győr-Moson-Sopron","County":"Soproni Járás","City":"Sopron","District":"Sopron","Street":"Lackner Kristóf utca","PostalCode":"9400","AdditionalData":[{"value":"Magyarország","key":"CountryName"},{"value":"Győr-Moson-Sopron","key":"StateName"},{"value":"Soproni Járás","key":"CountyName"}]},"MapReference":{"ReferenceId":"598463151","Spot":0.0,"SideOfStreet":"right","CountryId":"20613038","StateId":"20616900","CountyId":"26679919","CityId":"20617376","DistrictId":"26680188"}}},{"Relevance":1.0,"Distance":45.7,"MatchLevel":"street","MatchQuality":{"Country":1.0,"State":1.0,"County":1.0,"City":1.0,"District":1.0,"Street":[1.0],"PostalCode":1.0},"Location":{"LocationId":"NT_WmL38A2BNRc16Q1Yi0e1JD_l_732494178_R","LocationType":"point","DisplayPosition":{"Latitude":47.69591,"Longitude":16.58187},"MapView":{"TopLeft":{"Latitude":47.69591,"Longitude":16.58187},"BottomRight":{"Latitude":47.6955,"Longitude":16.58262}},"Address":{"Label":"Uszoda utca, Sopron 9400, Magyarország","Country":"HUN","State":"Győr-Moson-Sopron","County":"Soproni Járás","City":"Sopron","District":"Sopron","Street":"Uszoda utca","PostalCode":"9400","AdditionalData":[{"value":"Magyarország","key":"CountryName"},{"value":"Győr-Moson-Sopron","key":"StateName"},{"value":"Soproni Járás","key":"CountyName"}]},"MapReference":{"ReferenceId":"732494178","Spot":1.0,"SideOfStreet":"right","CountryId":"20613038","StateId":"20616900","CountyId":"26679919","CityId":"20617376","DistrictId":"26680188"}}},{"Relevance":1.0,"Distance":45.7,"MatchLevel":"street","MatchQuality":{"Country":1.0,"State":1.0,"County":1.0,"City":1.0,"District":1.0,"Street":[1.0],"PostalCode":1.0},"Location":{"LocationId":"NT_WmL38A2BNRc16Q1Yi0e1JD_l_732494176_R","LocationType":"point","DisplayPosition":{"Latitude":47.69591,"Longitude":16.58187},"MapView":{"TopLeft":{"Latitude":47.69591,"Longitude":16.58187},"BottomRight":{"Latitude":47.69562,"Longitude":16.58276}},"Address":{"Label":"Uszoda utca, Sopron 9400, Magyarország","Country":"HUN","State":"Győr-Moson-Sopron","County":"Soproni Járás","City":"Sopron","District":"Sopron","Street":"Uszoda utca","PostalCode":"9400","AdditionalData":[{"value":"Magyarország","key":"CountryName"},{"value":"Győr-Moson-Sopron","key":"StateName"},{"value":"Soproni Járás","key":"CountyName"}]},"MapReference":{"ReferenceId":"732494176","Spot":1.0,"SideOfStreet":"right","CountryId":"20613038","StateId":"20616900","CountyId":"26679919","CityId":"20617376","DistrictId":"26680188"}}},{"Relevance":1.0,"Distance":51.2,"MatchLevel":"street","MatchQuality":{"Country":1.0,"State":1.0,"County":1.0,"City":1.0,"District":1.0,"PostalCode":1.0},"Location":{"LocationId":"NT_XupEUi2sk-ul2WaFYgU-qD_l_840189496_R","LocationType":"point","DisplayPosition":{"Latitude":47.6960196,"Longitude":16.5812236},"MapView":{"TopLeft":{"Latitude":47.69626,"Longitude":16.58109},"BottomRight":{"Latitude":47.69599,"Longitude":16.58124}},"Address":{"Label":"Sopron 9400, Magyarország","Country":"HUN","State":"Győr-Moson-Sopron","County":"Soproni Járás","City":"Sopron","District":"Sopron","PostalCode":"9400","AdditionalData":[{"value":"Magyarország","key":"CountryName"},{"value":"Győr-Moson-Sopron","key":"StateName"},{"value":"Soproni Járás","key":"CountyName"}]},"MapReference":{"ReferenceId":"840189496","Spot":0.11,"SideOfStreet":"right","CountryId":"20613038","StateId":"20616900","CountyId":"26679919","CityId":"20617376","DistrictId":"26680188"}}}]}]}}