{"Response":{"MetaInfo":{"Timestamp":"2020-03-28T10:43:13.631+0000","NextPageInformation":"2"},"View":[{"_type":"SearchResultsViewType","ViewId":0,"Result":[{"Relevance":1.0,"Distance":0.0,"Direction":0.0,"MatchLevel":"district","MatchQuality":{"Country":1.0,"State":1.0,"County":1.0,"City":1.0,"District":1.0,"PostalCode":1.0},"Location":{"LocationId":"NT_DUT4EV2ifCcR9MouRBjZJC","LocationType":"point","DisplayPosition":{"Latitude":47.6353605,"Longitude":19.1296738},"MapView":{"TopLeft":{"Latitude":47.67303,"Longitude":19.11938},"BottomRight":{"Latitude":47.59942,"Longitude":19.16703}},"Address":{"Label":"Dunakeszi, Pest, Magyarország","Country":"HUN","State":"Pest","County":"Dunakeszi Járás","City":"Dunakeszi","District":"Dunakeszi","PostalCode":"2120","AdditionalData":[{"value":"Magyarország","key":"CountryName"},{"value":"Pest","key":"StateName"},{"value":"Dunakeszi Járás","key":"CountyName"}]},"MapReference":{"ReferenceId":"947096470","SideOfStreet":"neither","CountryId":"20613038","StateId":"20619051","CountyId":"26678486","CityId":"20619186","DistrictId":"26678610"}}},{"Relevance":1.0,"Distance":13.9,"MatchLevel":"street","MatchQuality":{"Country":1.0,"State":1.0,"County":1.0,"City":1.0,"District":1.0,"Street":[1.0],"PostalCode":1.0},"Location":{"LocationId":"NT_eSZ1rnIeMRbTKv6X15.V4D_l_1255167890_R","LocationType":"point","DisplayPosition":{"Latitude":47.6352356,"Longitude":19.1296634},"MapView":{"TopLeft":{"Latitude":47.63525,"Longitude":19.12949},"BottomRight":{"Latitude":47.63522,"Longitude":19.12985}},"Address":{"Label":"Temető utca, Dunakeszi 2120, Magyarország","Country":"HUN","State":"Pest","County":"Dunakeszi Járás","City":"Dunakeszi","District":"Dunakeszi","Street":"Temető utca","PostalCode":"2120","AdditionalData":[{"value":"Magyarország","key":"CountryName"},{"value":"Pest","key":"StateName"},{"value":"Dunakeszi Járás","key":"CountyName"}]},"MapReference":{"ReferenceId":"1255167890","Spot":0.52,"SideOfStreet":"right","CountryId":"20613038","StateId":"20619051","CountyId":"26678486","CityId":"20619186","DistrictId":"26678610"}}},{"Relevance":1.0,"Distance":18.5,"MatchLevel":"street","MatchQuality":{"Country":1.0,"State":1.0,"County":1.0,"City":1.0,"District":1.0,"Street":[1.0],"PostalCode":1.0},"Location":{"LocationId":"NT_eSZ1rnIeMRbTKv6X15.V4D_l_1255167891_R","LocationType":"point","DisplayPosition":{"Latitude":47.63525,"Longitude":19.12949},"MapView":{"TopLeft":{"Latitude":47.63526,"Longitude":19.12934},"BottomRight":{"Latitude":47.63525,"Longitude":19.12949}},"Address":{"Label":"Temető utca, Dunakeszi 2120, Magyarország","Country":"HUN","State":"Pest","County":"Dunakeszi Járás","City":"Dunakeszi","District":"Dunakeszi","Street":"Temető utca","PostalCode":"2120","AdditionalData":[{"value":"Magyarország","key":"CountryName"},{"value":"Pest","key":"StateName"},{"value":"Dunakeszi Járás","key":"CountyName"}]},"MapReference":{"ReferenceId":"1255167891","Spot":0.0,"SideOfStreet":"right","CountryId":"20613038","StateId":"20619051","CountyId":"26678486","CityId":"20619186","DistrictId":"26678610"}}},{"Relevance":1.0,"Distance":20.1,"MatchLevel":"houseNumber","MatchQuality":{"Country":1.0,"State":1.0,"County":1.0,"City":1.0,"District":1.0,"Street":[1.0],"HouseNumber":1.0,"PostalCode":1.0},"MatchType":"interpolated","Location":{"LocationId":"NT_uRs19iBClaLqjsdcT6-vuC_3cD","LocationType":"point","DisplayPosition":{"Latitude":47.63554,"Longitude":19.12937},"MapView":{"TopLeft":{"Latitude":47.6366642,"Longitude":19.1277017},"BottomRight":{"Latitude":47.6344158,"Longitude":19.1310383}},"Address":{"Label":"Fő út 77, Dunakeszi 2120, Magyarország","Country":"HUN","State":"Pest","County":"Dunakeszi Járás","City":"Dunakeszi","District":"Dunakeszi","Street":"Fő út","HouseNumber":"77","PostalCode":"2120","AdditionalData":[{"value":"Magyarország","key":"CountryName"},{"value":"Pest","key":"StateName"},{"value":"Dunakeszi Járás","key":"CountyName"}]},"MapReference":{"ReferenceId":"1256044463","Spot":0.17,"SideOfStreet":"right","CountryId":"20613038","StateId":"20619051","CountyId":"26678486","CityId":"20619186","DistrictId":"26678610","AddressId":"777220393","RoadLinkId":"579624819"}}},{"Relevance":1.0,"Distance":20.5,"MatchLevel":"street","MatchQuality":{"Country":1.0,"State":1.0,"County":1.0,"City":1.0,"District":1.0,"Street":[1.0],"PostalCode":1.0},"Location":{"LocationId":"NT_QqbPu4RNgiduQLTtbjQIQC_l_962615447_L","LocationType":"point","DisplayPosition":{"Latitude":47.63522,"Longitude":19.12985},"MapView":{"TopLeft":{"Latitude":47.63522,"Longitude":19.12985},"BottomRight":{"Latitude":47.63496,"Longitude":19.12987}},"Address":{"Label":"Kis utca, Dunakeszi 2120, Magyarország","Country":"HUN","State":"Pest","County":"Dunakeszi Járás","City":"Dunakeszi","District":"Dunakeszi","Street":"Kis utca","PostalCode":"2120","AdditionalData":[{"value":"Magyarország","key":"CountryName"},{"value":"Pest","key":"StateName"},{"value":"Dunakeszi Járás","key":"CountyName"}]},"MapReference":{"ReferenceId":"962615447","Spot":1.0,"SideOfStreet":"left","CountryId":"20613038","StateId":"20619051","CountyId":"26678486","CityId":"20619186","DistrictId":"26678610"}}},{"Relevance":1.0,"Distance":24.2,"MatchLevel":"street","MatchQuality":{"Country":1.0,"State":1.0,"County":1.0,"City":1.0,"District":1.0,"Street":[1.0],"PostalCode":1.0},"Location":{"LocationId":"NT_yEnsfW4hAe0U46siH8O-.D_l_1256044462_R","LocationType":"point","DisplayPosition":{"Latitude":47.6354002,"Longitude":19.1293563},"MapView":{"TopLeft":{"Latitude":47.63543,"Longitude":19.12935},"BottomRight":{"Latitude":47.63535,"Longitude":19.12936}},"Address":{"Label":"Fő út, Dunakeszi 2120, Magyarország","Country":"HUN","State":"Pest","County":"Dunakeszi Járás","City":"Dunakeszi","District":"Dunakeszi","Street":"Fő út","PostalCode":"2120","AdditionalData":[{"value":"Magyarország","key":"CountryName"},{"value":"Pest","key":"StateName"},{"value":"Dunakeszi Járás","key":"CountyName"}]},"MapReference":{"ReferenceId":"1256044462","Spot":0.63,"SideOfStreet":"right","CountryId":"20613038","StateId":"20619051","CountyId":"26678486","CityId":"20619186","DistrictId":"26678610"}}},{"Relevance":1.0,"Distance":24.3,"MatchLevel":"street","MatchQuality":{"Country":1.0,"State":1.0,"County":1.0,"City":1.0,"District":1.0,"Street":[1.0],"PostalCode":1.0},"Location":{"LocationId":"NT_yEnsfW4hAe0U46siH8O-.D_l_1255167894_R","LocationType":"point","DisplayPosition":{"Latitude":47.63535,"Longitude":19.12935},"MapView":{"TopLeft":{"Latitude":47.63535,"Longitude":19.12934},"BottomRight":{"Latitude":47.63526,"Longitude":19.12935}},"Address":{"Label":"Fő út, Dunakeszi 2120, Magyarország","Country":"HUN","State":"Pest","County":"Dunakeszi Járás","City":"Dunakeszi","District":"Dunakeszi","Street":"Fő út","PostalCode":"2120","AdditionalData":[{"value":"Magyarország","key":"CountryName"},{"value":"Pest","key":"StateName"},{"value":"Dunakeszi Járás","key":"CountyName"}]},"MapReference":{"ReferenceId":"1255167894","Spot":1.0,"SideOfStreet":"right","CountryId":"20613038","StateId":"20619051","CountyId":"26678486","CityId":"20619186","DistrictId":"26678610"}}},{"Relevance":1.0,"Distance":27.4,"MatchLevel":"street","MatchQuality":{"Country":1.0,"State":1.0,"County":1.0,"City":1.0,"District":1.0,"PostalCode":1.0},"Location":{"LocationId":"NT_Yc7rPTXfixhosHba4bKgXC_l_1255167886_R","LocationType":"point","DisplayPosition":{"Latitude":47.63526,"Longitude":19.12934},"MapView":{"TopLeft":{"Latitude":47.63527,"Longitude":19.12918},"BottomRight":{"Latitude":47.63526,"Longitude":19.12934}},"Address":{"Label":"Dunakeszi 2120, Magyarország","Country":"HUN","State":"Pest","County":"Dunakeszi Járás","City":"Dunakeszi","District":"Dunakeszi","PostalCode":"2120","AdditionalData":[{"value":"Magyarország","key":"CountryName"},{"value":"Pest","key":"StateName"},{"value":"Dunakeszi Járás","key":"CountyName"}]},"MapReference":{"ReferenceId":"1255167886","Spot":0.0,"SideOfStreet":"right","CountryId":"20613038","StateId":"20619051","CountyId":"26678486","CityId":"20619186","DistrictId":"26678610"}}},{"Relevance":1.0,"Distance":34.6,"MatchLevel":"houseNumber","MatchQuality":{"Country":1.0,"State":1.0,"County":1.0,"City":1.0,"District":1.0,"Street":[1.0],"HouseNumber":1.0,"PostalCode":1.0},"MatchType":"interpolated","Location":{"LocationId":"NT_eSZ1rnIeMRbTKv6X15.V4D_l_583863824_R_2A","LocationType":"point","DisplayPosition":{"Latitude":47.6352,"Longitude":19.1301334},"MapView":{"TopLeft":{"Latitude":47.6363242,"Longitude":19.1284652},"BottomRight":{"Latitude":47.6340758,"Longitude":19.1318017}},"Address":{"Label":"Temető utca 6, Dunakeszi 2120, Magyarország","Country":"HUN","State":"Pest","County":"Dunakeszi Járás","City":"Dunakeszi","District":"Dunakeszi","Street":"Temető utca","HouseNumber":"6","PostalCode":"2120","AdditionalData":[{"value":"Magyarország","key":"CountryName"},{"value":"Pest","key":"StateName"},{"value":"Dunakeszi Járás","key":"CountyName"}]},"MapReference":{"ReferenceId":"583863824","Spot":0.51,"SideOfStreet":"right","CountryId":"20613038","StateId":"20619051","CountyId":"26678486","CityId":"20619186","DistrictId":"26678610"}}},{"Relevance":1.0,"Distance":38.3,"MatchLevel":"street","MatchQuality":{"Country":1.0,"State":1.0,"County":1.0,"City":1.0,"District":1.0,"PostalCode":1.0},"Location":{"LocationId":"NT_Yc7rPTXfixhosHba4bKgXC_l_1255167887_R","LocationType":"point","DisplayPosition":{"Latitude":47.63527,"Longitude":19.12918},"MapView":{"TopLeft":{"Latitude":47.63534,"Longitude":19.1282},"BottomRight":{"Latitude":47.63527,"Longitude":19.12918}},"Address":{"Label":"Dunakeszi 2120, Magyarország","Country":"HUN","State":"Pest","County":"Dunakeszi Járás","City":"Dunakeszi","District":"Dunakeszi","PostalCode":"2120","AdditionalData":[{"value":"Magyarország","key":"CountryName"},{"value":"Pest","key":"StateName"},{"value":"Dunakeszi Járás","key":"CountyName"}]},"MapReference":{"ReferenceId":"1255167887","Spot":0.0,"SideOfStreet":"right","CountryId":"20613038","StateId":"20619051","CountyId":"26678486","CityId":"20619186","DistrictId":"26678610"}}}]}]}}