{"Response":{"MetaInfo":{"Timestamp":"2020-03-28T11:01:39.647+0000","NextPageInformation":"2"},"View":[{"_type":"SearchResultsViewType","ViewId":0,"Result":[{"Relevance":1.0,"Distance":0.0,"Direction":0.0,"MatchLevel":"district","MatchQuality":{"Country":1.0,"State":1.0,"County":1.0,"City":1.0,"District":1.0,"PostalCode":1.0},"Location":{"LocationId":"NT_blopoZ3afWdocUv-npW05A","LocationType":"point","DisplayPosition":{"Latitude":47.617648,"Longitude":7.6661721},"MapView":{"TopLeft":{"Latitude":47.62691,"Longitude":7.64693},"BottomRight":{"Latitude":47.59266,"Longitude":7.68044}},"Address":{"Label":"Lörrach, Baden-Württemberg, Deutschland","Country":"DEU","State":"Baden-Württemberg","County":"Lörrach","City":"Lörrach","District":"Lörrach","PostalCode":"79539","AdditionalData":[{"value":"Deutschland","key":"CountryName"},{"value":"Baden-Württemberg","key":"StateName"},{"value":"Lörrach","key":"CountyName"}]},"MapReference":{"ReferenceId":"1197152660","SideOfStreet":"neither","CountryId":"20147700","StateId":"20171489","CountyId":"20175481","CityId":"20175541","DistrictId":"20175548"}}},{"Relevance":1.0,"Distance":15.6,"MatchLevel":"houseNumber","MatchQuality":{"Country":1.0,"State":1.0,"County":1.0,"City":1.0,"District":1.0,"Street":[1.0],"HouseNumber":1.0,"PostalCode":1.0},"MatchType":"interpolated","Location":{"LocationId":"NT_3JQ3qO1Ro3K1gz3qkZ7RBA_yA","LocationType":"point","DisplayPosition":{"Latitude":47.61764,"Longitude":7.66638},"MapView":{"TopLeft":{"Latitude":47.6187642,"Longitude":7.6647123},"BottomRight":{"Latitude":47.6165158,"Longitude":7.6680477}},"Address":{"Label":"Gretherstraße 2, 79539 Lörrach, Deutschland","Country":"DEU","State":"Baden-Württemberg","County":"Lörrach","City":"Lörrach","District":"Lörrach","Street":"Gretherstraße","HouseNumber":"2","PostalCode":"79539","AdditionalData":[{"value":"Deutschland","key":"CountryName"},{"value":"Baden-Württemberg","key":"StateName"},{"value":"Lörrach","key":"CountyName"}]},"MapReference":{"ReferenceId":"1196350403","Spot":0.67,"SideOfStreet":"right","CountryId":"20147700","StateId":"20171489","CountyId":"20175481","CityId":"20175541","DistrictId":"20175548","AddressId":"179543473","RoadLinkId":"506815926"}}},{"Relevance":1.0,"Distance":17.4,"MatchLevel":"houseNumber","MatchQuality":{"Country":1.0,"State":1.0,"County":1.0,"City":1.0,"District":1.0,"Street":[1.0],"HouseNumber":1.0,"PostalCode":1.0},"MatchType":"interpolated","Location":{"LocationId":"NT_3JQ3qO1Ro3K1gz3qkZ7RBA_1A","LocationType":"point","DisplayPosition":{"Latitude":47.61776,"Longitude":7.66601},"MapView":{"TopLeft":{"Latitude":47.6188842,"Longitude":7.6643423},"BottomRight":{"Latitude":47.6166358,"Longitude":7.6676777}},"Address":{"Label":"Gretherstraße 5, 79539 Lörrach, Deutschland","Country":"DEU","State":"Baden-Württemberg","County":"Lörrach","City":"Lörrach","District":"Lörrach","Street":"Gretherstraße","HouseNumber":"5","PostalCode":"79539","AdditionalData":[{"value":"Deutschland","key":"CountryName"},{"value":"Baden-Württemberg","key":"StateName"},{"value":"Lörrach","key":"CountyName"}]},"MapReference":{"ReferenceId":"1196350404","Spot":0.89,"SideOfStreet":"left","CountryId":"20147700","StateId":"20171489","CountyId":"20175481","CityId":"20175541","DistrictId":"20175548","AddressId":"178132517","RoadLinkId":"506815927"}}},{"Relevance":1.0,"Distance":36.6,"MatchLevel":"houseNumber","MatchQuality":{"Country":1.0,"State":1.0,"County":1.0,"City":1.0,"District":1.0,"Street":[1.0],"HouseNumber":1.0,"PostalCode":1.0},"MatchType":"interpolated","Location":{"LocationId":"NT_Y9wh7d.NzQo9Kd8jePzMRA_xkjQ","LocationType":"point","DisplayPosition":{"Latitude":47.61729,"Longitude":7.66632},"MapView":{"TopLeft":{"Latitude":47.6184142,"Longitude":7.6646523},"BottomRight":{"Latitude":47.6161658,"Longitude":7.6679877}},"Address":{"Label":"Schwarzwaldstraße 19B, 79539 Lörrach, Deutschland","Country":"DEU","State":"Baden-Württemberg","County":"Lörrach","City":"Lörrach","District":"Lörrach","Street":"Schwarzwaldstraße","HouseNumber":"19B","PostalCode":"79539","AdditionalData":[{"value":"Deutschland","key":"CountryName"},{"value":"Baden-Württemberg","key":"StateName"},{"value":"Lörrach","key":"CountyName"}]},"MapReference":{"ReferenceId":"76837349","Spot":0.33,"SideOfStreet":"left","CountryId":"20147700","StateId":"20171489","CountyId":"20175481","CityId":"20175541","DistrictId":"20175548","AddressId":"178682224","RoadLinkId":"38596977"}}},{"Relevance":1.0,"Distance":37.2,"MatchLevel":"street","MatchQuality":{"Country":1.0,"State":1.0,"County":1.0,"City":1.0,"District":1.0,"Street":[1.0],"PostalCode":1.0},"Location":{"LocationId":"NT_zCiOT2MQmwfhUzVipIBL1A_l_78589026_L","LocationType":"point","DisplayPosition":{"Latitude":47.6174203,"Longitude":7.6665364},"MapView":{"TopLeft":{"Latitude":47.61757,"Longitude":7.66653},"BottomRight":{"Latitude":47.61741,"Longitude":7.66663}},"Address":{"Label":"Milkastraße, 79539 Lörrach, Deutschland","Country":"DEU","State":"Baden-Württemberg","County":"Lörrach","City":"Lörrach","District":"Lörrach","Street":"Milkastraße","PostalCode":"79539","AdditionalData":[{"value":"Deutschland","key":"CountryName"},{"value":"Baden-Württemberg","key":"StateName"},{"value":"Lörrach","key":"CountyName"}]},"MapReference":{"ReferenceId":"78589026","Spot":0.06,"SideOfStreet":"left","CountryId":"20147700","StateId":"20171489","CountyId":"20175481","CityId":"20175541","DistrictId":"20175548"}}},{"Relevance":1.0,"Distance":37.7,"MatchLevel":"street","MatchQuality":{"Country":1.0,"State":1.0,"County":1.0,"City":1.0,"District":1.0,"Street":[1.0],"PostalCode":1.0},"Location":{"LocationId":"NT_5wHYmCoEphDplWZph86F1A_l_1196352871_L","LocationType":"point","DisplayPosition":{"Latitude":47.61741,"Longitude":7.66653},"MapView":{"TopLeft":{"Latitude":47.61741,"Longitude":7.6665},"BottomRight":{"Latitude":47.61696,"Longitude":7.66686}},"Address":{"Label":"Milkastraße, 79539 Lörrach, Deutschland","Country":"DEU","State":"Baden-Württemberg","County":"Lörrach","City":"Lörrach","District":"Lörrach","Street":"Milkastraße","PostalCode":"79539","AdditionalData":[{"value":"Deutschland","key":"CountryName"},{"value":"Baden-Württemberg","key":"StateName"},{"value":"Lörrach","key":"CountyName"}]},"MapReference":{"ReferenceId":"1196352871","Spot":1.0,"SideOfStreet":"left","CountryId":"20147700","StateId":"20171489","CountyId":"20175481","CityId":"20175541","DistrictId":"20175548"}}},{"Relevance":1.0,"Distance":46.3,"MatchLevel":"houseNumber","MatchQuality":{"Country":1.0,"State":1.0,"County":1.0,"City":1.0,"District":1.0,"Street":[1.0],"HouseNumber":1.0,"PostalCode":1.0},"MatchType":"interpolated","Location":{"LocationId":"NT_3JQ3qO1Ro3K1gz3qkZ7RBA_3A","LocationType":"point","DisplayPosition":{"Latitude":47.61787,"Longitude":7.66565},"MapView":{"TopLeft":{"Latitude":47.6189942,"Longitude":7.6639823},"BottomRight":{"Latitude":47.6167458,"Longitude":7.6673177}},"Address":{"Label":"Gretherstraße 7, 79539 Lörrach, Deutschland","Country":"DEU","State":"Baden-Württemberg","County":"Lörrach","City":"Lörrach","District":"Lörrach","Street":"Gretherstraße","HouseNumber":"7","PostalCode":"79539","AdditionalData":[{"value":"Deutschland","key":"CountryName"},{"value":"Baden-Württemberg","key":"StateName"},{"value":"Lörrach","key":"CountyName"}]},"MapReference":{"ReferenceId":"1196350059","Spot":0.57,"SideOfStreet":"left","CountryId":"20147700","StateId":"20171489","CountyId":"20175481","CityId":"20175541","DistrictId":"20175548","AddressId":"178773995","RoadLinkId":"506815436"}}},{"Relevance":1.0,"Distance":50.4,"MatchLevel":"houseNumber","MatchQuality":{"Country":1.0,"State":1.0,"County":1.0,"City":1.0,"District":1.0,"Street":[1.0],"HouseNumber":1.0,"PostalCode":1.0},"MatchType":"interpolated","Location":{"LocationId":"NT_Y9wh7d.NzQo9Kd8jePzMRA_yED","LocationType":"point","DisplayPosition":{"Latitude":47.6179,"Longitude":7.66684},"MapView":{"TopLeft":{"Latitude":47.6190242,"Longitude":7.6651723},"BottomRight":{"Latitude":47.6167758,"Longitude":7.6685077}},"Address":{"Label":"Schwarzwaldstraße 21, 79539 Lörrach, Deutschland","Country":"DEU","State":"Baden-Württemberg","County":"Lörrach","City":"Lörrach","District":"Lörrach","Street":"Schwarzwaldstraße","HouseNumber":"21","PostalCode":"79539","AdditionalData":[{"value":"Deutschland","key":"CountryName"},{"value":"Baden-Württemberg","key":"StateName"},{"value":"Lörrach","key":"CountyName"}]},"MapReference":{"ReferenceId":"1202757697","Spot":0.45,"SideOfStreet":"left","CountryId":"20147700","StateId":"20171489","CountyId":"20175481","CityId":"20175541","DistrictId":"20175548","AddressId":"177509376","RoadLinkId":"515658901"}}},{"Relevance":1.0,"Distance":53.4,"MatchLevel":"houseNumber","MatchQuality":{"Country":1.0,"State":1.0,"County":1.0,"City":1.0,"District":1.0,"Street":[1.0],"HouseNumber":1.0,"PostalCode":1.0},"MatchType":"interpolated","Location":{"LocationId":"NT_Y9wh7d.NzQo9Kd8jePzMRA_xkTQ","LocationType":"point","DisplayPosition":{"Latitude":47.61713,"Longitude":7.66623},"MapView":{"TopLeft":{"Latitude":47.6182542,"Longitude":7.6645623},"BottomRight":{"Latitude":47.6160058,"Longitude":7.6678977}},"Address":{"Label":"Schwarzwaldstraße 19A, 79539 Lörrach, Deutschland","Country":"DEU","State":"Baden-Württemberg","County":"Lörrach","City":"Lörrach","District":"Lörrach","Street":"Schwarzwaldstraße","HouseNumber":"19A","PostalCode":"79539","AdditionalData":[{"value":"Deutschland","key":"CountryName"},{"value":"Baden-Württemberg","key":"StateName"},{"value":"Lörrach","key":"CountyName"}]},"MapReference":{"ReferenceId":"76837348","Spot":0.93,"SideOfStreet":"left","CountryId":"20147700","StateId":"20171489","CountyId":"20175481","CityId":"20175541","DistrictId":"20175548","AddressId":"179920895","RoadLinkId":"38295853"}}},{"Relevance":1.0,"Distance":61.2,"MatchLevel":"houseNumber","MatchQuality":{"Country":1.0,"State":1.0,"County":1.0,"City":1.0,"District":1.0,"Street":[1.0],"HouseNumber":1.0,"PostalCode":1.0},"MatchType":"interpolated","Location":{"LocationId":"NT_jh4chvC-Z.H5MvY1AI6T5C_xIE","LocationType":"point","DisplayPosition":{"Latitude":47.61746,"Longitude":7.66694},"MapView":{"TopLeft":{"Latitude":47.6185842,"Longitude":7.6652723},"BottomRight":{"Latitude":47.6163358,"Longitude":7.6686077}},"Address":{"Label":"Bahnhofstraße 1B, 79539 Lörrach, Deutschland","Country":"DEU","State":"Baden-Württemberg","County":"Lörrach","City":"Lörrach","District":"Lörrach","Street":"Bahnhofstraße","HouseNumber":"1B","PostalCode":"79539","AdditionalData":[{"value":"Deutschland","key":"CountryName"},{"value":"Baden-Württemberg","key":"StateName"},{"value":"Lörrach","key":"CountyName"}]},"MapReference":{"ReferenceId":"72903262","Spot":0.21,"SideOfStreet":"right","CountryId":"20147700","StateId":"20171489","CountyId":"20175481","CityId":"20175541","DistrictId":"20175548","AddressId":"178962788","RoadLinkId":"38860527"}}}]}]}}