{"Response":{"MetaInfo":{"Timestamp":"2020-03-28T11:44:54.670+0000","NextPageInformation":"2"},"View":[{"_type":"SearchResultsViewType","ViewId":0,"Result":[{"Relevance":1.0,"Distance":0.0,"Direction":0.0,"MatchLevel":"district","MatchQuality":{"Country":1.0,"State":1.0,"County":1.0,"City":1.0,"District":1.0,"PostalCode":1.0},"Location":{"LocationId":"NT_MRBkm21ckEab9ugCF7FQfA","LocationType":"point","DisplayPosition":{"Latitude":47.6459375,"Longitude":10.4532888},"MapView":{"TopLeft":{"Latitude":47.64972,"Longitude":10.4477},"BottomRight":{"Latitude":47.63958,"Longitude":10.46318}},"Address":{"Label":"Oy, Oy-Mittelberg, Bayern, Deutschland","Country":"DEU","State":"Bayern","County":"Oberallgäu","City":"Oy-Mittelberg","District":"Oy","PostalCode":"87466","AdditionalData":[{"value":"Deutschland","key":"CountryName"},{"value":"Bayern","key":"StateName"},{"value":"Oberallgäu","key":"CountyName"}]},"MapReference":{"ReferenceId":"773564618","SideOfStreet":"neither","CountryId":"20147700","StateId":"20177250","CountyId":"20186778","CityId":"20186843","DistrictId":"20186845"}}},{"Relevance":1.0,"Distance":14.1,"MatchLevel":"houseNumber","MatchQuality":{"Country":1.0,"State":1.0,"County":1.0,"City":1.0,"District":1.0,"Street":[1.0],"HouseNumber":1.0,"PostalCode":1.0},"MatchType":"interpolated","Location":{"LocationId":"NT_clKmW09GQFGxSSsghhs3JA_xkD","LocationType":"point","DisplayPosition":{"Latitude":47.64577,"Longitude":10.45324},"MapView":{"TopLeft":{"Latitude":47.6468942,"Longitude":10.4515714},"BottomRight":{"Latitude":47.6446458,"Longitude":10.4549086}},"Address":{"Label":"Hauptstraße 19, 87466 Oy-Mittelberg, Deutschland","Country":"DEU","State":"Bayern","County":"Oberallgäu","City":"Oy-Mittelberg","District":"Oy","Street":"Hauptstraße","HouseNumber":"19","PostalCode":"87466","AdditionalData":[{"value":"Deutschland","key":"CountryName"},{"value":"Bayern","key":"StateName"},{"value":"Oberallgäu","key":"CountyName"}]},"MapReference":{"ReferenceId":"1190106889","Spot":0.16,"SideOfStreet":"right","CountryId":"20147700","StateId":"20177250","CountyId":"20186778","CityId":"20186843","DistrictId":"20186845","AddressId":"185983084","RoadLinkId":"499397564"}}},{"Relevance":1.0,"Distance":19.9,"MatchLevel":"street","MatchQuality":{"Country":1.0,"State":1.0,"County":1.0,"City":1.0,"District":1.0,"PostalCode":1.0},"Location":{"LocationId":"NT_lv-hUZ8izVE5qT29ViftZD_l_1254774339_L","LocationType":"point","DisplayPosition":{"Latitude":47.6457598,"Longitude":10.4533155},"MapView":{"TopLeft":{"Latitude":47.6459,"Longitude":10.45325},"BottomRight":{"Latitude":47.64575,"Longitude":10.45422}},"Address":{"Label":"87466 Oy-Mittelberg, Deutschland","Country":"DEU","State":"Bayern","County":"Oberallgäu","City":"Oy-Mittelberg","District":"Oy","PostalCode":"87466","AdditionalData":[{"value":"Deutschland","key":"CountryName"},{"value":"Bayern","key":"StateName"},{"value":"Oberallgäu","key":"CountyName"}]},"MapReference":{"ReferenceId":"1254774339","Spot":0.07,"SideOfStreet":"left","CountryId":"20147700","StateId":"20177250","CountyId":"20186778","CityId":"20186843","DistrictId":"20186845"}}},{"Relevance":1.0,"Distance":22.7,"MatchLevel":"houseNumber","MatchQuality":{"Country":1.0,"State":1.0,"County":1.0,"City":1.0,"District":1.0,"Street":[1.0],"HouseNumber":1.0,"PostalCode":1.0},"MatchType":"interpolated","Location":{"LocationId":"NT_clKmW09GQFGxSSsghhs3JA_xcD","LocationType":"point","DisplayPosition":{"Latitude":47.64591,"Longitude":10.45296},"MapView":{"TopLeft":{"Latitude":47.6470342,"Longitude":10.4512914},"BottomRight":{"Latitude":47.6447858,"Longitude":10.4546286}},"Address":{"Label":"Hauptstraße 17, 87466 Oy-Mittelberg, Deutschland","Country":"DEU","State":"Bayern","County":"Oberallgäu","City":"Oy-Mittelberg","District":"Oy","Street":"Hauptstraße","HouseNumber":"17","PostalCode":"87466","AdditionalData":[{"value":"Deutschland","key":"CountryName"},{"value":"Bayern","key":"StateName"},{"value":"Oberallgäu","key":"CountyName"}]},"MapReference":{"ReferenceId":"83470547","Spot":0.91,"SideOfStreet":"right","CountryId":"20147700","StateId":"20177250","CountyId":"20186778","CityId":"20186843","DistrictId":"20186845","AddressId":"183119510","RoadLinkId":"33494714"}}},{"Relevance":1.0,"Distance":24.7,"MatchLevel":"houseNumber","MatchQuality":{"Country":1.0,"State":1.0,"County":1.0,"City":1.0,"District":1.0,"Street":[1.0],"HouseNumber":1.0,"PostalCode":1.0},"MatchType":"interpolated","Location":{"LocationId":"NT_dR7l4DTyMGVCjOhIn8V6nD_xA","LocationType":"point","DisplayPosition":{"Latitude":47.64616,"Longitude":10.45328},"MapView":{"TopLeft":{"Latitude":47.6472842,"Longitude":10.4516114},"BottomRight":{"Latitude":47.6450358,"Longitude":10.4549486}},"Address":{"Label":"Gartenweg 1, 87466 Oy-Mittelberg, Deutschland","Country":"DEU","State":"Bayern","County":"Oberallgäu","City":"Oy-Mittelberg","District":"Oy","Street":"Gartenweg","HouseNumber":"1","PostalCode":"87466","AdditionalData":[{"value":"Deutschland","key":"CountryName"},{"value":"Bayern","key":"StateName"},{"value":"Oberallgäu","key":"CountyName"}]},"MapReference":{"ReferenceId":"83470541","Spot":1.0,"SideOfStreet":"left","CountryId":"20147700","StateId":"20177250","CountyId":"20186778","CityId":"20186843","DistrictId":"20186845","AddressId":"255722898","RoadLinkId":"32479091"}}},{"Relevance":1.0,"Distance":26.3,"MatchLevel":"street","MatchQuality":{"Country":1.0,"State":1.0,"County":1.0,"City":1.0,"District":1.0,"Street":[1.0],"PostalCode":1.0},"Location":{"LocationId":"NT_clKmW09GQFGxSSsghhs3JA_l_83470548_R","LocationType":"point","DisplayPosition":{"Latitude":47.64591,"Longitude":10.45294},"MapView":{"TopLeft":{"Latitude":47.64601,"Longitude":10.45262},"BottomRight":{"Latitude":47.64591,"Longitude":10.45294}},"Address":{"Label":"Hauptstraße, 87466 Oy-Mittelberg, Deutschland","Country":"DEU","State":"Bayern","County":"Oberallgäu","City":"Oy-Mittelberg","District":"Oy","Street":"Hauptstraße","PostalCode":"87466","AdditionalData":[{"value":"Deutschland","key":"CountryName"},{"value":"Bayern","key":"StateName"},{"value":"Oberallgäu","key":"CountyName"}]},"MapReference":{"ReferenceId":"83470548","Spot":0.0,"SideOfStreet":"right","CountryId":"20147700","StateId":"20177250","CountyId":"20186778","CityId":"20186843","DistrictId":"20186845"}}},{"Relevance":1.0,"Distance":26.3,"MatchLevel":"street","MatchQuality":{"Country":1.0,"State":1.0,"County":1.0,"City":1.0,"District":1.0,"PostalCode":1.0},"Location":{"LocationId":"NT_lv-hUZ8izVE5qT29ViftZD_l_83518934_R","LocationType":"point","DisplayPosition":{"Latitude":47.64591,"Longitude":10.45294},"MapView":{"TopLeft":{"Latitude":47.64591,"Longitude":10.45286},"BottomRight":{"Latitude":47.64537,"Longitude":10.45294}},"Address":{"Label":"87466 Oy-Mittelberg, Deutschland","Country":"DEU","State":"Bayern","County":"Oberallgäu","City":"Oy-Mittelberg","District":"Oy","PostalCode":"87466","AdditionalData":[{"value":"Deutschland","key":"CountryName"},{"value":"Bayern","key":"StateName"},{"value":"Oberallgäu","key":"CountyName"}]},"MapReference":{"ReferenceId":"83518934","Spot":1.0,"SideOfStreet":"right","CountryId":"20147700","StateId":"20177250","CountyId":"20186778","CityId":"20186843","DistrictId":"20186845"}}},{"Relevance":1.0,"Distance":27.9,"MatchLevel":"street","MatchQuality":{"Country":1.0,"State":1.0,"County":1.0,"City":1.0,"District":1.0,"PostalCode":1.0},"Location":{"LocationId":"NT_lv-hUZ8izVE5qT29ViftZD_l_1190105451_L","LocationType":"point","DisplayPosition":{"Latitude":47.64617,"Longitude":10.45343},"MapView":{"TopLeft":{"Latitude":47.6468,"Longitude":10.45335},"BottomRight":{"Latitude":47.64617,"Longitude":10.45363}},"Address":{"Label":"87466 Oy-Mittelberg, Deutschland","Country":"DEU","State":"Bayern","County":"Oberallgäu","City":"Oy-Mittelberg","District":"Oy","PostalCode":"87466","AdditionalData":[{"value":"Deutschland","key":"CountryName"},{"value":"Bayern","key":"StateName"},{"value":"Oberallgäu","key":"CountyName"}]},"MapReference":{"ReferenceId":"1190105451","Spot":0.0,"SideOfStreet":"left","CountryId":"20147700","StateId":"20177250","CountyId":"20186778","CityId":"20186843","DistrictId":"20186845"}}},{"Relevance":1.0,"Distance":41.3,"MatchLevel":"houseNumber","MatchQuality":{"Country":1.0,"State":1.0,"County":1.0,"City":1.0,"District":1.0,"Street":[1.0],"HouseNumber":1.0,"PostalCode":1.0},"MatchType":"interpolated","Location":{"LocationId":"NT_clKmW09GQFGxSSsghhs3JA_yMD","LocationType":"point","DisplayPosition":{"Latitude":47.64557,"Longitude":10.45337},"MapView":{"TopLeft":{"Latitude":47.6466942,"Longitude":10.4517014},"BottomRight":{"Latitude":47.6444458,"Longitude":10.4550386}},"Address":{"Label":"Hauptstraße 23, 87466 Oy-Mittelberg, Deutschland","Country":"DEU","State":"Bayern","County":"Oberallgäu","City":"Oy-Mittelberg","District":"Oy","Street":"Hauptstraße","HouseNumber":"23","PostalCode":"87466","AdditionalData":[{"value":"Deutschland","key":"CountryName"},{"value":"Bayern","key":"StateName"},{"value":"Oberallgäu","key":"CountyName"}]},"MapReference":{"ReferenceId":"1190106888","Spot":0.42,"SideOfStreet":"right","CountryId":"20147700","StateId":"20177250","CountyId":"20186778","CityId":"20186843","DistrictId":"20186845","AddressId":"184262018","RoadLinkId":"499397563"}}},{"Relevance":1.0,"Distance":49.2,"MatchLevel":"houseNumber","MatchQuality":{"Country":1.0,"State":1.0,"County":1.0,"City":1.0,"District":1.0,"Street":[1.0],"HouseNumber":1.0,"PostalCode":1.0},"MatchType":"interpolated","Location":{"LocationId":"NT_clKmW09GQFGxSSsghhs3JA_xUD","LocationType":"point","DisplayPosition":{"Latitude":47.64614,"Longitude":10.45252},"MapView":{"TopLeft":{"Latitude":47.6472642,"Longitude":10.4508514},"BottomRight":{"Latitude":47.6450158,"Longitude":10.4541886}},"Address":{"Label":"Hauptstraße 15, 87466 Oy-Mittelberg, Deutschland","Country":"DEU","State":"Bayern","County":"Oberallgäu","City":"Oy-Mittelberg","District":"Oy","Street":"Hauptstraße","HouseNumber":"15","PostalCode":"87466","AdditionalData":[{"value":"Deutschland","key":"CountryName"},{"value":"Bayern","key":"StateName"},{"value":"Oberallgäu","key":"CountyName"}]},"MapReference":{"ReferenceId":"946543549","Spot":0.28,"SideOfStreet":"right","CountryId":"20147700","StateId":"20177250","CountyId":"20186778","CityId":"20186843","DistrictId":"20186845","AddressId":"208617152","RoadLinkId":"294623852"}}}]}]}}