{"Response":{"MetaInfo":{"Timestamp":"2020-03-28T11:51:01.562+0000","NextPageInformation":"2"},"View":[{"_type":"SearchResultsViewType","ViewId":0,"Result":[{"Relevance":1.0,"Distance":0.0,"Direction":0.0,"MatchLevel":"city","MatchQuality":{"Country":1.0,"State":1.0,"County":1.0,"City":1.0,"PostalCode":1.0},"Location":{"LocationId":"NT_iE6gKd9buSYU72zCIXb5dA","LocationType":"point","DisplayPosition":{"Latitude":47.6692455,"Longitude":-2.4497134},"MapView":{"TopLeft":{"Latitude":47.71241,"Longitude":-2.50205},"BottomRight":{"Latitude":47.61611,"Longitude":-2.3678}},"Address":{"Label":"Questembert, Bretagne, France","Country":"FRA","State":"Bretagne","County":"Morbihan","City":"Questembert","PostalCode":"56230","AdditionalData":[{"value":"France","key":"CountryName"},{"value":"Bretagne","key":"StateName"},{"value":"Morbihan","key":"CountyName"}]},"MapReference":{"ReferenceId":"552147848","SideOfStreet":"neither","CountryId":"20000001","StateId":"20060199","CountyId":"20074367","CityId":"20074921"}}},{"Relevance":1.0,"Distance":10.1,"MatchLevel":"houseNumber","MatchQuality":{"Country":1.0,"State":1.0,"County":1.0,"City":1.0,"Street":[1.0],"HouseNumber":1.0,"PostalCode":1.0},"MatchType":"interpolated","Location":{"LocationId":"NT_ikUKBtvPJD6VE3LC2uO9RC_zA","LocationType":"point","DisplayPosition":{"Latitude":47.66932,"Longitude":-2.44979},"MapView":{"TopLeft":{"Latitude":47.6704442,"Longitude":-2.4514593},"BottomRight":{"Latitude":47.6681958,"Longitude":-2.4481207}},"Address":{"Label":"3 Impasse des Landes du Potier, 56230 Questembert, France","Country":"FRA","State":"Bretagne","County":"Morbihan","City":"Questembert","Street":"Impasse des Landes du Potier","HouseNumber":"3","PostalCode":"56230","AdditionalData":[{"value":"France","key":"CountryName"},{"value":"Bretagne","key":"StateName"},{"value":"Morbihan","key":"CountyName"}]},"MapReference":{"ReferenceId":"552075181","Spot":0.32,"SideOfStreet":"right","CountryId":"20000001","StateId":"20060199","CountyId":"20074367","CityId":"20074921","AddressId":"590851808","RoadLinkId":"47551323"}}},{"Relevance":1.0,"Distance":28.0,"MatchLevel":"houseNumber","MatchQuality":{"Country":1.0,"State":1.0,"County":1.0,"City":1.0,"Street":[1.0],"HouseNumber":1.0,"PostalCode":1.0},"MatchType":"interpolated","Location":{"LocationId":"NT_8NHDLqpRoyCuyqJHKvSAzD_l_552148087_R_xA","LocationType":"point","DisplayPosition":{"Latitude":47.66901,"Longitude":-2.45011},"MapView":{"TopLeft":{"Latitude":47.6701342,"Longitude":-2.4517793},"BottomRight":{"Latitude":47.6678859,"Longitude":-2.4484407}},"Address":{"Label":"1 Boulevard Pasteur, 56230 Questembert, France","Country":"FRA","State":"Bretagne","County":"Morbihan","City":"Questembert","Street":"Boulevard Pasteur","HouseNumber":"1","PostalCode":"56230","AdditionalData":[{"value":"France","key":"CountryName"},{"value":"Bretagne","key":"StateName"},{"value":"Morbihan","key":"CountyName"}]},"MapReference":{"ReferenceId":"552148087","Spot":0.63,"SideOfStreet":"right","CountryId":"20000001","StateId":"20060199","CountyId":"20074367","CityId":"20074921"}}},{"Relevance":1.0,"Distance":31.9,"MatchLevel":"street","MatchQuality":{"Country":1.0,"State":1.0,"County":1.0,"City":1.0,"Street":[1.0],"PostalCode":1.0},"Location":{"LocationId":"NT_8NHDLqpRoyCuyqJHKvSAzD_l_552075180_R","LocationType":"point","DisplayPosition":{"Latitude":47.66924,"Longitude":-2.45014},"MapView":{"TopLeft":{"Latitude":47.67021,"Longitude":-2.45026},"BottomRight":{"Latitude":47.66924,"Longitude":-2.45014}},"Address":{"Label":"Boulevard Pasteur, 56230 Questembert, France","Country":"FRA","State":"Bretagne","County":"Morbihan","City":"Questembert","Street":"Boulevard Pasteur","PostalCode":"56230","AdditionalData":[{"value":"France","key":"CountryName"},{"value":"Bretagne","key":"StateName"},{"value":"Morbihan","key":"CountyName"}]},"MapReference":{"ReferenceId":"552075180","Spot":0.0,"SideOfStreet":"right","CountryId":"20000001","StateId":"20060199","CountyId":"20074367","CityId":"20074921"}}},{"Relevance":1.0,"Distance":32.0,"MatchLevel":"landmark","MatchQuality":{"Country":1.0,"State":1.0,"County":1.0,"City":1.0,"PostalCode":1.0,"Name":1.0},"Location":{"LocationId":"NT_y9rxeVcPXkU1rq9KdGj.4C","LocationType":"industrialComplex","Name":"Z.I. de Lenruit","DisplayPosition":{"Latitude":47.6699,"Longitude":-2.45307},"MapView":{"TopLeft":{"Latitude":47.67337,"Longitude":-2.45686},"BottomRight":{"Latitude":47.66643,"Longitude":-2.44979}},"Address":{"Label":"56230 Questembert, France","Country":"FRA","State":"Bretagne","County":"Morbihan","City":"Questembert","PostalCode":"56230","AdditionalData":[{"value":"France","key":"CountryName"},{"value":"Bretagne","key":"StateName"},{"value":"Morbihan","key":"CountyName"}]},"MapReference":{"CountryId":"20000001","StateId":"20060199","CountyId":"20074367","CityId":"20074921","PlaceId":"75428266"}}},{"Relevance":1.0,"Distance":47.7,"MatchLevel":"street","MatchQuality":{"Country":1.0,"State":1.0,"County":1.0,"City":1.0,"PostalCode":1.0},"Location":{"LocationId":"NT_dUQddLD08nDgdefLuG.W.A_l_955288490_R","LocationType":"point","DisplayPosition":{"Latitude":47.66923,"Longitude":-2.45035},"MapView":{"TopLeft":{"Latitude":47.66972,"Longitude":-2.45048},"BottomRight":{"Latitude":47.66923,"Longitude":-2.45035}},"Address":{"Label":"56230 Questembert, France","Country":"FRA","State":"Bretagne","County":"Morbihan","City":"Questembert","PostalCode":"56230","AdditionalData":[{"value":"France","key":"CountryName"},{"value":"Bretagne","key":"StateName"},{"value":"Morbihan","key":"CountyName"}]},"MapReference":{"ReferenceId":"955288490","Spot":0.0,"SideOfStreet":"right","CountryId":"20000001","StateId":"20060199","CountyId":"20074367","CityId":"20074921"}}},{"Relevance":1.0,"Distance":50.1,"MatchLevel":"houseNumber","MatchQuality":{"Country":1.0,"State":1.0,"County":1.0,"City":1.0,"Street":[1.0],"HouseNumber":1.0,"PostalCode":1.0},"MatchType":"interpolated","Location":{"LocationId":"NT_Sm4YKMQhb6DadMoYeHYZRD_2kTO3A","LocationType":"point","DisplayPosition":{"Latitude":47.66859,"Longitude":-2.44911},"MapView":{"TopLeft":{"Latitude":47.6697142,"Longitude":-2.4507793},"BottomRight":{"Latitude":47.6674658,"Longitude":-2.4474407}},"Address":{"Label":"6997 Avenue des Azalées, 56230 Questembert, France","Country":"FRA","State":"Bretagne","County":"Morbihan","City":"Questembert","Street":"Avenue des Azalées","HouseNumber":"6997","PostalCode":"56230","AdditionalData":[{"value":"France","key":"CountryName"},{"value":"Bretagne","key":"StateName"},{"value":"Morbihan","key":"CountyName"}]},"MapReference":{"ReferenceId":"552148093","Spot":0.22,"SideOfStreet":"right","CountryId":"20000001","StateId":"20060199","CountyId":"20074367","CityId":"20074921","AddressId":"320364325","RoadLinkId":"47056511"}}},{"Relevance":1.0,"Distance":74.9,"MatchLevel":"street","MatchQuality":{"Country":1.0,"State":1.0,"County":1.0,"City":1.0,"PostalCode":1.0},"Location":{"LocationId":"NT_dUQddLD08nDgdefLuG.W.A_l_945532188_R","LocationType":"point","DisplayPosition":{"Latitude":47.66865,"Longitude":-2.45018},"MapView":{"TopLeft":{"Latitude":47.66865,"Longitude":-2.45108},"BottomRight":{"Latitude":47.66829,"Longitude":-2.45018}},"Address":{"Label":"56230 Questembert, France","Country":"FRA","State":"Bretagne","County":"Morbihan","City":"Questembert","PostalCode":"56230","AdditionalData":[{"value":"France","key":"CountryName"},{"value":"Bretagne","key":"StateName"},{"value":"Morbihan","key":"CountyName"}]},"MapReference":{"ReferenceId":"945532188","Spot":1.0,"SideOfStreet":"right","CountryId":"20000001","StateId":"20060199","CountyId":"20074367","CityId":"20074921"}}},{"Relevance":1.0,"Distance":75.5,"MatchLevel":"street","MatchQuality":{"Country":1.0,"State":1.0,"County":1.0,"City":1.0,"Street":[1.0],"PostalCode":1.0},"Location":{"LocationId":"NT_4kUXdyL.-7tUNoF31qByNA_l_552148085_R","LocationType":"point","DisplayPosition":{"Latitude":47.66861,"Longitude":-2.45007},"MapView":{"TopLeft":{"Latitude":47.66861,"Longitude":-2.45007},"BottomRight":{"Latitude":47.66832,"Longitude":-2.44999}},"Address":{"Label":"Boulevard Pasteur, 56230 Questembert, France","Country":"FRA","State":"Bretagne","County":"Morbihan","City":"Questembert","Street":"Boulevard Pasteur","PostalCode":"56230","AdditionalData":[{"value":"France","key":"CountryName"},{"value":"Bretagne","key":"StateName"},{"value":"Morbihan","key":"CountyName"}]},"MapReference":{"ReferenceId":"552148085","Spot":1.0,"SideOfStreet":"right","CountryId":"20000001","StateId":"20060199","CountyId":"20074367","CityId":"20074921"}}},{"Relevance":1.0,"Distance":75.5,"MatchLevel":"street","MatchQuality":{"Country":1.0,"State":1.0,"County":1.0,"City":1.0,"Street":[1.0],"PostalCode":1.0},"Location":{"LocationId":"NT_4kUXdyL.-7tUNoF31qByNA_l_552148086_R","LocationType":"point","DisplayPosition":{"Latitude":47.66861,"Longitude":-2.45007},"MapView":{"TopLeft":{"Latitude":47.66861,"Longitude":-2.45021},"BottomRight":{"Latitude":47.66832,"Longitude":-2.45007}},"Address":{"Label":"Boulevard Pasteur, 56230 Questembert, France","Country":"FRA","State":"Bretagne","County":"Morbihan","City":"Questembert","Street":"Boulevard Pasteur","PostalCode":"56230","AdditionalData":[{"value":"France","key":"CountryName"},{"value":"Bretagne","key":"StateName"},{"value":"Morbihan","key":"CountyName"}]},"MapReference":{"ReferenceId":"552148086","Spot":1.0,"SideOfStreet":"right","CountryId":"20000001","StateId":"20060199","CountyId":"20074367","CityId":"20074921"}}}]}]}}