{"Response":{"MetaInfo":{"Timestamp":"2020-03-28T11:44:59.700+0000","NextPageInformation":"2"},"View":[{"_type":"SearchResultsViewType","ViewId":0,"Result":[{"Relevance":1.0,"Distance":0.0,"Direction":0.0,"MatchLevel":"district","MatchQuality":{"Country":1.0,"State":1.0,"County":1.0,"City":1.0,"District":1.0,"PostalCode":1.0},"Location":{"LocationId":"NT_peOczyDGbnhiJ9ZQrk.b6D","LocationType":"point","DisplayPosition":{"Latitude":47.6828117,"Longitude":11.5763786},"MapView":{"TopLeft":{"Latitude":47.69576,"Longitude":11.55716},"BottomRight":{"Latitude":47.67112,"Longitude":11.59023}},"Address":{"Label":"Lenggries, Bayern, Deutschland","Country":"DEU","State":"Bayern","County":"Bad Tölz-Wolfratshausen","City":"Lenggries","District":"Lenggries","PostalCode":"83661","AdditionalData":[{"value":"Deutschland","key":"CountryName"},{"value":"Bayern","key":"StateName"},{"value":"Bad Tölz-Wolfratshausen","key":"CountyName"}]},"MapReference":{"ReferenceId":"82038972","SideOfStreet":"neither","CountryId":"20147700","StateId":"20177250","CountyId":"20177446","CityId":"20177516","DistrictId":"20177518"}}},{"Relevance":1.0,"Distance":11.4,"MatchLevel":"houseNumber","MatchQuality":{"Country":1.0,"State":1.0,"County":1.0,"City":1.0,"District":1.0,"Street":[1.0],"HouseNumber":1.0,"PostalCode":1.0},"MatchType":"interpolated","Location":{"LocationId":"NT_K3qslQVtu8F3N77TwL6c9B_xQD","LocationType":"point","DisplayPosition":{"Latitude":47.68271,"Longitude":11.57636},"MapView":{"TopLeft":{"Latitude":47.6838342,"Longitude":11.5746902},"BottomRight":{"Latitude":47.6815858,"Longitude":11.5780298}},"Address":{"Label":"Marktstraße 14, 83661 Lenggries, Deutschland","Country":"DEU","State":"Bayern","County":"Bad Tölz-Wolfratshausen","City":"Lenggries","District":"Lenggries","Street":"Marktstraße","HouseNumber":"14","PostalCode":"83661","AdditionalData":[{"value":"Deutschland","key":"CountryName"},{"value":"Bayern","key":"StateName"},{"value":"Bad Tölz-Wolfratshausen","key":"CountyName"}]},"MapReference":{"ReferenceId":"82014079","Spot":0.49,"SideOfStreet":"right","CountryId":"20147700","StateId":"20177250","CountyId":"20177446","CityId":"20177516","DistrictId":"20177518","AddressId":"184974082","RoadLinkId":"33808620"}}},{"Relevance":1.0,"Distance":11.4,"MatchLevel":"street","MatchQuality":{"Country":1.0,"State":1.0,"County":1.0,"City":1.0,"District":1.0,"Street":[1.0],"PostalCode":1.0},"Location":{"LocationId":"NT_nTbD7ppElR6Ie264Q5pT4D_l_82038818_R","LocationType":"point","DisplayPosition":{"Latitude":47.6829,"Longitude":11.5763},"MapView":{"TopLeft":{"Latitude":47.6829,"Longitude":11.57568},"BottomRight":{"Latitude":47.68275,"Longitude":11.5763}},"Address":{"Label":"Kolpingstraße, 83661 Lenggries, Deutschland","Country":"DEU","State":"Bayern","County":"Bad Tölz-Wolfratshausen","City":"Lenggries","District":"Lenggries","Street":"Kolpingstraße","PostalCode":"83661","AdditionalData":[{"value":"Deutschland","key":"CountryName"},{"value":"Bayern","key":"StateName"},{"value":"Bad Tölz-Wolfratshausen","key":"CountyName"}]},"MapReference":{"ReferenceId":"82038818","Spot":1.0,"SideOfStreet":"right","CountryId":"20147700","StateId":"20177250","CountyId":"20177446","CityId":"20177516","DistrictId":"20177518"}}},{"Relevance":1.0,"Distance":30.1,"MatchLevel":"houseNumber","MatchQuality":{"Country":1.0,"State":1.0,"County":1.0,"City":1.0,"District":1.0,"Street":[1.0],"HouseNumber":1.0,"PostalCode":1.0},"MatchType":"interpolated","Location":{"LocationId":"NT_g5s0IxNkOtB9D9prFUNwWB_yYD","LocationType":"point","DisplayPosition":{"Latitude":47.68268,"Longitude":11.57673},"MapView":{"TopLeft":{"Latitude":47.6838042,"Longitude":11.5750602},"BottomRight":{"Latitude":47.6815558,"Longitude":11.5783998}},"Address":{"Label":"Herwarthstraße 26, 83661 Lenggries, Deutschland","Country":"DEU","State":"Bayern","County":"Bad Tölz-Wolfratshausen","City":"Lenggries","District":"Lenggries","Street":"Herwarthstraße","HouseNumber":"26","PostalCode":"83661","AdditionalData":[{"value":"Deutschland","key":"CountryName"},{"value":"Bayern","key":"StateName"},{"value":"Bad Tölz-Wolfratshausen","key":"CountyName"}]},"MapReference":{"ReferenceId":"82013893","Spot":0.1,"SideOfStreet":"right","CountryId":"20147700","StateId":"20177250","CountyId":"20177446","CityId":"20177516","DistrictId":"20177518","AddressId":"182995733","RoadLinkId":"33294753"}}},{"Relevance":1.0,"Distance":30.6,"MatchLevel":"street","MatchQuality":{"Country":1.0,"State":1.0,"County":1.0,"City":1.0,"District":1.0,"PostalCode":1.0},"Location":{"LocationId":"NT_-Zjb2yRKhYoNOhqwANlW-B_l_82013917_L","LocationType":"point","DisplayPosition":{"Latitude":47.68254,"Longitude":11.57644},"MapView":{"TopLeft":{"Latitude":47.68261,"Longitude":11.57644},"BottomRight":{"Latitude":47.68254,"Longitude":11.57677}},"Address":{"Label":"83661 Lenggries, Deutschland","Country":"DEU","State":"Bayern","County":"Bad Tölz-Wolfratshausen","City":"Lenggries","District":"Lenggries","PostalCode":"83661","AdditionalData":[{"value":"Deutschland","key":"CountryName"},{"value":"Bayern","key":"StateName"},{"value":"Bad Tölz-Wolfratshausen","key":"CountyName"}]},"MapReference":{"ReferenceId":"82013917","Spot":0.0,"SideOfStreet":"left","CountryId":"20147700","StateId":"20177250","CountyId":"20177446","CityId":"20177516","DistrictId":"20177518"}}},{"Relevance":1.0,"Distance":37.8,"MatchLevel":"houseNumber","MatchQuality":{"Country":1.0,"State":1.0,"County":1.0,"City":1.0,"District":1.0,"Street":[1.0],"HouseNumber":1.0,"PostalCode":1.0},"MatchType":"interpolated","Location":{"LocationId":"NT_K3qslQVtu8F3N77TwL6c9B_xUD","LocationType":"point","DisplayPosition":{"Latitude":47.68313,"Longitude":11.5762},"MapView":{"TopLeft":{"Latitude":47.6842542,"Longitude":11.5745302},"BottomRight":{"Latitude":47.6820058,"Longitude":11.5778698}},"Address":{"Label":"Marktstraße 15, 83661 Lenggries, Deutschland","Country":"DEU","State":"Bayern","County":"Bad Tölz-Wolfratshausen","City":"Lenggries","District":"Lenggries","Street":"Marktstraße","HouseNumber":"15","PostalCode":"83661","AdditionalData":[{"value":"Deutschland","key":"CountryName"},{"value":"Bayern","key":"StateName"},{"value":"Bad Tölz-Wolfratshausen","key":"CountyName"}]},"MapReference":{"ReferenceId":"82013990","Spot":0.69,"SideOfStreet":"left","CountryId":"20147700","StateId":"20177250","CountyId":"20177446","CityId":"20177516","DistrictId":"20177518","AddressId":"186131194","RoadLinkId":"32940220"}}},{"Relevance":1.0,"Distance":43.1,"MatchLevel":"houseNumber","MatchQuality":{"Country":1.0,"State":1.0,"County":1.0,"City":1.0,"District":1.0,"Street":[1.0],"HouseNumber":1.0,"PostalCode":1.0},"MatchType":"interpolated","Location":{"LocationId":"NT_K3qslQVtu8F3N77TwL6c9B_xID","LocationType":"point","DisplayPosition":{"Latitude":47.68243,"Longitude":11.57648},"MapView":{"TopLeft":{"Latitude":47.6835542,"Longitude":11.5748102},"BottomRight":{"Latitude":47.6813058,"Longitude":11.5781498}},"Address":{"Label":"Marktstraße 12, 83661 Lenggries, Deutschland","Country":"DEU","State":"Bayern","County":"Bad Tölz-Wolfratshausen","City":"Lenggries","District":"Lenggries","Street":"Marktstraße","HouseNumber":"12","PostalCode":"83661","AdditionalData":[{"value":"Deutschland","key":"CountryName"},{"value":"Bayern","key":"StateName"},{"value":"Bad Tölz-Wolfratshausen","key":"CountyName"}]},"MapReference":{"ReferenceId":"857394059","Spot":0.61,"SideOfStreet":"right","CountryId":"20147700","StateId":"20177250","CountyId":"20177446","CityId":"20177516","DistrictId":"20177518","AddressId":"183134505","RoadLinkId":"234109359"}}},{"Relevance":1.0,"Distance":49.2,"MatchLevel":"houseNumber","MatchQuality":{"Country":1.0,"State":1.0,"County":1.0,"City":1.0,"District":1.0,"Street":[1.0],"HouseNumber":1.0,"PostalCode":1.0},"MatchType":"interpolated","Location":{"LocationId":"NT_gRW368IoTFIdL4BBkopK-D_0A","LocationType":"point","DisplayPosition":{"Latitude":47.68245,"Longitude":11.576},"MapView":{"TopLeft":{"Latitude":47.6835742,"Longitude":11.5743302},"BottomRight":{"Latitude":47.6813258,"Longitude":11.5776698}},"Address":{"Label":"Karl-Pfund-Weg 4, 83661 Lenggries, Deutschland","Country":"DEU","State":"Bayern","County":"Bad Tölz-Wolfratshausen","City":"Lenggries","District":"Lenggries","Street":"Karl-Pfund-Weg","HouseNumber":"4","PostalCode":"83661","AdditionalData":[{"value":"Deutschland","key":"CountryName"},{"value":"Bayern","key":"StateName"},{"value":"Bad Tölz-Wolfratshausen","key":"CountyName"}]},"MapReference":{"ReferenceId":"82038820","Spot":0.0,"SideOfStreet":"left","CountryId":"20147700","StateId":"20177250","CountyId":"20177446","CityId":"20177516","DistrictId":"20177518","AddressId":"184214552","RoadLinkId":"33708661"}}},{"Relevance":1.0,"Distance":49.6,"MatchLevel":"street","MatchQuality":{"Country":1.0,"State":1.0,"County":1.0,"City":1.0,"District":1.0,"Street":[1.0],"PostalCode":1.0},"Location":{"LocationId":"NT_0nbVANjbrexOFiREKVM6hB_l_82038816_R","LocationType":"point","DisplayPosition":{"Latitude":47.68323,"Longitude":11.57615},"MapView":{"TopLeft":{"Latitude":47.68323,"Longitude":11.57547},"BottomRight":{"Latitude":47.68307,"Longitude":11.57615}},"Address":{"Label":"Isarstraße, 83661 Lenggries, Deutschland","Country":"DEU","State":"Bayern","County":"Bad Tölz-Wolfratshausen","City":"Lenggries","District":"Lenggries","Street":"Isarstraße","PostalCode":"83661","AdditionalData":[{"value":"Deutschland","key":"CountryName"},{"value":"Bayern","key":"StateName"},{"value":"Bad Tölz-Wolfratshausen","key":"CountyName"}]},"MapReference":{"ReferenceId":"82038816","Spot":1.0,"SideOfStreet":"right","CountryId":"20147700","StateId":"20177250","CountyId":"20177446","CityId":"20177516","DistrictId":"20177518"}}},{"Relevance":1.0,"Distance":50.0,"MatchLevel":"houseNumber","MatchQuality":{"Country":1.0,"State":1.0,"County":1.0,"City":1.0,"District":1.0,"Street":[1.0],"HouseNumber":1.0,"PostalCode":1.0},"MatchType":"interpolated","Location":{"LocationId":"NT_g5s0IxNkOtB9D9prFUNwWB_yQD","LocationType":"point","DisplayPosition":{"Latitude":47.68248,"Longitude":11.57683},"MapView":{"TopLeft":{"Latitude":47.6836042,"Longitude":11.5751602},"BottomRight":{"Latitude":47.6813558,"Longitude":11.5784998}},"Address":{"Label":"Herwarthstraße 24, 83661 Lenggries, Deutschland","Country":"DEU","State":"Bayern","County":"Bad Tölz-Wolfratshausen","City":"Lenggries","District":"Lenggries","Street":"Herwarthstraße","HouseNumber":"24","PostalCode":"83661","AdditionalData":[{"value":"Deutschland","key":"CountryName"},{"value":"Bayern","key":"StateName"},{"value":"Bad Tölz-Wolfratshausen","key":"CountyName"}]},"MapReference":{"ReferenceId":"82013925","Spot":0.73,"SideOfStreet":"right","CountryId":"20147700","StateId":"20177250","CountyId":"20177446","CityId":"20177516","DistrictId":"20177518","AddressId":"183560149","RoadLinkId":"33522009"}}}]}]}}