{"Response":{"MetaInfo":{"Timestamp":"2020-03-28T10:43:06.650+0000","NextPageInformation":"2"},"View":[{"_type":"SearchResultsViewType","ViewId":0,"Result":[{"Relevance":1.0,"Distance":0.0,"Direction":0.0,"MatchLevel":"district","MatchQuality":{"Country":1.0,"State":1.0,"County":1.0,"City":1.0,"District":1.0,"PostalCode":1.0},"Location":{"LocationId":"NT_BJW4N6FNQkQRXmyzDDQA6C","LocationType":"point","DisplayPosition":{"Latitude":47.7788185,"Longitude":19.9263758},"MapView":{"TopLeft":{"Latitude":47.80192,"Longitude":19.90556},"BottomRight":{"Latitude":47.75762,"Longitude":19.95374}},"Address":{"Label":"Gyöngyös, Heves, Magyarország","Country":"HUN","State":"Heves","County":"Gyöngyösi Járás","City":"Gyöngyös","District":"Gyöngyös","PostalCode":"3200","AdditionalData":[{"value":"Magyarország","key":"CountryName"},{"value":"Heves","key":"StateName"},{"value":"Gyöngyösi Járás","key":"CountyName"}]},"MapReference":{"ReferenceId":"709419172","SideOfStreet":"neither","CountryId":"20613038","StateId":"20617771","CountyId":"26678493","CityId":"20617892","DistrictId":"26679248"}}},{"Relevance":1.0,"Distance":27.0,"MatchLevel":"street","MatchQuality":{"Country":1.0,"State":1.0,"County":1.0,"City":1.0,"District":1.0,"PostalCode":1.0},"Location":{"LocationId":"NT_mzBYeK3jCc-6465M6sIW-A_l_708511850_R","LocationType":"point","DisplayPosition":{"Latitude":47.778576,"Longitude":19.9263618},"MapView":{"TopLeft":{"Latitude":47.77867,"Longitude":19.92591},"BottomRight":{"Latitude":47.77853,"Longitude":19.92716}},"Address":{"Label":"Gyöngyös 3200, Magyarország","Country":"HUN","State":"Heves","County":"Gyöngyösi Járás","City":"Gyöngyös","District":"Gyöngyös","PostalCode":"3200","AdditionalData":[{"value":"Magyarország","key":"CountryName"},{"value":"Heves","key":"StateName"},{"value":"Gyöngyösi Járás","key":"CountyName"}]},"MapReference":{"ReferenceId":"708511850","Spot":0.63,"SideOfStreet":"right","CountryId":"20613038","StateId":"20617771","CountyId":"26678493","CityId":"20617892","DistrictId":"26679248"}}},{"Relevance":1.0,"Distance":33.8,"MatchLevel":"street","MatchQuality":{"Country":1.0,"State":1.0,"County":1.0,"City":1.0,"District":1.0,"PostalCode":1.0},"Location":{"LocationId":"NT_mzBYeK3jCc-6465M6sIW-A_l_708511785_L","LocationType":"point","DisplayPosition":{"Latitude":47.7791218,"Longitude":19.9264131},"MapView":{"TopLeft":{"Latitude":47.77918,"Longitude":19.92594},"BottomRight":{"Latitude":47.77907,"Longitude":19.92721}},"Address":{"Label":"Gyöngyös 3200, Magyarország","Country":"HUN","State":"Heves","County":"Gyöngyösi Járás","City":"Gyöngyös","District":"Gyöngyös","PostalCode":"3200","AdditionalData":[{"value":"Magyarország","key":"CountryName"},{"value":"Heves","key":"StateName"},{"value":"Gyöngyösi Járás","key":"CountyName"}]},"MapReference":{"ReferenceId":"708511785","Spot":0.63,"SideOfStreet":"left","CountryId":"20613038","StateId":"20617771","CountyId":"26678493","CityId":"20617892","DistrictId":"26679248"}}},{"Relevance":1.0,"Distance":38.2,"MatchLevel":"street","MatchQuality":{"Country":1.0,"State":1.0,"County":1.0,"City":1.0,"District":1.0,"PostalCode":1.0},"Location":{"LocationId":"NT_mzBYeK3jCc-6465M6sIW-A_l_740880569_R","LocationType":"point","DisplayPosition":{"Latitude":47.7786843,"Longitude":19.9259059},"MapView":{"TopLeft":{"Latitude":47.77888,"Longitude":19.92585},"BottomRight":{"Latitude":47.77867,"Longitude":19.92591}},"Address":{"Label":"Gyöngyös 3200, Magyarország","Country":"HUN","State":"Heves","County":"Gyöngyösi Járás","City":"Gyöngyös","District":"Gyöngyös","PostalCode":"3200","AdditionalData":[{"value":"Magyarország","key":"CountryName"},{"value":"Heves","key":"StateName"},{"value":"Gyöngyösi Járás","key":"CountyName"}]},"MapReference":{"ReferenceId":"740880569","Spot":0.07,"SideOfStreet":"right","CountryId":"20613038","StateId":"20617771","CountyId":"26678493","CityId":"20617892","DistrictId":"26679248"}}},{"Relevance":1.0,"Distance":38.5,"MatchLevel":"street","MatchQuality":{"Country":1.0,"State":1.0,"County":1.0,"City":1.0,"District":1.0,"PostalCode":1.0},"Location":{"LocationId":"NT_mzBYeK3jCc-6465M6sIW-A_l_708511833_R","LocationType":"point","DisplayPosition":{"Latitude":47.77867,"Longitude":19.92591},"MapView":{"TopLeft":{"Latitude":47.77877,"Longitude":19.92573},"BottomRight":{"Latitude":47.77867,"Longitude":19.92591}},"Address":{"Label":"Gyöngyös 3200, Magyarország","Country":"HUN","State":"Heves","County":"Gyöngyösi Járás","City":"Gyöngyös","District":"Gyöngyös","PostalCode":"3200","AdditionalData":[{"value":"Magyarország","key":"CountryName"},{"value":"Heves","key":"StateName"},{"value":"Gyöngyösi Járás","key":"CountyName"}]},"MapReference":{"ReferenceId":"708511833","Spot":0.0,"SideOfStreet":"right","CountryId":"20613038","StateId":"20617771","CountyId":"26678493","CityId":"20617892","DistrictId":"26679248"}}},{"Relevance":1.0,"Distance":38.5,"MatchLevel":"street","MatchQuality":{"Country":1.0,"State":1.0,"County":1.0,"City":1.0,"District":1.0,"PostalCode":1.0},"Location":{"LocationId":"NT_mzBYeK3jCc-6465M6sIW-A_l_708511867_R","LocationType":"point","DisplayPosition":{"Latitude":47.77867,"Longitude":19.92591},"MapView":{"TopLeft":{"Latitude":47.77867,"Longitude":19.92591},"BottomRight":{"Latitude":47.77843,"Longitude":19.92595}},"Address":{"Label":"Gyöngyös 3200, Magyarország","Country":"HUN","State":"Heves","County":"Gyöngyösi Járás","City":"Gyöngyös","District":"Gyöngyös","PostalCode":"3200","AdditionalData":[{"value":"Magyarország","key":"CountryName"},{"value":"Heves","key":"StateName"},{"value":"Gyöngyösi Járás","key":"CountyName"}]},"MapReference":{"ReferenceId":"708511867","Spot":1.0,"SideOfStreet":"right","CountryId":"20613038","StateId":"20617771","CountyId":"26678493","CityId":"20617892","DistrictId":"26679248"}}},{"Relevance":1.0,"Distance":39.8,"MatchLevel":"street","MatchQuality":{"Country":1.0,"State":1.0,"County":1.0,"City":1.0,"District":1.0,"Street":[1.0],"PostalCode":1.0},"Location":{"LocationId":"NT_3ZaoWTF0mpewJIoDY77aqC_l_708511808_R","LocationType":"point","DisplayPosition":{"Latitude":47.7789586,"Longitude":19.9258853},"MapView":{"TopLeft":{"Latitude":47.77918,"Longitude":19.92585},"BottomRight":{"Latitude":47.77888,"Longitude":19.92594}},"Address":{"Label":"Jeruzsálem utca, Gyöngyös 3200, Magyarország","Country":"HUN","State":"Heves","County":"Gyöngyösi Járás","City":"Gyöngyös","District":"Gyöngyös","Street":"Jeruzsálem utca","PostalCode":"3200","AdditionalData":[{"value":"Magyarország","key":"CountryName"},{"value":"Heves","key":"StateName"},{"value":"Gyöngyösi Járás","key":"CountyName"}]},"MapReference":{"ReferenceId":"708511808","Spot":0.27,"SideOfStreet":"right","CountryId":"20613038","StateId":"20617771","CountyId":"26678493","CityId":"20617892","DistrictId":"26679248"}}},{"Relevance":1.0,"Distance":39.9,"MatchLevel":"street","MatchQuality":{"Country":1.0,"State":1.0,"County":1.0,"City":1.0,"District":1.0,"Street":[1.0],"PostalCode":1.0},"Location":{"LocationId":"NT_SBAHDb6hPmKw-sOeqyr.PD_l_708511820_R","LocationType":"point","DisplayPosition":{"Latitude":47.77888,"Longitude":19.92585},"MapView":{"TopLeft":{"Latitude":47.77888,"Longitude":19.92573},"BottomRight":{"Latitude":47.77877,"Longitude":19.92585}},"Address":{"Label":"Országút utca, Gyöngyös 3200, Magyarország","Country":"HUN","State":"Heves","County":"Gyöngyösi Járás","City":"Gyöngyös","District":"Gyöngyös","Street":"Országút utca","PostalCode":"3200","AdditionalData":[{"value":"Magyarország","key":"CountryName"},{"value":"Heves","key":"StateName"},{"value":"Gyöngyösi Járás","key":"CountyName"}]},"MapReference":{"ReferenceId":"708511820","Spot":1.0,"SideOfStreet":"right","CountryId":"20613038","StateId":"20617771","CountyId":"26678493","CityId":"20617892","DistrictId":"26679248"}}},{"Relevance":1.0,"Distance":45.6,"MatchLevel":"street","MatchQuality":{"Country":1.0,"State":1.0,"County":1.0,"City":1.0,"District":1.0,"PostalCode":1.0},"Location":{"LocationId":"NT_mzBYeK3jCc-6465M6sIW-A_l_708511877_R","LocationType":"point","DisplayPosition":{"Latitude":47.7784091,"Longitude":19.9263552},"MapView":{"TopLeft":{"Latitude":47.77843,"Longitude":19.92594},"BottomRight":{"Latitude":47.77837,"Longitude":19.92713}},"Address":{"Label":"Gyöngyös 3200, Magyarország","Country":"HUN","State":"Heves","County":"Gyöngyösi Járás","City":"Gyöngyös","District":"Gyöngyös","PostalCode":"3200","AdditionalData":[{"value":"Magyarország","key":"CountryName"},{"value":"Heves","key":"StateName"},{"value":"Gyöngyösi Járás","key":"CountyName"}]},"MapReference":{"ReferenceId":"708511877","Spot":0.65,"SideOfStreet":"right","CountryId":"20613038","StateId":"20617771","CountyId":"26678493","CityId":"20617892","DistrictId":"26679248"}}},{"Relevance":1.0,"Distance":48.6,"MatchLevel":"street","MatchQuality":{"Country":1.0,"State":1.0,"County":1.0,"City":1.0,"District":1.0,"Street":[1.0],"PostalCode":1.0},"Location":{"LocationId":"NT_SBAHDb6hPmKw-sOeqyr.PD_l_708511830_R","LocationType":"point","DisplayPosition":{"Latitude":47.77877,"Longitude":19.92573},"MapView":{"TopLeft":{"Latitude":47.77877,"Longitude":19.92529},"BottomRight":{"Latitude":47.77867,"Longitude":19.92573}},"Address":{"Label":"Országút utca, Gyöngyös 3200, Magyarország","Country":"HUN","State":"Heves","County":"Gyöngyösi Járás","City":"Gyöngyös","District":"Gyöngyös","Street":"Országút utca","PostalCode":"3200","AdditionalData":[{"value":"Magyarország","key":"CountryName"},{"value":"Heves","key":"StateName"},{"value":"Gyöngyösi Járás","key":"CountyName"}]},"MapReference":{"ReferenceId":"708511830","Spot":1.0,"SideOfStreet":"right","CountryId":"20613038","StateId":"20617771","CountyId":"26678493","CityId":"20617892","DistrictId":"26679248"}}}]}]}}