{"Response":{"MetaInfo":{"Timestamp":"2020-03-28T11:39:52.947+0000","NextPageInformation":"2"},"View":[{"_type":"SearchResultsViewType","ViewId":0,"Result":[{"Relevance":1.0,"Distance":0.0,"Direction":0.0,"MatchLevel":"district","MatchQuality":{"Country":1.0,"State":1.0,"County":1.0,"City":1.0,"District":1.0,"PostalCode":1.0},"Location":{"LocationId":"NT_jv8QQPjufFas2i7YKR.KhB","LocationType":"point","DisplayPosition":{"Latitude":47.7593033,"Longitude":12.4613623},"MapView":{"TopLeft":{"Latitude":47.76586,"Longitude":12.45337},"BottomRight":{"Latitude":47.75322,"Longitude":12.47282}},"Address":{"Label":"Marquartstein, Bayern, Deutschland","Country":"DEU","State":"Bayern","County":"Traunstein","City":"Marquartstein","District":"Marquartstein","PostalCode":"83250","AdditionalData":[{"value":"Deutschland","key":"CountryName"},{"value":"Bayern","key":"StateName"},{"value":"Traunstein","key":"CountyName"}]},"MapReference":{"ReferenceId":"1191723936","SideOfStreet":"neither","CountryId":"20147700","StateId":"20177250","CountyId":"20179246","CityId":"20179287","DistrictId":"20179289"}}},{"Relevance":1.0,"Distance":15.7,"MatchLevel":"houseNumber","MatchQuality":{"Country":1.0,"State":1.0,"County":1.0,"City":1.0,"District":1.0,"Street":[1.0],"HouseNumber":1.0,"PostalCode":1.0},"MatchType":"interpolated","Location":{"LocationId":"NT_gHlUa69DpyYSFn0WRZUPDB_xEE","LocationType":"point","DisplayPosition":{"Latitude":47.75924,"Longitude":12.46155},"MapView":{"TopLeft":{"Latitude":47.7603642,"Longitude":12.4598778},"BottomRight":{"Latitude":47.7581158,"Longitude":12.4632222}},"Address":{"Label":"Pettendorfer Straße 1A, 83250 Marquartstein, Deutschland","Country":"DEU","State":"Bayern","County":"Traunstein","City":"Marquartstein","District":"Marquartstein","Street":"Pettendorfer Straße","HouseNumber":"1A","PostalCode":"83250","AdditionalData":[{"value":"Deutschland","key":"CountryName"},{"value":"Bayern","key":"StateName"},{"value":"Traunstein","key":"CountyName"}]},"MapReference":{"ReferenceId":"774085658","Spot":0.03,"SideOfStreet":"left","CountryId":"20147700","StateId":"20177250","CountyId":"20179246","CityId":"20179287","DistrictId":"20179289","AddressId":"183076252","RoadLinkId":"167713398"}}},{"Relevance":1.0,"Distance":18.1,"MatchLevel":"street","MatchQuality":{"Country":1.0,"State":1.0,"County":1.0,"City":1.0,"District":1.0,"PostalCode":1.0},"Location":{"LocationId":"NT_5IDgUlEFkOlQBuuzfi3jqD_l_1191726836_L","LocationType":"point","DisplayPosition":{"Latitude":47.75921,"Longitude":12.46156},"MapView":{"TopLeft":{"Latitude":47.75928,"Longitude":12.46156},"BottomRight":{"Latitude":47.75921,"Longitude":12.46206}},"Address":{"Label":"83250 Marquartstein, Deutschland","Country":"DEU","State":"Bayern","County":"Traunstein","City":"Marquartstein","District":"Marquartstein","PostalCode":"83250","AdditionalData":[{"value":"Deutschland","key":"CountryName"},{"value":"Bayern","key":"StateName"},{"value":"Traunstein","key":"CountyName"}]},"MapReference":{"ReferenceId":"1191726836","Spot":0.0,"SideOfStreet":"left","CountryId":"20147700","StateId":"20177250","CountyId":"20179246","CityId":"20179287","DistrictId":"20179289"}}},{"Relevance":1.0,"Distance":41.7,"MatchLevel":"houseNumber","MatchQuality":{"Country":1.0,"State":1.0,"County":1.0,"City":1.0,"District":1.0,"Street":[1.0],"HouseNumber":1.0,"PostalCode":1.0},"MatchType":"interpolated","Location":{"LocationId":"NT_gHlUa69DpyYSFn0WRZUPDB_xA","LocationType":"point","DisplayPosition":{"Latitude":47.75895,"Longitude":12.46163},"MapView":{"TopLeft":{"Latitude":47.7600742,"Longitude":12.4599578},"BottomRight":{"Latitude":47.7578258,"Longitude":12.4633022}},"Address":{"Label":"Pettendorfer Straße 1, 83250 Marquartstein, Deutschland","Country":"DEU","State":"Bayern","County":"Traunstein","City":"Marquartstein","District":"Marquartstein","Street":"Pettendorfer Straße","HouseNumber":"1","PostalCode":"83250","AdditionalData":[{"value":"Deutschland","key":"CountryName"},{"value":"Bayern","key":"StateName"},{"value":"Traunstein","key":"CountyName"}]},"MapReference":{"ReferenceId":"774085657","Spot":0.57,"SideOfStreet":"left","CountryId":"20147700","StateId":"20177250","CountyId":"20179246","CityId":"20179287","DistrictId":"20179289","AddressId":"183633098","RoadLinkId":"167713397"}}},{"Relevance":1.0,"Distance":49.5,"MatchLevel":"street","MatchQuality":{"Country":1.0,"State":1.0,"County":1.0,"City":1.0,"District":1.0,"PostalCode":1.0},"Location":{"LocationId":"NT_5IDgUlEFkOlQBuuzfi3jqD_l_1191726835_L","LocationType":"point","DisplayPosition":{"Latitude":47.75948,"Longitude":12.46197},"MapView":{"TopLeft":{"Latitude":47.76205,"Longitude":12.46195},"BottomRight":{"Latitude":47.75928,"Longitude":12.46313}},"Address":{"Label":"83250 Marquartstein, Deutschland","Country":"DEU","State":"Bayern","County":"Traunstein","City":"Marquartstein","District":"Marquartstein","PostalCode":"83250","AdditionalData":[{"value":"Deutschland","key":"CountryName"},{"value":"Bayern","key":"StateName"},{"value":"Traunstein","key":"CountyName"}]},"MapReference":{"ReferenceId":"1191726835","Spot":0.07,"SideOfStreet":"left","CountryId":"20147700","StateId":"20177250","CountyId":"20179246","CityId":"20179287","DistrictId":"20179289"}}},{"Relevance":1.0,"Distance":52.2,"MatchLevel":"street","MatchQuality":{"Country":1.0,"State":1.0,"County":1.0,"City":1.0,"District":1.0,"PostalCode":1.0},"Location":{"LocationId":"NT_5IDgUlEFkOlQBuuzfi3jqD_l_1191726837_L","LocationType":"point","DisplayPosition":{"Latitude":47.75928,"Longitude":12.46206},"MapView":{"TopLeft":{"Latitude":47.7593,"Longitude":12.46206},"BottomRight":{"Latitude":47.75928,"Longitude":12.46223}},"Address":{"Label":"83250 Marquartstein, Deutschland","Country":"DEU","State":"Bayern","County":"Traunstein","City":"Marquartstein","District":"Marquartstein","PostalCode":"83250","AdditionalData":[{"value":"Deutschland","key":"CountryName"},{"value":"Bayern","key":"StateName"},{"value":"Traunstein","key":"CountyName"}]},"MapReference":{"ReferenceId":"1191726837","Spot":0.0,"SideOfStreet":"left","CountryId":"20147700","StateId":"20177250","CountyId":"20179246","CityId":"20179287","DistrictId":"20179289"}}},{"Relevance":1.0,"Distance":52.2,"MatchLevel":"street","MatchQuality":{"Country":1.0,"State":1.0,"County":1.0,"City":1.0,"District":1.0,"PostalCode":1.0},"Location":{"LocationId":"NT_5IDgUlEFkOlQBuuzfi3jqD_l_1191726834_L","LocationType":"point","DisplayPosition":{"Latitude":47.75928,"Longitude":12.46206},"MapView":{"TopLeft":{"Latitude":47.75928,"Longitude":12.46206},"BottomRight":{"Latitude":47.75922,"Longitude":12.46208}},"Address":{"Label":"83250 Marquartstein, Deutschland","Country":"DEU","State":"Bayern","County":"Traunstein","City":"Marquartstein","District":"Marquartstein","PostalCode":"83250","AdditionalData":[{"value":"Deutschland","key":"CountryName"},{"value":"Bayern","key":"StateName"},{"value":"Traunstein","key":"CountyName"}]},"MapReference":{"ReferenceId":"1191726834","Spot":1.0,"SideOfStreet":"left","CountryId":"20147700","StateId":"20177250","CountyId":"20179246","CityId":"20179287","DistrictId":"20179289"}}},{"Relevance":1.0,"Distance":54.0,"MatchLevel":"houseNumber","MatchQuality":{"Country":1.0,"State":1.0,"County":1.0,"City":1.0,"District":1.0,"Street":[1.0],"HouseNumber":1.0,"PostalCode":1.0},"MatchType":"interpolated","Location":{"LocationId":"NT_66c-KYG1qm6p1rUwe9lpoB_3A","LocationType":"point","DisplayPosition":{"Latitude":47.75882,"Longitude":12.46129},"MapView":{"TopLeft":{"Latitude":47.7599442,"Longitude":12.4596178},"BottomRight":{"Latitude":47.7576958,"Longitude":12.4629622}},"Address":{"Label":"Loitshauser Straße 7, 83250 Marquartstein, Deutschland","Country":"DEU","State":"Bayern","County":"Traunstein","City":"Marquartstein","District":"Marquartstein","Street":"Loitshauser Straße","HouseNumber":"7","PostalCode":"83250","AdditionalData":[{"value":"Deutschland","key":"CountryName"},{"value":"Bayern","key":"StateName"},{"value":"Traunstein","key":"CountyName"}]},"MapReference":{"ReferenceId":"774085654","Spot":0.24,"SideOfStreet":"left","CountryId":"20147700","StateId":"20177250","CountyId":"20179246","CityId":"20179287","DistrictId":"20179289","AddressId":"182794303","RoadLinkId":"167713394"}}},{"Relevance":1.0,"Distance":54.4,"MatchLevel":"street","MatchQuality":{"Country":1.0,"State":1.0,"County":1.0,"City":1.0,"District":1.0,"PostalCode":1.0},"Location":{"LocationId":"NT_5IDgUlEFkOlQBuuzfi3jqD_l_1191726090_L","LocationType":"point","DisplayPosition":{"Latitude":47.75922,"Longitude":12.46208},"MapView":{"TopLeft":{"Latitude":47.75922,"Longitude":12.46208},"BottomRight":{"Latitude":47.75897,"Longitude":12.46215}},"Address":{"Label":"83250 Marquartstein, Deutschland","Country":"DEU","State":"Bayern","County":"Traunstein","City":"Marquartstein","District":"Marquartstein","PostalCode":"83250","AdditionalData":[{"value":"Deutschland","key":"CountryName"},{"value":"Bayern","key":"StateName"},{"value":"Traunstein","key":"CountyName"}]},"MapReference":{"ReferenceId":"1191726090","Spot":1.0,"SideOfStreet":"left","CountryId":"20147700","StateId":"20177250","CountyId":"20179246","CityId":"20179287","DistrictId":"20179289"}}},{"Relevance":1.0,"Distance":59.4,"MatchLevel":"street","MatchQuality":{"Country":1.0,"State":1.0,"County":1.0,"City":1.0,"District":1.0,"PostalCode":1.0},"Location":{"LocationId":"NT_5IDgUlEFkOlQBuuzfi3jqD_l_1191722222_L","LocationType":"point","DisplayPosition":{"Latitude":47.75882,"Longitude":12.4617},"MapView":{"TopLeft":{"Latitude":47.75887,"Longitude":12.4617},"BottomRight":{"Latitude":47.75882,"Longitude":12.46218}},"Address":{"Label":"83250 Marquartstein, Deutschland","Country":"DEU","State":"Bayern","County":"Traunstein","City":"Marquartstein","District":"Marquartstein","PostalCode":"83250","AdditionalData":[{"value":"Deutschland","key":"CountryName"},{"value":"Bayern","key":"StateName"},{"value":"Traunstein","key":"CountyName"}]},"MapReference":{"ReferenceId":"1191722222","Spot":0.0,"SideOfStreet":"left","CountryId":"20147700","StateId":"20177250","CountyId":"20179246","CityId":"20179287","DistrictId":"20179289"}}}]}]}}