{"Response":{"MetaInfo":{"Timestamp":"2020-03-28T10:01:29.284+0000","NextPageInformation":"2"},"View":[{"_type":"SearchResultsViewType","ViewId":0,"Result":[{"Relevance":1.0,"Distance":0.0,"Direction":0.0,"MatchLevel":"district","MatchQuality":{"Country":1.0,"State":1.0,"County":1.0,"City":1.0,"District":1.0,"PostalCode":1.0},"Location":{"LocationId":"NT_E5qdiG6vLd5sg9BM.MvrPD","LocationType":"point","DisplayPosition":{"Latitude":47.761407,"Longitude":16.2711981},"MapView":{"TopLeft":{"Latitude":47.76716,"Longitude":16.26798},"BottomRight":{"Latitude":47.75529,"Longitude":16.2784}},"Address":{"Label":"Eichbüchl, Katzelsdorf, Niederösterreich, Österreich","Country":"AUT","State":"Niederösterreich","County":"Wiener Neustadt-Land","City":"Katzelsdorf","District":"Eichbüchl","PostalCode":"2801","AdditionalData":[{"value":"Österreich","key":"CountryName"},{"value":"Niederösterreich","key":"StateName"},{"value":"Wiener Neustadt-Land","key":"CountyName"}]},"MapReference":{"ReferenceId":"62810260","SideOfStreet":"neither","CountryId":"20128885","StateId":"20130295","CountyId":"20132542","CityId":"20132580","DistrictId":"20132582"}}},{"Relevance":1.0,"Distance":12.8,"MatchLevel":"houseNumber","MatchQuality":{"Country":1.0,"State":1.0,"County":1.0,"City":1.0,"District":1.0,"Street":[1.0],"HouseNumber":1.0,"PostalCode":1.0},"MatchType":"interpolated","Location":{"LocationId":"NT_tvXhQUaNhzMvTnuqGGctFB_3EG","LocationType":"point","DisplayPosition":{"Latitude":47.76178,"Longitude":16.27186},"MapView":{"TopLeft":{"Latitude":47.7629042,"Longitude":16.2701877},"BottomRight":{"Latitude":47.7606558,"Longitude":16.2735323}},"Address":{"Label":"Guttenbeck 7a, 2801 Katzelsdorf, Österreich","Country":"AUT","State":"Niederösterreich","County":"Wiener Neustadt-Land","City":"Katzelsdorf","District":"Eichbüchl","Street":"Guttenbeck","HouseNumber":"7a","PostalCode":"2801","AdditionalData":[{"value":"Österreich","key":"CountryName"},{"value":"Niederösterreich","key":"StateName"},{"value":"Wiener Neustadt-Land","key":"CountyName"}]},"MapReference":{"ReferenceId":"1035994998","Spot":0.86,"SideOfStreet":"left","CountryId":"20128885","StateId":"20130295","CountyId":"20132542","CityId":"20132580","DistrictId":"20132582","AddressId":"728402077","RoadLinkId":"357916647"}}},{"Relevance":1.0,"Distance":17.0,"MatchLevel":"houseNumber","MatchQuality":{"Country":1.0,"State":1.0,"County":1.0,"City":1.0,"District":1.0,"Street":[1.0],"HouseNumber":1.0,"PostalCode":1.0},"MatchType":"interpolated","Location":{"LocationId":"NT_RWFSFMK2CFaLu0Iq2T9dVA_xA","LocationType":"point","DisplayPosition":{"Latitude":47.76126,"Longitude":16.27126},"MapView":{"TopLeft":{"Latitude":47.7623842,"Longitude":16.2695877},"BottomRight":{"Latitude":47.7601358,"Longitude":16.2729323}},"Address":{"Label":"Eichbüchl 1, 2801 Katzelsdorf, Österreich","Country":"AUT","State":"Niederösterreich","County":"Wiener Neustadt-Land","City":"Katzelsdorf","District":"Eichbüchl","Street":"Eichbüchl","HouseNumber":"1","PostalCode":"2801","AdditionalData":[{"value":"Österreich","key":"CountryName"},{"value":"Niederösterreich","key":"StateName"},{"value":"Wiener Neustadt-Land","key":"CountyName"}]},"MapReference":{"ReferenceId":"60296104","Spot":0.62,"SideOfStreet":"right","CountryId":"20128885","StateId":"20130295","CountyId":"20132542","CityId":"20132580","DistrictId":"20132582","AddressId":"214887829","RoadLinkId":"28868406"}}},{"Relevance":1.0,"Distance":54.1,"MatchLevel":"houseNumber","MatchQuality":{"Country":1.0,"State":1.0,"County":1.0,"City":1.0,"District":1.0,"Street":[1.0],"HouseNumber":1.0,"PostalCode":1.0},"MatchType":"interpolated","Location":{"LocationId":"NT_V3W841EATVvrCDuxnUUgRD_xMTO","LocationType":"point","DisplayPosition":{"Latitude":47.76181,"Longitude":16.2701},"MapView":{"TopLeft":{"Latitude":47.7629342,"Longitude":16.2684277},"BottomRight":{"Latitude":47.7606858,"Longitude":16.2717723}},"Address":{"Label":"Eichbüchler Straße 139, 2801 Katzelsdorf, Österreich","Country":"AUT","State":"Niederösterreich","County":"Wiener Neustadt-Land","City":"Katzelsdorf","District":"Eichbüchl","Street":"Eichbüchler Straße","HouseNumber":"139","PostalCode":"2801","AdditionalData":[{"value":"Österreich","key":"CountryName"},{"value":"Niederösterreich","key":"StateName"},{"value":"Wiener Neustadt-Land","key":"CountyName"}]},"MapReference":{"ReferenceId":"60296723","Spot":0.06,"SideOfStreet":"right","CountryId":"20128885","StateId":"20130295","CountyId":"20132542","CityId":"20132580","DistrictId":"20132582","AddressId":"160734622","RoadLinkId":"28013711"}}},{"Relevance":1.0,"Distance":68.9,"MatchLevel":"houseNumber","MatchQuality":{"Country":1.0,"State":1.0,"County":1.0,"City":1.0,"District":1.0,"Street":[1.0],"HouseNumber":1.0,"PostalCode":1.0},"MatchType":"interpolated","Location":{"LocationId":"NT_9U-vx13kiYdanHHrnXt5VD_xEG","LocationType":"point","DisplayPosition":{"Latitude":47.76132,"Longitude":16.26992},"MapView":{"TopLeft":{"Latitude":47.7624442,"Longitude":16.2682477},"BottomRight":{"Latitude":47.7601958,"Longitude":16.2715923}},"Address":{"Label":"Rosenthalweg 1a, 2801 Katzelsdorf, Österreich","Country":"AUT","State":"Niederösterreich","County":"Wiener Neustadt-Land","City":"Katzelsdorf","District":"Eichbüchl","Street":"Rosenthalweg","HouseNumber":"1a","PostalCode":"2801","AdditionalData":[{"value":"Österreich","key":"CountryName"},{"value":"Niederösterreich","key":"StateName"},{"value":"Wiener Neustadt-Land","key":"CountyName"}]},"MapReference":{"ReferenceId":"62810273","Spot":0.92,"SideOfStreet":"right","CountryId":"20128885","StateId":"20130295","CountyId":"20132542","CityId":"20132580","DistrictId":"20132582","AddressId":"177019241","RoadLinkId":"28827956"}}},{"Relevance":1.0,"Distance":69.6,"MatchLevel":"landmark","MatchQuality":{"Country":1.0,"Name":1.0},"Location":{"LocationId":"NT_h.OVxNCn4v4RvcXuYRJTOC","LocationType":"woodland","Name":"Rosaliengebirge","DisplayPosition":{"Latitude":47.73799,"Longitude":16.29864},"MapView":{"TopLeft":{"Latitude":47.78878,"Longitude":16.25969},"BottomRight":{"Latitude":47.6872,"Longitude":16.35453}},"Address":{"Label":"Österreich","Country":"AUT","AdditionalData":[{"value":"Österreich","key":"CountryName"}]},"MapReference":{"CountryId":"20128885","PlaceId":"51093922"}}},{"Relevance":1.0,"Distance":81.1,"MatchLevel":"street","MatchQuality":{"Country":1.0,"State":1.0,"County":1.0,"City":1.0,"District":1.0,"Street":[1.0],"PostalCode":1.0},"Location":{"LocationId":"NT_V3W841EATVvrCDuxnUUgRD_l_60296724_R","LocationType":"point","DisplayPosition":{"Latitude":47.76157,"Longitude":16.27014},"MapView":{"TopLeft":{"Latitude":47.76171,"Longitude":16.2701},"BottomRight":{"Latitude":47.76157,"Longitude":16.27014}},"Address":{"Label":"Eichbüchler Straße, 2801 Katzelsdorf, Österreich","Country":"AUT","State":"Niederösterreich","County":"Wiener Neustadt-Land","City":"Katzelsdorf","District":"Eichbüchl","Street":"Eichbüchler Straße","PostalCode":"2801","AdditionalData":[{"value":"Österreich","key":"CountryName"},{"value":"Niederösterreich","key":"StateName"},{"value":"Wiener Neustadt-Land","key":"CountyName"}]},"MapReference":{"ReferenceId":"60296724","Spot":0.0,"SideOfStreet":"right","CountryId":"20128885","StateId":"20130295","CountyId":"20132542","CityId":"20132580","DistrictId":"20132582"}}},{"Relevance":1.0,"Distance":111.0,"MatchLevel":"houseNumber","MatchQuality":{"Country":1.0,"State":1.0,"County":1.0,"City":1.0,"District":1.0,"Street":[1.0],"HouseNumber":1.0,"PostalCode":1.0},"MatchType":"interpolated","Location":{"LocationId":"NT_tvXhQUaNhzMvTnuqGGctFB_5A","LocationType":"point","DisplayPosition":{"Latitude":47.76163,"Longitude":16.27283},"MapView":{"TopLeft":{"Latitude":47.7627542,"Longitude":16.2711577},"BottomRight":{"Latitude":47.7605058,"Longitude":16.2745023}},"Address":{"Label":"Guttenbeck 9, 2801 Katzelsdorf, Österreich","Country":"AUT","State":"Niederösterreich","County":"Wiener Neustadt-Land","City":"Katzelsdorf","District":"Eichbüchl","Street":"Guttenbeck","HouseNumber":"9","PostalCode":"2801","AdditionalData":[{"value":"Österreich","key":"CountryName"},{"value":"Niederösterreich","key":"StateName"},{"value":"Wiener Neustadt-Land","key":"CountyName"}]},"MapReference":{"ReferenceId":"1035994994","Spot":0.3,"SideOfStreet":"left","CountryId":"20128885","StateId":"20130295","CountyId":"20132542","CityId":"20132580","DistrictId":"20132582","AddressId":"161380479","RoadLinkId":"357916644"}}},{"Relevance":1.0,"Distance":111.1,"MatchLevel":"houseNumber","MatchQuality":{"Country":1.0,"State":1.0,"County":1.0,"City":1.0,"District":1.0,"Street":[1.0],"HouseNumber":1.0,"PostalCode":1.0},"MatchType":"interpolated","Location":{"LocationId":"NT_TspisuSuL.o4X-RgwxHTRB_yEG","LocationType":"point","DisplayPosition":{"Latitude":47.76182,"Longitude":16.26977},"MapView":{"TopLeft":{"Latitude":47.7629442,"Longitude":16.2680977},"BottomRight":{"Latitude":47.7606958,"Longitude":16.2714423}},"Address":{"Label":"Furtweg 2a, 2801 Katzelsdorf, Österreich","Country":"AUT","State":"Niederösterreich","County":"Wiener Neustadt-Land","City":"Katzelsdorf","District":"Eichbüchl","Street":"Furtweg","HouseNumber":"2a","PostalCode":"2801","AdditionalData":[{"value":"Österreich","key":"CountryName"},{"value":"Niederösterreich","key":"StateName"},{"value":"Wiener Neustadt-Land","key":"CountyName"}]},"MapReference":{"ReferenceId":"60296727","Spot":0.31,"SideOfStreet":"right","CountryId":"20128885","StateId":"20130295","CountyId":"20132542","CityId":"20132580","DistrictId":"20132582","AddressId":"411869569","RoadLinkId":"27842456"}}},{"Relevance":1.0,"Distance":113.0,"MatchLevel":"houseNumber","MatchQuality":{"Country":1.0,"State":1.0,"County":1.0,"City":1.0,"District":1.0,"Street":[1.0],"HouseNumber":1.0,"PostalCode":1.0},"MatchType":"interpolated","Location":{"LocationId":"NT_tvXhQUaNhzMvTnuqGGctFB_0EG","LocationType":"point","DisplayPosition":{"Latitude":47.7614,"Longitude":16.27271},"MapView":{"TopLeft":{"Latitude":47.7625242,"Longitude":16.2710377},"BottomRight":{"Latitude":47.7602758,"Longitude":16.2743823}},"Address":{"Label":"Guttenbeck 4a, 2801 Katzelsdorf, Österreich","Country":"AUT","State":"Niederösterreich","County":"Wiener Neustadt-Land","City":"Katzelsdorf","District":"Eichbüchl","Street":"Guttenbeck","HouseNumber":"4a","PostalCode":"2801","AdditionalData":[{"value":"Österreich","key":"CountryName"},{"value":"Niederösterreich","key":"StateName"},{"value":"Wiener Neustadt-Land","key":"CountyName"}]},"MapReference":{"ReferenceId":"1035994996","Spot":0.74,"SideOfStreet":"right","CountryId":"20128885","StateId":"20130295","CountyId":"20132542","CityId":"20132580","DistrictId":"20132582","AddressId":"176965486","RoadLinkId":"357916645"}}}]}]}}