{"Response":{"MetaInfo":{"Timestamp":"2020-03-28T10:59:42.343+0000","NextPageInformation":"2"},"View":[{"_type":"SearchResultsViewType","ViewId":0,"Result":[{"Relevance":1.0,"Distance":0.0,"Direction":0.0,"MatchLevel":"district","MatchQuality":{"Country":1.0,"State":1.0,"County":1.0,"City":1.0,"District":1.0,"PostalCode":1.0},"Location":{"LocationId":"NT_xga37EgV92c3Z3tWzbetpA","LocationType":"point","DisplayPosition":{"Latitude":47.7370657,"Longitude":8.9770633},"MapView":{"TopLeft":{"Latitude":47.75545,"Longitude":8.94604},"BottomRight":{"Latitude":47.73191,"Longitude":8.98885}},"Address":{"Label":"Radolfzell am Bodensee, Baden-Württemberg, Deutschland","Country":"DEU","State":"Baden-Württemberg","County":"Konstanz","City":"Radolfzell am Bodensee","District":"Radolfzell am Bodensee","PostalCode":"78315","AdditionalData":[{"value":"Deutschland","key":"CountryName"},{"value":"Baden-Württemberg","key":"StateName"},{"value":"Konstanz","key":"CountyName"}]},"MapReference":{"ReferenceId":"72826182","SideOfStreet":"neither","CountryId":"20147700","StateId":"20171489","CountyId":"20175328","CityId":"20175408","DistrictId":"20175412"}}},{"Relevance":1.0,"Distance":3.9,"MatchLevel":"houseNumber","MatchQuality":{"Country":1.0,"State":1.0,"County":1.0,"City":1.0,"District":1.0,"Street":[1.0],"HouseNumber":1.0,"PostalCode":1.0},"MatchType":"interpolated","Location":{"LocationId":"NT_DTYSc.QeiEhvd-YWF-ZQTC_xAD","LocationType":"point","DisplayPosition":{"Latitude":47.73713,"Longitude":8.97704},"MapView":{"TopLeft":{"Latitude":47.7382542,"Longitude":8.9753685},"BottomRight":{"Latitude":47.7360058,"Longitude":8.9787115}},"Address":{"Label":"Strandbadstraße 10, 78315 Radolfzell am Bodensee, Deutschland","Country":"DEU","State":"Baden-Württemberg","County":"Konstanz","City":"Radolfzell am Bodensee","District":"Radolfzell am Bodensee","Street":"Strandbadstraße","HouseNumber":"10","PostalCode":"78315","AdditionalData":[{"value":"Deutschland","key":"CountryName"},{"value":"Baden-Württemberg","key":"StateName"},{"value":"Konstanz","key":"CountyName"}]},"MapReference":{"ReferenceId":"72819427","Spot":0.91,"SideOfStreet":"right","CountryId":"20147700","StateId":"20171489","CountyId":"20175328","CityId":"20175408","DistrictId":"20175412","AddressId":"179975481","RoadLinkId":"38666082"}}},{"Relevance":1.0,"Distance":20.9,"MatchLevel":"street","MatchQuality":{"Country":1.0,"State":1.0,"County":1.0,"City":1.0,"District":1.0,"Street":[1.0],"PostalCode":1.0},"Location":{"LocationId":"NT_s2NauCIgp1HDf7QqCrO25B_l_540908707_L","LocationType":"point","DisplayPosition":{"Latitude":47.73723,"Longitude":8.9772},"MapView":{"TopLeft":{"Latitude":47.73723,"Longitude":8.9772},"BottomRight":{"Latitude":47.73715,"Longitude":8.97759}},"Address":{"Label":"Hausherrenstraße, 78315 Radolfzell am Bodensee, Deutschland","Country":"DEU","State":"Baden-Württemberg","County":"Konstanz","City":"Radolfzell am Bodensee","District":"Radolfzell am Bodensee","Street":"Hausherrenstraße","PostalCode":"78315","AdditionalData":[{"value":"Deutschland","key":"CountryName"},{"value":"Baden-Württemberg","key":"StateName"},{"value":"Konstanz","key":"CountyName"}]},"MapReference":{"ReferenceId":"540908707","Spot":1.0,"SideOfStreet":"left","CountryId":"20147700","StateId":"20171489","CountyId":"20175328","CityId":"20175408","DistrictId":"20175412"}}},{"Relevance":1.0,"Distance":40.2,"MatchLevel":"houseNumber","MatchQuality":{"Country":1.0,"State":1.0,"County":1.0,"City":1.0,"District":1.0,"Street":[1.0],"HouseNumber":1.0,"PostalCode":1.0},"MatchType":"interpolated","Location":{"LocationId":"NT_DTYSc.QeiEhvd-YWF-ZQTC_xID","LocationType":"point","DisplayPosition":{"Latitude":47.73738,"Longitude":8.97733},"MapView":{"TopLeft":{"Latitude":47.7385042,"Longitude":8.9756585},"BottomRight":{"Latitude":47.7362558,"Longitude":8.9790015}},"Address":{"Label":"Strandbadstraße 12, 78315 Radolfzell am Bodensee, Deutschland","Country":"DEU","State":"Baden-Württemberg","County":"Konstanz","City":"Radolfzell am Bodensee","District":"Radolfzell am Bodensee","Street":"Strandbadstraße","HouseNumber":"12","PostalCode":"78315","AdditionalData":[{"value":"Deutschland","key":"CountryName"},{"value":"Baden-Württemberg","key":"StateName"},{"value":"Konstanz","key":"CountyName"}]},"MapReference":{"ReferenceId":"72819540","Spot":0.13,"SideOfStreet":"right","CountryId":"20147700","StateId":"20171489","CountyId":"20175328","CityId":"20175408","DistrictId":"20175412","AddressId":"180352434","RoadLinkId":"38645962"}}},{"Relevance":1.0,"Distance":102.1,"MatchLevel":"houseNumber","MatchQuality":{"Country":1.0,"State":1.0,"County":1.0,"City":1.0,"District":1.0,"Street":[1.0],"HouseNumber":1.0,"PostalCode":1.0},"MatchType":"interpolated","Location":{"LocationId":"NT_s2NauCIgp1HDf7QqCrO25B_xID","LocationType":"point","DisplayPosition":{"Latitude":47.73697,"Longitude":8.97848},"MapView":{"TopLeft":{"Latitude":47.7380942,"Longitude":8.9768085},"BottomRight":{"Latitude":47.7358458,"Longitude":8.9801515}},"Address":{"Label":"Hausherrenstraße 12, 78315 Radolfzell am Bodensee, Deutschland","Country":"DEU","State":"Baden-Württemberg","County":"Konstanz","City":"Radolfzell am Bodensee","District":"Radolfzell am Bodensee","Street":"Hausherrenstraße","HouseNumber":"12","PostalCode":"78315","AdditionalData":[{"value":"Deutschland","key":"CountryName"},{"value":"Baden-Württemberg","key":"StateName"},{"value":"Konstanz","key":"CountyName"}]},"MapReference":{"ReferenceId":"540908706","Spot":0.55,"SideOfStreet":"left","CountryId":"20147700","StateId":"20171489","CountyId":"20175328","CityId":"20175408","DistrictId":"20175412","AddressId":"177466582","RoadLinkId":"38626056"}}},{"Relevance":1.0,"Distance":116.2,"MatchLevel":"houseNumber","MatchQuality":{"Country":1.0,"State":1.0,"County":1.0,"City":1.0,"District":1.0,"Street":[1.0],"HouseNumber":1.0,"PostalCode":1.0},"MatchType":"interpolated","Location":{"LocationId":"NT_DTYSc.QeiEhvd-YWF-ZQTC_yQTQ","LocationType":"point","DisplayPosition":{"Latitude":47.73747,"Longitude":8.97868},"MapView":{"TopLeft":{"Latitude":47.7385942,"Longitude":8.9770085},"BottomRight":{"Latitude":47.7363458,"Longitude":8.9803515}},"Address":{"Label":"Strandbadstraße 24A, 78315 Radolfzell am Bodensee, Deutschland","Country":"DEU","State":"Baden-Württemberg","County":"Konstanz","City":"Radolfzell am Bodensee","District":"Radolfzell am Bodensee","Street":"Strandbadstraße","HouseNumber":"24A","PostalCode":"78315","AdditionalData":[{"value":"Deutschland","key":"CountryName"},{"value":"Baden-Württemberg","key":"StateName"},{"value":"Konstanz","key":"CountyName"}]},"MapReference":{"ReferenceId":"76867239","Spot":0.31,"SideOfStreet":"left","CountryId":"20147700","StateId":"20171489","CountyId":"20175328","CityId":"20175408","DistrictId":"20175412","AddressId":"177435466","RoadLinkId":"38768869"}}},{"Relevance":1.0,"Distance":116.6,"MatchLevel":"houseNumber","MatchQuality":{"Country":1.0,"State":1.0,"County":1.0,"City":1.0,"District":1.0,"Street":[1.0],"HouseNumber":1.0,"PostalCode":1.0},"MatchType":"interpolated","Location":{"LocationId":"NT_MAHYnZvv-5YOe6nU1OULED_xA","LocationType":"point","DisplayPosition":{"Latitude":47.73739,"Longitude":8.97558},"MapView":{"TopLeft":{"Latitude":47.7385142,"Longitude":8.9739085},"BottomRight":{"Latitude":47.7362658,"Longitude":8.9772515}},"Address":{"Label":"Büchelmannstraße 1, 78315 Radolfzell am Bodensee, Deutschland","Country":"DEU","State":"Baden-Württemberg","County":"Konstanz","City":"Radolfzell am Bodensee","District":"Radolfzell am Bodensee","Street":"Büchelmannstraße","HouseNumber":"1","PostalCode":"78315","AdditionalData":[{"value":"Deutschland","key":"CountryName"},{"value":"Baden-Württemberg","key":"StateName"},{"value":"Konstanz","key":"CountyName"}]},"MapReference":{"ReferenceId":"76846191","Spot":0.63,"SideOfStreet":"left","CountryId":"20147700","StateId":"20171489","CountyId":"20175328","CityId":"20175408","DistrictId":"20175412","AddressId":"180205074","RoadLinkId":"38263561"}}},{"Relevance":1.0,"Distance":129.4,"MatchLevel":"houseNumber","MatchQuality":{"Country":1.0,"State":1.0,"County":1.0,"City":1.0,"District":1.0,"Street":[1.0],"HouseNumber":1.0,"PostalCode":1.0},"MatchType":"interpolated","Location":{"LocationId":"NT_BIdtdFTIxEZH4kATTIHwaC_5A","LocationType":"point","DisplayPosition":{"Latitude":47.73584,"Longitude":8.97638},"MapView":{"TopLeft":{"Latitude":47.7369642,"Longitude":8.9747085},"BottomRight":{"Latitude":47.7347158,"Longitude":8.9780515}},"Address":{"Label":"Scheffelstraße 9, 78315 Radolfzell am Bodensee, Deutschland","Country":"DEU","State":"Baden-Württemberg","County":"Konstanz","City":"Radolfzell am Bodensee","District":"Radolfzell am Bodensee","Street":"Scheffelstraße","HouseNumber":"9","PostalCode":"78315","AdditionalData":[{"value":"Deutschland","key":"CountryName"},{"value":"Baden-Württemberg","key":"StateName"},{"value":"Konstanz","key":"CountyName"}]},"MapReference":{"ReferenceId":"76839487","Spot":0.66,"SideOfStreet":"right","CountryId":"20147700","StateId":"20171489","CountyId":"20175328","CityId":"20175408","DistrictId":"20175412","AddressId":"180393939","RoadLinkId":"38787342"}}},{"Relevance":1.0,"Distance":134.9,"MatchLevel":"houseNumber","MatchQuality":{"Country":1.0,"State":1.0,"County":1.0,"City":1.0,"District":1.0,"Street":[1.0],"HouseNumber":1.0,"PostalCode":1.0},"MatchType":"interpolated","Location":{"LocationId":"NT_GS-0j6L0eS6E53EPVWm5WB_xUD","LocationType":"point","DisplayPosition":{"Latitude":47.73693,"Longitude":8.97524},"MapView":{"TopLeft":{"Latitude":47.7380542,"Longitude":8.9735685},"BottomRight":{"Latitude":47.7358058,"Longitude":8.9769115}},"Address":{"Label":"Jakobstraße 15, 78315 Radolfzell am Bodensee, Deutschland","Country":"DEU","State":"Baden-Württemberg","County":"Konstanz","City":"Radolfzell am Bodensee","District":"Radolfzell am Bodensee","Street":"Jakobstraße","HouseNumber":"15","PostalCode":"78315","AdditionalData":[{"value":"Deutschland","key":"CountryName"},{"value":"Baden-Württemberg","key":"StateName"},{"value":"Konstanz","key":"CountyName"}]},"MapReference":{"ReferenceId":"72836286","Spot":0.01,"SideOfStreet":"right","CountryId":"20147700","StateId":"20171489","CountyId":"20175328","CityId":"20175408","DistrictId":"20175412","AddressId":"179242382","RoadLinkId":"38433581"}}},{"Relevance":1.0,"Distance":141.4,"MatchLevel":"houseNumber","MatchQuality":{"Country":1.0,"State":1.0,"County":1.0,"City":1.0,"District":1.0,"Street":[1.0],"HouseNumber":1.0,"PostalCode":1.0},"MatchType":"interpolated","Location":{"LocationId":"NT_yczS.1ogyod1f71cfv2yMD_xQD","LocationType":"point","DisplayPosition":{"Latitude":47.73775,"Longitude":8.97543},"MapView":{"TopLeft":{"Latitude":47.7388742,"Longitude":8.9737585},"BottomRight":{"Latitude":47.7366258,"Longitude":8.9771015}},"Address":{"Label":"Martinstraße 14, 78315 Radolfzell am Bodensee, Deutschland","Country":"DEU","State":"Baden-Württemberg","County":"Konstanz","City":"Radolfzell am Bodensee","District":"Radolfzell am Bodensee","Street":"Martinstraße","HouseNumber":"14","PostalCode":"78315","AdditionalData":[{"value":"Deutschland","key":"CountryName"},{"value":"Baden-Württemberg","key":"StateName"},{"value":"Konstanz","key":"CountyName"}]},"MapReference":{"ReferenceId":"72819557","Spot":0.12,"SideOfStreet":"left","CountryId":"20147700","StateId":"20171489","CountyId":"20175328","CityId":"20175408","DistrictId":"20175412","AddressId":"178575283","RoadLinkId":"38348658"}}}]}]}}