{"Response":{"MetaInfo":{"Timestamp":"2020-03-28T09:35:52.715+0000","NextPageInformation":"2"},"View":[{"_type":"SearchResultsViewType","ViewId":0,"Result":[{"Relevance":1.0,"Distance":0.0,"Direction":0.0,"MatchLevel":"district","MatchQuality":{"Country":1.0,"State":1.0,"County":1.0,"City":1.0,"District":1.0,"PostalCode":1.0},"Location":{"LocationId":"NT_-LES34bfLzUmmEFSQKAgmA","LocationType":"point","DisplayPosition":{"Latitude":47.7197338,"Longitude":11.7110012},"MapView":{"TopLeft":{"Latitude":47.72341,"Longitude":11.70639},"BottomRight":{"Latitude":47.69884,"Longitude":11.74068}},"Address":{"Label":"Bad Wiessee, Bayern, Deutschland","Country":"DEU","State":"Bayern","County":"Miesbach","City":"Bad Wiessee","District":"Bad Wiessee","PostalCode":"83707","AdditionalData":[{"value":"Deutschland","key":"CountryName"},{"value":"Bayern","key":"StateName"},{"value":"Miesbach","key":"CountyName"}]},"MapReference":{"ReferenceId":"815526900","SideOfStreet":"neither","CountryId":"20147700","StateId":"20177250","CountyId":"20178444","CityId":"20178445","DistrictId":"20178447"}}},{"Relevance":1.0,"Distance":29.4,"MatchLevel":"houseNumber","MatchQuality":{"Country":1.0,"State":1.0,"County":1.0,"City":1.0,"District":1.0,"Street":[1.0],"HouseNumber":1.0,"PostalCode":1.0},"MatchType":"interpolated","Location":{"LocationId":"NT_.ElOWpBOCQ.hmXbf5Z2pxA_zMD","LocationType":"point","DisplayPosition":{"Latitude":47.71951,"Longitude":11.71075},"MapView":{"TopLeft":{"Latitude":47.7206342,"Longitude":11.709079},"BottomRight":{"Latitude":47.7183858,"Longitude":11.712421}},"Address":{"Label":"Jägerstraße 33, 83707 Bad Wiessee, Deutschland","Country":"DEU","State":"Bayern","County":"Miesbach","City":"Bad Wiessee","District":"Bad Wiessee","Street":"Jägerstraße","HouseNumber":"33","PostalCode":"83707","AdditionalData":[{"value":"Deutschland","key":"CountryName"},{"value":"Bayern","key":"StateName"},{"value":"Miesbach","key":"CountyName"}]},"MapReference":{"ReferenceId":"81992881","Spot":0.9,"SideOfStreet":"right","CountryId":"20147700","StateId":"20177250","CountyId":"20178444","CityId":"20178445","DistrictId":"20178447","AddressId":"186109428","RoadLinkId":"33546330"}}},{"Relevance":1.0,"Distance":64.8,"MatchLevel":"houseNumber","MatchQuality":{"Country":1.0,"State":1.0,"County":1.0,"City":1.0,"District":1.0,"Street":[1.0],"HouseNumber":1.0,"PostalCode":1.0},"MatchType":"interpolated","Location":{"LocationId":"NT_cyODRPPabhaiRTm8wr3GeB_0A","LocationType":"point","DisplayPosition":{"Latitude":47.71966,"Longitude":11.71009},"MapView":{"TopLeft":{"Latitude":47.7207842,"Longitude":11.708419},"BottomRight":{"Latitude":47.7185358,"Longitude":11.711761}},"Address":{"Label":"Jägerweg 4, 83707 Bad Wiessee, Deutschland","Country":"DEU","State":"Bayern","County":"Miesbach","City":"Bad Wiessee","District":"Bad Wiessee","Street":"Jägerweg","HouseNumber":"4","PostalCode":"83707","AdditionalData":[{"value":"Deutschland","key":"CountryName"},{"value":"Bayern","key":"StateName"},{"value":"Miesbach","key":"CountyName"}]},"MapReference":{"ReferenceId":"81992860","Spot":0.55,"SideOfStreet":"right","CountryId":"20147700","StateId":"20177250","CountyId":"20178444","CityId":"20178445","DistrictId":"20178447","AddressId":"182238248","RoadLinkId":"32513718"}}},{"Relevance":1.0,"Distance":68.2,"MatchLevel":"houseNumber","MatchQuality":{"Country":1.0,"State":1.0,"County":1.0,"City":1.0,"District":1.0,"Street":[1.0],"HouseNumber":1.0,"PostalCode":1.0},"MatchType":"interpolated","Location":{"LocationId":"NT_VSXwTNqIREoc2JLabpXjsB_xA","LocationType":"point","DisplayPosition":{"Latitude":47.71912,"Longitude":11.71151},"MapView":{"TopLeft":{"Latitude":47.7202442,"Longitude":11.7098391},"BottomRight":{"Latitude":47.7179958,"Longitude":11.7131809}},"Address":{"Label":"Rottmannstraße 1, 83707 Bad Wiessee, Deutschland","Country":"DEU","State":"Bayern","County":"Miesbach","City":"Bad Wiessee","District":"Bad Wiessee","Street":"Rottmannstraße","HouseNumber":"1","PostalCode":"83707","AdditionalData":[{"value":"Deutschland","key":"CountryName"},{"value":"Bayern","key":"StateName"},{"value":"Miesbach","key":"CountyName"}]},"MapReference":{"ReferenceId":"81992866","Spot":0.19,"SideOfStreet":"left","CountryId":"20147700","StateId":"20177250","CountyId":"20178444","CityId":"20178445","DistrictId":"20178447","AddressId":"182192437","RoadLinkId":"32989617"}}},{"Relevance":1.0,"Distance":68.6,"MatchLevel":"houseNumber","MatchQuality":{"Country":1.0,"State":1.0,"County":1.0,"City":1.0,"District":1.0,"Street":[1.0],"HouseNumber":1.0,"PostalCode":1.0},"MatchType":"interpolated","Location":{"LocationId":"NT_.ElOWpBOCQ.hmXbf5Z2pxA_ykD","LocationType":"point","DisplayPosition":{"Latitude":47.72035,"Longitude":11.71105},"MapView":{"TopLeft":{"Latitude":47.7214742,"Longitude":11.709379},"BottomRight":{"Latitude":47.7192258,"Longitude":11.712721}},"Address":{"Label":"Jägerstraße 29, 83707 Bad Wiessee, Deutschland","Country":"DEU","State":"Bayern","County":"Miesbach","City":"Bad Wiessee","District":"Bad Wiessee","Street":"Jägerstraße","HouseNumber":"29","PostalCode":"83707","AdditionalData":[{"value":"Deutschland","key":"CountryName"},{"value":"Bayern","key":"StateName"},{"value":"Miesbach","key":"CountyName"}]},"MapReference":{"ReferenceId":"81992906","Spot":0.5,"SideOfStreet":"right","CountryId":"20147700","StateId":"20177250","CountyId":"20178444","CityId":"20178445","DistrictId":"20178447","AddressId":"183709707","RoadLinkId":"33679723"}}},{"Relevance":1.0,"Distance":91.4,"MatchLevel":"street","MatchQuality":{"Country":1.0,"State":1.0,"County":1.0,"City":1.0,"District":1.0,"Street":[1.0],"PostalCode":1.0},"Location":{"LocationId":"NT_9HK2fzZOTf36AwpIbrxnGA_l_81992858_L","LocationType":"point","DisplayPosition":{"Latitude":47.7189121,"Longitude":11.7109638},"MapView":{"TopLeft":{"Latitude":47.71895,"Longitude":11.71056},"BottomRight":{"Latitude":47.71891,"Longitude":11.71147}},"Address":{"Label":"Breitenbachtalstraße, 83707 Bad Wiessee, Deutschland","Country":"DEU","State":"Bayern","County":"Miesbach","City":"Bad Wiessee","District":"Bad Wiessee","Street":"Breitenbachtalstraße","PostalCode":"83707","AdditionalData":[{"value":"Deutschland","key":"CountryName"},{"value":"Bayern","key":"StateName"},{"value":"Miesbach","key":"CountyName"}]},"MapReference":{"ReferenceId":"81992858","Spot":0.44,"SideOfStreet":"left","CountryId":"20147700","StateId":"20177250","CountyId":"20178444","CityId":"20178445","DistrictId":"20178447"}}},{"Relevance":1.0,"Distance":93.9,"MatchLevel":"street","MatchQuality":{"Country":1.0,"State":1.0,"County":1.0,"City":1.0,"District":1.0,"Street":[1.0],"PostalCode":1.0},"Location":{"LocationId":"NT_9HK2fzZOTf36AwpIbrxnGA_l_81992863_L","LocationType":"point","DisplayPosition":{"Latitude":47.71895,"Longitude":11.71147},"MapView":{"TopLeft":{"Latitude":47.71904,"Longitude":11.71147},"BottomRight":{"Latitude":47.71895,"Longitude":11.71237}},"Address":{"Label":"Breitenbachtalstraße, 83707 Bad Wiessee, Deutschland","Country":"DEU","State":"Bayern","County":"Miesbach","City":"Bad Wiessee","District":"Bad Wiessee","Street":"Breitenbachtalstraße","PostalCode":"83707","AdditionalData":[{"value":"Deutschland","key":"CountryName"},{"value":"Bayern","key":"StateName"},{"value":"Miesbach","key":"CountyName"}]},"MapReference":{"ReferenceId":"81992863","Spot":0.0,"SideOfStreet":"left","CountryId":"20147700","StateId":"20177250","CountyId":"20178444","CityId":"20178445","DistrictId":"20178447"}}},{"Relevance":1.0,"Distance":94.2,"MatchLevel":"street","MatchQuality":{"Country":1.0,"State":1.0,"County":1.0,"City":1.0,"District":1.0,"Street":[1.0],"PostalCode":1.0},"Location":{"LocationId":"NT_9HK2fzZOTf36AwpIbrxnGA_l_81992883_R","LocationType":"point","DisplayPosition":{"Latitude":47.71894,"Longitude":11.71056},"MapView":{"TopLeft":{"Latitude":47.71921,"Longitude":11.70961},"BottomRight":{"Latitude":47.71894,"Longitude":11.71056}},"Address":{"Label":"Breitenbachtalstraße, 83707 Bad Wiessee, Deutschland","Country":"DEU","State":"Bayern","County":"Miesbach","City":"Bad Wiessee","District":"Bad Wiessee","Street":"Breitenbachtalstraße","PostalCode":"83707","AdditionalData":[{"value":"Deutschland","key":"CountryName"},{"value":"Bayern","key":"StateName"},{"value":"Miesbach","key":"CountyName"}]},"MapReference":{"ReferenceId":"81992883","Spot":0.0,"SideOfStreet":"right","CountryId":"20147700","StateId":"20177250","CountyId":"20178444","CityId":"20178445","DistrictId":"20178447"}}},{"Relevance":1.0,"Distance":94.2,"MatchLevel":"street","MatchQuality":{"Country":1.0,"State":1.0,"County":1.0,"City":1.0,"District":1.0,"Street":[1.0],"PostalCode":1.0},"Location":{"LocationId":"NT_cpcyXE7jy6S4AnbgK6-n2D_l_1085399500_R","LocationType":"point","DisplayPosition":{"Latitude":47.71894,"Longitude":11.71056},"MapView":{"TopLeft":{"Latitude":47.71894,"Longitude":11.71053},"BottomRight":{"Latitude":47.7188,"Longitude":11.71056}},"Address":{"Label":"Carl-Stieler-Straße, 83707 Bad Wiessee, Deutschland","Country":"DEU","State":"Bayern","County":"Miesbach","City":"Bad Wiessee","District":"Bad Wiessee","Street":"Carl-Stieler-Straße","PostalCode":"83707","AdditionalData":[{"value":"Deutschland","key":"CountryName"},{"value":"Bayern","key":"StateName"},{"value":"Miesbach","key":"CountyName"}]},"MapReference":{"ReferenceId":"1085399500","Spot":1.0,"SideOfStreet":"right","CountryId":"20147700","StateId":"20177250","CountyId":"20178444","CityId":"20178445","DistrictId":"20178447"}}},{"Relevance":1.0,"Distance":97.9,"MatchLevel":"houseNumber","MatchQuality":{"Country":1.0,"State":1.0,"County":1.0,"City":1.0,"District":1.0,"Street":[1.0],"HouseNumber":1.0,"PostalCode":1.0},"MatchType":"interpolated","Location":{"LocationId":"NT_ohNZfPORget3Sj5bCb2fqC_zA","LocationType":"point","DisplayPosition":{"Latitude":47.71937,"Longitude":11.71251},"MapView":{"TopLeft":{"Latitude":47.7204942,"Longitude":11.7108391},"BottomRight":{"Latitude":47.7182458,"Longitude":11.7141809}},"Address":{"Label":"Riehlstraße 3, 83707 Bad Wiessee, Deutschland","Country":"DEU","State":"Bayern","County":"Miesbach","City":"Bad Wiessee","District":"Bad Wiessee","Street":"Riehlstraße","HouseNumber":"3","PostalCode":"83707","AdditionalData":[{"value":"Deutschland","key":"CountryName"},{"value":"Bayern","key":"StateName"},{"value":"Miesbach","key":"CountyName"}]},"MapReference":{"ReferenceId":"82016727","Spot":0.27,"SideOfStreet":"left","CountryId":"20147700","StateId":"20177250","CountyId":"20178444","CityId":"20178445","DistrictId":"20178447","AddressId":"184908217","RoadLinkId":"33201961"}}}]}]}}