{"Response":{"MetaInfo":{"Timestamp":"2020-03-28T11:22:30.153+0000","NextPageInformation":"2"},"View":[{"_type":"SearchResultsViewType","ViewId":0,"Result":[{"Relevance":1.0,"Distance":0.0,"Direction":0.0,"MatchLevel":"district","MatchQuality":{"Country":1.0,"State":1.0,"County":1.0,"City":1.0,"District":1.0,"PostalCode":1.0},"Location":{"LocationId":"NT_-VRxxo1vpiArooxqg7l63D","LocationType":"point","DisplayPosition":{"Latitude":47.7328466,"Longitude":17.8335438},"MapView":{"TopLeft":{"Latitude":47.7401,"Longitude":17.80661},"BottomRight":{"Latitude":47.72688,"Longitude":17.84507}},"Address":{"Label":"Gönyű, Győr-Moson-Sopron, Magyarország","Country":"HUN","State":"Győr-Moson-Sopron","County":"Győri Járás","City":"Gönyű","District":"Gönyű","PostalCode":"9071","AdditionalData":[{"value":"Magyarország","key":"CountryName"},{"value":"Győr-Moson-Sopron","key":"StateName"},{"value":"Győri Járás","key":"CountyName"}]},"MapReference":{"ReferenceId":"850525087","SideOfStreet":"neither","CountryId":"20613038","StateId":"20616900","CountyId":"26679915","CityId":"20617072","DistrictId":"26680117"}}},{"Relevance":1.0,"Distance":9.5,"MatchLevel":"houseNumber","MatchQuality":{"Country":1.0,"State":1.0,"County":1.0,"City":1.0,"District":1.0,"Street":[1.0],"HouseNumber":1.0,"PostalCode":1.0},"MatchType":"interpolated","Location":{"LocationId":"NT_26oy0LAkWH6fLxtiTDkyPA_2AD","LocationType":"point","DisplayPosition":{"Latitude":47.73293,"Longitude":17.83364},"MapView":{"TopLeft":{"Latitude":47.7340542,"Longitude":17.8319686},"BottomRight":{"Latitude":47.7318058,"Longitude":17.8353114}},"Address":{"Label":"Bajcsy-Zsilinszky utca 60, Gönyű 9071, Magyarország","Country":"HUN","State":"Győr-Moson-Sopron","County":"Győri Járás","City":"Gönyű","District":"Gönyű","Street":"Bajcsy-Zsilinszky utca","HouseNumber":"60","PostalCode":"9071","AdditionalData":[{"value":"Magyarország","key":"CountryName"},{"value":"Győr-Moson-Sopron","key":"StateName"},{"value":"Győri Járás","key":"CountyName"}]},"MapReference":{"ReferenceId":"598279066","Spot":0.1,"SideOfStreet":"right","CountryId":"20613038","StateId":"20616900","CountyId":"26679915","CityId":"20617072","DistrictId":"26680117","AddressId":"354822733","RoadLinkId":"60571052"}}},{"Relevance":1.0,"Distance":20.4,"MatchLevel":"houseNumber","MatchQuality":{"Country":1.0,"State":1.0,"County":1.0,"City":1.0,"District":1.0,"Street":[1.0],"HouseNumber":1.0,"PostalCode":1.0},"MatchType":"interpolated","Location":{"LocationId":"NT_kQo6.Fk7mbYfP2L8VcsZ3C_xQD","LocationType":"point","DisplayPosition":{"Latitude":47.73267,"Longitude":17.83342},"MapView":{"TopLeft":{"Latitude":47.7337942,"Longitude":17.8317486},"BottomRight":{"Latitude":47.7315458,"Longitude":17.8350914}},"Address":{"Label":"Vörösmarty utca 14, Gönyű 9071, Magyarország","Country":"HUN","State":"Győr-Moson-Sopron","County":"Győri Járás","City":"Gönyű","District":"Gönyű","Street":"Vörösmarty utca","HouseNumber":"14","PostalCode":"9071","AdditionalData":[{"value":"Magyarország","key":"CountryName"},{"value":"Győr-Moson-Sopron","key":"StateName"},{"value":"Győri Járás","key":"CountyName"}]},"MapReference":{"ReferenceId":"598279478","Spot":0.91,"SideOfStreet":"right","CountryId":"20613038","StateId":"20616900","CountyId":"26679915","CityId":"20617072","DistrictId":"26680117","AddressId":"356279037","RoadLinkId":"60328497"}}},{"Relevance":1.0,"Distance":26.3,"MatchLevel":"houseNumber","MatchQuality":{"Country":1.0,"State":1.0,"County":1.0,"City":1.0,"District":1.0,"Street":[1.0],"HouseNumber":1.0,"PostalCode":1.0},"MatchType":"interpolated","Location":{"LocationId":"NT_kQo6.Fk7mbYfP2L8VcsZ3C_xID","LocationType":"point","DisplayPosition":{"Latitude":47.73307,"Longitude":17.8334},"MapView":{"TopLeft":{"Latitude":47.7341942,"Longitude":17.8317286},"BottomRight":{"Latitude":47.7319458,"Longitude":17.8350714}},"Address":{"Label":"Vörösmarty utca 12, Gönyű 9071, Magyarország","Country":"HUN","State":"Győr-Moson-Sopron","County":"Győri Járás","City":"Gönyű","District":"Gönyű","Street":"Vörösmarty utca","HouseNumber":"12","PostalCode":"9071","AdditionalData":[{"value":"Magyarország","key":"CountryName"},{"value":"Győr-Moson-Sopron","key":"StateName"},{"value":"Győri Járás","key":"CountyName"}]},"MapReference":{"ReferenceId":"598279059","Spot":0.11,"SideOfStreet":"right","CountryId":"20613038","StateId":"20616900","CountyId":"26679915","CityId":"20617072","DistrictId":"26680117","AddressId":"355881131","RoadLinkId":"60813355"}}},{"Relevance":1.0,"Distance":27.2,"MatchLevel":"houseNumber","MatchQuality":{"Country":1.0,"State":1.0,"County":1.0,"City":1.0,"District":1.0,"Street":[1.0],"HouseNumber":1.0,"PostalCode":1.0},"MatchType":"interpolated","Location":{"LocationId":"NT_26oy0LAkWH6fLxtiTDkyPA_2cD","LocationType":"point","DisplayPosition":{"Latitude":47.73291,"Longitude":17.83318},"MapView":{"TopLeft":{"Latitude":47.7340342,"Longitude":17.8315086},"BottomRight":{"Latitude":47.7317858,"Longitude":17.8348514}},"Address":{"Label":"Bajcsy-Zsilinszky utca 67, Gönyű 9071, Magyarország","Country":"HUN","State":"Győr-Moson-Sopron","County":"Győri Járás","City":"Gönyű","District":"Gönyű","Street":"Bajcsy-Zsilinszky utca","HouseNumber":"67","PostalCode":"9071","AdditionalData":[{"value":"Magyarország","key":"CountryName"},{"value":"Győr-Moson-Sopron","key":"StateName"},{"value":"Győri Járás","key":"CountyName"}]},"MapReference":{"ReferenceId":"598279060","Spot":0.9,"SideOfStreet":"right","CountryId":"20613038","StateId":"20616900","CountyId":"26679915","CityId":"20617072","DistrictId":"26680117","AddressId":"355250045","RoadLinkId":"60374666"}}},{"Relevance":1.0,"Distance":143.1,"MatchLevel":"houseNumber","MatchQuality":{"Country":1.0,"State":1.0,"County":1.0,"City":1.0,"District":1.0,"Street":[1.0],"HouseNumber":1.0,"PostalCode":1.0},"MatchType":"interpolated","Location":{"LocationId":"NT_8kePvHg..-S0u-kKjqcomC_xED","LocationType":"point","DisplayPosition":{"Latitude":47.73311,"Longitude":17.83561},"MapView":{"TopLeft":{"Latitude":47.7342342,"Longitude":17.8339386},"BottomRight":{"Latitude":47.7319858,"Longitude":17.8372814}},"Address":{"Label":"Ady Endre utca 11, Gönyű 9071, Magyarország","Country":"HUN","State":"Győr-Moson-Sopron","County":"Győri Járás","City":"Gönyű","District":"Gönyű","Street":"Ady Endre utca","HouseNumber":"11","PostalCode":"9071","AdditionalData":[{"value":"Magyarország","key":"CountryName"},{"value":"Győr-Moson-Sopron","key":"StateName"},{"value":"Győri Járás","key":"CountyName"}]},"MapReference":{"ReferenceId":"598279065","Spot":0.1,"SideOfStreet":"left","CountryId":"20613038","StateId":"20616900","CountyId":"26679915","CityId":"20617072","DistrictId":"26680117","AddressId":"354868508","RoadLinkId":"60343508"}}},{"Relevance":1.0,"Distance":143.4,"MatchLevel":"houseNumber","MatchQuality":{"Country":1.0,"State":1.0,"County":1.0,"City":1.0,"District":1.0,"Street":[1.0],"HouseNumber":1.0,"PostalCode":1.0},"MatchType":"interpolated","Location":{"LocationId":"NT_8kePvHg..-S0u-kKjqcomC_xMD","LocationType":"point","DisplayPosition":{"Latitude":47.73271,"Longitude":17.83564},"MapView":{"TopLeft":{"Latitude":47.7338342,"Longitude":17.8339686},"BottomRight":{"Latitude":47.7315858,"Longitude":17.8373114}},"Address":{"Label":"Ady Endre utca 13, Gönyű 9071, Magyarország","Country":"HUN","State":"Győr-Moson-Sopron","County":"Győri Járás","City":"Gönyű","District":"Gönyű","Street":"Ady Endre utca","HouseNumber":"13","PostalCode":"9071","AdditionalData":[{"value":"Magyarország","key":"CountryName"},{"value":"Győr-Moson-Sopron","key":"StateName"},{"value":"Győri Járás","key":"CountyName"}]},"MapReference":{"ReferenceId":"598279484","Spot":0.9,"SideOfStreet":"left","CountryId":"20613038","StateId":"20616900","CountyId":"26679915","CityId":"20617072","DistrictId":"26680117","AddressId":"355668274","RoadLinkId":"60760719"}}},{"Relevance":1.0,"Distance":157.5,"MatchLevel":"houseNumber","MatchQuality":{"Country":1.0,"State":1.0,"County":1.0,"City":1.0,"District":1.0,"Street":[1.0],"HouseNumber":1.0,"PostalCode":1.0},"MatchType":"interpolated","Location":{"LocationId":"NT_DYIp3F7hXRPyExbznoRz4C_yID","LocationType":"point","DisplayPosition":{"Latitude":47.73426,"Longitude":17.83341},"MapView":{"TopLeft":{"Latitude":47.7353842,"Longitude":17.8317386},"BottomRight":{"Latitude":47.7331358,"Longitude":17.8350814}},"Address":{"Label":"Damjanich utca 22, Gönyű 9071, Magyarország","Country":"HUN","State":"Győr-Moson-Sopron","County":"Győri Járás","City":"Gönyű","District":"Gönyű","Street":"Damjanich utca","HouseNumber":"22","PostalCode":"9071","AdditionalData":[{"value":"Magyarország","key":"CountryName"},{"value":"Győr-Moson-Sopron","key":"StateName"},{"value":"Győri Járás","key":"CountyName"}]},"MapReference":{"ReferenceId":"598278822","Spot":0.1,"SideOfStreet":"left","CountryId":"20613038","StateId":"20616900","CountyId":"26679915","CityId":"20617072","DistrictId":"26680117","AddressId":"357601662","RoadLinkId":"60684344"}}},{"Relevance":1.0,"Distance":157.9,"MatchLevel":"houseNumber","MatchQuality":{"Country":1.0,"State":1.0,"County":1.0,"City":1.0,"District":1.0,"Street":[1.0],"HouseNumber":1.0,"PostalCode":1.0},"MatchType":"interpolated","Location":{"LocationId":"NT_DYIp3F7hXRPyExbznoRz4C_3A","LocationType":"point","DisplayPosition":{"Latitude":47.7343,"Longitude":17.8343},"MapView":{"TopLeft":{"Latitude":47.7354242,"Longitude":17.8326286},"BottomRight":{"Latitude":47.7331758,"Longitude":17.8359714}},"Address":{"Label":"Damjanich utca 7, Gönyű 9071, Magyarország","Country":"HUN","State":"Győr-Moson-Sopron","County":"Győri Járás","City":"Gönyű","District":"Gönyű","Street":"Damjanich utca","HouseNumber":"7","PostalCode":"9071","AdditionalData":[{"value":"Magyarország","key":"CountryName"},{"value":"Győr-Moson-Sopron","key":"StateName"},{"value":"Győri Járás","key":"CountyName"}]},"MapReference":{"ReferenceId":"598278821","Spot":0.1,"SideOfStreet":"right","CountryId":"20613038","StateId":"20616900","CountyId":"26679915","CityId":"20617072","DistrictId":"26680117","AddressId":"356589669","RoadLinkId":"60392188"}}},{"Relevance":1.0,"Distance":163.3,"MatchLevel":"houseNumber","MatchQuality":{"Country":1.0,"State":1.0,"County":1.0,"City":1.0,"District":1.0,"Street":[1.0],"HouseNumber":1.0,"PostalCode":1.0},"MatchType":"interpolated","Location":{"LocationId":"NT_TrbgEEF6o20cU0bapYUI2A_xQD","LocationType":"point","DisplayPosition":{"Latitude":47.73299,"Longitude":17.83116},"MapView":{"TopLeft":{"Latitude":47.7341142,"Longitude":17.8294886},"BottomRight":{"Latitude":47.7318658,"Longitude":17.8328314}},"Address":{"Label":"Zrínyi utca 14, Gönyű 9071, Magyarország","Country":"HUN","State":"Győr-Moson-Sopron","County":"Győri Járás","City":"Gönyű","District":"Gönyű","Street":"Zrínyi utca","HouseNumber":"14","PostalCode":"9071","AdditionalData":[{"value":"Magyarország","key":"CountryName"},{"value":"Győr-Moson-Sopron","key":"StateName"},{"value":"Győri Járás","key":"CountyName"}]},"MapReference":{"ReferenceId":"598279057","Spot":0.1,"SideOfStreet":"right","CountryId":"20613038","StateId":"20616900","CountyId":"26679915","CityId":"20617072","DistrictId":"26680117","AddressId":"117596120","RoadLinkId":"60712557"}}}]}]}}