{"Response":{"MetaInfo":{"Timestamp":"2020-03-28T10:25:13.570+0000","NextPageInformation":"2"},"View":[{"_type":"SearchResultsViewType","ViewId":0,"Result":[{"Relevance":1.0,"Distance":0.0,"Direction":0.0,"MatchLevel":"district","MatchQuality":{"Country":1.0,"State":1.0,"County":1.0,"City":1.0,"District":1.0,"PostalCode":1.0},"Location":{"LocationId":"NT_Ejuk3XL7pjsU2AboUmbVbC","LocationType":"point","DisplayPosition":{"Latitude":47.7183389,"Longitude":9.3886092},"MapView":{"TopLeft":{"Latitude":47.73249,"Longitude":9.37842},"BottomRight":{"Latitude":47.70558,"Longitude":9.40676}},"Address":{"Label":"Markdorf, Baden-Württemberg, Deutschland","Country":"DEU","State":"Baden-Württemberg","County":"Bodenseekreis","City":"Markdorf","District":"Markdorf","PostalCode":"88677","AdditionalData":[{"value":"Deutschland","key":"CountryName"},{"value":"Baden-Württemberg","key":"StateName"},{"value":"Bodenseekreis","key":"CountyName"}]},"MapReference":{"ReferenceId":"563919706","SideOfStreet":"neither","CountryId":"20147700","StateId":"20171489","CountyId":"20176750","CityId":"20176804","DistrictId":"20176810"}}},{"Relevance":1.0,"Distance":16.0,"MatchLevel":"houseNumber","MatchQuality":{"Country":1.0,"State":1.0,"County":1.0,"City":1.0,"District":1.0,"Street":[1.0],"HouseNumber":1.0,"PostalCode":1.0},"MatchType":"interpolated","Location":{"LocationId":"NT_h387PnrebBfvVLasnkZzQA_yA","LocationType":"point","DisplayPosition":{"Latitude":47.71789,"Longitude":9.38812},"MapView":{"TopLeft":{"Latitude":47.7190142,"Longitude":9.3864491},"BottomRight":{"Latitude":47.7167658,"Longitude":9.3897909}},"Address":{"Label":"Eugenienstraße 2, 88677 Markdorf, Deutschland","Country":"DEU","State":"Baden-Württemberg","County":"Bodenseekreis","City":"Markdorf","District":"Markdorf","Street":"Eugenienstraße","HouseNumber":"2","PostalCode":"88677","AdditionalData":[{"value":"Deutschland","key":"CountryName"},{"value":"Baden-Württemberg","key":"StateName"},{"value":"Bodenseekreis","key":"CountyName"}]},"MapReference":{"ReferenceId":"76835881","Spot":0.52,"SideOfStreet":"right","CountryId":"20147700","StateId":"20171489","CountyId":"20176750","CityId":"20176804","DistrictId":"20176810","AddressId":"180408461","RoadLinkId":"38141677"}}},{"Relevance":1.0,"Distance":30.2,"MatchLevel":"houseNumber","MatchQuality":{"Country":1.0,"State":1.0,"County":1.0,"City":1.0,"District":1.0,"Street":[1.0],"HouseNumber":1.0,"PostalCode":1.0},"MatchType":"interpolated","Location":{"LocationId":"NT_Artfklvw6OvgoL.QMXzFGA_xgD","LocationType":"point","DisplayPosition":{"Latitude":47.71825,"Longitude":9.38916},"MapView":{"TopLeft":{"Latitude":47.7193742,"Longitude":9.3874891},"BottomRight":{"Latitude":47.7171258,"Longitude":9.3908309}},"Address":{"Label":"Bahnhofstraße 18, 88677 Markdorf, Deutschland","Country":"DEU","State":"Baden-Württemberg","County":"Bodenseekreis","City":"Markdorf","District":"Markdorf","Street":"Bahnhofstraße","HouseNumber":"18","PostalCode":"88677","AdditionalData":[{"value":"Deutschland","key":"CountryName"},{"value":"Baden-Württemberg","key":"StateName"},{"value":"Bodenseekreis","key":"CountyName"}]},"MapReference":{"ReferenceId":"67336266","Spot":0.14,"SideOfStreet":"left","CountryId":"20147700","StateId":"20171489","CountyId":"20176750","CityId":"20176804","DistrictId":"20176810","AddressId":"178010426","RoadLinkId":"38103543"}}},{"Relevance":1.0,"Distance":31.1,"MatchLevel":"houseNumber","MatchQuality":{"Country":1.0,"State":1.0,"County":1.0,"City":1.0,"District":1.0,"Street":[1.0],"HouseNumber":1.0,"PostalCode":1.0},"MatchType":"interpolated","Location":{"LocationId":"NT_Artfklvw6OvgoL.QMXzFGA_yATQ","LocationType":"point","DisplayPosition":{"Latitude":47.71801,"Longitude":9.3891},"MapView":{"TopLeft":{"Latitude":47.7191342,"Longitude":9.3874291},"BottomRight":{"Latitude":47.7168858,"Longitude":9.3907709}},"Address":{"Label":"Bahnhofstraße 20A, 88677 Markdorf, Deutschland","Country":"DEU","State":"Baden-Württemberg","County":"Bodenseekreis","City":"Markdorf","District":"Markdorf","Street":"Bahnhofstraße","HouseNumber":"20A","PostalCode":"88677","AdditionalData":[{"value":"Deutschland","key":"CountryName"},{"value":"Baden-Württemberg","key":"StateName"},{"value":"Bodenseekreis","key":"CountyName"}]},"MapReference":{"ReferenceId":"67335986","Spot":0.74,"SideOfStreet":"left","CountryId":"20147700","StateId":"20171489","CountyId":"20176750","CityId":"20176804","DistrictId":"20176810","AddressId":"180021256","RoadLinkId":"38707983"}}},{"Relevance":1.0,"Distance":56.2,"MatchLevel":"houseNumber","MatchQuality":{"Country":1.0,"State":1.0,"County":1.0,"City":1.0,"District":1.0,"Street":[1.0],"HouseNumber":1.0,"PostalCode":1.0},"MatchType":"interpolated","Location":{"LocationId":"NT_RzP.Weukkix33fYVRdEnxD_1A","LocationType":"point","DisplayPosition":{"Latitude":47.71918,"Longitude":9.38897},"MapView":{"TopLeft":{"Latitude":47.7203042,"Longitude":9.3872991},"BottomRight":{"Latitude":47.7180558,"Longitude":9.3906409}},"Address":{"Label":"Steinstraße 5, 88677 Markdorf, Deutschland","Country":"DEU","State":"Baden-Württemberg","County":"Bodenseekreis","City":"Markdorf","District":"Markdorf","Street":"Steinstraße","HouseNumber":"5","PostalCode":"88677","AdditionalData":[{"value":"Deutschland","key":"CountryName"},{"value":"Baden-Württemberg","key":"StateName"},{"value":"Bodenseekreis","key":"CountyName"}]},"MapReference":{"ReferenceId":"67336193","Spot":0.74,"SideOfStreet":"left","CountryId":"20147700","StateId":"20171489","CountyId":"20176750","CityId":"20176804","DistrictId":"20176810","AddressId":"180407182","RoadLinkId":"38868801"}}},{"Relevance":1.0,"Distance":65.3,"MatchLevel":"houseNumber","MatchQuality":{"Country":1.0,"State":1.0,"County":1.0,"City":1.0,"District":1.0,"Street":[1.0],"HouseNumber":1.0,"PostalCode":1.0},"MatchType":"interpolated","Location":{"LocationId":"NT_e2oLzvAxBN9mmIrT2j9sHD_5A","LocationType":"point","DisplayPosition":{"Latitude":47.71876,"Longitude":9.38771},"MapView":{"TopLeft":{"Latitude":47.7198842,"Longitude":9.3860391},"BottomRight":{"Latitude":47.7176358,"Longitude":9.3893809}},"Address":{"Label":"Gutenbergstraße 9, 88677 Markdorf, Deutschland","Country":"DEU","State":"Baden-Württemberg","County":"Bodenseekreis","City":"Markdorf","District":"Markdorf","Street":"Gutenbergstraße","HouseNumber":"9","PostalCode":"88677","AdditionalData":[{"value":"Deutschland","key":"CountryName"},{"value":"Baden-Württemberg","key":"StateName"},{"value":"Bodenseekreis","key":"CountyName"}]},"MapReference":{"ReferenceId":"67336240","Spot":0.8,"SideOfStreet":"right","CountryId":"20147700","StateId":"20171489","CountyId":"20176750","CityId":"20176804","DistrictId":"20176810","AddressId":"178132167","RoadLinkId":"38244173"}}},{"Relevance":1.0,"Distance":72.6,"MatchLevel":"houseNumber","MatchQuality":{"Country":1.0,"State":1.0,"County":1.0,"City":1.0,"District":1.0,"Street":[1.0],"HouseNumber":1.0,"PostalCode":1.0},"MatchType":"interpolated","Location":{"LocationId":"NT_e2oLzvAxBN9mmIrT2j9sHD_3A","LocationType":"point","DisplayPosition":{"Latitude":47.71899,"Longitude":9.38788},"MapView":{"TopLeft":{"Latitude":47.7201142,"Longitude":9.3862091},"BottomRight":{"Latitude":47.7178658,"Longitude":9.3895509}},"Address":{"Label":"Gutenbergstraße 7, 88677 Markdorf, Deutschland","Country":"DEU","State":"Baden-Württemberg","County":"Bodenseekreis","City":"Markdorf","District":"Markdorf","Street":"Gutenbergstraße","HouseNumber":"7","PostalCode":"88677","AdditionalData":[{"value":"Deutschland","key":"CountryName"},{"value":"Baden-Württemberg","key":"StateName"},{"value":"Bodenseekreis","key":"CountyName"}]},"MapReference":{"ReferenceId":"67336066","Spot":0.16,"SideOfStreet":"right","CountryId":"20147700","StateId":"20171489","CountyId":"20176750","CityId":"20176804","DistrictId":"20176810","AddressId":"179928838","RoadLinkId":"38851462"}}},{"Relevance":1.0,"Distance":85.1,"MatchLevel":"houseNumber","MatchQuality":{"Country":1.0,"State":1.0,"County":1.0,"City":1.0,"District":1.0,"Street":[1.0],"HouseNumber":1.0,"PostalCode":1.0},"MatchType":"interpolated","Location":{"LocationId":"NT_RzP.Weukkix33fYVRdEnxD_18yM","LocationType":"point","DisplayPosition":{"Latitude":47.71934,"Longitude":9.38863},"MapView":{"TopLeft":{"Latitude":47.7204642,"Longitude":9.3869591},"BottomRight":{"Latitude":47.7182158,"Longitude":9.3903009}},"Address":{"Label":"Steinstraße 5/3, 88677 Markdorf, Deutschland","Country":"DEU","State":"Baden-Württemberg","County":"Bodenseekreis","City":"Markdorf","District":"Markdorf","Street":"Steinstraße","HouseNumber":"5/3","PostalCode":"88677","AdditionalData":[{"value":"Deutschland","key":"CountryName"},{"value":"Baden-Württemberg","key":"StateName"},{"value":"Bodenseekreis","key":"CountyName"}]},"MapReference":{"ReferenceId":"76835882","Spot":0.38,"SideOfStreet":"left","CountryId":"20147700","StateId":"20171489","CountyId":"20176750","CityId":"20176804","DistrictId":"20176810","AddressId":"178576711","RoadLinkId":"38938988"}}},{"Relevance":1.0,"Distance":86.4,"MatchLevel":"street","MatchQuality":{"Country":1.0,"State":1.0,"County":1.0,"City":1.0,"District":1.0,"Street":[1.0],"PostalCode":1.0},"Location":{"LocationId":"NT_G.7QapAT64gXNSdJAmP2yA_l_67336086_L","LocationType":"point","DisplayPosition":{"Latitude":47.7189,"Longitude":9.38781},"MapView":{"TopLeft":{"Latitude":47.71901,"Longitude":9.38737},"BottomRight":{"Latitude":47.7189,"Longitude":9.38781}},"Address":{"Label":"Im Mühlöschle, 88677 Markdorf, Deutschland","Country":"DEU","State":"Baden-Württemberg","County":"Bodenseekreis","City":"Markdorf","District":"Markdorf","Street":"Im Mühlöschle","PostalCode":"88677","AdditionalData":[{"value":"Deutschland","key":"CountryName"},{"value":"Baden-Württemberg","key":"StateName"},{"value":"Bodenseekreis","key":"CountyName"}]},"MapReference":{"ReferenceId":"67336086","Spot":0.0,"SideOfStreet":"left","CountryId":"20147700","StateId":"20171489","CountyId":"20176750","CityId":"20176804","DistrictId":"20176810"}}},{"Relevance":1.0,"Distance":89.6,"MatchLevel":"houseNumber","MatchQuality":{"Country":1.0,"State":1.0,"County":1.0,"City":1.0,"District":1.0,"Street":[1.0],"HouseNumber":1.0,"PostalCode":1.0},"MatchType":"interpolated","Location":{"LocationId":"NT_Artfklvw6OvgoL.QMXzFGA_xkzLyA","LocationType":"point","DisplayPosition":{"Latitude":47.71758,"Longitude":9.38901},"MapView":{"TopLeft":{"Latitude":47.7187042,"Longitude":9.3873391},"BottomRight":{"Latitude":47.7164558,"Longitude":9.3906809}},"Address":{"Label":"Bahnhofstraße 19/2, 88677 Markdorf, Deutschland","Country":"DEU","State":"Baden-Württemberg","County":"Bodenseekreis","City":"Markdorf","District":"Markdorf","Street":"Bahnhofstraße","HouseNumber":"19/2","PostalCode":"88677","AdditionalData":[{"value":"Deutschland","key":"CountryName"},{"value":"Baden-Württemberg","key":"StateName"},{"value":"Bodenseekreis","key":"CountyName"}]},"MapReference":{"ReferenceId":"76845262","Spot":0.87,"SideOfStreet":"right","CountryId":"20147700","StateId":"20171489","CountyId":"20176750","CityId":"20176804","DistrictId":"20176810","AddressId":"180303755","RoadLinkId":"38961384"}}}]}]}}