{"Response":{"MetaInfo":{"Timestamp":"2020-03-28T10:14:06.625+0000","NextPageInformation":"2"},"View":[{"_type":"SearchResultsViewType","ViewId":0,"Result":[{"Relevance":1.0,"Distance":0.0,"Direction":0.0,"MatchLevel":"city","MatchQuality":{"Country":1.0,"State":1.0,"County":1.0,"City":1.0,"PostalCode":1.0},"Location":{"LocationId":"NT_ve1JrMJdYOD0KsU1ih5e-D","LocationType":"point","DisplayPosition":{"Latitude":47.798553,"Longitude":16.6674678},"MapView":{"TopLeft":{"Latitude":47.82575,"Longitude":16.64171},"BottomRight":{"Latitude":47.7819,"Longitude":16.73149}},"Address":{"Label":"Rust, Burgenland, Österreich","Country":"AUT","State":"Burgenland","County":"Rust","City":"Rust","PostalCode":"7071","AdditionalData":[{"value":"Österreich","key":"CountryName"},{"value":"Burgenland","key":"StateName"},{"value":"Rust","key":"CountyName"}]},"MapReference":{"ReferenceId":"564598819","SideOfStreet":"neither","CountryId":"20128885","StateId":"20128890","CountyId":"20128897","CityId":"20128898"}}},{"Relevance":1.0,"Distance":10.9,"MatchLevel":"houseNumber","MatchQuality":{"Country":1.0,"State":1.0,"County":1.0,"City":1.0,"District":1.0,"Street":[1.0],"HouseNumber":1.0,"PostalCode":1.0},"MatchType":"interpolated","Location":{"LocationId":"NT_xSsakAuN3n.CPL1qRzd-EA_4A","LocationType":"point","DisplayPosition":{"Latitude":47.79853,"Longitude":16.66795},"MapView":{"TopLeft":{"Latitude":47.7996542,"Longitude":16.6662765},"BottomRight":{"Latitude":47.7974058,"Longitude":16.6696235}},"Address":{"Label":"Turnerweg 8, 7071 Rust, Österreich","Country":"AUT","State":"Burgenland","County":"Rust","City":"Rust","District":"Rust","Street":"Turnerweg","HouseNumber":"8","PostalCode":"7071","AdditionalData":[{"value":"Österreich","key":"CountryName"},{"value":"Burgenland","key":"StateName"},{"value":"Rust","key":"CountyName"}]},"MapReference":{"ReferenceId":"564598908","Spot":0.12,"SideOfStreet":"left","CountryId":"20128885","StateId":"20128890","CountyId":"20128897","CityId":"20128898","DistrictId":"20128900","AddressId":"214890746","RoadLinkId":"28619416"}}},{"Relevance":1.0,"Distance":39.6,"MatchLevel":"street","MatchQuality":{"Country":1.0,"State":1.0,"County":1.0,"City":1.0,"Street":[1.0],"PostalCode":1.0},"Location":{"LocationId":"NT_1WgbOqGtuRzoMYT3ZREq7A_l_62866917_L","LocationType":"point","DisplayPosition":{"Latitude":47.79846,"Longitude":16.66798},"MapView":{"TopLeft":{"Latitude":47.79846,"Longitude":16.66798},"BottomRight":{"Latitude":47.79768,"Longitude":16.66814}},"Address":{"Label":"Güterweg Mörbisch am See, 7071 Rust, Österreich","Country":"AUT","State":"Burgenland","County":"Rust","City":"Rust","Street":"Güterweg Mörbisch am See","PostalCode":"7071","AdditionalData":[{"value":"Österreich","key":"CountryName"},{"value":"Burgenland","key":"StateName"},{"value":"Rust","key":"CountyName"}]},"MapReference":{"ReferenceId":"62866917","Spot":1.0,"SideOfStreet":"left","CountryId":"20128885","StateId":"20128890","CountyId":"20128897","CityId":"20128898"}}},{"Relevance":1.0,"Distance":60.5,"MatchLevel":"street","MatchQuality":{"Country":1.0,"State":1.0,"County":1.0,"City":1.0,"District":1.0,"Street":[1.0],"PostalCode":1.0},"Location":{"LocationId":"NT_1lWPa9gr31NRstJM-W-MrD_l_564598916_L","LocationType":"point","DisplayPosition":{"Latitude":47.79906,"Longitude":16.66776},"MapView":{"TopLeft":{"Latitude":47.79964,"Longitude":16.66748},"BottomRight":{"Latitude":47.79906,"Longitude":16.66776}},"Address":{"Label":"Güterweg Mörbisch am See, 7071 Rust, Österreich","Country":"AUT","State":"Burgenland","County":"Rust","City":"Rust","District":"Rust","Street":"Güterweg Mörbisch am See","PostalCode":"7071","AdditionalData":[{"value":"Österreich","key":"CountryName"},{"value":"Burgenland","key":"StateName"},{"value":"Rust","key":"CountyName"}]},"MapReference":{"ReferenceId":"564598916","Spot":0.0,"SideOfStreet":"left","CountryId":"20128885","StateId":"20128890","CountyId":"20128897","CityId":"20128898","DistrictId":"20128900"}}},{"Relevance":1.0,"Distance":65.0,"MatchLevel":"houseNumber","MatchQuality":{"Country":1.0,"State":1.0,"County":1.0,"City":1.0,"District":1.0,"Street":[1.0],"HouseNumber":1.0,"PostalCode":1.0},"MatchType":"interpolated","Location":{"LocationId":"NT_2LjKxzExtyzimeLDWMNd-D_zED","LocationType":"point","DisplayPosition":{"Latitude":47.79908,"Longitude":16.66799},"MapView":{"TopLeft":{"Latitude":47.8002042,"Longitude":16.6663165},"BottomRight":{"Latitude":47.7979558,"Longitude":16.6696635}},"Address":{"Label":"Ödenburger Straße 31, 7071 Rust, Österreich","Country":"AUT","State":"Burgenland","County":"Rust","City":"Rust","District":"Rust","Street":"Ödenburger Straße","HouseNumber":"31","PostalCode":"7071","AdditionalData":[{"value":"Österreich","key":"CountryName"},{"value":"Burgenland","key":"StateName"},{"value":"Rust","key":"CountyName"}]},"MapReference":{"ReferenceId":"564598920","Spot":0.1,"SideOfStreet":"right","CountryId":"20128885","StateId":"20128890","CountyId":"20128897","CityId":"20128898","DistrictId":"20128900","AddressId":"160792255","RoadLinkId":"28796113"}}},{"Relevance":1.0,"Distance":109.3,"MatchLevel":"street","MatchQuality":{"Country":1.0,"State":1.0,"County":1.0,"City":1.0,"Street":[1.0],"PostalCode":1.0},"Location":{"LocationId":"NT_1WgbOqGtuRzoMYT3ZREq7A_l_62866916_L","LocationType":"point","DisplayPosition":{"Latitude":47.79768,"Longitude":16.66814},"MapView":{"TopLeft":{"Latitude":47.79768,"Longitude":16.66814},"BottomRight":{"Latitude":47.79495,"Longitude":16.66919}},"Address":{"Label":"Güterweg Mörbisch am See, 7071 Rust, Österreich","Country":"AUT","State":"Burgenland","County":"Rust","City":"Rust","Street":"Güterweg Mörbisch am See","PostalCode":"7071","AdditionalData":[{"value":"Österreich","key":"CountryName"},{"value":"Burgenland","key":"StateName"},{"value":"Rust","key":"CountyName"}]},"MapReference":{"ReferenceId":"62866916","Spot":1.0,"SideOfStreet":"left","CountryId":"20128885","StateId":"20128890","CountyId":"20128897","CityId":"20128898"}}},{"Relevance":1.0,"Distance":113.5,"MatchLevel":"street","MatchQuality":{"Country":1.0,"State":1.0,"County":1.0,"City":1.0,"Street":[1.0],"PostalCode":1.0},"Location":{"LocationId":"NT_410sixhN815Oc57D0eozpA_l_784652338_R","LocationType":"point","DisplayPosition":{"Latitude":47.79955,"Longitude":16.66714},"MapView":{"TopLeft":{"Latitude":47.79955,"Longitude":16.66345},"BottomRight":{"Latitude":47.79906,"Longitude":16.66714}},"Address":{"Label":"Eisenstädter Straße, 7071 Rust, Österreich","Country":"AUT","State":"Burgenland","County":"Rust","City":"Rust","Street":"Eisenstädter Straße","PostalCode":"7071","AdditionalData":[{"value":"Österreich","key":"CountryName"},{"value":"Burgenland","key":"StateName"},{"value":"Rust","key":"CountyName"}]},"MapReference":{"ReferenceId":"784652338","Spot":1.0,"SideOfStreet":"right","CountryId":"20128885","StateId":"20128890","CountyId":"20128897","CityId":"20128898"}}},{"Relevance":1.0,"Distance":114.4,"MatchLevel":"street","MatchQuality":{"Country":1.0,"State":1.0,"County":1.0,"City":1.0,"Street":[1.0],"PostalCode":1.0},"Location":{"LocationId":"NT_bsC0qEy9v.-UCUl1l8O9FD_l_784652339_R","LocationType":"point","DisplayPosition":{"Latitude":47.7995658,"Longitude":16.6671997},"MapView":{"TopLeft":{"Latitude":47.79964,"Longitude":16.66714},"BottomRight":{"Latitude":47.79955,"Longitude":16.66748}},"Address":{"Label":"Eisenstädter Straße, 7071 Rust, Österreich","Country":"AUT","State":"Burgenland","County":"Rust","City":"Rust","Street":"Eisenstädter Straße","PostalCode":"7071","AdditionalData":[{"value":"Österreich","key":"CountryName"},{"value":"Burgenland","key":"StateName"},{"value":"Rust","key":"CountyName"}]},"MapReference":{"ReferenceId":"784652339","Spot":0.18,"SideOfStreet":"right","CountryId":"20128885","StateId":"20128890","CountyId":"20128897","CityId":"20128898"}}},{"Relevance":1.0,"Distance":120.9,"MatchLevel":"street","MatchQuality":{"Country":1.0,"State":1.0,"County":1.0,"City":1.0,"District":1.0,"Street":[1.0],"PostalCode":1.0},"Location":{"LocationId":"NT_LGOk.4Asc4.6WHaczm0IDA_l_564598928_R","LocationType":"point","DisplayPosition":{"Latitude":47.79964,"Longitude":16.66748},"MapView":{"TopLeft":{"Latitude":47.79969,"Longitude":16.66748},"BottomRight":{"Latitude":47.79964,"Longitude":16.66767}},"Address":{"Label":"Eisenstädter Straße, 7071 Rust, Österreich","Country":"AUT","State":"Burgenland","County":"Rust","City":"Rust","District":"Rust","Street":"Eisenstädter Straße","PostalCode":"7071","AdditionalData":[{"value":"Österreich","key":"CountryName"},{"value":"Burgenland","key":"StateName"},{"value":"Rust","key":"CountyName"}]},"MapReference":{"ReferenceId":"564598928","Spot":0.0,"SideOfStreet":"right","CountryId":"20128885","StateId":"20128890","CountyId":"20128897","CityId":"20128898","DistrictId":"20128900"}}},{"Relevance":1.0,"Distance":127.3,"MatchLevel":"street","MatchQuality":{"Country":1.0,"State":1.0,"County":1.0,"City":1.0,"District":1.0,"Street":[1.0],"PostalCode":1.0},"Location":{"LocationId":"NT_LGOk.4Asc4.6WHaczm0IDA_l_784657612_R","LocationType":"point","DisplayPosition":{"Latitude":47.79969,"Longitude":16.66767},"MapView":{"TopLeft":{"Latitude":47.79975,"Longitude":16.66767},"BottomRight":{"Latitude":47.79969,"Longitude":16.66791}},"Address":{"Label":"Eisenstädter Straße, 7071 Rust, Österreich","Country":"AUT","State":"Burgenland","County":"Rust","City":"Rust","District":"Rust","Street":"Eisenstädter Straße","PostalCode":"7071","AdditionalData":[{"value":"Österreich","key":"CountryName"},{"value":"Burgenland","key":"StateName"},{"value":"Rust","key":"CountyName"}]},"MapReference":{"ReferenceId":"784657612","Spot":0.0,"SideOfStreet":"right","CountryId":"20128885","StateId":"20128890","CountyId":"20128897","CityId":"20128898","DistrictId":"20128900"}}}]}]}}