{"Response":{"MetaInfo":{"Timestamp":"2020-03-28T10:42:53.581+0000","NextPageInformation":"2"},"View":[{"_type":"SearchResultsViewType","ViewId":0,"Result":[{"Relevance":1.0,"Distance":0.0,"Direction":0.0,"MatchLevel":"district","MatchQuality":{"Country":1.0,"State":1.0,"County":1.0,"City":1.0,"District":1.0,"PostalCode":1.0},"Location":{"LocationId":"NT_BJW4N6FNQkQRXmyzDDQA6C","LocationType":"point","DisplayPosition":{"Latitude":47.778319,"Longitude":19.9197085},"MapView":{"TopLeft":{"Latitude":47.80192,"Longitude":19.90556},"BottomRight":{"Latitude":47.75762,"Longitude":19.95374}},"Address":{"Label":"Gyöngyös, Heves, Magyarország","Country":"HUN","State":"Heves","County":"Gyöngyösi Járás","City":"Gyöngyös","District":"Gyöngyös","PostalCode":"3200","AdditionalData":[{"value":"Magyarország","key":"CountryName"},{"value":"Heves","key":"StateName"},{"value":"Gyöngyösi Járás","key":"CountyName"}]},"MapReference":{"ReferenceId":"709419172","SideOfStreet":"neither","CountryId":"20613038","StateId":"20617771","CountyId":"26678493","CityId":"20617892","DistrictId":"26679248"}}},{"Relevance":1.0,"Distance":5.2,"MatchLevel":"street","MatchQuality":{"Country":1.0,"State":1.0,"County":1.0,"City":1.0,"District":1.0,"Street":[1.0],"PostalCode":1.0},"Location":{"LocationId":"NT_8kpENikIYRLMtOHPysS2TB_l_849751099_L","LocationType":"point","DisplayPosition":{"Latitude":47.7783069,"Longitude":19.9197755},"MapView":{"TopLeft":{"Latitude":47.77872,"Longitude":19.91974},"BottomRight":{"Latitude":47.77811,"Longitude":19.91985}},"Address":{"Label":"Zalár József utca, Gyöngyös 3200, Magyarország","Country":"HUN","State":"Heves","County":"Gyöngyösi Járás","City":"Gyöngyös","District":"Gyöngyös","Street":"Zalár József utca","PostalCode":"3200","AdditionalData":[{"value":"Magyarország","key":"CountryName"},{"value":"Heves","key":"StateName"},{"value":"Gyöngyösi Járás","key":"CountyName"}]},"MapReference":{"ReferenceId":"849751099","Spot":0.32,"SideOfStreet":"left","CountryId":"20613038","StateId":"20617771","CountyId":"26678493","CityId":"20617892","DistrictId":"26679248"}}},{"Relevance":1.0,"Distance":23.2,"MatchLevel":"street","MatchQuality":{"Country":1.0,"State":1.0,"County":1.0,"City":1.0,"District":1.0,"PostalCode":1.0},"Location":{"LocationId":"NT_mzBYeK3jCc-6465M6sIW-A_l_849751101_L","LocationType":"point","DisplayPosition":{"Latitude":47.77811,"Longitude":19.9197085},"MapView":{"TopLeft":{"Latitude":47.77811,"Longitude":19.9196},"BottomRight":{"Latitude":47.77806,"Longitude":19.91974}},"Address":{"Label":"Gyöngyös 3200, Magyarország","Country":"HUN","State":"Heves","County":"Gyöngyösi Járás","City":"Gyöngyös","District":"Gyöngyös","PostalCode":"3200","AdditionalData":[{"value":"Magyarország","key":"CountryName"},{"value":"Heves","key":"StateName"},{"value":"Gyöngyösi Járás","key":"CountyName"}]},"MapReference":{"ReferenceId":"849751101","Spot":0.8,"SideOfStreet":"left","CountryId":"20613038","StateId":"20617771","CountyId":"26678493","CityId":"20617892","DistrictId":"26679248"}}},{"Relevance":1.0,"Distance":23.4,"MatchLevel":"street","MatchQuality":{"Country":1.0,"State":1.0,"County":1.0,"City":1.0,"District":1.0,"PostalCode":1.0},"Location":{"LocationId":"NT_mzBYeK3jCc-6465M6sIW-A_l_849751100_R","LocationType":"point","DisplayPosition":{"Latitude":47.77811,"Longitude":19.91974},"MapView":{"TopLeft":{"Latitude":47.77811,"Longitude":19.91974},"BottomRight":{"Latitude":47.77805,"Longitude":19.91983}},"Address":{"Label":"Gyöngyös 3200, Magyarország","Country":"HUN","State":"Heves","County":"Gyöngyösi Járás","City":"Gyöngyös","District":"Gyöngyös","PostalCode":"3200","AdditionalData":[{"value":"Magyarország","key":"CountryName"},{"value":"Heves","key":"StateName"},{"value":"Gyöngyösi Járás","key":"CountyName"}]},"MapReference":{"ReferenceId":"849751100","Spot":1.0,"SideOfStreet":"right","CountryId":"20613038","StateId":"20617771","CountyId":"26678493","CityId":"20617892","DistrictId":"26679248"}}},{"Relevance":1.0,"Distance":23.5,"MatchLevel":"houseNumber","MatchQuality":{"Country":1.0,"State":1.0,"County":1.0,"City":1.0,"District":1.0,"Street":[1.0],"HouseNumber":1.0,"PostalCode":1.0},"MatchType":"interpolated","Location":{"LocationId":"NT_TKf6Qy0q2CUfZgYtQdULxD_l_1090757404_L_xA","LocationType":"point","DisplayPosition":{"Latitude":47.7780555,"Longitude":19.9199631},"MapView":{"TopLeft":{"Latitude":47.7791797,"Longitude":19.9182903},"BottomRight":{"Latitude":47.7769314,"Longitude":19.921636}},"Address":{"Label":"Báthory István utca 1, Gyöngyös 3200, Magyarország","Country":"HUN","State":"Heves","County":"Gyöngyösi Járás","City":"Gyöngyös","District":"Gyöngyös","Street":"Báthory István utca","HouseNumber":"1","PostalCode":"3200","AdditionalData":[{"value":"Magyarország","key":"CountryName"},{"value":"Heves","key":"StateName"},{"value":"Gyöngyösi Járás","key":"CountyName"}]},"MapReference":{"ReferenceId":"1090757404","Spot":0.55,"SideOfStreet":"left","CountryId":"20613038","StateId":"20617771","CountyId":"26678493","CityId":"20617892","DistrictId":"26679248"}}},{"Relevance":1.0,"Distance":29.9,"MatchLevel":"street","MatchQuality":{"Country":1.0,"State":1.0,"County":1.0,"City":1.0,"District":1.0,"Street":[1.0],"PostalCode":1.0},"Location":{"LocationId":"NT_4C1vd0gvfQG0NQ.0nU-EzB_l_708511890_R","LocationType":"point","DisplayPosition":{"Latitude":47.77809,"Longitude":19.9195},"MapView":{"TopLeft":{"Latitude":47.7782,"Longitude":19.91888},"BottomRight":{"Latitude":47.77809,"Longitude":19.9195}},"Address":{"Label":"Kertész utca, Gyöngyös 3200, Magyarország","Country":"HUN","State":"Heves","County":"Gyöngyösi Járás","City":"Gyöngyös","District":"Gyöngyös","Street":"Kertész utca","PostalCode":"3200","AdditionalData":[{"value":"Magyarország","key":"CountryName"},{"value":"Heves","key":"StateName"},{"value":"Gyöngyösi Járás","key":"CountyName"}]},"MapReference":{"ReferenceId":"708511890","Spot":0.0,"SideOfStreet":"right","CountryId":"20613038","StateId":"20617771","CountyId":"26678493","CityId":"20617892","DistrictId":"26679248"}}},{"Relevance":1.0,"Distance":29.9,"MatchLevel":"street","MatchQuality":{"Country":1.0,"State":1.0,"County":1.0,"City":1.0,"District":1.0,"Street":[1.0],"PostalCode":1.0},"Location":{"LocationId":"NT_4C1vd0gvfQG0NQ.0nU-EzB_l_1089890959_R","LocationType":"point","DisplayPosition":{"Latitude":47.77806,"Longitude":19.9196},"MapView":{"TopLeft":{"Latitude":47.77809,"Longitude":19.9195},"BottomRight":{"Latitude":47.77806,"Longitude":19.9196}},"Address":{"Label":"Kertész utca, Gyöngyös 3200, Magyarország","Country":"HUN","State":"Heves","County":"Gyöngyösi Járás","City":"Gyöngyös","District":"Gyöngyös","Street":"Kertész utca","PostalCode":"3200","AdditionalData":[{"value":"Magyarország","key":"CountryName"},{"value":"Heves","key":"StateName"},{"value":"Gyöngyösi Járás","key":"CountyName"}]},"MapReference":{"ReferenceId":"1089890959","Spot":0.0,"SideOfStreet":"right","CountryId":"20613038","StateId":"20617771","CountyId":"26678493","CityId":"20617892","DistrictId":"26679248"}}},{"Relevance":1.0,"Distance":29.9,"MatchLevel":"street","MatchQuality":{"Country":1.0,"State":1.0,"County":1.0,"City":1.0,"District":1.0,"PostalCode":1.0},"Location":{"LocationId":"NT_mzBYeK3jCc-6465M6sIW-A_l_1122907631_R","LocationType":"point","DisplayPosition":{"Latitude":47.77806,"Longitude":19.9196},"MapView":{"TopLeft":{"Latitude":47.77806,"Longitude":19.9196},"BottomRight":{"Latitude":47.77796,"Longitude":19.91968}},"Address":{"Label":"Gyöngyös 3200, Magyarország","Country":"HUN","State":"Heves","County":"Gyöngyösi Járás","City":"Gyöngyös","District":"Gyöngyös","PostalCode":"3200","AdditionalData":[{"value":"Magyarország","key":"CountryName"},{"value":"Heves","key":"StateName"},{"value":"Gyöngyösi Járás","key":"CountyName"}]},"MapReference":{"ReferenceId":"1122907631","Spot":1.0,"SideOfStreet":"right","CountryId":"20613038","StateId":"20617771","CountyId":"26678493","CityId":"20617892","DistrictId":"26679248"}}},{"Relevance":1.0,"Distance":31.3,"MatchLevel":"street","MatchQuality":{"Country":1.0,"State":1.0,"County":1.0,"City":1.0,"District":1.0,"PostalCode":1.0},"Location":{"LocationId":"NT_mzBYeK3jCc-6465M6sIW-A_l_1122907632_L","LocationType":"point","DisplayPosition":{"Latitude":47.77805,"Longitude":19.91983},"MapView":{"TopLeft":{"Latitude":47.77805,"Longitude":19.91968},"BottomRight":{"Latitude":47.77796,"Longitude":19.91983}},"Address":{"Label":"Gyöngyös 3200, Magyarország","Country":"HUN","State":"Heves","County":"Gyöngyösi Járás","City":"Gyöngyös","District":"Gyöngyös","PostalCode":"3200","AdditionalData":[{"value":"Magyarország","key":"CountryName"},{"value":"Heves","key":"StateName"},{"value":"Gyöngyösi Járás","key":"CountyName"}]},"MapReference":{"ReferenceId":"1122907632","Spot":1.0,"SideOfStreet":"left","CountryId":"20613038","StateId":"20617771","CountyId":"26678493","CityId":"20617892","DistrictId":"26679248"}}},{"Relevance":1.0,"Distance":33.5,"MatchLevel":"houseNumber","MatchQuality":{"Country":1.0,"State":1.0,"County":1.0,"City":1.0,"District":1.0,"Street":[1.0],"HouseNumber":1.0,"PostalCode":1.0},"MatchType":"interpolated","Location":{"LocationId":"NT_BP8m.u.f-GX.ym4saH4h.C_yA","LocationType":"point","DisplayPosition":{"Latitude":47.77874,"Longitude":19.91981},"MapView":{"TopLeft":{"Latitude":47.7798642,"Longitude":19.9181371},"BottomRight":{"Latitude":47.7776158,"Longitude":19.9214829}},"Address":{"Label":"Határ utca 2, Gyöngyös 3200, Magyarország","Country":"HUN","State":"Heves","County":"Gyöngyösi Járás","City":"Gyöngyös","District":"Gyöngyös","Street":"Határ utca","HouseNumber":"2","PostalCode":"3200","AdditionalData":[{"value":"Magyarország","key":"CountryName"},{"value":"Heves","key":"StateName"},{"value":"Gyöngyösi Járás","key":"CountyName"}]},"MapReference":{"ReferenceId":"708511816","Spot":0.07,"SideOfStreet":"left","CountryId":"20613038","StateId":"20617771","CountyId":"26678493","CityId":"20617892","DistrictId":"26679248","AddressId":"356198955","RoadLinkId":"113800514"}}}]}]}}