{"Response":{"MetaInfo":{"Timestamp":"2020-03-28T10:56:48.970+0000","NextPageInformation":"2"},"View":[{"_type":"SearchResultsViewType","ViewId":0,"Result":[{"Relevance":1.0,"Distance":0.0,"Direction":0.0,"MatchLevel":"district","MatchQuality":{"Country":1.0,"State":1.0,"County":1.0,"City":1.0,"District":1.0,"PostalCode":1.0},"Location":{"LocationId":"NT_D0mQf5c.SDx2k2s0VNdqJA","LocationType":"point","DisplayPosition":{"Latitude":47.7594537,"Longitude":8.8201309},"MapView":{"TopLeft":{"Latitude":47.77964,"Longitude":8.81606},"BottomRight":{"Latitude":47.74109,"Longitude":8.89506}},"Address":{"Label":"Singen (Hohentwiel), Baden-Württemberg, Deutschland","Country":"DEU","State":"Baden-Württemberg","County":"Konstanz","City":"Singen (Hohentwiel)","District":"Singen (Hohentwiel)","PostalCode":"78224","AdditionalData":[{"value":"Deutschland","key":"CountryName"},{"value":"Baden-Württemberg","key":"StateName"},{"value":"Konstanz","key":"CountyName"}]},"MapReference":{"ReferenceId":"540908246","SideOfStreet":"neither","CountryId":"20147700","StateId":"20171489","CountyId":"20175328","CityId":"20175420","DistrictId":"20175426"}}},{"Relevance":1.0,"Distance":22.1,"MatchLevel":"houseNumber","MatchQuality":{"Country":1.0,"State":1.0,"County":1.0,"City":1.0,"District":1.0,"Street":[1.0],"HouseNumber":1.0,"PostalCode":1.0},"MatchType":"interpolated","Location":{"LocationId":"NT_kBa-mgxpduif0BjuyMyolA_zA","LocationType":"point","DisplayPosition":{"Latitude":47.75907,"Longitude":8.81906},"MapView":{"TopLeft":{"Latitude":47.7601942,"Longitude":8.8173878},"BottomRight":{"Latitude":47.7579458,"Longitude":8.8207322}},"Address":{"Label":"Sonnenrain 3, 78224 Singen (Hohentwiel), Deutschland","Country":"DEU","State":"Baden-Württemberg","County":"Konstanz","City":"Singen (Hohentwiel)","District":"Singen (Hohentwiel)","Street":"Sonnenrain","HouseNumber":"3","PostalCode":"78224","AdditionalData":[{"value":"Deutschland","key":"CountryName"},{"value":"Baden-Württemberg","key":"StateName"},{"value":"Konstanz","key":"CountyName"}]},"MapReference":{"ReferenceId":"67332554","Spot":1.0,"SideOfStreet":"left","CountryId":"20147700","StateId":"20171489","CountyId":"20175328","CityId":"20175420","DistrictId":"20175426","AddressId":"249697245","RoadLinkId":"38837328"}}},{"Relevance":1.0,"Distance":33.2,"MatchLevel":"houseNumber","MatchQuality":{"Country":1.0,"State":1.0,"County":1.0,"City":1.0,"District":1.0,"Street":[1.0],"HouseNumber":1.0,"PostalCode":1.0},"MatchType":"interpolated","Location":{"LocationId":"NT_-i1wxSrPd3Eq6KwseLgFvC_yA","LocationType":"point","DisplayPosition":{"Latitude":47.75882,"Longitude":8.8196},"MapView":{"TopLeft":{"Latitude":47.7599442,"Longitude":8.8179278},"BottomRight":{"Latitude":47.7576958,"Longitude":8.8212722}},"Address":{"Label":"Am Olgaberg 2, 78224 Singen (Hohentwiel), Deutschland","Country":"DEU","State":"Baden-Württemberg","County":"Konstanz","City":"Singen (Hohentwiel)","District":"Singen (Hohentwiel)","Street":"Am Olgaberg","HouseNumber":"2","PostalCode":"78224","AdditionalData":[{"value":"Deutschland","key":"CountryName"},{"value":"Baden-Württemberg","key":"StateName"},{"value":"Konstanz","key":"CountyName"}]},"MapReference":{"ReferenceId":"67332524","Spot":0.85,"SideOfStreet":"right","CountryId":"20147700","StateId":"20171489","CountyId":"20175328","CityId":"20175420","DistrictId":"20175426","AddressId":"732646795","RoadLinkId":"38855639"}}},{"Relevance":1.0,"Distance":53.0,"MatchLevel":"street","MatchQuality":{"Country":1.0,"State":1.0,"County":1.0,"City":1.0,"District":1.0,"Street":[1.0],"PostalCode":1.0},"Location":{"LocationId":"NT_2zgOjwitJ0eN825xw1seJA_l_76849653_L","LocationType":"point","DisplayPosition":{"Latitude":47.75907,"Longitude":8.81971},"MapView":{"TopLeft":{"Latitude":47.75907,"Longitude":8.81949},"BottomRight":{"Latitude":47.75889,"Longitude":8.81971}},"Address":{"Label":"Virchowstraße, 78224 Singen (Hohentwiel), Deutschland","Country":"DEU","State":"Baden-Württemberg","County":"Konstanz","City":"Singen (Hohentwiel)","District":"Singen (Hohentwiel)","Street":"Virchowstraße","PostalCode":"78224","AdditionalData":[{"value":"Deutschland","key":"CountryName"},{"value":"Baden-Württemberg","key":"StateName"},{"value":"Konstanz","key":"CountyName"}]},"MapReference":{"ReferenceId":"76849653","Spot":1.0,"SideOfStreet":"left","CountryId":"20147700","StateId":"20171489","CountyId":"20175328","CityId":"20175420","DistrictId":"20175426"}}},{"Relevance":1.0,"Distance":78.9,"MatchLevel":"street","MatchQuality":{"Country":1.0,"State":1.0,"County":1.0,"City":1.0,"District":1.0,"Street":[1.0],"PostalCode":1.0},"Location":{"LocationId":"NT_-i1wxSrPd3Eq6KwseLgFvC_l_67332949_R","LocationType":"point","DisplayPosition":{"Latitude":47.75889,"Longitude":8.81949},"MapView":{"TopLeft":{"Latitude":47.75907,"Longitude":8.81906},"BottomRight":{"Latitude":47.75889,"Longitude":8.81949}},"Address":{"Label":"Am Olgaberg, 78224 Singen (Hohentwiel), Deutschland","Country":"DEU","State":"Baden-Württemberg","County":"Konstanz","City":"Singen (Hohentwiel)","District":"Singen (Hohentwiel)","Street":"Am Olgaberg","PostalCode":"78224","AdditionalData":[{"value":"Deutschland","key":"CountryName"},{"value":"Baden-Württemberg","key":"StateName"},{"value":"Konstanz","key":"CountyName"}]},"MapReference":{"ReferenceId":"67332949","Spot":0.0,"SideOfStreet":"right","CountryId":"20147700","StateId":"20171489","CountyId":"20175328","CityId":"20175420","DistrictId":"20175426"}}},{"Relevance":1.0,"Distance":92.5,"MatchLevel":"houseNumber","MatchQuality":{"Country":1.0,"State":1.0,"County":1.0,"City":1.0,"District":1.0,"Street":[1.0],"HouseNumber":1.0,"PostalCode":1.0},"MatchType":"interpolated","Location":{"LocationId":"NT_2zgOjwitJ0eN825xw1seJA_xAD","LocationType":"point","DisplayPosition":{"Latitude":47.7601,"Longitude":8.82091},"MapView":{"TopLeft":{"Latitude":47.7612242,"Longitude":8.8192377},"BottomRight":{"Latitude":47.7589758,"Longitude":8.8225823}},"Address":{"Label":"Virchowstraße 10, 78224 Singen (Hohentwiel), Deutschland","Country":"DEU","State":"Baden-Württemberg","County":"Konstanz","City":"Singen (Hohentwiel)","District":"Singen (Hohentwiel)","Street":"Virchowstraße","HouseNumber":"10","PostalCode":"78224","AdditionalData":[{"value":"Deutschland","key":"CountryName"},{"value":"Baden-Württemberg","key":"StateName"},{"value":"Konstanz","key":"CountyName"}]},"MapReference":{"ReferenceId":"76849652","Spot":0.32,"SideOfStreet":"right","CountryId":"20147700","StateId":"20171489","CountyId":"20175328","CityId":"20175420","DistrictId":"20175426","AddressId":"179769373","RoadLinkId":"38291866"}}},{"Relevance":1.0,"Distance":96.7,"MatchLevel":"houseNumber","MatchQuality":{"Country":1.0,"State":1.0,"County":1.0,"City":1.0,"District":1.0,"Street":[1.0],"HouseNumber":1.0,"PostalCode":1.0},"MatchType":"interpolated","Location":{"LocationId":"NT_U9SCybUTN9SLkEg8d9Ry0C_xA","LocationType":"point","DisplayPosition":{"Latitude":47.75898,"Longitude":8.81897},"MapView":{"TopLeft":{"Latitude":47.7601042,"Longitude":8.8172978},"BottomRight":{"Latitude":47.7578558,"Longitude":8.8206422}},"Address":{"Label":"An der Halde 1, 78224 Singen (Hohentwiel), Deutschland","Country":"DEU","State":"Baden-Württemberg","County":"Konstanz","City":"Singen (Hohentwiel)","District":"Singen (Hohentwiel)","Street":"An der Halde","HouseNumber":"1","PostalCode":"78224","AdditionalData":[{"value":"Deutschland","key":"CountryName"},{"value":"Baden-Württemberg","key":"StateName"},{"value":"Konstanz","key":"CountyName"}]},"MapReference":{"ReferenceId":"67332830","Spot":0.91,"SideOfStreet":"right","CountryId":"20147700","StateId":"20171489","CountyId":"20175328","CityId":"20175420","DistrictId":"20175426","AddressId":"180060295","RoadLinkId":"38198180"}}},{"Relevance":1.0,"Distance":135.6,"MatchLevel":"houseNumber","MatchQuality":{"Country":1.0,"State":1.0,"County":1.0,"City":1.0,"District":1.0,"Street":[1.0],"HouseNumber":1.0,"PostalCode":1.0},"MatchType":"interpolated","Location":{"LocationId":"NT_2zgOjwitJ0eN825xw1seJA_xQD","LocationType":"point","DisplayPosition":{"Latitude":47.75815,"Longitude":8.81953},"MapView":{"TopLeft":{"Latitude":47.7592742,"Longitude":8.8178578},"BottomRight":{"Latitude":47.7570258,"Longitude":8.8212022}},"Address":{"Label":"Virchowstraße 14, 78224 Singen (Hohentwiel), Deutschland","Country":"DEU","State":"Baden-Württemberg","County":"Konstanz","City":"Singen (Hohentwiel)","District":"Singen (Hohentwiel)","Street":"Virchowstraße","HouseNumber":"14","PostalCode":"78224","AdditionalData":[{"value":"Deutschland","key":"CountryName"},{"value":"Baden-Württemberg","key":"StateName"},{"value":"Konstanz","key":"CountyName"}]},"MapReference":{"ReferenceId":"67332708","Spot":0.66,"SideOfStreet":"left","CountryId":"20147700","StateId":"20171489","CountyId":"20175328","CityId":"20175420","DistrictId":"20175426","AddressId":"177872281","RoadLinkId":"38144065"}}},{"Relevance":1.0,"Distance":136.5,"MatchLevel":"houseNumber","MatchQuality":{"Country":1.0,"State":1.0,"County":1.0,"City":1.0,"District":1.0,"Street":[1.0],"HouseNumber":1.0,"PostalCode":1.0},"MatchType":"interpolated","Location":{"LocationId":"NT_2zgOjwitJ0eN825xw1seJA_2EE","LocationType":"point","DisplayPosition":{"Latitude":47.75804,"Longitude":8.82028},"MapView":{"TopLeft":{"Latitude":47.7591642,"Longitude":8.8186078},"BottomRight":{"Latitude":47.7569158,"Longitude":8.8219522}},"Address":{"Label":"Virchowstraße 6A, 78224 Singen (Hohentwiel), Deutschland","Country":"DEU","State":"Baden-Württemberg","County":"Konstanz","City":"Singen (Hohentwiel)","District":"Singen (Hohentwiel)","Street":"Virchowstraße","HouseNumber":"6A","PostalCode":"78224","AdditionalData":[{"value":"Deutschland","key":"CountryName"},{"value":"Baden-Württemberg","key":"StateName"},{"value":"Konstanz","key":"CountyName"}]},"MapReference":{"ReferenceId":"1004005691","Spot":0.52,"SideOfStreet":"right","CountryId":"20147700","StateId":"20171489","CountyId":"20175328","CityId":"20175420","DistrictId":"20175426","AddressId":"178720843","RoadLinkId":"329812584"}}},{"Relevance":1.0,"Distance":141.4,"MatchLevel":"houseNumber","MatchQuality":{"Country":1.0,"State":1.0,"County":1.0,"City":1.0,"District":1.0,"Street":[1.0],"HouseNumber":1.0,"PostalCode":1.0},"MatchType":"interpolated","Location":{"LocationId":"NT_2zgOjwitJ0eN825xw1seJA_xID","LocationType":"point","DisplayPosition":{"Latitude":47.75851,"Longitude":8.82176},"MapView":{"TopLeft":{"Latitude":47.7596342,"Longitude":8.8200878},"BottomRight":{"Latitude":47.7573858,"Longitude":8.8234322}},"Address":{"Label":"Virchowstraße 12, 78224 Singen (Hohentwiel), Deutschland","Country":"DEU","State":"Baden-Württemberg","County":"Konstanz","City":"Singen (Hohentwiel)","District":"Singen (Hohentwiel)","Street":"Virchowstraße","HouseNumber":"12","PostalCode":"78224","AdditionalData":[{"value":"Deutschland","key":"CountryName"},{"value":"Baden-Württemberg","key":"StateName"},{"value":"Konstanz","key":"CountyName"}]},"MapReference":{"ReferenceId":"76849651","Spot":0.06,"SideOfStreet":"left","CountryId":"20147700","StateId":"20171489","CountyId":"20175328","CityId":"20175420","DistrictId":"20175426","AddressId":"179923466","RoadLinkId":"38409964"}}}]}]}}