{"Response":{"MetaInfo":{"Timestamp":"2020-03-28T09:33:42.495+0000","NextPageInformation":"2"},"View":[{"_type":"SearchResultsViewType","ViewId":0,"Result":[{"Relevance":1.0,"Distance":0.0,"Direction":0.0,"MatchLevel":"city","MatchQuality":{"Country":1.0,"State":1.0,"County":1.0,"City":1.0,"PostalCode":1.0},"Location":{"LocationId":"NT_nc-EQkSiRuQPngkxK57WaC","LocationType":"point","DisplayPosition":{"Latitude":47.7157888,"Longitude":13.5807328},"MapView":{"TopLeft":{"Latitude":47.81511,"Longitude":13.51707},"BottomRight":{"Latitude":47.65506,"Longitude":13.77887}},"Address":{"Label":"Bad Ischl, Oberösterreich, Österreich","Country":"AUT","State":"Oberösterreich","County":"Gmunden","City":"Bad Ischl","PostalCode":"4820","AdditionalData":[{"value":"Österreich","key":"CountryName"},{"value":"Oberösterreich","key":"StateName"},{"value":"Gmunden","key":"CountyName"}]},"MapReference":{"ReferenceId":"80872609","SideOfStreet":"neither","CountryId":"20128885","StateId":"20132880","CountyId":"20133210","CityId":"20133219"}}},{"Relevance":1.0,"Distance":53.7,"MatchLevel":"houseNumber","MatchQuality":{"Country":1.0,"State":1.0,"County":1.0,"City":1.0,"Street":[1.0],"HouseNumber":1.0,"PostalCode":1.0},"MatchType":"interpolated","Location":{"LocationId":"NT_4C4UonSOV63KCllkadMtQC_0QD","LocationType":"point","DisplayPosition":{"Latitude":47.71489,"Longitude":13.58129},"MapView":{"TopLeft":{"Latitude":47.7160142,"Longitude":13.5796192},"BottomRight":{"Latitude":47.7137658,"Longitude":13.5829608}},"Address":{"Label":"Untere Lindaustraße 44, 4820 Bad Ischl, Österreich","Country":"AUT","State":"Oberösterreich","County":"Gmunden","City":"Bad Ischl","Street":"Untere Lindaustraße","HouseNumber":"44","PostalCode":"4820","AdditionalData":[{"value":"Österreich","key":"CountryName"},{"value":"Oberösterreich","key":"StateName"},{"value":"Gmunden","key":"CountyName"}]},"MapReference":{"ReferenceId":"80871853","Spot":0.48,"SideOfStreet":"left","CountryId":"20128885","StateId":"20132880","CountyId":"20133210","CityId":"20133219","AddressId":"161740024","RoadLinkId":"288668543"}}},{"Relevance":1.0,"Distance":127.4,"MatchLevel":"landmark","MatchQuality":{"Country":1.0,"Name":1.0},"Location":{"LocationId":"NT_qmx.0B6dU79cEk652jNoKA","LocationType":"river","Name":"Ischl","DisplayPosition":{"Latitude":47.71607,"Longitude":13.57336},"MapView":{"TopLeft":{"Latitude":47.72034,"Longitude":13.51681},"BottomRight":{"Latitude":47.71219,"Longitude":13.62674}},"Address":{"Label":"Österreich","Country":"AUT","AdditionalData":[{"value":"Österreich","key":"CountryName"}]},"MapReference":{"CountryId":"20128885","PlaceId":"769599232"}}},{"Relevance":1.0,"Distance":136.4,"MatchLevel":"houseNumber","MatchQuality":{"Country":1.0,"State":1.0,"County":1.0,"City":1.0,"Street":[1.0],"HouseNumber":1.0,"PostalCode":1.0},"MatchType":"interpolated","Location":{"LocationId":"NT_4C4UonSOV63KCllkadMtQC_0YD","LocationType":"point","DisplayPosition":{"Latitude":47.71457,"Longitude":13.58053},"MapView":{"TopLeft":{"Latitude":47.7156942,"Longitude":13.5788592},"BottomRight":{"Latitude":47.7134458,"Longitude":13.5822008}},"Address":{"Label":"Untere Lindaustraße 46, 4820 Bad Ischl, Österreich","Country":"AUT","State":"Oberösterreich","County":"Gmunden","City":"Bad Ischl","Street":"Untere Lindaustraße","HouseNumber":"46","PostalCode":"4820","AdditionalData":[{"value":"Österreich","key":"CountryName"},{"value":"Oberösterreich","key":"StateName"},{"value":"Gmunden","key":"CountyName"}]},"MapReference":{"ReferenceId":"939847724","Spot":0.81,"SideOfStreet":"left","CountryId":"20128885","StateId":"20132880","CountyId":"20133210","CityId":"20133219","AddressId":"161738907","RoadLinkId":"289830663"}}},{"Relevance":1.0,"Distance":158.2,"MatchLevel":"street","MatchQuality":{"Country":1.0,"State":1.0,"County":1.0,"City":1.0,"Street":[1.0],"PostalCode":1.0},"Location":{"LocationId":"NT_4C4UonSOV63KCllkadMtQC_l_939847723_L","LocationType":"point","DisplayPosition":{"Latitude":47.71439,"Longitude":13.58112},"MapView":{"TopLeft":{"Latitude":47.71439,"Longitude":13.58091},"BottomRight":{"Latitude":47.71429,"Longitude":13.58112}},"Address":{"Label":"Untere Lindaustraße, 4820 Bad Ischl, Österreich","Country":"AUT","State":"Oberösterreich","County":"Gmunden","City":"Bad Ischl","Street":"Untere Lindaustraße","PostalCode":"4820","AdditionalData":[{"value":"Österreich","key":"CountryName"},{"value":"Oberösterreich","key":"StateName"},{"value":"Gmunden","key":"CountyName"}]},"MapReference":{"ReferenceId":"939847723","Spot":1.0,"SideOfStreet":"left","CountryId":"20128885","StateId":"20132880","CountyId":"20133210","CityId":"20133219"}}},{"Relevance":1.0,"Distance":160.2,"MatchLevel":"houseNumber","MatchQuality":{"Country":1.0,"State":1.0,"County":1.0,"City":1.0,"Street":[1.0],"HouseNumber":1.0,"PostalCode":1.0},"MatchType":"interpolated","Location":{"LocationId":"NT_4C4UonSOV63KCllkadMtQC_0ID","LocationType":"point","DisplayPosition":{"Latitude":47.71434,"Longitude":13.58154},"MapView":{"TopLeft":{"Latitude":47.7154642,"Longitude":13.5798692},"BottomRight":{"Latitude":47.7132158,"Longitude":13.5832108}},"Address":{"Label":"Untere Lindaustraße 42, 4820 Bad Ischl, Österreich","Country":"AUT","State":"Oberösterreich","County":"Gmunden","City":"Bad Ischl","Street":"Untere Lindaustraße","HouseNumber":"42","PostalCode":"4820","AdditionalData":[{"value":"Österreich","key":"CountryName"},{"value":"Oberösterreich","key":"StateName"},{"value":"Gmunden","key":"CountyName"}]},"MapReference":{"ReferenceId":"939847721","Spot":0.15,"SideOfStreet":"left","CountryId":"20128885","StateId":"20132880","CountyId":"20133210","CityId":"20133219","AddressId":"161740020","RoadLinkId":"289830658"}}},{"Relevance":1.0,"Distance":176.6,"MatchLevel":"houseNumber","MatchQuality":{"Country":1.0,"State":1.0,"County":1.0,"City":1.0,"Street":[1.0],"HouseNumber":1.0,"PostalCode":1.0},"MatchType":"interpolated","Location":{"LocationId":"NT_4C4UonSOV63KCllkadMtQC_0gD","LocationType":"point","DisplayPosition":{"Latitude":47.71416,"Longitude":13.5804},"MapView":{"TopLeft":{"Latitude":47.7152842,"Longitude":13.5787292},"BottomRight":{"Latitude":47.7130358,"Longitude":13.5820708}},"Address":{"Label":"Untere Lindaustraße 48, 4820 Bad Ischl, Österreich","Country":"AUT","State":"Oberösterreich","County":"Gmunden","City":"Bad Ischl","Street":"Untere Lindaustraße","HouseNumber":"48","PostalCode":"4820","AdditionalData":[{"value":"Österreich","key":"CountryName"},{"value":"Oberösterreich","key":"StateName"},{"value":"Gmunden","key":"CountyName"}]},"MapReference":{"ReferenceId":"939847726","Spot":0.7,"SideOfStreet":"left","CountryId":"20128885","StateId":"20132880","CountyId":"20133210","CityId":"20133219","AddressId":"161738908","RoadLinkId":"289830665"}}},{"Relevance":1.0,"Distance":198.4,"MatchLevel":"houseNumber","MatchQuality":{"Country":1.0,"State":1.0,"County":1.0,"City":1.0,"Street":[1.0],"HouseNumber":1.0,"PostalCode":1.0},"MatchType":"interpolated","Location":{"LocationId":"NT_4C4UonSOV63KCllkadMtQC_0gTY","LocationType":"point","DisplayPosition":{"Latitude":47.71405,"Longitude":13.57919},"MapView":{"TopLeft":{"Latitude":47.7151742,"Longitude":13.5775192},"BottomRight":{"Latitude":47.7129258,"Longitude":13.5808608}},"Address":{"Label":"Untere Lindaustraße 48a, 4820 Bad Ischl, Österreich","Country":"AUT","State":"Oberösterreich","County":"Gmunden","City":"Bad Ischl","Street":"Untere Lindaustraße","HouseNumber":"48a","PostalCode":"4820","AdditionalData":[{"value":"Österreich","key":"CountryName"},{"value":"Oberösterreich","key":"StateName"},{"value":"Gmunden","key":"CountyName"}]},"MapReference":{"ReferenceId":"939847727","Spot":1.0,"SideOfStreet":"right","CountryId":"20128885","StateId":"20132880","CountyId":"20133210","CityId":"20133219","AddressId":"728987749","RoadLinkId":"289830668"}}},{"Relevance":1.0,"Distance":206.2,"MatchLevel":"street","MatchQuality":{"Country":1.0,"State":1.0,"County":1.0,"City":1.0,"Street":[1.0],"PostalCode":1.0},"Location":{"LocationId":"NT_8OjdaAfJeeFlabXQE7eAkC_l_1130286250_R","LocationType":"point","DisplayPosition":{"Latitude":47.71763,"Longitude":13.58041},"MapView":{"TopLeft":{"Latitude":47.71763,"Longitude":13.57983},"BottomRight":{"Latitude":47.71755,"Longitude":13.58041}},"Address":{"Label":"Haiden, 4820 Bad Ischl, Österreich","Country":"AUT","State":"Oberösterreich","County":"Gmunden","City":"Bad Ischl","Street":"Haiden","PostalCode":"4820","AdditionalData":[{"value":"Österreich","key":"CountryName"},{"value":"Oberösterreich","key":"StateName"},{"value":"Gmunden","key":"CountyName"}]},"MapReference":{"ReferenceId":"1130286250","Spot":1.0,"SideOfStreet":"right","CountryId":"20128885","StateId":"20132880","CountyId":"20133210","CityId":"20133219"}}},{"Relevance":1.0,"Distance":206.6,"MatchLevel":"street","MatchQuality":{"Country":1.0,"State":1.0,"County":1.0,"City":1.0,"Street":[1.0],"PostalCode":1.0},"Location":{"LocationId":"NT_8OjdaAfJeeFlabXQE7eAkC_l_1128574218_R","LocationType":"point","DisplayPosition":{"Latitude":47.7176384,"Longitude":13.5804686},"MapView":{"TopLeft":{"Latitude":47.71768,"Longitude":13.58041},"BottomRight":{"Latitude":47.71763,"Longitude":13.58076}},"Address":{"Label":"Haiden, 4820 Bad Ischl, Österreich","Country":"AUT","State":"Oberösterreich","County":"Gmunden","City":"Bad Ischl","Street":"Haiden","PostalCode":"4820","AdditionalData":[{"value":"Österreich","key":"CountryName"},{"value":"Oberösterreich","key":"StateName"},{"value":"Gmunden","key":"CountyName"}]},"MapReference":{"ReferenceId":"1128574218","Spot":0.17,"SideOfStreet":"right","CountryId":"20128885","StateId":"20132880","CountyId":"20133210","CityId":"20133219"}}}]}]}}