{"Response":{"MetaInfo":{"Timestamp":"2020-03-28T10:15:13.602+0000","NextPageInformation":"2"},"View":[{"_type":"SearchResultsViewType","ViewId":0,"Result":[{"Relevance":1.0,"Distance":0.0,"Direction":0.0,"MatchLevel":"district","MatchQuality":{"Country":1.0,"State":1.0,"County":1.0,"City":1.0,"District":1.0,"PostalCode":1.0},"Location":{"LocationId":"NT_.2kyhXFUo6u2GRNJUC.yvC","LocationType":"point","DisplayPosition":{"Latitude":47.7747349,"Longitude":13.040205},"MapView":{"TopLeft":{"Latitude":47.78644,"Longitude":13.035},"BottomRight":{"Latitude":47.75346,"Longitude":13.07297}},"Address":{"Label":"Morzg, Salzburg, Österreich","Country":"AUT","State":"Salzburg","County":"Salzburg","City":"Salzburg","District":"Morzg","PostalCode":"5020","AdditionalData":[{"value":"Österreich","key":"CountryName"},{"value":"Salzburg","key":"StateName"},{"value":"Salzburg","key":"CountyName"}]},"MapReference":{"ReferenceId":"55899801","SideOfStreet":"neither","CountryId":"20128885","StateId":"20134400","CountyId":"20134401","CityId":"20134402"}}},{"Relevance":1.0,"Distance":9.6,"MatchLevel":"houseNumber","MatchQuality":{"Country":1.0,"State":1.0,"County":1.0,"City":1.0,"District":1.0,"Street":[1.0],"HouseNumber":1.0,"PostalCode":1.0},"MatchType":"interpolated","Location":{"LocationId":"NT_XflHAqdc.rDfir3AVF8PTA_xAD","LocationType":"point","DisplayPosition":{"Latitude":47.77454,"Longitude":13.04008},"MapView":{"TopLeft":{"Latitude":47.7756642,"Longitude":13.0384073},"BottomRight":{"Latitude":47.7734158,"Longitude":13.0417527}},"Address":{"Label":"Höglwörthweg 10, 5020 Salzburg, Österreich","Country":"AUT","State":"Salzburg","County":"Salzburg","City":"Salzburg","District":"Morzg","Street":"Höglwörthweg","HouseNumber":"10","PostalCode":"5020","AdditionalData":[{"value":"Österreich","key":"CountryName"},{"value":"Salzburg","key":"StateName"},{"value":"Salzburg","key":"CountyName"}]},"MapReference":{"ReferenceId":"55899974","Spot":0.54,"SideOfStreet":"right","CountryId":"20128885","StateId":"20134400","CountyId":"20134401","CityId":"20134402","AddressId":"160968944","RoadLinkId":"28476965"}}},{"Relevance":1.0,"Distance":35.4,"MatchLevel":"street","MatchQuality":{"Country":1.0,"State":1.0,"County":1.0,"City":1.0,"District":1.0,"Street":[1.0],"PostalCode":1.0},"Location":{"LocationId":"NT_V9mLPbV4ysksPHPT6zv1UC_l_55899967_R","LocationType":"point","DisplayPosition":{"Latitude":47.7749349,"Longitude":13.0398362},"MapView":{"TopLeft":{"Latitude":47.77537,"Longitude":13.03966},"BottomRight":{"Latitude":47.77461,"Longitude":13.04003}},"Address":{"Label":"Karl-Schönherr-Straße, 5020 Salzburg, Österreich","Country":"AUT","State":"Salzburg","County":"Salzburg","City":"Salzburg","District":"Morzg","Street":"Karl-Schönherr-Straße","PostalCode":"5020","AdditionalData":[{"value":"Österreich","key":"CountryName"},{"value":"Salzburg","key":"StateName"},{"value":"Salzburg","key":"CountyName"}]},"MapReference":{"ReferenceId":"55899967","Spot":0.44,"SideOfStreet":"right","CountryId":"20128885","StateId":"20134400","CountyId":"20134401","CityId":"20134402"}}},{"Relevance":1.0,"Distance":44.4,"MatchLevel":"street","MatchQuality":{"Country":1.0,"State":1.0,"County":1.0,"City":1.0,"District":1.0,"PostalCode":1.0},"Location":{"LocationId":"NT_aXZwyukm79a5UzQsP3NwCC_l_55899973_L","LocationType":"point","DisplayPosition":{"Latitude":47.77442,"Longitude":13.04057},"MapView":{"TopLeft":{"Latitude":47.77667,"Longitude":13.04057},"BottomRight":{"Latitude":47.77442,"Longitude":13.0418}},"Address":{"Label":"5020 Salzburg, Österreich","Country":"AUT","State":"Salzburg","County":"Salzburg","City":"Salzburg","District":"Morzg","PostalCode":"5020","AdditionalData":[{"value":"Österreich","key":"CountryName"},{"value":"Salzburg","key":"StateName"},{"value":"Salzburg","key":"CountyName"}]},"MapReference":{"ReferenceId":"55899973","Spot":0.0,"SideOfStreet":"left","CountryId":"20128885","StateId":"20134400","CountyId":"20134401","CityId":"20134402"}}},{"Relevance":1.0,"Distance":45.7,"MatchLevel":"street","MatchQuality":{"Country":1.0,"State":1.0,"County":1.0,"City":1.0,"District":1.0,"PostalCode":1.0},"Location":{"LocationId":"NT_aXZwyukm79a5UzQsP3NwCC_l_55899997_L","LocationType":"point","DisplayPosition":{"Latitude":47.7743908,"Longitude":13.04054},"MapView":{"TopLeft":{"Latitude":47.77442,"Longitude":13.03998},"BottomRight":{"Latitude":47.77351,"Longitude":13.04057}},"Address":{"Label":"5020 Salzburg, Österreich","Country":"AUT","State":"Salzburg","County":"Salzburg","City":"Salzburg","District":"Morzg","PostalCode":"5020","AdditionalData":[{"value":"Österreich","key":"CountryName"},{"value":"Salzburg","key":"StateName"},{"value":"Salzburg","key":"CountyName"}]},"MapReference":{"ReferenceId":"55899997","Spot":0.96,"SideOfStreet":"left","CountryId":"20128885","StateId":"20134400","CountyId":"20134401","CityId":"20134402"}}},{"Relevance":1.0,"Distance":49.1,"MatchLevel":"houseNumber","MatchQuality":{"Country":1.0,"State":1.0,"County":1.0,"City":1.0,"District":1.0,"Street":[1.0],"HouseNumber":1.0,"PostalCode":1.0},"MatchType":"interpolated","Location":{"LocationId":"NT_XflHAqdc.rDfir3AVF8PTA_xQD","LocationType":"point","DisplayPosition":{"Latitude":47.77467,"Longitude":13.03945},"MapView":{"TopLeft":{"Latitude":47.7757942,"Longitude":13.0377773},"BottomRight":{"Latitude":47.7735458,"Longitude":13.0411227}},"Address":{"Label":"Höglwörthweg 14, 5020 Salzburg, Österreich","Country":"AUT","State":"Salzburg","County":"Salzburg","City":"Salzburg","District":"Morzg","Street":"Höglwörthweg","HouseNumber":"14","PostalCode":"5020","AdditionalData":[{"value":"Österreich","key":"CountryName"},{"value":"Salzburg","key":"StateName"},{"value":"Salzburg","key":"CountyName"}]},"MapReference":{"ReferenceId":"55899968","Spot":0.28,"SideOfStreet":"right","CountryId":"20128885","StateId":"20134400","CountyId":"20134401","CityId":"20134402","AddressId":"160968950","RoadLinkId":"27808393"}}},{"Relevance":1.0,"Distance":58.5,"MatchLevel":"houseNumber","MatchQuality":{"Country":1.0,"State":1.0,"County":1.0,"City":1.0,"District":1.0,"Street":[1.0],"HouseNumber":1.0,"PostalCode":1.0},"MatchType":"interpolated","Location":{"LocationId":"NT_hELxw68.KobveJRWbBaVgC_zA","LocationType":"point","DisplayPosition":{"Latitude":47.77536,"Longitude":13.04017},"MapView":{"TopLeft":{"Latitude":47.7764842,"Longitude":13.0384973},"BottomRight":{"Latitude":47.7742358,"Longitude":13.0418427}},"Address":{"Label":"Ainringweg 3, 5020 Salzburg, Österreich","Country":"AUT","State":"Salzburg","County":"Salzburg","City":"Salzburg","District":"Morzg","Street":"Ainringweg","HouseNumber":"3","PostalCode":"5020","AdditionalData":[{"value":"Österreich","key":"CountryName"},{"value":"Salzburg","key":"StateName"},{"value":"Salzburg","key":"CountyName"}]},"MapReference":{"ReferenceId":"55899945","Spot":0.2,"SideOfStreet":"right","CountryId":"20128885","StateId":"20134400","CountyId":"20134401","CityId":"20134402","AddressId":"160909512","RoadLinkId":"27898751"}}},{"Relevance":1.0,"Distance":66.5,"MatchLevel":"houseNumber","MatchQuality":{"Country":1.0,"State":1.0,"County":1.0,"City":1.0,"District":1.0,"Street":[1.0],"HouseNumber":1.0,"PostalCode":1.0},"MatchType":"interpolated","Location":{"LocationId":"NT_hELxw68.KobveJRWbBaVgC_1A","LocationType":"point","DisplayPosition":{"Latitude":47.77538,"Longitude":13.03985},"MapView":{"TopLeft":{"Latitude":47.7765042,"Longitude":13.0381773},"BottomRight":{"Latitude":47.7742558,"Longitude":13.0415227}},"Address":{"Label":"Ainringweg 5, 5020 Salzburg, Österreich","Country":"AUT","State":"Salzburg","County":"Salzburg","City":"Salzburg","District":"Morzg","Street":"Ainringweg","HouseNumber":"5","PostalCode":"5020","AdditionalData":[{"value":"Österreich","key":"CountryName"},{"value":"Salzburg","key":"StateName"},{"value":"Salzburg","key":"CountyName"}]},"MapReference":{"ReferenceId":"55899940","Spot":0.16,"SideOfStreet":"left","CountryId":"20128885","StateId":"20134400","CountyId":"20134401","CityId":"20134402","AddressId":"160909509","RoadLinkId":"28696036"}}},{"Relevance":1.0,"Distance":68.3,"MatchLevel":"houseNumber","MatchQuality":{"Country":1.0,"State":1.0,"County":1.0,"City":1.0,"District":1.0,"Street":[1.0],"HouseNumber":1.0,"PostalCode":1.0},"MatchType":"interpolated","Location":{"LocationId":"NT_rOd9plXQG0eMm1Cor6MToC_xA","LocationType":"point","DisplayPosition":{"Latitude":47.77467,"Longitude":13.0389},"MapView":{"TopLeft":{"Latitude":47.7757942,"Longitude":13.0372273},"BottomRight":{"Latitude":47.7735458,"Longitude":13.0405727}},"Address":{"Label":"Ulrichshöglweg 1, 5020 Salzburg, Österreich","Country":"AUT","State":"Salzburg","County":"Salzburg","City":"Salzburg","District":"Morzg","Street":"Ulrichshöglweg","HouseNumber":"1","PostalCode":"5020","AdditionalData":[{"value":"Österreich","key":"CountryName"},{"value":"Salzburg","key":"StateName"},{"value":"Salzburg","key":"CountyName"}]},"MapReference":{"ReferenceId":"55899976","Spot":0.79,"SideOfStreet":"right","CountryId":"20128885","StateId":"20134400","CountyId":"20134401","CityId":"20134402","AddressId":"160919369","RoadLinkId":"28832705"}}},{"Relevance":1.0,"Distance":69.2,"MatchLevel":"houseNumber","MatchQuality":{"Country":1.0,"State":1.0,"County":1.0,"City":1.0,"District":1.0,"Street":[1.0],"HouseNumber":1.0,"PostalCode":1.0},"MatchType":"interpolated","Location":{"LocationId":"NT_rOd9plXQG0eMm1Cor6MToC_5A","LocationType":"point","DisplayPosition":{"Latitude":47.77405,"Longitude":13.03947},"MapView":{"TopLeft":{"Latitude":47.7751742,"Longitude":13.0377973},"BottomRight":{"Latitude":47.7729258,"Longitude":13.0411427}},"Address":{"Label":"Ulrichshöglweg 9, 5020 Salzburg, Österreich","Country":"AUT","State":"Salzburg","County":"Salzburg","City":"Salzburg","District":"Morzg","Street":"Ulrichshöglweg","HouseNumber":"9","PostalCode":"5020","AdditionalData":[{"value":"Österreich","key":"CountryName"},{"value":"Salzburg","key":"StateName"},{"value":"Salzburg","key":"CountyName"}]},"MapReference":{"ReferenceId":"55899995","Spot":0.42,"SideOfStreet":"right","CountryId":"20128885","StateId":"20134400","CountyId":"20134401","CityId":"20134402","AddressId":"160919363","RoadLinkId":"27859343"}}}]}]}}