{"Response":{"MetaInfo":{"Timestamp":"2020-03-28T10:43:17.233+0000","NextPageInformation":"2"},"View":[{"_type":"SearchResultsViewType","ViewId":0,"Result":[{"Relevance":1.0,"Distance":0.0,"Direction":0.0,"MatchLevel":"district","MatchQuality":{"Country":1.0,"State":1.0,"County":1.0,"City":1.0,"District":1.0,"PostalCode":1.0},"Location":{"LocationId":"NT_BJW4N6FNQkQRXmyzDDQA6C","LocationType":"point","DisplayPosition":{"Latitude":47.7867089,"Longitude":19.9304208},"MapView":{"TopLeft":{"Latitude":47.80192,"Longitude":19.90556},"BottomRight":{"Latitude":47.75762,"Longitude":19.95374}},"Address":{"Label":"Gyöngyös, Heves, Magyarország","Country":"HUN","State":"Heves","County":"Gyöngyösi Járás","City":"Gyöngyös","District":"Gyöngyös","PostalCode":"3200","AdditionalData":[{"value":"Magyarország","key":"CountryName"},{"value":"Heves","key":"StateName"},{"value":"Gyöngyösi Járás","key":"CountyName"}]},"MapReference":{"ReferenceId":"709419172","SideOfStreet":"neither","CountryId":"20613038","StateId":"20617771","CountyId":"26678493","CityId":"20617892","DistrictId":"26679248"}}},{"Relevance":1.0,"Distance":32.1,"MatchLevel":"houseNumber","MatchQuality":{"Country":1.0,"State":1.0,"County":1.0,"City":1.0,"District":1.0,"Street":[1.0],"HouseNumber":1.0,"PostalCode":1.0},"MatchType":"interpolated","Location":{"LocationId":"NT_9QQDPhXLSnaQqnmF8cPUhD_xYD","LocationType":"point","DisplayPosition":{"Latitude":47.78678,"Longitude":19.93103},"MapView":{"TopLeft":{"Latitude":47.7879042,"Longitude":19.9293569},"BottomRight":{"Latitude":47.7856558,"Longitude":19.9327031}},"Address":{"Label":"Dózsa György utca 16, Gyöngyös 3200, Magyarország","Country":"HUN","State":"Heves","County":"Gyöngyösi Járás","City":"Gyöngyös","District":"Gyöngyös","Street":"Dózsa György utca","HouseNumber":"16","PostalCode":"3200","AdditionalData":[{"value":"Magyarország","key":"CountryName"},{"value":"Heves","key":"StateName"},{"value":"Gyöngyösi Járás","key":"CountyName"}]},"MapReference":{"ReferenceId":"708510848","Spot":0.45,"SideOfStreet":"left","CountryId":"20613038","StateId":"20617771","CountyId":"26678493","CityId":"20617892","DistrictId":"26679248","AddressId":"357536480","RoadLinkId":"113799549"}}},{"Relevance":1.0,"Distance":46.3,"MatchLevel":"houseNumber","MatchQuality":{"Country":1.0,"State":1.0,"County":1.0,"City":1.0,"District":1.0,"Street":[1.0],"HouseNumber":1.0,"PostalCode":1.0},"MatchType":"interpolated","Location":{"LocationId":"NT_9QQDPhXLSnaQqnmF8cPUhD_xQD","LocationType":"point","DisplayPosition":{"Latitude":47.78656,"Longitude":19.93116},"MapView":{"TopLeft":{"Latitude":47.7876842,"Longitude":19.9294869},"BottomRight":{"Latitude":47.7854358,"Longitude":19.9328331}},"Address":{"Label":"Dózsa György utca 14, Gyöngyös 3200, Magyarország","Country":"HUN","State":"Heves","County":"Gyöngyösi Járás","City":"Gyöngyös","District":"Gyöngyös","Street":"Dózsa György utca","HouseNumber":"14","PostalCode":"3200","AdditionalData":[{"value":"Magyarország","key":"CountryName"},{"value":"Heves","key":"StateName"},{"value":"Gyöngyösi Járás","key":"CountyName"}]},"MapReference":{"ReferenceId":"740893979","Spot":0.89,"SideOfStreet":"left","CountryId":"20613038","StateId":"20617771","CountyId":"26678493","CityId":"20617892","DistrictId":"26679248","AddressId":"355625355","RoadLinkId":"139658591"}}},{"Relevance":1.0,"Distance":51.3,"MatchLevel":"houseNumber","MatchQuality":{"Country":1.0,"State":1.0,"County":1.0,"City":1.0,"District":1.0,"Street":[1.0],"HouseNumber":1.0,"PostalCode":1.0},"MatchType":"interpolated","Location":{"LocationId":"NT_oXekP.IsyCVT4zj7Ql80pA_yAD","LocationType":"point","DisplayPosition":{"Latitude":47.78651,"Longitude":19.92974},"MapView":{"TopLeft":{"Latitude":47.7876342,"Longitude":19.9280669},"BottomRight":{"Latitude":47.7853858,"Longitude":19.9314131}},"Address":{"Label":"Táncsics Mihály utca 20, Gyöngyös 3200, Magyarország","Country":"HUN","State":"Heves","County":"Gyöngyösi Járás","City":"Gyöngyös","District":"Gyöngyös","Street":"Táncsics Mihály utca","HouseNumber":"20","PostalCode":"3200","AdditionalData":[{"value":"Magyarország","key":"CountryName"},{"value":"Heves","key":"StateName"},{"value":"Gyöngyösi Járás","key":"CountyName"}]},"MapReference":{"ReferenceId":"708510882","Spot":0.57,"SideOfStreet":"left","CountryId":"20613038","StateId":"20617771","CountyId":"26678493","CityId":"20617892","DistrictId":"26679248","AddressId":"356856216","RoadLinkId":"113799579"}}},{"Relevance":1.0,"Distance":52.6,"MatchLevel":"houseNumber","MatchQuality":{"Country":1.0,"State":1.0,"County":1.0,"City":1.0,"District":1.0,"Street":[1.0],"HouseNumber":1.0,"PostalCode":1.0},"MatchType":"interpolated","Location":{"LocationId":"NT_9QQDPhXLSnaQqnmF8cPUhD_xMD","LocationType":"point","DisplayPosition":{"Latitude":47.78712,"Longitude":19.93077},"MapView":{"TopLeft":{"Latitude":47.7882442,"Longitude":19.9290969},"BottomRight":{"Latitude":47.7859958,"Longitude":19.9324431}},"Address":{"Label":"Dózsa György utca 13, Gyöngyös 3200, Magyarország","Country":"HUN","State":"Heves","County":"Gyöngyösi Járás","City":"Gyöngyös","District":"Gyöngyös","Street":"Dózsa György utca","HouseNumber":"13","PostalCode":"3200","AdditionalData":[{"value":"Magyarország","key":"CountryName"},{"value":"Heves","key":"StateName"},{"value":"Gyöngyösi Járás","key":"CountyName"}]},"MapReference":{"ReferenceId":"708510807","Spot":0.88,"SideOfStreet":"right","CountryId":"20613038","StateId":"20617771","CountyId":"26678493","CityId":"20617892","DistrictId":"26679248","AddressId":"356635361","RoadLinkId":"113799501"}}},{"Relevance":1.0,"Distance":54.9,"MatchLevel":"landmark","MatchQuality":{"Country":1.0,"State":1.0,"County":1.0,"City":1.0,"District":1.0,"Street":[1.0],"HouseNumber":1.0,"PostalCode":1.0,"Name":1.0},"Location":{"LocationId":"NT_fmvOoTQjZZCgElDvbi1OuD_p_bNogBTXfbB8sHhVSf7kVYA","LocationType":"hospital","Name":"Bugát Pál Kórház","DisplayPosition":{"Latitude":47.78804,"Longitude":19.93},"MapView":{"TopLeft":{"Latitude":47.7891642,"Longitude":19.9283268},"BottomRight":{"Latitude":47.7869158,"Longitude":19.9316732}},"Address":{"Label":"Dózsa György utca 20, Gyöngyös 3200, Magyarország","Country":"HUN","State":"Heves","County":"Gyöngyösi Járás","City":"Gyöngyös","District":"Gyöngyös","Street":"Dózsa György utca","HouseNumber":"20","PostalCode":"3200","AdditionalData":[{"value":"Magyarország","key":"CountryName"},{"value":"Heves","key":"StateName"},{"value":"Gyöngyösi Járás","key":"CountyName"}]},"MapReference":{"CountryId":"20613038","StateId":"20617771","CountyId":"26678493","CityId":"20617892","DistrictId":"26679248","PlaceId":"935592804"}}},{"Relevance":1.0,"Distance":54.9,"MatchLevel":"street","MatchQuality":{"Country":1.0,"State":1.0,"County":1.0,"City":1.0,"District":1.0,"Street":[1.0],"PostalCode":1.0},"Location":{"LocationId":"NT_9QQDPhXLSnaQqnmF8cPUhD_l_740888940_L","LocationType":"point","DisplayPosition":{"Latitude":47.78715,"Longitude":19.93075},"MapView":{"TopLeft":{"Latitude":47.78726,"Longitude":19.93068},"BottomRight":{"Latitude":47.78715,"Longitude":19.93075}},"Address":{"Label":"Dózsa György utca, Gyöngyös 3200, Magyarország","Country":"HUN","State":"Heves","County":"Gyöngyösi Járás","City":"Gyöngyös","District":"Gyöngyös","Street":"Dózsa György utca","PostalCode":"3200","AdditionalData":[{"value":"Magyarország","key":"CountryName"},{"value":"Heves","key":"StateName"},{"value":"Gyöngyösi Járás","key":"CountyName"}]},"MapReference":{"ReferenceId":"740888940","Spot":0.0,"SideOfStreet":"left","CountryId":"20613038","StateId":"20617771","CountyId":"26678493","CityId":"20617892","DistrictId":"26679248"}}},{"Relevance":1.0,"Distance":61.4,"MatchLevel":"houseNumber","MatchQuality":{"Country":1.0,"State":1.0,"County":1.0,"City":1.0,"District":1.0,"Street":[1.0],"HouseNumber":1.0,"PostalCode":1.0},"MatchType":"interpolated","Location":{"LocationId":"NT_inVy0Ghg0MZmC6zyM89IBD_xA","LocationType":"point","DisplayPosition":{"Latitude":47.78695,"Longitude":19.93116},"MapView":{"TopLeft":{"Latitude":47.7880742,"Longitude":19.9294869},"BottomRight":{"Latitude":47.7858258,"Longitude":19.9328331}},"Address":{"Label":"Kovács utca 1, Gyöngyös 3200, Magyarország","Country":"HUN","State":"Heves","County":"Gyöngyösi Járás","City":"Gyöngyös","District":"Gyöngyös","Street":"Kovács utca","HouseNumber":"1","PostalCode":"3200","AdditionalData":[{"value":"Magyarország","key":"CountryName"},{"value":"Heves","key":"StateName"},{"value":"Gyöngyösi Járás","key":"CountyName"}]},"MapReference":{"ReferenceId":"708510833","Spot":0.9,"SideOfStreet":"left","CountryId":"20613038","StateId":"20617771","CountyId":"26678493","CityId":"20617892","DistrictId":"26679248","AddressId":"355142296","RoadLinkId":"113799533"}}},{"Relevance":1.0,"Distance":88.0,"MatchLevel":"houseNumber","MatchQuality":{"Country":1.0,"State":1.0,"County":1.0,"City":1.0,"District":1.0,"Street":[1.0],"HouseNumber":1.0,"PostalCode":1.0},"MatchType":"interpolated","Location":{"LocationId":"NT_9QQDPhXLSnaQqnmF8cPUhD_xgD","LocationType":"point","DisplayPosition":{"Latitude":47.78757,"Longitude":19.93048},"MapView":{"TopLeft":{"Latitude":47.7886942,"Longitude":19.9288069},"BottomRight":{"Latitude":47.7864458,"Longitude":19.9321531}},"Address":{"Label":"Dózsa György utca 18, Gyöngyös 3200, Magyarország","Country":"HUN","State":"Heves","County":"Gyöngyösi Járás","City":"Gyöngyös","District":"Gyöngyös","Street":"Dózsa György utca","HouseNumber":"18","PostalCode":"3200","AdditionalData":[{"value":"Magyarország","key":"CountryName"},{"value":"Heves","key":"StateName"},{"value":"Gyöngyösi Járás","key":"CountyName"}]},"MapReference":{"ReferenceId":"740888941","Spot":0.44,"SideOfStreet":"left","CountryId":"20613038","StateId":"20617771","CountyId":"26678493","CityId":"20617892","DistrictId":"26679248","AddressId":"354889607","RoadLinkId":"139656599"}}},{"Relevance":1.0,"Distance":121.9,"MatchLevel":"houseNumber","MatchQuality":{"Country":1.0,"State":1.0,"County":1.0,"City":1.0,"District":1.0,"Street":[1.0],"HouseNumber":1.0,"PostalCode":1.0},"MatchType":"interpolated","Location":{"LocationId":"NT_pQQMXrnnBRE83YI6hrNd2D_xED","LocationType":"point","DisplayPosition":{"Latitude":47.78789,"Longitude":19.92993},"MapView":{"TopLeft":{"Latitude":47.7890142,"Longitude":19.9282568},"BottomRight":{"Latitude":47.7867658,"Longitude":19.9316032}},"Address":{"Label":"Vezekényi utca 11, Gyöngyös 3200, Magyarország","Country":"HUN","State":"Heves","County":"Gyöngyösi Járás","City":"Gyöngyös","District":"Gyöngyös","Street":"Vezekényi utca","HouseNumber":"11","PostalCode":"3200","AdditionalData":[{"value":"Magyarország","key":"CountryName"},{"value":"Heves","key":"StateName"},{"value":"Gyöngyösi Járás","key":"CountyName"}]},"MapReference":{"ReferenceId":"708510672","Spot":0.93,"SideOfStreet":"right","CountryId":"20613038","StateId":"20617771","CountyId":"26678493","CityId":"20617892","DistrictId":"26679248","AddressId":"356223348","RoadLinkId":"113799365"}}}]}]}}