{"Response":{"MetaInfo":{"Timestamp":"2020-03-28T09:48:39.401+0000","NextPageInformation":"2"},"View":[{"_type":"SearchResultsViewType","ViewId":0,"Result":[{"Relevance":1.0,"Distance":0.0,"Direction":0.0,"MatchLevel":"city","MatchQuality":{"Country":1.0,"State":1.0,"County":1.0,"City":1.0,"PostalCode":1.0},"Location":{"LocationId":"NT_3DUHhXGqaiRPgUTqxZ11AC","LocationType":"point","DisplayPosition":{"Latitude":47.874506,"Longitude":-3.022565},"MapView":{"TopLeft":{"Latitude":47.91138,"Longitude":-3.11168},"BottomRight":{"Latitude":47.82701,"Longitude":-2.94594}},"Address":{"Label":"Baud, Bretagne, France","Country":"FRA","State":"Bretagne","County":"Morbihan","City":"Baud","PostalCode":"56150","AdditionalData":[{"value":"France","key":"CountryName"},{"value":"Bretagne","key":"StateName"},{"value":"Morbihan","key":"CountyName"}]},"MapReference":{"ReferenceId":"552008378","SideOfStreet":"neither","CountryId":"20000001","StateId":"20060199","CountyId":"20074367","CityId":"20074397"}}},{"Relevance":1.0,"Distance":4.6,"MatchLevel":"houseNumber","MatchQuality":{"Country":1.0,"State":1.0,"County":1.0,"City":1.0,"Street":[1.0],"HouseNumber":1.0,"PostalCode":1.0},"MatchType":"interpolated","Location":{"LocationId":"NT_jjGgdJ9G0nV4MVb1pYrPRD_xYjQ","LocationType":"point","DisplayPosition":{"Latitude":47.87438,"Longitude":-3.02253},"MapView":{"TopLeft":{"Latitude":47.8755042,"Longitude":-3.0242059},"BottomRight":{"Latitude":47.8732558,"Longitude":-3.0208541}},"Address":{"Label":"16B Rue de la Madeleine, 56150 Baud, France","Country":"FRA","State":"Bretagne","County":"Morbihan","City":"Baud","Street":"Rue de la Madeleine","HouseNumber":"16B","PostalCode":"56150","AdditionalData":[{"value":"France","key":"CountryName"},{"value":"Bretagne","key":"StateName"},{"value":"Morbihan","key":"CountyName"}]},"MapReference":{"ReferenceId":"76711190","Spot":0.7,"SideOfStreet":"right","CountryId":"20000001","StateId":"20060199","CountyId":"20074367","CityId":"20074397","AddressId":"320329369","RoadLinkId":"47458913"}}},{"Relevance":1.0,"Distance":24.4,"MatchLevel":"houseNumber","MatchQuality":{"Country":1.0,"State":1.0,"County":1.0,"City":1.0,"Street":[1.0],"HouseNumber":1.0,"PostalCode":1.0},"MatchType":"interpolated","Location":{"LocationId":"NT_jjGgdJ9G0nV4MVb1pYrPRD_5IE","LocationType":"point","DisplayPosition":{"Latitude":47.87429,"Longitude":-3.02251},"MapView":{"TopLeft":{"Latitude":47.8754142,"Longitude":-3.0241859},"BottomRight":{"Latitude":47.8731658,"Longitude":-3.0208341}},"Address":{"Label":"9B Rue de la Madeleine, 56150 Baud, France","Country":"FRA","State":"Bretagne","County":"Morbihan","City":"Baud","Street":"Rue de la Madeleine","HouseNumber":"9B","PostalCode":"56150","AdditionalData":[{"value":"France","key":"CountryName"},{"value":"Bretagne","key":"StateName"},{"value":"Morbihan","key":"CountyName"}]},"MapReference":{"ReferenceId":"76711188","Spot":0.64,"SideOfStreet":"left","CountryId":"20000001","StateId":"20060199","CountyId":"20074367","CityId":"20074397","AddressId":"674088285","RoadLinkId":"47745496"}}},{"Relevance":1.0,"Distance":47.3,"MatchLevel":"houseNumber","MatchQuality":{"Country":1.0,"State":1.0,"County":1.0,"City":1.0,"Street":[1.0],"HouseNumber":1.0,"PostalCode":1.0},"MatchType":"interpolated","Location":{"LocationId":"NT_jjGgdJ9G0nV4MVb1pYrPRD_yAD","LocationType":"point","DisplayPosition":{"Latitude":47.87436,"Longitude":-3.02316},"MapView":{"TopLeft":{"Latitude":47.8754842,"Longitude":-3.0248359},"BottomRight":{"Latitude":47.8732358,"Longitude":-3.0214841}},"Address":{"Label":"20 Rue de la Madeleine, 56150 Baud, France","Country":"FRA","State":"Bretagne","County":"Morbihan","City":"Baud","Street":"Rue de la Madeleine","HouseNumber":"20","PostalCode":"56150","AdditionalData":[{"value":"France","key":"CountryName"},{"value":"Bretagne","key":"StateName"},{"value":"Morbihan","key":"CountyName"}]},"MapReference":{"ReferenceId":"76711189","Spot":0.48,"SideOfStreet":"left","CountryId":"20000001","StateId":"20060199","CountyId":"20074367","CityId":"20074397","AddressId":"320279478","RoadLinkId":"46624343"}}},{"Relevance":1.0,"Distance":52.5,"MatchLevel":"street","MatchQuality":{"Country":1.0,"State":1.0,"County":1.0,"City":1.0,"Street":[1.0],"PostalCode":1.0},"Location":{"LocationId":"NT_YYeW9lGPhR7nwF8kmIMotD_l_551997068_L","LocationType":"point","DisplayPosition":{"Latitude":47.87435,"Longitude":-3.02323},"MapView":{"TopLeft":{"Latitude":47.87435,"Longitude":-3.02331},"BottomRight":{"Latitude":47.87435,"Longitude":-3.02323}},"Address":{"Label":"Rue de la Madeleine, 56150 Baud, France","Country":"FRA","State":"Bretagne","County":"Morbihan","City":"Baud","Street":"Rue de la Madeleine","PostalCode":"56150","AdditionalData":[{"value":"France","key":"CountryName"},{"value":"Bretagne","key":"StateName"},{"value":"Morbihan","key":"CountyName"}]},"MapReference":{"ReferenceId":"551997068","Spot":1.0,"SideOfStreet":"left","CountryId":"20000001","StateId":"20060199","CountyId":"20074367","CityId":"20074397"}}},{"Relevance":1.0,"Distance":74.3,"MatchLevel":"houseNumber","MatchQuality":{"Country":1.0,"State":1.0,"County":1.0,"City":1.0,"Street":[1.0],"HouseNumber":1.0,"PostalCode":1.0},"MatchType":"interpolated","Location":{"LocationId":"NT_Y7ZNukvRQAgSH2goU5FZhA_yA","LocationType":"point","DisplayPosition":{"Latitude":47.87451,"Longitude":-3.02359},"MapView":{"TopLeft":{"Latitude":47.8756342,"Longitude":-3.0252659},"BottomRight":{"Latitude":47.8733858,"Longitude":-3.0219141}},"Address":{"Label":"2 Rue de Pont Malo, 56150 Baud, France","Country":"FRA","State":"Bretagne","County":"Morbihan","City":"Baud","Street":"Rue de Pont Malo","HouseNumber":"2","PostalCode":"56150","AdditionalData":[{"value":"France","key":"CountryName"},{"value":"Bretagne","key":"StateName"},{"value":"Morbihan","key":"CountyName"}]},"MapReference":{"ReferenceId":"548941953","Spot":0.14,"SideOfStreet":"right","CountryId":"20000001","StateId":"20060199","CountyId":"20074367","CityId":"20074397","AddressId":"320465954","RoadLinkId":"46984052"}}},{"Relevance":1.0,"Distance":88.1,"MatchLevel":"houseNumber","MatchQuality":{"Country":1.0,"State":1.0,"County":1.0,"City":1.0,"Street":[1.0],"HouseNumber":1.0,"PostalCode":1.0},"MatchType":"interpolated","Location":{"LocationId":"NT_INA4A16G051L4dp1bD2WeD_5A","LocationType":"point","DisplayPosition":{"Latitude":47.87543,"Longitude":-3.02234},"MapView":{"TopLeft":{"Latitude":47.8765542,"Longitude":-3.024016},"BottomRight":{"Latitude":47.8743058,"Longitude":-3.020664}},"Address":{"Label":"9 Rue de Pont Augan, 56150 Baud, France","Country":"FRA","State":"Bretagne","County":"Morbihan","City":"Baud","Street":"Rue de Pont Augan","HouseNumber":"9","PostalCode":"56150","AdditionalData":[{"value":"France","key":"CountryName"},{"value":"Bretagne","key":"StateName"},{"value":"Morbihan","key":"CountyName"}]},"MapReference":{"ReferenceId":"551997000","Spot":0.31,"SideOfStreet":"left","CountryId":"20000001","StateId":"20060199","CountyId":"20074367","CityId":"20074397","AddressId":"590799075","RoadLinkId":"46801614"}}},{"Relevance":1.0,"Distance":95.9,"MatchLevel":"houseNumber","MatchQuality":{"Country":1.0,"State":1.0,"County":1.0,"City":1.0,"Street":[1.0],"HouseNumber":1.0,"PostalCode":1.0},"MatchType":"interpolated","Location":{"LocationId":"NT_jjGgdJ9G0nV4MVb1pYrPRD_yID","LocationType":"point","DisplayPosition":{"Latitude":47.87437,"Longitude":-3.02385},"MapView":{"TopLeft":{"Latitude":47.8754942,"Longitude":-3.0255259},"BottomRight":{"Latitude":47.8732458,"Longitude":-3.0221741}},"Address":{"Label":"22 Rue de la Madeleine, 56150 Baud, France","Country":"FRA","State":"Bretagne","County":"Morbihan","City":"Baud","Street":"Rue de la Madeleine","HouseNumber":"22","PostalCode":"56150","AdditionalData":[{"value":"France","key":"CountryName"},{"value":"Bretagne","key":"StateName"},{"value":"Morbihan","key":"CountyName"}]},"MapReference":{"ReferenceId":"551997067","Spot":0.63,"SideOfStreet":"left","CountryId":"20000001","StateId":"20060199","CountyId":"20074367","CityId":"20074397","AddressId":"320506094","RoadLinkId":"47550218"}}},{"Relevance":1.0,"Distance":101.0,"MatchLevel":"street","MatchQuality":{"Country":1.0,"State":1.0,"County":1.0,"City":1.0,"Street":[1.0],"PostalCode":1.0},"Location":{"LocationId":"NT_.Ty2nkCOHn65cvVaDC1HkC_l_551996720_L","LocationType":"point","DisplayPosition":{"Latitude":47.87432,"Longitude":-3.02124},"MapView":{"TopLeft":{"Latitude":47.87433,"Longitude":-3.02124},"BottomRight":{"Latitude":47.87432,"Longitude":-3.02098}},"Address":{"Label":"Rue de la Mairie, 56150 Baud, France","Country":"FRA","State":"Bretagne","County":"Morbihan","City":"Baud","Street":"Rue de la Mairie","PostalCode":"56150","AdditionalData":[{"value":"France","key":"CountryName"},{"value":"Bretagne","key":"StateName"},{"value":"Morbihan","key":"CountyName"}]},"MapReference":{"ReferenceId":"551996720","Spot":0.0,"SideOfStreet":"left","CountryId":"20000001","StateId":"20060199","CountyId":"20074367","CityId":"20074397"}}},{"Relevance":1.0,"Distance":108.8,"MatchLevel":"houseNumber","MatchQuality":{"Country":1.0,"State":1.0,"County":1.0,"City":1.0,"Street":[1.0],"HouseNumber":1.0,"PostalCode":1.0},"MatchType":"interpolated","Location":{"LocationId":"NT_.Ty2nkCOHn65cvVaDC1HkC_xgD","LocationType":"point","DisplayPosition":{"Latitude":47.8744,"Longitude":-3.02096},"MapView":{"TopLeft":{"Latitude":47.8755242,"Longitude":-3.0226359},"BottomRight":{"Latitude":47.8732758,"Longitude":-3.0192841}},"Address":{"Label":"18 Rue de la Mairie, 56150 Baud, France","Country":"FRA","State":"Bretagne","County":"Morbihan","City":"Baud","Street":"Rue de la Mairie","HouseNumber":"18","PostalCode":"56150","AdditionalData":[{"value":"France","key":"CountryName"},{"value":"Bretagne","key":"StateName"},{"value":"Morbihan","key":"CountyName"}]},"MapReference":{"ReferenceId":"551996997","Spot":0.7,"SideOfStreet":"left","CountryId":"20000001","StateId":"20060199","CountyId":"20074367","CityId":"20074397","AddressId":"320610171","RoadLinkId":"47785194"}}}]}]}}