{"Response":{"MetaInfo":{"Timestamp":"2020-03-28T10:17:20.394+0000","NextPageInformation":"2"},"View":[{"_type":"SearchResultsViewType","ViewId":0,"Result":[{"Relevance":1.0,"Distance":0.0,"Direction":0.0,"MatchLevel":"district","MatchQuality":{"Country":1.0,"State":1.0,"County":1.0,"City":1.0,"District":1.0,"PostalCode":1.0},"Location":{"LocationId":"NT_QS9iqJ3oX6TPP7kGK8uu9C","LocationType":"point","DisplayPosition":{"Latitude":47.8854474,"Longitude":11.6948896},"MapView":{"TopLeft":{"Latitude":47.89163,"Longitude":11.68237},"BottomRight":{"Latitude":47.87006,"Longitude":11.71931}},"Address":{"Label":"Holzkirchen, Bayern, Deutschland","Country":"DEU","State":"Bayern","County":"Miesbach","City":"Holzkirchen","District":"Holzkirchen","PostalCode":"83607","AdditionalData":[{"value":"Deutschland","key":"CountryName"},{"value":"Bayern","key":"StateName"},{"value":"Miesbach","key":"CountyName"}]},"MapReference":{"ReferenceId":"1089041314","SideOfStreet":"neither","CountryId":"20147700","StateId":"20177250","CountyId":"20178444","CityId":"20178469","DistrictId":"20178471"}}},{"Relevance":1.0,"Distance":20.7,"MatchLevel":"street","MatchQuality":{"Country":1.0,"State":1.0,"County":1.0,"City":1.0,"District":1.0,"PostalCode":1.0},"Location":{"LocationId":"NT_Ct7409qbdN5yNVe3sB8BlB_l_576262730_L","LocationType":"point","DisplayPosition":{"Latitude":47.88549,"Longitude":11.69516},"MapView":{"TopLeft":{"Latitude":47.88557,"Longitude":11.69516},"BottomRight":{"Latitude":47.88488,"Longitude":11.69549}},"Address":{"Label":"83607 Holzkirchen, Deutschland","Country":"DEU","State":"Bayern","County":"Miesbach","City":"Holzkirchen","District":"Holzkirchen","PostalCode":"83607","AdditionalData":[{"value":"Deutschland","key":"CountryName"},{"value":"Bayern","key":"StateName"},{"value":"Miesbach","key":"CountyName"}]},"MapReference":{"ReferenceId":"576262730","Spot":0.89,"SideOfStreet":"left","CountryId":"20147700","StateId":"20177250","CountyId":"20178444","CityId":"20178469","DistrictId":"20178471"}}},{"Relevance":1.0,"Distance":25.6,"MatchLevel":"street","MatchQuality":{"Country":1.0,"State":1.0,"County":1.0,"City":1.0,"District":1.0,"Street":[1.0],"PostalCode":1.0},"Location":{"LocationId":"NT_jCRwv35USycgPMblFVCW.C_l_1150121723_L","LocationType":"point","DisplayPosition":{"Latitude":47.88557,"Longitude":11.69518},"MapView":{"TopLeft":{"Latitude":47.88557,"Longitude":11.69518},"BottomRight":{"Latitude":47.88497,"Longitude":11.69564}},"Address":{"Label":"Otterfinger Weg, 83607 Holzkirchen, Deutschland","Country":"DEU","State":"Bayern","County":"Miesbach","City":"Holzkirchen","District":"Holzkirchen","Street":"Otterfinger Weg","PostalCode":"83607","AdditionalData":[{"value":"Deutschland","key":"CountryName"},{"value":"Bayern","key":"StateName"},{"value":"Miesbach","key":"CountyName"}]},"MapReference":{"ReferenceId":"1150121723","Spot":1.0,"SideOfStreet":"left","CountryId":"20147700","StateId":"20177250","CountyId":"20178444","CityId":"20178469","DistrictId":"20178471"}}},{"Relevance":1.0,"Distance":25.6,"MatchLevel":"street","MatchQuality":{"Country":1.0,"State":1.0,"County":1.0,"City":1.0,"District":1.0,"PostalCode":1.0},"Location":{"LocationId":"NT_Ct7409qbdN5yNVe3sB8BlB_l_576262727_L","LocationType":"point","DisplayPosition":{"Latitude":47.88557,"Longitude":11.69518},"MapView":{"TopLeft":{"Latitude":47.88557,"Longitude":11.69518},"BottomRight":{"Latitude":47.88504,"Longitude":11.69576}},"Address":{"Label":"83607 Holzkirchen, Deutschland","Country":"DEU","State":"Bayern","County":"Miesbach","City":"Holzkirchen","District":"Holzkirchen","PostalCode":"83607","AdditionalData":[{"value":"Deutschland","key":"CountryName"},{"value":"Bayern","key":"StateName"},{"value":"Miesbach","key":"CountyName"}]},"MapReference":{"ReferenceId":"576262727","Spot":1.0,"SideOfStreet":"left","CountryId":"20147700","StateId":"20177250","CountyId":"20178444","CityId":"20178469","DistrictId":"20178471"}}},{"Relevance":1.0,"Distance":29.3,"MatchLevel":"street","MatchQuality":{"Country":1.0,"State":1.0,"County":1.0,"City":1.0,"District":1.0,"Street":[1.0],"PostalCode":1.0},"Location":{"LocationId":"NT_jCRwv35USycgPMblFVCW.C_l_1150121724_L","LocationType":"point","DisplayPosition":{"Latitude":47.8856737,"Longitude":11.6950908},"MapView":{"TopLeft":{"Latitude":47.88666,"Longitude":11.69414},"BottomRight":{"Latitude":47.88557,"Longitude":11.69518}},"Address":{"Label":"Otterfinger Weg, 83607 Holzkirchen, Deutschland","Country":"DEU","State":"Bayern","County":"Miesbach","City":"Holzkirchen","District":"Holzkirchen","Street":"Otterfinger Weg","PostalCode":"83607","AdditionalData":[{"value":"Deutschland","key":"CountryName"},{"value":"Bayern","key":"StateName"},{"value":"Miesbach","key":"CountyName"}]},"MapReference":{"ReferenceId":"1150121724","Spot":0.09,"SideOfStreet":"left","CountryId":"20147700","StateId":"20177250","CountyId":"20178444","CityId":"20178469","DistrictId":"20178471"}}},{"Relevance":1.0,"Distance":33.6,"MatchLevel":"houseNumber","MatchQuality":{"Country":1.0,"State":1.0,"County":1.0,"City":1.0,"District":1.0,"Street":[1.0],"HouseNumber":1.0,"PostalCode":1.0},"MatchType":"interpolated","Location":{"LocationId":"NT_AGftszCxKQAjigGDK-49UC_1YTQ","LocationType":"point","DisplayPosition":{"Latitude":47.88483,"Longitude":11.69466},"MapView":{"TopLeft":{"Latitude":47.8859542,"Longitude":11.6929837},"BottomRight":{"Latitude":47.8837058,"Longitude":11.6963363}},"Address":{"Label":"Münchner Straße 56A, 83607 Holzkirchen, Deutschland","Country":"DEU","State":"Bayern","County":"Miesbach","City":"Holzkirchen","District":"Holzkirchen","Street":"Münchner Straße","HouseNumber":"56A","PostalCode":"83607","AdditionalData":[{"value":"Deutschland","key":"CountryName"},{"value":"Bayern","key":"StateName"},{"value":"Miesbach","key":"CountyName"}]},"MapReference":{"ReferenceId":"1202079493","Spot":0.16,"SideOfStreet":"right","CountryId":"20147700","StateId":"20177250","CountyId":"20178444","CityId":"20178469","DistrictId":"20178471","AddressId":"183866329","RoadLinkId":"514798625"}}},{"Relevance":1.0,"Distance":73.2,"MatchLevel":"houseNumber","MatchQuality":{"Country":1.0,"State":1.0,"County":1.0,"City":1.0,"District":1.0,"Street":[1.0],"HouseNumber":1.0,"PostalCode":1.0},"MatchType":"interpolated","Location":{"LocationId":"NT_AGftszCxKQAjigGDK-49UC_3UD","LocationType":"point","DisplayPosition":{"Latitude":47.88479,"Longitude":11.69485},"MapView":{"TopLeft":{"Latitude":47.8859142,"Longitude":11.6931737},"BottomRight":{"Latitude":47.8836658,"Longitude":11.6965263}},"Address":{"Label":"Münchner Straße 75, 83607 Holzkirchen, Deutschland","Country":"DEU","State":"Bayern","County":"Miesbach","City":"Holzkirchen","District":"Holzkirchen","Street":"Münchner Straße","HouseNumber":"75","PostalCode":"83607","AdditionalData":[{"value":"Deutschland","key":"CountryName"},{"value":"Bayern","key":"StateName"},{"value":"Miesbach","key":"CountyName"}]},"MapReference":{"ReferenceId":"1069484997","Spot":0.82,"SideOfStreet":"left","CountryId":"20147700","StateId":"20177250","CountyId":"20178444","CityId":"20178469","DistrictId":"20178471","AddressId":"184784724","RoadLinkId":"391716166"}}},{"Relevance":1.0,"Distance":73.7,"MatchLevel":"houseNumber","MatchQuality":{"Country":1.0,"State":1.0,"County":1.0,"City":1.0,"District":1.0,"Street":[1.0],"HouseNumber":1.0,"PostalCode":1.0},"MatchType":"interpolated","Location":{"LocationId":"NT_AGftszCxKQAjigGDK-49UC_1YD","LocationType":"point","DisplayPosition":{"Latitude":47.88497,"Longitude":11.69396},"MapView":{"TopLeft":{"Latitude":47.8860942,"Longitude":11.6922837},"BottomRight":{"Latitude":47.8838458,"Longitude":11.6956363}},"Address":{"Label":"Münchner Straße 56, 83607 Holzkirchen, Deutschland","Country":"DEU","State":"Bayern","County":"Miesbach","City":"Holzkirchen","District":"Holzkirchen","Street":"Münchner Straße","HouseNumber":"56","PostalCode":"83607","AdditionalData":[{"value":"Deutschland","key":"CountryName"},{"value":"Bayern","key":"StateName"},{"value":"Miesbach","key":"CountyName"}]},"MapReference":{"ReferenceId":"1202079494","Spot":0.75,"SideOfStreet":"right","CountryId":"20147700","StateId":"20177250","CountyId":"20178444","CityId":"20178469","DistrictId":"20178471","AddressId":"183612173","RoadLinkId":"514798626"}}},{"Relevance":1.0,"Distance":77.1,"MatchLevel":"street","MatchQuality":{"Country":1.0,"State":1.0,"County":1.0,"City":1.0,"District":1.0,"Street":[1.0],"PostalCode":1.0},"Location":{"LocationId":"NT_PNgbWk9QmDmB.miaMAA.uA_l_576262726_L","LocationType":"point","DisplayPosition":{"Latitude":47.88497,"Longitude":11.69564},"MapView":{"TopLeft":{"Latitude":47.88504,"Longitude":11.69564},"BottomRight":{"Latitude":47.88497,"Longitude":11.69576}},"Address":{"Label":"Bahnhofplatz, 83607 Holzkirchen, Deutschland","Country":"DEU","State":"Bayern","County":"Miesbach","City":"Holzkirchen","District":"Holzkirchen","Street":"Bahnhofplatz","PostalCode":"83607","AdditionalData":[{"value":"Deutschland","key":"CountryName"},{"value":"Bayern","key":"StateName"},{"value":"Miesbach","key":"CountyName"}]},"MapReference":{"ReferenceId":"576262726","Spot":0.0,"SideOfStreet":"left","CountryId":"20147700","StateId":"20177250","CountyId":"20178444","CityId":"20178469","DistrictId":"20178471"}}},{"Relevance":1.0,"Distance":77.4,"MatchLevel":"houseNumber","MatchQuality":{"Country":1.0,"State":1.0,"County":1.0,"City":1.0,"District":1.0,"Street":[1.0],"HouseNumber":1.0,"PostalCode":1.0},"MatchType":"interpolated","Location":{"LocationId":"NT_PNgbWk9QmDmB.miaMAA.uA_4A","LocationType":"point","DisplayPosition":{"Latitude":47.88491,"Longitude":11.69555},"MapView":{"TopLeft":{"Latitude":47.8860342,"Longitude":11.6938737},"BottomRight":{"Latitude":47.8837858,"Longitude":11.6972263}},"Address":{"Label":"Bahnhofplatz 8, 83607 Holzkirchen, Deutschland","Country":"DEU","State":"Bayern","County":"Miesbach","City":"Holzkirchen","District":"Holzkirchen","Street":"Bahnhofplatz","HouseNumber":"8","PostalCode":"83607","AdditionalData":[{"value":"Deutschland","key":"CountryName"},{"value":"Bayern","key":"StateName"},{"value":"Miesbach","key":"CountyName"}]},"MapReference":{"ReferenceId":"576262729","Spot":0.38,"SideOfStreet":"right","CountryId":"20147700","StateId":"20177250","CountyId":"20178444","CityId":"20178469","DistrictId":"20178471","AddressId":"185778127","RoadLinkId":"33206547"}}}]}]}}