{"Response":{"MetaInfo":{"Timestamp":"2020-03-28T11:46:32.883+0000","NextPageInformation":"2"},"View":[{"_type":"SearchResultsViewType","ViewId":0,"Result":[{"Relevance":1.0,"Distance":0.0,"Direction":0.0,"MatchLevel":"city","MatchQuality":{"Country":1.0,"State":1.0,"County":1.0,"City":1.0,"PostalCode":1.0},"Location":{"LocationId":"NT_phaG7aX94Dn5-JT8Cqpc8C","LocationType":"point","DisplayPosition":{"Latitude":47.8928807,"Longitude":1.8463242},"MapView":{"TopLeft":{"Latitude":47.90219,"Longitude":1.80244},"BottomRight":{"Latitude":47.86953,"Longitude":1.86247}},"Address":{"Label":"La Chapelle-Saint-Mesmin, Centre-Val de Loire, France","Country":"FRA","State":"Centre-Val de Loire","County":"Loiret","City":"La Chapelle-Saint-Mesmin","PostalCode":"45380","AdditionalData":[{"value":"France","key":"CountryName"},{"value":"Centre-Val de Loire","key":"StateName"},{"value":"Loiret","key":"CountyName"}]},"MapReference":{"ReferenceId":"1116423106","SideOfStreet":"neither","CountryId":"20000001","StateId":"20002113","CountyId":"20002117","CityId":"20069873"}}},{"Relevance":1.0,"Distance":7.8,"MatchLevel":"houseNumber","MatchQuality":{"Country":1.0,"State":1.0,"County":1.0,"City":1.0,"Street":[1.0],"HouseNumber":1.0,"PostalCode":1.0},"MatchType":"interpolated","Location":{"LocationId":"NT_u05eTAJz6SGkPgadTEsn1B_3YD","LocationType":"point","DisplayPosition":{"Latitude":47.89275,"Longitude":1.84645},"MapView":{"TopLeft":{"Latitude":47.8938742,"Longitude":1.8447735},"BottomRight":{"Latitude":47.8916258,"Longitude":1.8481265}},"Address":{"Label":"76 Route d'Orléans, 45380 La Chapelle-Saint-Mesmin, France","Country":"FRA","State":"Centre-Val de Loire","County":"Loiret","City":"La Chapelle-Saint-Mesmin","Street":"Route d'Orléans","HouseNumber":"76","PostalCode":"45380","AdditionalData":[{"value":"France","key":"CountryName"},{"value":"Centre-Val de Loire","key":"StateName"},{"value":"Loiret","key":"CountyName"}]},"MapReference":{"ReferenceId":"1116427517","Spot":0.14,"SideOfStreet":"left","CountryId":"20000001","StateId":"20002113","CountyId":"20002117","CityId":"20069873","AddressId":"318797926","RoadLinkId":"426703450"}}},{"Relevance":1.0,"Distance":11.5,"MatchLevel":"houseNumber","MatchQuality":{"Country":1.0,"State":1.0,"County":1.0,"City":1.0,"Street":[1.0],"HouseNumber":1.0,"PostalCode":1.0},"MatchType":"interpolated","Location":{"LocationId":"NT_u05eTAJz6SGkPgadTEsn1B_4AD","LocationType":"point","DisplayPosition":{"Latitude":47.89272,"Longitude":1.84631},"MapView":{"TopLeft":{"Latitude":47.8938442,"Longitude":1.8446335},"BottomRight":{"Latitude":47.8915958,"Longitude":1.8479865}},"Address":{"Label":"80 Route d'Orléans, 45380 La Chapelle-Saint-Mesmin, France","Country":"FRA","State":"Centre-Val de Loire","County":"Loiret","City":"La Chapelle-Saint-Mesmin","Street":"Route d'Orléans","HouseNumber":"80","PostalCode":"45380","AdditionalData":[{"value":"France","key":"CountryName"},{"value":"Centre-Val de Loire","key":"StateName"},{"value":"Loiret","key":"CountyName"}]},"MapReference":{"ReferenceId":"1116427516","Spot":0.9,"SideOfStreet":"left","CountryId":"20000001","StateId":"20002113","CountyId":"20002117","CityId":"20069873","AddressId":"318797925","RoadLinkId":"426703449"}}},{"Relevance":1.0,"Distance":54.5,"MatchLevel":"houseNumber","MatchQuality":{"Country":1.0,"State":1.0,"County":1.0,"City":1.0,"Street":[1.0],"HouseNumber":1.0,"PostalCode":1.0},"MatchType":"interpolated","Location":{"LocationId":"NT_DReDw9TcIBcBmQSe.0MuGC_xA","LocationType":"point","DisplayPosition":{"Latitude":47.89336,"Longitude":1.84651},"MapView":{"TopLeft":{"Latitude":47.8944842,"Longitude":1.8448334},"BottomRight":{"Latitude":47.8922358,"Longitude":1.8481866}},"Address":{"Label":"1 Rue de l'Enfer, 45380 La Chapelle-Saint-Mesmin, France","Country":"FRA","State":"Centre-Val de Loire","County":"Loiret","City":"La Chapelle-Saint-Mesmin","Street":"Rue de l'Enfer","HouseNumber":"1","PostalCode":"45380","AdditionalData":[{"value":"France","key":"CountryName"},{"value":"Centre-Val de Loire","key":"StateName"},{"value":"Loiret","key":"CountyName"}]},"MapReference":{"ReferenceId":"59324441","Spot":0.25,"SideOfStreet":"left","CountryId":"20000001","StateId":"20002113","CountyId":"20002117","CityId":"20069873","AddressId":"370941429","RoadLinkId":"53548366"}}},{"Relevance":1.0,"Distance":56.0,"MatchLevel":"houseNumber","MatchQuality":{"Country":1.0,"State":1.0,"County":1.0,"City":1.0,"Street":[1.0],"HouseNumber":1.0,"PostalCode":1.0},"MatchType":"interpolated","Location":{"LocationId":"NT_f6J.dCeHlcxLXUPCAstAtD_yUD","LocationType":"point","DisplayPosition":{"Latitude":47.89248,"Longitude":1.84682},"MapView":{"TopLeft":{"Latitude":47.8936042,"Longitude":1.8451435},"BottomRight":{"Latitude":47.8913558,"Longitude":1.8484965}},"Address":{"Label":"25 Rue des Chaffaults, 45380 La Chapelle-Saint-Mesmin, France","Country":"FRA","State":"Centre-Val de Loire","County":"Loiret","City":"La Chapelle-Saint-Mesmin","Street":"Rue des Chaffaults","HouseNumber":"25","PostalCode":"45380","AdditionalData":[{"value":"France","key":"CountryName"},{"value":"Centre-Val de Loire","key":"StateName"},{"value":"Loiret","key":"CountyName"}]},"MapReference":{"ReferenceId":"59324467","Spot":0.64,"SideOfStreet":"left","CountryId":"20000001","StateId":"20002113","CountyId":"20002117","CityId":"20069873","AddressId":"318890882","RoadLinkId":"53518814"}}},{"Relevance":1.0,"Distance":60.6,"MatchLevel":"houseNumber","MatchQuality":{"Country":1.0,"State":1.0,"County":1.0,"City":1.0,"Street":[1.0],"HouseNumber":1.0,"PostalCode":1.0},"MatchType":"interpolated","Location":{"LocationId":"NT_u05eTAJz6SGkPgadTEsn1B_3QD","LocationType":"point","DisplayPosition":{"Latitude":47.89293,"Longitude":1.84715},"MapView":{"TopLeft":{"Latitude":47.8940542,"Longitude":1.8454735},"BottomRight":{"Latitude":47.8918058,"Longitude":1.8488265}},"Address":{"Label":"74 Route d'Orléans, 45380 La Chapelle-Saint-Mesmin, France","Country":"FRA","State":"Centre-Val de Loire","County":"Loiret","City":"La Chapelle-Saint-Mesmin","Street":"Route d'Orléans","HouseNumber":"74","PostalCode":"45380","AdditionalData":[{"value":"France","key":"CountryName"},{"value":"Centre-Val de Loire","key":"StateName"},{"value":"Loiret","key":"CountyName"}]},"MapReference":{"ReferenceId":"733701834","Spot":0.57,"SideOfStreet":"left","CountryId":"20000001","StateId":"20002113","CountyId":"20002117","CityId":"20069873","AddressId":"318745800","RoadLinkId":"134824549"}}},{"Relevance":1.0,"Distance":70.3,"MatchLevel":"street","MatchQuality":{"Country":1.0,"State":1.0,"County":1.0,"City":1.0,"PostalCode":1.0},"Location":{"LocationId":"NT_8rZ5knuswNqBe7Uex4lYuC_l_59324451_R","LocationType":"point","DisplayPosition":{"Latitude":47.89254,"Longitude":1.84553},"MapView":{"TopLeft":{"Latitude":47.8927,"Longitude":1.84542},"BottomRight":{"Latitude":47.89254,"Longitude":1.84553}},"Address":{"Label":"45380 La Chapelle-Saint-Mesmin, France","Country":"FRA","State":"Centre-Val de Loire","County":"Loiret","City":"La Chapelle-Saint-Mesmin","PostalCode":"45380","AdditionalData":[{"value":"France","key":"CountryName"},{"value":"Centre-Val de Loire","key":"StateName"},{"value":"Loiret","key":"CountyName"}]},"MapReference":{"ReferenceId":"59324451","Spot":0.0,"SideOfStreet":"right","CountryId":"20000001","StateId":"20002113","CountyId":"20002117","CityId":"20069873"}}},{"Relevance":1.0,"Distance":70.3,"MatchLevel":"street","MatchQuality":{"Country":1.0,"State":1.0,"County":1.0,"City":1.0,"PostalCode":1.0},"Location":{"LocationId":"NT_8rZ5knuswNqBe7Uex4lYuC_l_59324446_R","LocationType":"point","DisplayPosition":{"Latitude":47.8927,"Longitude":1.84542},"MapView":{"TopLeft":{"Latitude":47.89325,"Longitude":1.84513},"BottomRight":{"Latitude":47.8927,"Longitude":1.84542}},"Address":{"Label":"45380 La Chapelle-Saint-Mesmin, France","Country":"FRA","State":"Centre-Val de Loire","County":"Loiret","City":"La Chapelle-Saint-Mesmin","PostalCode":"45380","AdditionalData":[{"value":"France","key":"CountryName"},{"value":"Centre-Val de Loire","key":"StateName"},{"value":"Loiret","key":"CountyName"}]},"MapReference":{"ReferenceId":"59324446","Spot":0.0,"SideOfStreet":"right","CountryId":"20000001","StateId":"20002113","CountyId":"20002117","CityId":"20069873"}}},{"Relevance":1.0,"Distance":71.5,"MatchLevel":"houseNumber","MatchQuality":{"Country":1.0,"State":1.0,"County":1.0,"City":1.0,"Street":[1.0],"HouseNumber":1.0,"PostalCode":1.0},"MatchType":"interpolated","Location":{"LocationId":"NT_u05eTAJz6SGkPgadTEsn1B_3ID","LocationType":"point","DisplayPosition":{"Latitude":47.89301,"Longitude":1.84744},"MapView":{"TopLeft":{"Latitude":47.8941342,"Longitude":1.8457635},"BottomRight":{"Latitude":47.8918858,"Longitude":1.8491165}},"Address":{"Label":"72 Route d'Orléans, 45380 La Chapelle-Saint-Mesmin, France","Country":"FRA","State":"Centre-Val de Loire","County":"Loiret","City":"La Chapelle-Saint-Mesmin","Street":"Route d'Orléans","HouseNumber":"72","PostalCode":"45380","AdditionalData":[{"value":"France","key":"CountryName"},{"value":"Centre-Val de Loire","key":"StateName"},{"value":"Loiret","key":"CountyName"}]},"MapReference":{"ReferenceId":"1116427510","Spot":0.0,"SideOfStreet":"left","CountryId":"20000001","StateId":"20002113","CountyId":"20002117","CityId":"20069873","AddressId":"318850115","RoadLinkId":"426703437"}}},{"Relevance":1.0,"Distance":80.1,"MatchLevel":"houseNumber","MatchQuality":{"Country":1.0,"State":1.0,"County":1.0,"City":1.0,"Street":[1.0],"HouseNumber":1.0,"PostalCode":1.0},"MatchType":"interpolated","Location":{"LocationId":"NT_IPmyZDDLxUcn6-1JBeAWiA_0A","LocationType":"point","DisplayPosition":{"Latitude":47.89279,"Longitude":1.84739},"MapView":{"TopLeft":{"Latitude":47.8939142,"Longitude":1.8457135},"BottomRight":{"Latitude":47.8916658,"Longitude":1.8490665}},"Address":{"Label":"4 Rue du Gaigneau, 45380 La Chapelle-Saint-Mesmin, France","Country":"FRA","State":"Centre-Val de Loire","County":"Loiret","City":"La Chapelle-Saint-Mesmin","Street":"Rue du Gaigneau","HouseNumber":"4","PostalCode":"45380","AdditionalData":[{"value":"France","key":"CountryName"},{"value":"Centre-Val de Loire","key":"StateName"},{"value":"Loiret","key":"CountyName"}]},"MapReference":{"ReferenceId":"590949639","Spot":0.31,"SideOfStreet":"right","CountryId":"20000001","StateId":"20002113","CountyId":"20002117","CityId":"20069873","AddressId":"674097933","RoadLinkId":"53520202"}}}]}]}}