{"Response":{"MetaInfo":{"Timestamp":"2020-03-28T10:42:55.277+0000","NextPageInformation":"2"},"View":[{"_type":"SearchResultsViewType","ViewId":0,"Result":[{"Relevance":1.0,"Distance":0.0,"Direction":0.0,"MatchLevel":"district","MatchQuality":{"Country":1.0,"State":1.0,"County":1.0,"City":1.0,"District":1.0,"PostalCode":1.0},"Location":{"LocationId":"NT_IpKJhvAT4.s.QyqVNukLBB","LocationType":"point","DisplayPosition":{"Latitude":47.8626047,"Longitude":17.4643081},"MapView":{"TopLeft":{"Latitude":47.86933,"Longitude":17.45522},"BottomRight":{"Latitude":47.85631,"Longitude":17.47274}},"Address":{"Label":"Lipót, Győr-Moson-Sopron, Magyarország","Country":"HUN","State":"Győr-Moson-Sopron","County":"Mosonmagyaróvári Járás","City":"Lipót","District":"Lipót","PostalCode":"9233","AdditionalData":[{"value":"Magyarország","key":"CountryName"},{"value":"Győr-Moson-Sopron","key":"StateName"},{"value":"Mosonmagyaróvári Járás","key":"CountyName"}]},"MapReference":{"ReferenceId":"598270121","SideOfStreet":"neither","CountryId":"20613038","StateId":"20616900","CountyId":"26679917","CityId":"20617214","DistrictId":"26680252"}}},{"Relevance":1.0,"Distance":1.9,"MatchLevel":"houseNumber","MatchQuality":{"Country":1.0,"State":1.0,"County":1.0,"City":1.0,"District":1.0,"Street":[1.0],"HouseNumber":1.0,"PostalCode":1.0},"MatchType":"interpolated","Location":{"LocationId":"NT_kT1oL9htlM61PxS.slLMBB_xA","LocationType":"point","DisplayPosition":{"Latitude":47.86274,"Longitude":17.46413},"MapView":{"TopLeft":{"Latitude":47.8638642,"Longitude":17.4624544},"BottomRight":{"Latitude":47.8616158,"Longitude":17.4658056}},"Address":{"Label":"Fő tér 1, Lipót 9233, Magyarország","Country":"HUN","State":"Győr-Moson-Sopron","County":"Mosonmagyaróvári Járás","City":"Lipót","District":"Lipót","Street":"Fő tér","HouseNumber":"1","PostalCode":"9233","AdditionalData":[{"value":"Magyarország","key":"CountryName"},{"value":"Győr-Moson-Sopron","key":"StateName"},{"value":"Mosonmagyaróvári Járás","key":"CountyName"}]},"MapReference":{"ReferenceId":"809672095","Spot":0.16,"SideOfStreet":"right","CountryId":"20613038","StateId":"20616900","CountyId":"26679917","CityId":"20617214","DistrictId":"26680252","AddressId":"357551252","RoadLinkId":"197022168"}}},{"Relevance":1.0,"Distance":21.3,"MatchLevel":"street","MatchQuality":{"Country":1.0,"State":1.0,"County":1.0,"City":1.0,"District":1.0,"Street":[1.0],"PostalCode":1.0},"Location":{"LocationId":"NT_kT1oL9htlM61PxS.slLMBB_l_809672096_R","LocationType":"point","DisplayPosition":{"Latitude":47.8624371,"Longitude":17.4641705},"MapView":{"TopLeft":{"Latitude":47.86261,"Longitude":17.46396},"BottomRight":{"Latitude":47.86238,"Longitude":17.46424}},"Address":{"Label":"Fő tér, Lipót 9233, Magyarország","Country":"HUN","State":"Győr-Moson-Sopron","County":"Mosonmagyaróvári Járás","City":"Lipót","District":"Lipót","Street":"Fő tér","PostalCode":"9233","AdditionalData":[{"value":"Magyarország","key":"CountryName"},{"value":"Győr-Moson-Sopron","key":"StateName"},{"value":"Mosonmagyaróvári Járás","key":"CountyName"}]},"MapReference":{"ReferenceId":"809672096","Spot":0.25,"SideOfStreet":"right","CountryId":"20613038","StateId":"20616900","CountyId":"26679917","CityId":"20617214","DistrictId":"26680252"}}},{"Relevance":1.0,"Distance":26.0,"MatchLevel":"street","MatchQuality":{"Country":1.0,"State":1.0,"County":1.0,"City":1.0,"District":1.0,"Street":[1.0],"PostalCode":1.0},"Location":{"LocationId":"NT_kT1oL9htlM61PxS.slLMBB_l_809672094_R","LocationType":"point","DisplayPosition":{"Latitude":47.86261,"Longitude":17.46396},"MapView":{"TopLeft":{"Latitude":47.86261,"Longitude":17.46358},"BottomRight":{"Latitude":47.86227,"Longitude":17.46396}},"Address":{"Label":"Fő tér, Lipót 9233, Magyarország","Country":"HUN","State":"Győr-Moson-Sopron","County":"Mosonmagyaróvári Járás","City":"Lipót","District":"Lipót","Street":"Fő tér","PostalCode":"9233","AdditionalData":[{"value":"Magyarország","key":"CountryName"},{"value":"Győr-Moson-Sopron","key":"StateName"},{"value":"Mosonmagyaróvári Járás","key":"CountyName"}]},"MapReference":{"ReferenceId":"809672094","Spot":1.0,"SideOfStreet":"right","CountryId":"20613038","StateId":"20616900","CountyId":"26679917","CityId":"20617214","DistrictId":"26680252"}}},{"Relevance":1.0,"Distance":30.2,"MatchLevel":"houseNumber","MatchQuality":{"Country":1.0,"State":1.0,"County":1.0,"City":1.0,"District":1.0,"Street":[1.0],"HouseNumber":1.0,"PostalCode":1.0},"MatchType":"interpolated","Location":{"LocationId":"NT_kT1oL9htlM61PxS.slLMBB_0YD","LocationType":"point","DisplayPosition":{"Latitude":47.86238,"Longitude":17.46408},"MapView":{"TopLeft":{"Latitude":47.8635042,"Longitude":17.4624044},"BottomRight":{"Latitude":47.8612558,"Longitude":17.4657556}},"Address":{"Label":"Fő tér 46, Lipót 9233, Magyarország","Country":"HUN","State":"Győr-Moson-Sopron","County":"Mosonmagyaróvári Járás","City":"Lipót","District":"Lipót","Street":"Fő tér","HouseNumber":"46","PostalCode":"9233","AdditionalData":[{"value":"Magyarország","key":"CountryName"},{"value":"Győr-Moson-Sopron","key":"StateName"},{"value":"Mosonmagyaróvári Járás","key":"CountyName"}]},"MapReference":{"ReferenceId":"809672093","Spot":0.76,"SideOfStreet":"right","CountryId":"20613038","StateId":"20616900","CountyId":"26679917","CityId":"20617214","DistrictId":"26680252","AddressId":"708804491","RoadLinkId":"197022166"}}},{"Relevance":1.0,"Distance":40.7,"MatchLevel":"houseNumber","MatchQuality":{"Country":1.0,"State":1.0,"County":1.0,"City":1.0,"District":1.0,"Street":[1.0],"HouseNumber":1.0,"PostalCode":1.0},"MatchType":"interpolated","Location":{"LocationId":"NT_kT1oL9htlM61PxS.slLMBB_yA","LocationType":"point","DisplayPosition":{"Latitude":47.86232,"Longitude":17.46465},"MapView":{"TopLeft":{"Latitude":47.8634442,"Longitude":17.4629744},"BottomRight":{"Latitude":47.8611958,"Longitude":17.4663256}},"Address":{"Label":"Fő tér 2, Lipót 9233, Magyarország","Country":"HUN","State":"Győr-Moson-Sopron","County":"Mosonmagyaróvári Járás","City":"Lipót","District":"Lipót","Street":"Fő tér","HouseNumber":"2","PostalCode":"9233","AdditionalData":[{"value":"Magyarország","key":"CountryName"},{"value":"Győr-Moson-Sopron","key":"StateName"},{"value":"Mosonmagyaróvári Járás","key":"CountyName"}]},"MapReference":{"ReferenceId":"914329944","Spot":0.52,"SideOfStreet":"right","CountryId":"20613038","StateId":"20616900","CountyId":"26679917","CityId":"20617214","DistrictId":"26680252","AddressId":"356554071","RoadLinkId":"272092831"}}},{"Relevance":1.0,"Distance":52.8,"MatchLevel":"houseNumber","MatchQuality":{"Country":1.0,"State":1.0,"County":1.0,"City":1.0,"District":1.0,"Street":[1.0],"HouseNumber":1.0,"PostalCode":1.0},"MatchType":"interpolated","Location":{"LocationId":"NT_ntRyi9q5trg2aA1Dhuo9qB_4A","LocationType":"point","DisplayPosition":{"Latitude":47.86227,"Longitude":17.46358},"MapView":{"TopLeft":{"Latitude":47.8633942,"Longitude":17.4619044},"BottomRight":{"Latitude":47.8611458,"Longitude":17.4652556}},"Address":{"Label":"Szabadság utca 8, Lipót 9233, Magyarország","Country":"HUN","State":"Győr-Moson-Sopron","County":"Mosonmagyaróvári Járás","City":"Lipót","District":"Lipót","Street":"Szabadság utca","HouseNumber":"8","PostalCode":"9233","AdditionalData":[{"value":"Magyarország","key":"CountryName"},{"value":"Győr-Moson-Sopron","key":"StateName"},{"value":"Mosonmagyaróvári Járás","key":"CountyName"}]},"MapReference":{"ReferenceId":"598270121","Spot":1.0,"SideOfStreet":"left","CountryId":"20613038","StateId":"20616900","CountyId":"26679917","CityId":"20617214","DistrictId":"26680252","AddressId":"357450432","RoadLinkId":"60312387"}}},{"Relevance":1.0,"Distance":91.2,"MatchLevel":"houseNumber","MatchQuality":{"Country":1.0,"State":1.0,"County":1.0,"City":1.0,"District":1.0,"Street":[1.0],"HouseNumber":1.0,"PostalCode":1.0},"MatchType":"interpolated","Location":{"LocationId":"NT_7HUf4c63uCy4SK8H8H4OCB_1ED","LocationType":"point","DisplayPosition":{"Latitude":47.8632,"Longitude":17.46515},"MapView":{"TopLeft":{"Latitude":47.8643242,"Longitude":17.4634744},"BottomRight":{"Latitude":47.8620758,"Longitude":17.4668256}},"Address":{"Label":"Fő utca 51, Lipót 9233, Magyarország","Country":"HUN","State":"Győr-Moson-Sopron","County":"Mosonmagyaróvári Járás","City":"Lipót","District":"Lipót","Street":"Fő utca","HouseNumber":"51","PostalCode":"9233","AdditionalData":[{"value":"Magyarország","key":"CountryName"},{"value":"Győr-Moson-Sopron","key":"StateName"},{"value":"Mosonmagyaróvári Járás","key":"CountyName"}]},"MapReference":{"ReferenceId":"598270183","Spot":0.91,"SideOfStreet":"right","CountryId":"20613038","StateId":"20616900","CountyId":"26679917","CityId":"20617214","DistrictId":"26680252","AddressId":"356270392","RoadLinkId":"60479235"}}},{"Relevance":1.0,"Distance":95.5,"MatchLevel":"houseNumber","MatchQuality":{"Country":1.0,"State":1.0,"County":1.0,"City":1.0,"District":1.0,"Street":[1.0],"HouseNumber":1.0,"PostalCode":1.0},"MatchType":"interpolated","Location":{"LocationId":"NT_ntRyi9q5trg2aA1Dhuo9qB_yQD","LocationType":"point","DisplayPosition":{"Latitude":47.86335,"Longitude":17.46503},"MapView":{"TopLeft":{"Latitude":47.8644742,"Longitude":17.4633544},"BottomRight":{"Latitude":47.8622258,"Longitude":17.4667056}},"Address":{"Label":"Szabadság utca 24, Lipót 9233, Magyarország","Country":"HUN","State":"Győr-Moson-Sopron","County":"Mosonmagyaróvári Járás","City":"Lipót","District":"Lipót","Street":"Szabadság utca","HouseNumber":"24","PostalCode":"9233","AdditionalData":[{"value":"Magyarország","key":"CountryName"},{"value":"Győr-Moson-Sopron","key":"StateName"},{"value":"Mosonmagyaróvári Járás","key":"CountyName"}]},"MapReference":{"ReferenceId":"598269985","Spot":0.0,"SideOfStreet":"left","CountryId":"20613038","StateId":"20616900","CountyId":"26679917","CityId":"20617214","DistrictId":"26680252","AddressId":"356815267","RoadLinkId":"60713074"}}},{"Relevance":1.0,"Distance":99.0,"MatchLevel":"houseNumber","MatchQuality":{"Country":1.0,"State":1.0,"County":1.0,"City":1.0,"District":1.0,"Street":[1.0],"HouseNumber":1.0,"PostalCode":1.0},"MatchType":"interpolated","Location":{"LocationId":"NT_kT1oL9htlM61PxS.slLMBB_l_914329943_R_yA","LocationType":"point","DisplayPosition":{"Latitude":47.8620613,"Longitude":17.4654458},"MapView":{"TopLeft":{"Latitude":47.8631854,"Longitude":17.4637702},"BottomRight":{"Latitude":47.8609371,"Longitude":17.4671213}},"Address":{"Label":"Fő tér 2, Lipót 9233, Magyarország","Country":"HUN","State":"Győr-Moson-Sopron","County":"Mosonmagyaróvári Járás","City":"Lipót","District":"Lipót","Street":"Fő tér","HouseNumber":"2","PostalCode":"9233","AdditionalData":[{"value":"Magyarország","key":"CountryName"},{"value":"Győr-Moson-Sopron","key":"StateName"},{"value":"Mosonmagyaróvári Járás","key":"CountyName"}]},"MapReference":{"ReferenceId":"914329943","Spot":0.5,"SideOfStreet":"right","CountryId":"20613038","StateId":"20616900","CountyId":"26679917","CityId":"20617214","DistrictId":"26680252"}}}]}]}}