{"Response":{"MetaInfo":{"Timestamp":"2020-03-28T11:50:49.570+0000","NextPageInformation":"2"},"View":[{"_type":"SearchResultsViewType","ViewId":0,"Result":[{"Relevance":1.0,"Distance":0.0,"Direction":0.0,"MatchLevel":"city","MatchQuality":{"Country":1.0,"State":1.0,"County":1.0,"City":1.0,"PostalCode":1.0},"Location":{"LocationId":"NT_dL1TmVL7UxkKHGLSZ5AqrD","LocationType":"point","DisplayPosition":{"Latitude":47.8920811,"Longitude":-2.8344895},"MapView":{"TopLeft":{"Latitude":47.89514,"Longitude":-2.85687},"BottomRight":{"Latitude":47.86547,"Longitude":-2.81995}},"Address":{"Label":"Locminé, Bretagne, France","Country":"FRA","State":"Bretagne","County":"Morbihan","City":"Locminé","PostalCode":"56500","AdditionalData":[{"value":"France","key":"CountryName"},{"value":"Bretagne","key":"StateName"},{"value":"Morbihan","key":"CountyName"}]},"MapReference":{"ReferenceId":"549776252","SideOfStreet":"neither","CountryId":"20000001","StateId":"20060199","CountyId":"20074367","CityId":"20074718"}}},{"Relevance":1.0,"Distance":13.8,"MatchLevel":"street","MatchQuality":{"Country":1.0,"State":1.0,"County":1.0,"City":1.0,"Street":[1.0],"PostalCode":1.0},"Location":{"LocationId":"NT_WrqIM.Ot8XgFglekIPlX4A_l_1114491033_L","LocationType":"point","DisplayPosition":{"Latitude":47.89217,"Longitude":-2.83436},"MapView":{"TopLeft":{"Latitude":47.89217,"Longitude":-2.83436},"BottomRight":{"Latitude":47.89208,"Longitude":-2.83408}},"Address":{"Label":"Rue Ernest Renan, 56500 Locminé, France","Country":"FRA","State":"Bretagne","County":"Morbihan","City":"Locminé","Street":"Rue Ernest Renan","PostalCode":"56500","AdditionalData":[{"value":"France","key":"CountryName"},{"value":"Bretagne","key":"StateName"},{"value":"Morbihan","key":"CountyName"}]},"MapReference":{"ReferenceId":"1114491033","Spot":1.0,"SideOfStreet":"left","CountryId":"20000001","StateId":"20060199","CountyId":"20074367","CityId":"20074718"}}},{"Relevance":1.0,"Distance":14.2,"MatchLevel":"landmark","MatchQuality":{"Country":1.0,"State":1.0,"County":1.0,"Name":1.0},"Location":{"LocationId":"NT_ot6IPaKS18rBdG1YnQEegC","LocationType":"industrialComplex","Name":"Z.A. du Bronut","DisplayPosition":{"Latitude":47.89508,"Longitude":-2.83651},"MapView":{"TopLeft":{"Latitude":47.89815,"Longitude":-2.83946},"BottomRight":{"Latitude":47.89201,"Longitude":-2.83211}},"Address":{"Label":"France","Country":"FRA","State":"Bretagne","County":"Morbihan","AdditionalData":[{"value":"France","key":"CountryName"},{"value":"Bretagne","key":"StateName"},{"value":"Morbihan","key":"CountyName"}]},"MapReference":{"CountryId":"20000001","StateId":"20060199","CountyId":"20074367","PlaceId":"75437464"}}},{"Relevance":1.0,"Distance":14.2,"MatchLevel":"street","MatchQuality":{"Country":1.0,"State":1.0,"County":1.0,"City":1.0,"Street":[1.0],"PostalCode":1.0},"Location":{"LocationId":"NT_WrqIM.Ot8XgFglekIPlX4A_l_1188676977_L","LocationType":"point","DisplayPosition":{"Latitude":47.8922033,"Longitude":-2.834436},"MapView":{"TopLeft":{"Latitude":47.89253,"Longitude":-2.83512},"BottomRight":{"Latitude":47.89217,"Longitude":-2.83436}},"Address":{"Label":"Rue Ernest Renan, 56500 Locminé, France","Country":"FRA","State":"Bretagne","County":"Morbihan","City":"Locminé","Street":"Rue Ernest Renan","PostalCode":"56500","AdditionalData":[{"value":"France","key":"CountryName"},{"value":"Bretagne","key":"StateName"},{"value":"Morbihan","key":"CountyName"}]},"MapReference":{"ReferenceId":"1188676977","Spot":0.1,"SideOfStreet":"left","CountryId":"20000001","StateId":"20060199","CountyId":"20074367","CityId":"20074718"}}},{"Relevance":1.0,"Distance":30.5,"MatchLevel":"street","MatchQuality":{"Country":1.0,"State":1.0,"County":1.0,"City":1.0,"Street":[1.0],"PostalCode":1.0},"Location":{"LocationId":"NT_tqOs9r9Edkyl9oeU9TCa5A_l_1114491032_L","LocationType":"point","DisplayPosition":{"Latitude":47.89208,"Longitude":-2.83408},"MapView":{"TopLeft":{"Latitude":47.89208,"Longitude":-2.83408},"BottomRight":{"Latitude":47.89203,"Longitude":-2.83377}},"Address":{"Label":"Rue Ernest Renan, 56500 Locminé, France","Country":"FRA","State":"Bretagne","County":"Morbihan","City":"Locminé","Street":"Rue Ernest Renan","PostalCode":"56500","AdditionalData":[{"value":"France","key":"CountryName"},{"value":"Bretagne","key":"StateName"},{"value":"Morbihan","key":"CountyName"}]},"MapReference":{"ReferenceId":"1114491032","Spot":1.0,"SideOfStreet":"left","CountryId":"20000001","StateId":"20060199","CountyId":"20074367","CityId":"20074718"}}},{"Relevance":1.0,"Distance":41.2,"MatchLevel":"street","MatchQuality":{"Country":1.0,"State":1.0,"County":1.0,"City":1.0,"PostalCode":1.0},"Location":{"LocationId":"NT_xrECk5cSeYfZcqkAWj62WD_l_947619750_R","LocationType":"point","DisplayPosition":{"Latitude":47.89245,"Longitude":-2.83444},"MapView":{"TopLeft":{"Latitude":47.8929,"Longitude":-2.83444},"BottomRight":{"Latitude":47.89245,"Longitude":-2.83403}},"Address":{"Label":"56500 Moréac, France","Country":"FRA","State":"Bretagne","County":"Morbihan","City":"Moréac","PostalCode":"56500","AdditionalData":[{"value":"France","key":"CountryName"},{"value":"Bretagne","key":"StateName"},{"value":"Morbihan","key":"CountyName"}]},"MapReference":{"ReferenceId":"947619750","Spot":0.0,"SideOfStreet":"right","CountryId":"20000001","StateId":"20060199","CountyId":"20074367","CityId":"20074787"}}},{"Relevance":1.0,"Distance":53.9,"MatchLevel":"street","MatchQuality":{"Country":1.0,"State":1.0,"County":1.0,"City":1.0,"Street":[1.0],"PostalCode":1.0},"Location":{"LocationId":"NT_dNIzZA5IkB2hrjCTBn-B.B_l_546230134_L","LocationType":"point","DisplayPosition":{"Latitude":47.89203,"Longitude":-2.83377},"MapView":{"TopLeft":{"Latitude":47.89211,"Longitude":-2.83377},"BottomRight":{"Latitude":47.89203,"Longitude":-2.83359}},"Address":{"Label":"Rond-Point du Trendeur, 56500 Locminé, France","Country":"FRA","State":"Bretagne","County":"Morbihan","City":"Locminé","Street":"Rond-Point du Trendeur","PostalCode":"56500","AdditionalData":[{"value":"France","key":"CountryName"},{"value":"Bretagne","key":"StateName"},{"value":"Morbihan","key":"CountyName"}]},"MapReference":{"ReferenceId":"546230134","Spot":0.0,"SideOfStreet":"left","CountryId":"20000001","StateId":"20060199","CountyId":"20074367","CityId":"20074718"}}},{"Relevance":1.0,"Distance":54.1,"MatchLevel":"street","MatchQuality":{"Country":1.0,"State":1.0,"County":1.0,"City":1.0,"Street":[1.0],"PostalCode":1.0},"Location":{"LocationId":"NT_dNIzZA5IkB2hrjCTBn-B.B_l_76710737_L","LocationType":"point","DisplayPosition":{"Latitude":47.89198,"Longitude":-2.83378},"MapView":{"TopLeft":{"Latitude":47.89203,"Longitude":-2.83378},"BottomRight":{"Latitude":47.89186,"Longitude":-2.83368}},"Address":{"Label":"Rond-Point du Trendeur, 56500 Locminé, France","Country":"FRA","State":"Bretagne","County":"Morbihan","City":"Locminé","Street":"Rond-Point du Trendeur","PostalCode":"56500","AdditionalData":[{"value":"France","key":"CountryName"},{"value":"Bretagne","key":"StateName"},{"value":"Morbihan","key":"CountyName"}]},"MapReference":{"ReferenceId":"76710737","Spot":0.77,"SideOfStreet":"left","CountryId":"20000001","StateId":"20060199","CountyId":"20074367","CityId":"20074718"}}},{"Relevance":1.0,"Distance":65.2,"MatchLevel":"street","MatchQuality":{"Country":1.0,"State":1.0,"County":1.0,"City":1.0,"Street":[1.0],"PostalCode":1.0},"Location":{"LocationId":"NT_dNIzZA5IkB2hrjCTBn-B.B_l_76710738_L","LocationType":"point","DisplayPosition":{"Latitude":47.89186,"Longitude":-2.83368},"MapView":{"TopLeft":{"Latitude":47.89188,"Longitude":-2.83368},"BottomRight":{"Latitude":47.89185,"Longitude":-2.83343}},"Address":{"Label":"Rond-Point du Trendeur, 56500 Locminé, France","Country":"FRA","State":"Bretagne","County":"Morbihan","City":"Locminé","Street":"Rond-Point du Trendeur","PostalCode":"56500","AdditionalData":[{"value":"France","key":"CountryName"},{"value":"Bretagne","key":"StateName"},{"value":"Morbihan","key":"CountyName"}]},"MapReference":{"ReferenceId":"76710738","Spot":0.0,"SideOfStreet":"left","CountryId":"20000001","StateId":"20060199","CountyId":"20074367","CityId":"20074718"}}},{"Relevance":1.0,"Distance":66.9,"MatchLevel":"street","MatchQuality":{"Country":1.0,"State":1.0,"County":1.0,"City":1.0,"PostalCode":1.0},"Location":{"LocationId":"NT_MrXAO7pI6j4MDkTS1ylFMA_l_546230138_L","LocationType":"point","DisplayPosition":{"Latitude":47.89223,"Longitude":-2.83362},"MapView":{"TopLeft":{"Latitude":47.89223,"Longitude":-2.83362},"BottomRight":{"Latitude":47.89211,"Longitude":-2.83359}},"Address":{"Label":"56500 Locminé, France","Country":"FRA","State":"Bretagne","County":"Morbihan","City":"Locminé","PostalCode":"56500","AdditionalData":[{"value":"France","key":"CountryName"},{"value":"Bretagne","key":"StateName"},{"value":"Morbihan","key":"CountyName"}]},"MapReference":{"ReferenceId":"546230138","Spot":1.0,"SideOfStreet":"left","CountryId":"20000001","StateId":"20060199","CountyId":"20074367","CityId":"20074718"}}}]}]}}