{"Response":{"MetaInfo":{"Timestamp":"2020-03-28T11:14:20.650+0000","NextPageInformation":"2"},"View":[{"_type":"SearchResultsViewType","ViewId":0,"Result":[{"Relevance":1.0,"Distance":0.0,"Direction":0.0,"MatchLevel":"district","MatchQuality":{"Country":1.0,"State":1.0,"County":1.0,"City":1.0,"District":1.0,"PostalCode":1.0},"Location":{"LocationId":"NT_Ayz7T6tPsJ1c5Jpx6Yn0vC","LocationType":"point","DisplayPosition":{"Latitude":47.8877998,"Longitude":3.0955967},"MapView":{"TopLeft":{"Latitude":47.89955,"Longitude":3.0862},"BottomRight":{"Latitude":47.87422,"Longitude":3.10109}},"Address":{"Label":"Charny, Charny Orée de Puisaye, Bourgogne-Franche-Comté, France","Country":"FRA","State":"Bourgogne-Franche-Comté","County":"Yonne","City":"Charny Orée de Puisaye","District":"Charny","PostalCode":"89120","AdditionalData":[{"value":"France","key":"CountryName"},{"value":"Bourgogne-Franche-Comté","key":"StateName"},{"value":"Yonne","key":"CountyName"}]},"MapReference":{"ReferenceId":"548697001","SideOfStreet":"neither","CountryId":"20000001","StateId":"20013306","CountyId":"20004500","CityId":"20043092","DistrictId":"20043094"}}},{"Relevance":1.0,"Distance":38.1,"MatchLevel":"houseNumber","MatchQuality":{"Country":1.0,"State":1.0,"County":1.0,"City":1.0,"District":1.0,"Street":[1.0],"HouseNumber":1.0,"PostalCode":1.0},"MatchType":"interpolated","Location":{"LocationId":"NT_SBfW7RCJt6S4VKIhIPNu7D_xA","LocationType":"point","DisplayPosition":{"Latitude":47.88742,"Longitude":3.09567},"MapView":{"TopLeft":{"Latitude":47.8885442,"Longitude":3.0939936},"BottomRight":{"Latitude":47.8862958,"Longitude":3.0973464}},"Address":{"Label":"1 Rue de Prunoy, 89120 Charny Orée de Puisaye, France","Country":"FRA","State":"Bourgogne-Franche-Comté","County":"Yonne","City":"Charny Orée de Puisaye","District":"Charny","Street":"Rue de Prunoy","HouseNumber":"1","PostalCode":"89120","AdditionalData":[{"value":"France","key":"CountryName"},{"value":"Bourgogne-Franche-Comté","key":"StateName"},{"value":"Yonne","key":"CountyName"}]},"MapReference":{"ReferenceId":"548697045","Spot":0.42,"SideOfStreet":"left","CountryId":"20000001","StateId":"20013306","CountyId":"20004500","CityId":"20043092","DistrictId":"20043094","AddressId":"570237694","RoadLinkId":"53451420"}}},{"Relevance":1.0,"Distance":48.9,"MatchLevel":"houseNumber","MatchQuality":{"Country":1.0,"State":1.0,"County":1.0,"City":1.0,"District":1.0,"Street":[1.0],"HouseNumber":1.0,"PostalCode":1.0},"MatchType":"interpolated","Location":{"LocationId":"NT_-.59uXGOsJYXzeeFRPRNgA_0A","LocationType":"point","DisplayPosition":{"Latitude":47.88795,"Longitude":3.09489},"MapView":{"TopLeft":{"Latitude":47.8890742,"Longitude":3.0932136},"BottomRight":{"Latitude":47.8868258,"Longitude":3.0965664}},"Address":{"Label":"4 Rue de la Mothe, 89120 Charny Orée de Puisaye, France","Country":"FRA","State":"Bourgogne-Franche-Comté","County":"Yonne","City":"Charny Orée de Puisaye","District":"Charny","Street":"Rue de la Mothe","HouseNumber":"4","PostalCode":"89120","AdditionalData":[{"value":"France","key":"CountryName"},{"value":"Bourgogne-Franche-Comté","key":"StateName"},{"value":"Yonne","key":"CountyName"}]},"MapReference":{"ReferenceId":"548697033","Spot":0.57,"SideOfStreet":"right","CountryId":"20000001","StateId":"20013306","CountyId":"20004500","CityId":"20043092","DistrictId":"20043094","AddressId":"320085859","RoadLinkId":"53446871"}}},{"Relevance":1.0,"Distance":64.5,"MatchLevel":"houseNumber","MatchQuality":{"Country":1.0,"State":1.0,"County":1.0,"City":1.0,"District":1.0,"Street":[1.0],"HouseNumber":1.0,"PostalCode":1.0},"MatchType":"interpolated","Location":{"LocationId":"NT_liCMYxIQFHc3B8ackNbegD_zIE","LocationType":"point","DisplayPosition":{"Latitude":47.88713,"Longitude":3.09557},"MapView":{"TopLeft":{"Latitude":47.8882542,"Longitude":3.0938936},"BottomRight":{"Latitude":47.8860058,"Longitude":3.0972464}},"Address":{"Label":"3B Rue Paul Bert, 89120 Charny Orée de Puisaye, France","Country":"FRA","State":"Bourgogne-Franche-Comté","County":"Yonne","City":"Charny Orée de Puisaye","District":"Charny","Street":"Rue Paul Bert","HouseNumber":"3B","PostalCode":"89120","AdditionalData":[{"value":"France","key":"CountryName"},{"value":"Bourgogne-Franche-Comté","key":"StateName"},{"value":"Yonne","key":"CountyName"}]},"MapReference":{"ReferenceId":"548697047","Spot":0.69,"SideOfStreet":"right","CountryId":"20000001","StateId":"20013306","CountyId":"20004500","CityId":"20043092","DistrictId":"20043094","AddressId":"320111600","RoadLinkId":"52725572"}}},{"Relevance":1.0,"Distance":67.3,"MatchLevel":"houseNumber","MatchQuality":{"Country":1.0,"State":1.0,"County":1.0,"City":1.0,"District":1.0,"Street":[1.0],"HouseNumber":1.0,"PostalCode":1.0},"MatchType":"interpolated","Location":{"LocationId":"NT_avlHnPMkaTFHOh4cexp3aD_0ID","LocationType":"point","DisplayPosition":{"Latitude":47.88726,"Longitude":3.09502},"MapView":{"TopLeft":{"Latitude":47.8883842,"Longitude":3.0933436},"BottomRight":{"Latitude":47.8861358,"Longitude":3.0966964}},"Address":{"Label":"42 Grande Rue, 89120 Charny Orée de Puisaye, France","Country":"FRA","State":"Bourgogne-Franche-Comté","County":"Yonne","City":"Charny Orée de Puisaye","District":"Charny","Street":"Grande Rue","HouseNumber":"42","PostalCode":"89120","AdditionalData":[{"value":"France","key":"CountryName"},{"value":"Bourgogne-Franche-Comté","key":"StateName"},{"value":"Yonne","key":"CountyName"}]},"MapReference":{"ReferenceId":"545697376","Spot":0.5,"SideOfStreet":"right","CountryId":"20000001","StateId":"20013306","CountyId":"20004500","CityId":"20043092","DistrictId":"20043094","AddressId":"379164615","RoadLinkId":"53082973"}}},{"Relevance":1.0,"Distance":81.6,"MatchLevel":"houseNumber","MatchQuality":{"Country":1.0,"State":1.0,"County":1.0,"City":1.0,"District":1.0,"Street":[1.0],"HouseNumber":1.0,"PostalCode":1.0},"MatchType":"interpolated","Location":{"LocationId":"NT_3GiwJnQICfCy7bLjhxNLjA_yA","LocationType":"point","DisplayPosition":{"Latitude":47.88715,"Longitude":3.09489},"MapView":{"TopLeft":{"Latitude":47.8882742,"Longitude":3.0932136},"BottomRight":{"Latitude":47.8860258,"Longitude":3.0965664}},"Address":{"Label":"2 Rue Billoy, 89120 Charny Orée de Puisaye, France","Country":"FRA","State":"Bourgogne-Franche-Comté","County":"Yonne","City":"Charny Orée de Puisaye","District":"Charny","Street":"Rue Billoy","HouseNumber":"2","PostalCode":"89120","AdditionalData":[{"value":"France","key":"CountryName"},{"value":"Bourgogne-Franche-Comté","key":"StateName"},{"value":"Yonne","key":"CountyName"}]},"MapReference":{"ReferenceId":"985688619","Spot":0.07,"SideOfStreet":"right","CountryId":"20000001","StateId":"20013306","CountyId":"20004500","CityId":"20043092","DistrictId":"20043094","AddressId":"320066173","RoadLinkId":"316492984"}}},{"Relevance":1.0,"Distance":84.1,"MatchLevel":"houseNumber","MatchQuality":{"Country":1.0,"State":1.0,"County":1.0,"City":1.0,"District":1.0,"Street":[1.0],"HouseNumber":1.0,"PostalCode":1.0},"MatchType":"interpolated","Location":{"LocationId":"NT_-.59uXGOsJYXzeeFRPRNgA_xAD","LocationType":"point","DisplayPosition":{"Latitude":47.88842,"Longitude":3.09486},"MapView":{"TopLeft":{"Latitude":47.8895442,"Longitude":3.0931836},"BottomRight":{"Latitude":47.8872958,"Longitude":3.0965364}},"Address":{"Label":"10 Rue de la Mothe, 89120 Charny Orée de Puisaye, France","Country":"FRA","State":"Bourgogne-Franche-Comté","County":"Yonne","City":"Charny Orée de Puisaye","District":"Charny","Street":"Rue de la Mothe","HouseNumber":"10","PostalCode":"89120","AdditionalData":[{"value":"France","key":"CountryName"},{"value":"Bourgogne-Franche-Comté","key":"StateName"},{"value":"Yonne","key":"CountyName"}]},"MapReference":{"ReferenceId":"1053084631","Spot":0.05,"SideOfStreet":"right","CountryId":"20000001","StateId":"20013306","CountyId":"20004500","CityId":"20043092","DistrictId":"20043094","AddressId":"320019913","RoadLinkId":"372714595"}}},{"Relevance":1.0,"Distance":85.5,"MatchLevel":"houseNumber","MatchQuality":{"Country":1.0,"State":1.0,"County":1.0,"City":1.0,"District":1.0,"Street":[1.0],"HouseNumber":1.0,"PostalCode":1.0},"MatchType":"interpolated","Location":{"LocationId":"NT_ch4Y9B8zhzfQkiR20OdlaA_1A","LocationType":"point","DisplayPosition":{"Latitude":47.88744,"Longitude":3.09661},"MapView":{"TopLeft":{"Latitude":47.8885642,"Longitude":3.0949336},"BottomRight":{"Latitude":47.8863158,"Longitude":3.0982864}},"Address":{"Label":"5 Rue Gambetta, 89120 Charny Orée de Puisaye, France","Country":"FRA","State":"Bourgogne-Franche-Comté","County":"Yonne","City":"Charny Orée de Puisaye","District":"Charny","Street":"Rue Gambetta","HouseNumber":"5","PostalCode":"89120","AdditionalData":[{"value":"France","key":"CountryName"},{"value":"Bourgogne-Franche-Comté","key":"StateName"},{"value":"Yonne","key":"CountyName"}]},"MapReference":{"ReferenceId":"548697044","Spot":0.82,"SideOfStreet":"right","CountryId":"20000001","StateId":"20013306","CountyId":"20004500","CityId":"20043092","DistrictId":"20043094","AddressId":"379209487","RoadLinkId":"53231708"}}},{"Relevance":1.0,"Distance":97.1,"MatchLevel":"houseNumber","MatchQuality":{"Country":1.0,"State":1.0,"County":1.0,"City":1.0,"District":1.0,"Street":[1.0],"HouseNumber":1.0,"PostalCode":1.0},"MatchType":"interpolated","Location":{"LocationId":"NT_avlHnPMkaTFHOh4cexp3aD_0AD","LocationType":"point","DisplayPosition":{"Latitude":47.88699,"Longitude":3.09507},"MapView":{"TopLeft":{"Latitude":47.8881142,"Longitude":3.0933937},"BottomRight":{"Latitude":47.8858658,"Longitude":3.0967463}},"Address":{"Label":"40 Grande Rue, 89120 Charny Orée de Puisaye, France","Country":"FRA","State":"Bourgogne-Franche-Comté","County":"Yonne","City":"Charny Orée de Puisaye","District":"Charny","Street":"Grande Rue","HouseNumber":"40","PostalCode":"89120","AdditionalData":[{"value":"France","key":"CountryName"},{"value":"Bourgogne-Franche-Comté","key":"StateName"},{"value":"Yonne","key":"CountyName"}]},"MapReference":{"ReferenceId":"548697002","Spot":0.64,"SideOfStreet":"right","CountryId":"20000001","StateId":"20013306","CountyId":"20004500","CityId":"20043092","DistrictId":"20043094","AddressId":"379165339","RoadLinkId":"52679215"}}},{"Relevance":1.0,"Distance":106.7,"MatchLevel":"houseNumber","MatchQuality":{"Country":1.0,"State":1.0,"County":1.0,"City":1.0,"District":1.0,"Street":[1.0],"HouseNumber":1.0,"PostalCode":1.0},"MatchType":"interpolated","Location":{"LocationId":"NT_SBfW7RCJt6S4VKIhIPNu7D_l_548697046_L_5A","LocationType":"point","DisplayPosition":{"Latitude":47.8878961,"Longitude":3.0971006},"MapView":{"TopLeft":{"Latitude":47.8890203,"Longitude":3.0954243},"BottomRight":{"Latitude":47.886772,"Longitude":3.098777}},"Address":{"Label":"9 Rue de Prunoy, 89120 Charny Orée de Puisaye, France","Country":"FRA","State":"Bourgogne-Franche-Comté","County":"Yonne","City":"Charny Orée de Puisaye","District":"Charny","Street":"Rue de Prunoy","HouseNumber":"9","PostalCode":"89120","AdditionalData":[{"value":"France","key":"CountryName"},{"value":"Bourgogne-Franche-Comté","key":"StateName"},{"value":"Yonne","key":"CountyName"}]},"MapReference":{"ReferenceId":"548697046","Spot":0.52,"SideOfStreet":"left","CountryId":"20000001","StateId":"20013306","CountyId":"20004500","CityId":"20043092","DistrictId":"20043094"}}}]}]}}