{"Response":{"MetaInfo":{"Timestamp":"2020-03-28T10:29:30.872+0000","NextPageInformation":"2"},"View":[{"_type":"SearchResultsViewType","ViewId":0,"Result":[{"Relevance":1.0,"Distance":0.0,"Direction":0.0,"MatchLevel":"city","MatchQuality":{"Country":1.0,"State":1.0,"County":1.0,"City":1.0,"PostalCode":1.0},"Location":{"LocationId":"NT_D2S2rk7ncvnHsc1TqspO2D","LocationType":"point","DisplayPosition":{"Latitude":47.8179797,"Longitude":6.3739559},"MapView":{"TopLeft":{"Latitude":47.8533,"Longitude":6.30915},"BottomRight":{"Latitude":47.79726,"Longitude":6.40675}},"Address":{"Label":"Luxeuil-les-Bains, Bourgogne-Franche-Comté, France","Country":"FRA","State":"Bourgogne-Franche-Comté","County":"Haute-Saône","City":"Luxeuil-les-Bains","PostalCode":"70300","AdditionalData":[{"value":"France","key":"CountryName"},{"value":"Bourgogne-Franche-Comté","key":"StateName"},{"value":"Haute-Saône","key":"CountyName"}]},"MapReference":{"ReferenceId":"68062995","SideOfStreet":"neither","CountryId":"20000001","StateId":"20013306","CountyId":"20035503","CityId":"20036380"}}},{"Relevance":1.0,"Distance":27.6,"MatchLevel":"houseNumber","MatchQuality":{"Country":1.0,"State":1.0,"County":1.0,"City":1.0,"Street":[1.0],"HouseNumber":1.0,"PostalCode":1.0},"MatchType":"interpolated","Location":{"LocationId":"NT_wLJLJmu8b4ITJrmpTPHGMD_xMD","LocationType":"point","DisplayPosition":{"Latitude":47.81799,"Longitude":6.37464},"MapView":{"TopLeft":{"Latitude":47.8191142,"Longitude":6.3729659},"BottomRight":{"Latitude":47.8168658,"Longitude":6.3763141}},"Address":{"Label":"13 Avenue Labiénus, 70300 Luxeuil-les-Bains, France","Country":"FRA","State":"Bourgogne-Franche-Comté","County":"Haute-Saône","City":"Luxeuil-les-Bains","Street":"Avenue Labiénus","HouseNumber":"13","PostalCode":"70300","AdditionalData":[{"value":"France","key":"CountryName"},{"value":"Bourgogne-Franche-Comté","key":"StateName"},{"value":"Haute-Saône","key":"CountyName"}]},"MapReference":{"ReferenceId":"70173654","Spot":0.54,"SideOfStreet":"left","CountryId":"20000001","StateId":"20013306","CountyId":"20035503","CityId":"20036380","AddressId":"344697536","RoadLinkId":"44608504"}}},{"Relevance":1.0,"Distance":43.4,"MatchLevel":"houseNumber","MatchQuality":{"Country":1.0,"State":1.0,"County":1.0,"City":1.0,"Street":[1.0],"HouseNumber":1.0,"PostalCode":1.0},"MatchType":"interpolated","Location":{"LocationId":"NT_j-X.6hNJgE3W5Ls1d8ZiqC_0A","LocationType":"point","DisplayPosition":{"Latitude":47.81769,"Longitude":6.37349},"MapView":{"TopLeft":{"Latitude":47.8188142,"Longitude":6.3718159},"BottomRight":{"Latitude":47.8165658,"Longitude":6.3751641}},"Address":{"Label":"4 Allée Jules Grévin, 70300 Luxeuil-les-Bains, France","Country":"FRA","State":"Bourgogne-Franche-Comté","County":"Haute-Saône","City":"Luxeuil-les-Bains","Street":"Allée Jules Grévin","HouseNumber":"4","PostalCode":"70300","AdditionalData":[{"value":"France","key":"CountryName"},{"value":"Bourgogne-Franche-Comté","key":"StateName"},{"value":"Haute-Saône","key":"CountyName"}]},"MapReference":{"ReferenceId":"70176272","Spot":0.86,"SideOfStreet":"right","CountryId":"20000001","StateId":"20013306","CountyId":"20035503","CityId":"20036380","AddressId":"344695256","RoadLinkId":"44833131"}}},{"Relevance":1.0,"Distance":65.8,"MatchLevel":"houseNumber","MatchQuality":{"Country":1.0,"State":1.0,"County":1.0,"City":1.0,"Street":[1.0],"HouseNumber":1.0,"PostalCode":1.0},"MatchType":"interpolated","Location":{"LocationId":"NT_uuKWvgJjUUR8Q1pr.YzTEA_1A","LocationType":"point","DisplayPosition":{"Latitude":47.81857,"Longitude":6.37371},"MapView":{"TopLeft":{"Latitude":47.8196942,"Longitude":6.3720359},"BottomRight":{"Latitude":47.8174458,"Longitude":6.3753841}},"Address":{"Label":"5 Rue des Aubépines, 70300 Luxeuil-les-Bains, France","Country":"FRA","State":"Bourgogne-Franche-Comté","County":"Haute-Saône","City":"Luxeuil-les-Bains","Street":"Rue des Aubépines","HouseNumber":"5","PostalCode":"70300","AdditionalData":[{"value":"France","key":"CountryName"},{"value":"Bourgogne-Franche-Comté","key":"StateName"},{"value":"Haute-Saône","key":"CountyName"}]},"MapReference":{"ReferenceId":"70176275","Spot":0.63,"SideOfStreet":"right","CountryId":"20000001","StateId":"20013306","CountyId":"20035503","CityId":"20036380","AddressId":"344696241","RoadLinkId":"44554979"}}},{"Relevance":1.0,"Distance":67.0,"MatchLevel":"houseNumber","MatchQuality":{"Country":1.0,"State":1.0,"County":1.0,"City":1.0,"Street":[1.0],"HouseNumber":1.0,"PostalCode":1.0},"MatchType":"interpolated","Location":{"LocationId":"NT_0UwSn8gadT9lkx0st-O5UA_yA","LocationType":"point","DisplayPosition":{"Latitude":47.81735,"Longitude":6.37375},"MapView":{"TopLeft":{"Latitude":47.8184742,"Longitude":6.3720759},"BottomRight":{"Latitude":47.8162258,"Longitude":6.3754241}},"Address":{"Label":"2 Rue Pierre de Ronsard, 70300 Luxeuil-les-Bains, France","Country":"FRA","State":"Bourgogne-Franche-Comté","County":"Haute-Saône","City":"Luxeuil-les-Bains","Street":"Rue Pierre de Ronsard","HouseNumber":"2","PostalCode":"70300","AdditionalData":[{"value":"France","key":"CountryName"},{"value":"Bourgogne-Franche-Comté","key":"StateName"},{"value":"Haute-Saône","key":"CountyName"}]},"MapReference":{"ReferenceId":"70176283","Spot":0.75,"SideOfStreet":"right","CountryId":"20000001","StateId":"20013306","CountyId":"20035503","CityId":"20036380","AddressId":"344698703","RoadLinkId":"44707857"}}},{"Relevance":1.0,"Distance":72.0,"MatchLevel":"houseNumber","MatchQuality":{"Country":1.0,"State":1.0,"County":1.0,"City":1.0,"Street":[1.0],"HouseNumber":1.0,"PostalCode":1.0},"MatchType":"interpolated","Location":{"LocationId":"NT_uuKWvgJjUUR8Q1pr.YzTEA_zA","LocationType":"point","DisplayPosition":{"Latitude":47.81865,"Longitude":6.37411},"MapView":{"TopLeft":{"Latitude":47.8197742,"Longitude":6.3724359},"BottomRight":{"Latitude":47.8175258,"Longitude":6.3757841}},"Address":{"Label":"3 Rue des Aubépines, 70300 Luxeuil-les-Bains, France","Country":"FRA","State":"Bourgogne-Franche-Comté","County":"Haute-Saône","City":"Luxeuil-les-Bains","Street":"Rue des Aubépines","HouseNumber":"3","PostalCode":"70300","AdditionalData":[{"value":"France","key":"CountryName"},{"value":"Bourgogne-Franche-Comté","key":"StateName"},{"value":"Haute-Saône","key":"CountyName"}]},"MapReference":{"ReferenceId":"70176287","Spot":0.0,"SideOfStreet":"right","CountryId":"20000001","StateId":"20013306","CountyId":"20035503","CityId":"20036380","AddressId":"344698181","RoadLinkId":"44133659"}}},{"Relevance":1.0,"Distance":79.7,"MatchLevel":"houseNumber","MatchQuality":{"Country":1.0,"State":1.0,"County":1.0,"City":1.0,"Street":[1.0],"HouseNumber":1.0,"PostalCode":1.0},"MatchType":"interpolated","Location":{"LocationId":"NT_0UwSn8gadT9lkx0st-O5UA_0A","LocationType":"point","DisplayPosition":{"Latitude":47.81736,"Longitude":6.37329},"MapView":{"TopLeft":{"Latitude":47.8184842,"Longitude":6.3716159},"BottomRight":{"Latitude":47.8162358,"Longitude":6.3749641}},"Address":{"Label":"4 Rue Pierre de Ronsard, 70300 Luxeuil-les-Bains, France","Country":"FRA","State":"Bourgogne-Franche-Comté","County":"Haute-Saône","City":"Luxeuil-les-Bains","Street":"Rue Pierre de Ronsard","HouseNumber":"4","PostalCode":"70300","AdditionalData":[{"value":"France","key":"CountryName"},{"value":"Bourgogne-Franche-Comté","key":"StateName"},{"value":"Haute-Saône","key":"CountyName"}]},"MapReference":{"ReferenceId":"70176282","Spot":0.46,"SideOfStreet":"left","CountryId":"20000001","StateId":"20013306","CountyId":"20035503","CityId":"20036380","AddressId":"344697762","RoadLinkId":"44321898"}}},{"Relevance":1.0,"Distance":81.7,"MatchLevel":"houseNumber","MatchQuality":{"Country":1.0,"State":1.0,"County":1.0,"City":1.0,"Street":[1.0],"HouseNumber":1.0,"PostalCode":1.0},"MatchType":"interpolated","Location":{"LocationId":"NT_bNnOIirY1yx.zUR3T32DUC_xID","LocationType":"point","DisplayPosition":{"Latitude":47.81807,"Longitude":6.37509},"MapView":{"TopLeft":{"Latitude":47.8191942,"Longitude":6.3734159},"BottomRight":{"Latitude":47.8169458,"Longitude":6.3767641}},"Address":{"Label":"12 Rue de la Saline, 70300 Luxeuil-les-Bains, France","Country":"FRA","State":"Bourgogne-Franche-Comté","County":"Haute-Saône","City":"Luxeuil-les-Bains","Street":"Rue de la Saline","HouseNumber":"12","PostalCode":"70300","AdditionalData":[{"value":"France","key":"CountryName"},{"value":"Bourgogne-Franche-Comté","key":"StateName"},{"value":"Haute-Saône","key":"CountyName"}]},"MapReference":{"ReferenceId":"70176094","Spot":0.78,"SideOfStreet":"left","CountryId":"20000001","StateId":"20013306","CountyId":"20035503","CityId":"20036380","AddressId":"590399596","RoadLinkId":"44109201"}}},{"Relevance":1.0,"Distance":96.5,"MatchLevel":"houseNumber","MatchQuality":{"Country":1.0,"State":1.0,"County":1.0,"City":1.0,"Street":[1.0],"HouseNumber":1.0,"PostalCode":1.0},"MatchType":"interpolated","Location":{"LocationId":"NT_uuKWvgJjUUR8Q1pr.YzTEA_5A","LocationType":"point","DisplayPosition":{"Latitude":47.81849,"Longitude":6.37288},"MapView":{"TopLeft":{"Latitude":47.8196142,"Longitude":6.3712059},"BottomRight":{"Latitude":47.8173658,"Longitude":6.3745541}},"Address":{"Label":"9 Rue des Aubépines, 70300 Luxeuil-les-Bains, France","Country":"FRA","State":"Bourgogne-Franche-Comté","County":"Haute-Saône","City":"Luxeuil-les-Bains","Street":"Rue des Aubépines","HouseNumber":"9","PostalCode":"70300","AdditionalData":[{"value":"France","key":"CountryName"},{"value":"Bourgogne-Franche-Comté","key":"StateName"},{"value":"Haute-Saône","key":"CountyName"}]},"MapReference":{"ReferenceId":"70176284","Spot":0.94,"SideOfStreet":"right","CountryId":"20000001","StateId":"20013306","CountyId":"20035503","CityId":"20036380","AddressId":"344696239","RoadLinkId":"44044552"}}},{"Relevance":1.0,"Distance":99.9,"MatchLevel":"houseNumber","MatchQuality":{"Country":1.0,"State":1.0,"County":1.0,"City":1.0,"Street":[1.0],"HouseNumber":1.0,"PostalCode":1.0},"MatchType":"interpolated","Location":{"LocationId":"NT_wLJLJmu8b4ITJrmpTPHGMD_5A","LocationType":"point","DisplayPosition":{"Latitude":47.81867,"Longitude":6.37491},"MapView":{"TopLeft":{"Latitude":47.8197942,"Longitude":6.3732359},"BottomRight":{"Latitude":47.8175458,"Longitude":6.3765841}},"Address":{"Label":"9 Avenue Labiénus, 70300 Luxeuil-les-Bains, France","Country":"FRA","State":"Bourgogne-Franche-Comté","County":"Haute-Saône","City":"Luxeuil-les-Bains","Street":"Avenue Labiénus","HouseNumber":"9","PostalCode":"70300","AdditionalData":[{"value":"France","key":"CountryName"},{"value":"Bourgogne-Franche-Comté","key":"StateName"},{"value":"Haute-Saône","key":"CountyName"}]},"MapReference":{"ReferenceId":"70173655","Spot":0.18,"SideOfStreet":"left","CountryId":"20000001","StateId":"20013306","CountyId":"20035503","CityId":"20036380","AddressId":"344698939","RoadLinkId":"44990117"}}}]}]}}