{"Response":{"MetaInfo":{"Timestamp":"2020-03-28T11:14:37.180+0000","NextPageInformation":"2"},"View":[{"_type":"SearchResultsViewType","ViewId":0,"Result":[{"Relevance":1.0,"Distance":0.0,"Direction":0.0,"MatchLevel":"city","MatchQuality":{"Country":1.0,"State":1.0,"County":1.0,"City":1.0,"PostalCode":1.0},"Location":{"LocationId":"NT_kD5XCx8o-.55JGwTpdCWeB","LocationType":"point","DisplayPosition":{"Latitude":47.8121417,"Longitude":3.5649417},"MapView":{"TopLeft":{"Latitude":47.85231,"Longitude":3.5261},"BottomRight":{"Latitude":47.73472,"Longitude":3.63735}},"Address":{"Label":"Auxerre, Bourgogne-Franche-Comté, France","Country":"FRA","State":"Bourgogne-Franche-Comté","County":"Yonne","City":"Auxerre","PostalCode":"89000","AdditionalData":[{"value":"France","key":"CountryName"},{"value":"Bourgogne-Franche-Comté","key":"StateName"},{"value":"Yonne","key":"CountyName"}]},"MapReference":{"ReferenceId":"545403234","SideOfStreet":"neither","CountryId":"20000001","StateId":"20013306","CountyId":"20004500","CityId":"20042916"}}},{"Relevance":1.0,"Distance":19.2,"MatchLevel":"street","MatchQuality":{"Country":1.0,"State":1.0,"County":1.0,"City":1.0,"PostalCode":1.0},"Location":{"LocationId":"NT_PAxUFrQrkM82c5XgiRTKgD_l_1134041657_R","LocationType":"point","DisplayPosition":{"Latitude":47.81198,"Longitude":3.56485},"MapView":{"TopLeft":{"Latitude":47.81198,"Longitude":3.56485},"BottomRight":{"Latitude":47.81182,"Longitude":3.56498}},"Address":{"Label":"89000 Auxerre, France","Country":"FRA","State":"Bourgogne-Franche-Comté","County":"Yonne","City":"Auxerre","PostalCode":"89000","AdditionalData":[{"value":"France","key":"CountryName"},{"value":"Bourgogne-Franche-Comté","key":"StateName"},{"value":"Yonne","key":"CountyName"}]},"MapReference":{"ReferenceId":"1134041657","Spot":1.0,"SideOfStreet":"right","CountryId":"20000001","StateId":"20013306","CountyId":"20004500","CityId":"20042916"}}},{"Relevance":1.0,"Distance":35.3,"MatchLevel":"street","MatchQuality":{"Country":1.0,"State":1.0,"County":1.0,"City":1.0,"PostalCode":1.0},"Location":{"LocationId":"NT_PAxUFrQrkM82c5XgiRTKgD_l_1134041656_L","LocationType":"point","DisplayPosition":{"Latitude":47.811828,"Longitude":3.5650146},"MapView":{"TopLeft":{"Latitude":47.81205,"Longitude":3.56498},"BottomRight":{"Latitude":47.81182,"Longitude":3.56597}},"Address":{"Label":"89000 Auxerre, France","Country":"FRA","State":"Bourgogne-Franche-Comté","County":"Yonne","City":"Auxerre","PostalCode":"89000","AdditionalData":[{"value":"France","key":"CountryName"},{"value":"Bourgogne-Franche-Comté","key":"StateName"},{"value":"Yonne","key":"CountyName"}]},"MapReference":{"ReferenceId":"1134041656","Spot":0.03,"SideOfStreet":"left","CountryId":"20000001","StateId":"20013306","CountyId":"20004500","CityId":"20042916"}}},{"Relevance":1.0,"Distance":43.8,"MatchLevel":"street","MatchQuality":{"Country":1.0,"State":1.0,"County":1.0,"City":1.0,"PostalCode":1.0},"Location":{"LocationId":"NT_PAxUFrQrkM82c5XgiRTKgD_l_1020308518_L","LocationType":"point","DisplayPosition":{"Latitude":47.81221,"Longitude":3.56552},"MapView":{"TopLeft":{"Latitude":47.81221,"Longitude":3.56552},"BottomRight":{"Latitude":47.81205,"Longitude":3.56597}},"Address":{"Label":"89000 Auxerre, France","Country":"FRA","State":"Bourgogne-Franche-Comté","County":"Yonne","City":"Auxerre","PostalCode":"89000","AdditionalData":[{"value":"France","key":"CountryName"},{"value":"Bourgogne-Franche-Comté","key":"StateName"},{"value":"Yonne","key":"CountyName"}]},"MapReference":{"ReferenceId":"1020308518","Spot":1.0,"SideOfStreet":"left","CountryId":"20000001","StateId":"20013306","CountyId":"20004500","CityId":"20042916"}}},{"Relevance":1.0,"Distance":49.9,"MatchLevel":"street","MatchQuality":{"Country":1.0,"State":1.0,"County":1.0,"City":1.0,"Street":[1.0],"PostalCode":1.0},"Location":{"LocationId":"NT_fe-JPDiQvx-FJNTqTz4Q-D_l_1020308509_R","LocationType":"point","DisplayPosition":{"Latitude":47.81235,"Longitude":3.56435},"MapView":{"TopLeft":{"Latitude":47.81235,"Longitude":3.56355},"BottomRight":{"Latitude":47.81215,"Longitude":3.56435}},"Address":{"Label":"Rue Louise Weiss, 89000 Auxerre, France","Country":"FRA","State":"Bourgogne-Franche-Comté","County":"Yonne","City":"Auxerre","Street":"Rue Louise Weiss","PostalCode":"89000","AdditionalData":[{"value":"France","key":"CountryName"},{"value":"Bourgogne-Franche-Comté","key":"StateName"},{"value":"Yonne","key":"CountyName"}]},"MapReference":{"ReferenceId":"1020308509","Spot":1.0,"SideOfStreet":"right","CountryId":"20000001","StateId":"20013306","CountyId":"20004500","CityId":"20042916"}}},{"Relevance":1.0,"Distance":49.9,"MatchLevel":"street","MatchQuality":{"Country":1.0,"State":1.0,"County":1.0,"City":1.0,"PostalCode":1.0},"Location":{"LocationId":"NT_PAxUFrQrkM82c5XgiRTKgD_l_1020308512_R","LocationType":"point","DisplayPosition":{"Latitude":47.81235,"Longitude":3.56435},"MapView":{"TopLeft":{"Latitude":47.81347,"Longitude":3.5638},"BottomRight":{"Latitude":47.81235,"Longitude":3.56435}},"Address":{"Label":"89000 Auxerre, France","Country":"FRA","State":"Bourgogne-Franche-Comté","County":"Yonne","City":"Auxerre","PostalCode":"89000","AdditionalData":[{"value":"France","key":"CountryName"},{"value":"Bourgogne-Franche-Comté","key":"StateName"},{"value":"Yonne","key":"CountyName"}]},"MapReference":{"ReferenceId":"1020308512","Spot":0.0,"SideOfStreet":"right","CountryId":"20000001","StateId":"20013306","CountyId":"20004500","CityId":"20042916"}}},{"Relevance":1.0,"Distance":77.5,"MatchLevel":"street","MatchQuality":{"Country":1.0,"State":1.0,"County":1.0,"City":1.0,"PostalCode":1.0},"Location":{"LocationId":"NT_PAxUFrQrkM82c5XgiRTKgD_l_1020308517_L","LocationType":"point","DisplayPosition":{"Latitude":47.81205,"Longitude":3.56597},"MapView":{"TopLeft":{"Latitude":47.8121,"Longitude":3.56597},"BottomRight":{"Latitude":47.81205,"Longitude":3.56617}},"Address":{"Label":"89000 Auxerre, France","Country":"FRA","State":"Bourgogne-Franche-Comté","County":"Yonne","City":"Auxerre","PostalCode":"89000","AdditionalData":[{"value":"France","key":"CountryName"},{"value":"Bourgogne-Franche-Comté","key":"StateName"},{"value":"Yonne","key":"CountyName"}]},"MapReference":{"ReferenceId":"1020308517","Spot":0.0,"SideOfStreet":"left","CountryId":"20000001","StateId":"20013306","CountyId":"20004500","CityId":"20042916"}}},{"Relevance":1.0,"Distance":91.8,"MatchLevel":"landmark","MatchQuality":{"Country":1.0,"State":1.0,"County":1.0,"City":1.0,"PostalCode":1.0,"Name":1.0},"Location":{"LocationId":"NT_w8tYRZns9V71Q19TnyI6yC_p_nbTyffHOQgRVSEZoW1ZZtB","LocationType":"shoppingCentre","Name":"Z.A.C. les Clairions","DisplayPosition":{"Latitude":47.81339,"Longitude":3.56995},"MapView":{"TopLeft":{"Latitude":47.81934,"Longitude":3.56119},"BottomRight":{"Latitude":47.81076,"Longitude":3.57395}},"Address":{"Label":"89000 Auxerre, France","Country":"FRA","State":"Bourgogne-Franche-Comté","County":"Yonne","City":"Auxerre","PostalCode":"89000","AdditionalData":[{"value":"France","key":"CountryName"},{"value":"Bourgogne-Franche-Comté","key":"StateName"},{"value":"Yonne","key":"CountyName"}]},"MapReference":{"CountryId":"20000001","StateId":"20013306","CountyId":"20004500","CityId":"20042916","PlaceId":"1031906534"}}},{"Relevance":1.0,"Distance":91.8,"MatchLevel":"houseNumber","MatchQuality":{"Country":1.0,"State":1.0,"County":1.0,"City":1.0,"Street":[1.0],"HouseNumber":1.0,"PostalCode":1.0},"MatchType":"interpolated","Location":{"LocationId":"NT_2vgE1u5rH9jCRX8oY6qsZD_4A","LocationType":"point","DisplayPosition":{"Latitude":47.8121,"Longitude":3.56617},"MapView":{"TopLeft":{"Latitude":47.8132242,"Longitude":3.5644961},"BottomRight":{"Latitude":47.8109758,"Longitude":3.5678439}},"Address":{"Label":"8 Avenue de la Fontaine Sainte-Marguerite, 89000 Auxerre, France","Country":"FRA","State":"Bourgogne-Franche-Comté","County":"Yonne","City":"Auxerre","Street":"Avenue de la Fontaine Sainte-Marguerite","HouseNumber":"8","PostalCode":"89000","AdditionalData":[{"value":"France","key":"CountryName"},{"value":"Bourgogne-Franche-Comté","key":"StateName"},{"value":"Yonne","key":"CountyName"}]},"MapReference":{"ReferenceId":"828679125","Spot":1.0,"SideOfStreet":"right","CountryId":"20000001","StateId":"20013306","CountyId":"20004500","CityId":"20042916","AddressId":"320021771","RoadLinkId":"213156607"}}},{"Relevance":1.0,"Distance":91.8,"MatchLevel":"street","MatchQuality":{"Country":1.0,"State":1.0,"County":1.0,"City":1.0,"Street":[1.0],"PostalCode":1.0},"Location":{"LocationId":"NT_2vgE1u5rH9jCRX8oY6qsZD_l_987712322_L","LocationType":"point","DisplayPosition":{"Latitude":47.8121,"Longitude":3.56617},"MapView":{"TopLeft":{"Latitude":47.81267,"Longitude":3.56617},"BottomRight":{"Latitude":47.8121,"Longitude":3.56627}},"Address":{"Label":"Avenue de la Fontaine Sainte-Marguerite, 89000 Auxerre, France","Country":"FRA","State":"Bourgogne-Franche-Comté","County":"Yonne","City":"Auxerre","Street":"Avenue de la Fontaine Sainte-Marguerite","PostalCode":"89000","AdditionalData":[{"value":"France","key":"CountryName"},{"value":"Bourgogne-Franche-Comté","key":"StateName"},{"value":"Yonne","key":"CountyName"}]},"MapReference":{"ReferenceId":"987712322","Spot":0.0,"SideOfStreet":"left","CountryId":"20000001","StateId":"20013306","CountyId":"20004500","CityId":"20042916"}}}]}]}}