{"Response":{"MetaInfo":{"Timestamp":"2020-03-28T09:49:35.377+0000","NextPageInformation":"2"},"View":[{"_type":"SearchResultsViewType","ViewId":0,"Result":[{"Relevance":1.0,"Distance":0.0,"Direction":0.0,"MatchLevel":"city","MatchQuality":{"Country":1.0,"State":1.0,"County":1.0,"City":1.0,"PostalCode":1.0},"Location":{"LocationId":"NT_P4GLP6s9WN0Lxd4.r5Yy6B","LocationType":"point","DisplayPosition":{"Latitude":47.8610829,"Longitude":-3.5653365},"MapView":{"TopLeft":{"Latitude":47.88997,"Longitude":-3.61101},"BottomRight":{"Latitude":47.82192,"Longitude":-3.50608}},"Address":{"Label":"Quimperlé, Bretagne, France","Country":"FRA","State":"Bretagne","County":"Finistère","City":"Quimperlé","PostalCode":"29300","AdditionalData":[{"value":"France","key":"CountryName"},{"value":"Bretagne","key":"StateName"},{"value":"Finistère","key":"CountyName"}]},"MapReference":{"ReferenceId":"545644514","SideOfStreet":"neither","CountryId":"20000001","StateId":"20060199","CountyId":"20064592","CityId":"20065258"}}},{"Relevance":1.0,"Distance":37.1,"MatchLevel":"houseNumber","MatchQuality":{"Country":1.0,"State":1.0,"County":1.0,"City":1.0,"Street":[1.0],"HouseNumber":1.0,"PostalCode":1.0},"MatchType":"interpolated","Location":{"LocationId":"NT_O2DZvCMUxNnCjY33Pf.EnB_4A","LocationType":"point","DisplayPosition":{"Latitude":47.86128,"Longitude":-3.56633},"MapView":{"TopLeft":{"Latitude":47.8624042,"Longitude":-3.5680055},"BottomRight":{"Latitude":47.8601558,"Longitude":-3.5646545}},"Address":{"Label":"8 Rue du Pays de Galles, 29300 Quimperlé, France","Country":"FRA","State":"Bretagne","County":"Finistère","City":"Quimperlé","Street":"Rue du Pays de Galles","HouseNumber":"8","PostalCode":"29300","AdditionalData":[{"value":"France","key":"CountryName"},{"value":"Bretagne","key":"StateName"},{"value":"Finistère","key":"CountyName"}]},"MapReference":{"ReferenceId":"545645075","Spot":0.45,"SideOfStreet":"right","CountryId":"20000001","StateId":"20060199","CountyId":"20064592","CityId":"20065258","AddressId":"320567150","RoadLinkId":"47554123"}}},{"Relevance":1.0,"Distance":93.7,"MatchLevel":"street","MatchQuality":{"Country":1.0,"State":1.0,"County":1.0,"City":1.0,"Street":[1.0],"PostalCode":1.0},"Location":{"LocationId":"NT_rVVCOqH7pJVcP6KbxyKV.A_l_813058456_R","LocationType":"point","DisplayPosition":{"Latitude":47.86068,"Longitude":-3.56644},"MapView":{"TopLeft":{"Latitude":47.86071,"Longitude":-3.5665},"BottomRight":{"Latitude":47.86068,"Longitude":-3.56644}},"Address":{"Label":"Rue de Trélivalaire, 29300 Quimperlé, France","Country":"FRA","State":"Bretagne","County":"Finistère","City":"Quimperlé","Street":"Rue de Trélivalaire","PostalCode":"29300","AdditionalData":[{"value":"France","key":"CountryName"},{"value":"Bretagne","key":"StateName"},{"value":"Finistère","key":"CountyName"}]},"MapReference":{"ReferenceId":"813058456","Spot":0.0,"SideOfStreet":"right","CountryId":"20000001","StateId":"20060199","CountyId":"20064592","CityId":"20065258"}}},{"Relevance":1.0,"Distance":98.9,"MatchLevel":"houseNumber","MatchQuality":{"Country":1.0,"State":1.0,"County":1.0,"City":1.0,"Street":[1.0],"HouseNumber":1.0,"PostalCode":1.0},"MatchType":"interpolated","Location":{"LocationId":"NT_rVVCOqH7pJVcP6KbxyKV.A_3A","LocationType":"point","DisplayPosition":{"Latitude":47.86074,"Longitude":-3.56656},"MapView":{"TopLeft":{"Latitude":47.8618642,"Longitude":-3.5682355},"BottomRight":{"Latitude":47.8596158,"Longitude":-3.5648845}},"Address":{"Label":"7 Rue de Trélivalaire, 29300 Quimperlé, France","Country":"FRA","State":"Bretagne","County":"Finistère","City":"Quimperlé","Street":"Rue de Trélivalaire","HouseNumber":"7","PostalCode":"29300","AdditionalData":[{"value":"France","key":"CountryName"},{"value":"Bretagne","key":"StateName"},{"value":"Finistère","key":"CountyName"}]},"MapReference":{"ReferenceId":"813058457","Spot":0.17,"SideOfStreet":"left","CountryId":"20000001","StateId":"20060199","CountyId":"20064592","CityId":"20065258","AddressId":"320640518","RoadLinkId":"200397624"}}},{"Relevance":1.0,"Distance":100.5,"MatchLevel":"houseNumber","MatchQuality":{"Country":1.0,"State":1.0,"County":1.0,"City":1.0,"Street":[1.0],"HouseNumber":1.0,"PostalCode":1.0},"MatchType":"interpolated","Location":{"LocationId":"NT_rVVCOqH7pJVcP6KbxyKV.A_yA","LocationType":"point","DisplayPosition":{"Latitude":47.86013,"Longitude":-3.5653},"MapView":{"TopLeft":{"Latitude":47.8612542,"Longitude":-3.5669755},"BottomRight":{"Latitude":47.8590058,"Longitude":-3.5636245}},"Address":{"Label":"2 Rue de Trélivalaire, 29300 Quimperlé, France","Country":"FRA","State":"Bretagne","County":"Finistère","City":"Quimperlé","Street":"Rue de Trélivalaire","HouseNumber":"2","PostalCode":"29300","AdditionalData":[{"value":"France","key":"CountryName"},{"value":"Bretagne","key":"StateName"},{"value":"Finistère","key":"CountyName"}]},"MapReference":{"ReferenceId":"546217299","Spot":0.17,"SideOfStreet":"right","CountryId":"20000001","StateId":"20060199","CountyId":"20064592","CityId":"20065258","AddressId":"360621297","RoadLinkId":"46498592"}}},{"Relevance":1.0,"Distance":102.0,"MatchLevel":"houseNumber","MatchQuality":{"Country":1.0,"State":1.0,"County":1.0,"City":1.0,"Street":[1.0],"HouseNumber":1.0,"PostalCode":1.0},"MatchType":"interpolated","Location":{"LocationId":"NT_U-p9R6F.KDDM7LYOU0uyRB_xA","LocationType":"point","DisplayPosition":{"Latitude":47.86029,"Longitude":-3.5646},"MapView":{"TopLeft":{"Latitude":47.8614142,"Longitude":-3.5662755},"BottomRight":{"Latitude":47.8591658,"Longitude":-3.5629245}},"Address":{"Label":"1 Impasse d'Irlande, 29300 Quimperlé, France","Country":"FRA","State":"Bretagne","County":"Finistère","City":"Quimperlé","Street":"Impasse d'Irlande","HouseNumber":"1","PostalCode":"29300","AdditionalData":[{"value":"France","key":"CountryName"},{"value":"Bretagne","key":"StateName"},{"value":"Finistère","key":"CountyName"}]},"MapReference":{"ReferenceId":"813906236","Spot":0.65,"SideOfStreet":"left","CountryId":"20000001","StateId":"20060199","CountyId":"20064592","CityId":"20065258","AddressId":"320492400","RoadLinkId":"201191233"}}},{"Relevance":1.0,"Distance":118.6,"MatchLevel":"houseNumber","MatchQuality":{"Country":1.0,"State":1.0,"County":1.0,"City":1.0,"Street":[1.0],"HouseNumber":1.0,"PostalCode":1.0},"MatchType":"interpolated","Location":{"LocationId":"NT_rVVCOqH7pJVcP6KbxyKV.A_5A","LocationType":"point","DisplayPosition":{"Latitude":47.86093,"Longitude":-3.56691},"MapView":{"TopLeft":{"Latitude":47.8620542,"Longitude":-3.5685855},"BottomRight":{"Latitude":47.8598058,"Longitude":-3.5652345}},"Address":{"Label":"9 Rue de Trélivalaire, 29300 Quimperlé, France","Country":"FRA","State":"Bretagne","County":"Finistère","City":"Quimperlé","Street":"Rue de Trélivalaire","HouseNumber":"9","PostalCode":"29300","AdditionalData":[{"value":"France","key":"CountryName"},{"value":"Bretagne","key":"StateName"},{"value":"Finistère","key":"CountyName"}]},"MapReference":{"ReferenceId":"1160920765","Spot":0.18,"SideOfStreet":"left","CountryId":"20000001","StateId":"20060199","CountyId":"20064592","CityId":"20065258","AddressId":"320518519","RoadLinkId":"467221307"}}},{"Relevance":1.0,"Distance":122.3,"MatchLevel":"houseNumber","MatchQuality":{"Country":1.0,"State":1.0,"County":1.0,"City":1.0,"Street":[1.0],"HouseNumber":1.0,"PostalCode":1.0},"MatchType":"interpolated","Location":{"LocationId":"NT_RSXaWxnpb5.Tcke.OjugoA_0A","LocationType":"point","DisplayPosition":{"Latitude":47.86005,"Longitude":-3.5662},"MapView":{"TopLeft":{"Latitude":47.8611742,"Longitude":-3.5678755},"BottomRight":{"Latitude":47.8589258,"Longitude":-3.5645245}},"Address":{"Label":"4 Rue de Coat Dero, 29300 Quimperlé, France","Country":"FRA","State":"Bretagne","County":"Finistère","City":"Quimperlé","Street":"Rue de Coat Dero","HouseNumber":"4","PostalCode":"29300","AdditionalData":[{"value":"France","key":"CountryName"},{"value":"Bretagne","key":"StateName"},{"value":"Finistère","key":"CountyName"}]},"MapReference":{"ReferenceId":"545645067","Spot":0.59,"SideOfStreet":"right","CountryId":"20000001","StateId":"20060199","CountyId":"20064592","CityId":"20065258","AddressId":"590861129","RoadLinkId":"47060658"}}},{"Relevance":1.0,"Distance":124.5,"MatchLevel":"houseNumber","MatchQuality":{"Country":1.0,"State":1.0,"County":1.0,"City":1.0,"Street":[1.0],"HouseNumber":1.0,"PostalCode":1.0},"MatchType":"interpolated","Location":{"LocationId":"NT_43zjhpAsm3TxEJfbKPmg4B_xMDM","LocationType":"point","DisplayPosition":{"Latitude":47.86152,"Longitude":-3.5638},"MapView":{"TopLeft":{"Latitude":47.8626442,"Longitude":-3.5654755},"BottomRight":{"Latitude":47.8603958,"Longitude":-3.5621245}},"Address":{"Label":"130 Rue de Moélan, 29300 Quimperlé, France","Country":"FRA","State":"Bretagne","County":"Finistère","City":"Quimperlé","Street":"Rue de Moélan","HouseNumber":"130","PostalCode":"29300","AdditionalData":[{"value":"France","key":"CountryName"},{"value":"Bretagne","key":"StateName"},{"value":"Finistère","key":"CountyName"}]},"MapReference":{"ReferenceId":"938049347","Spot":0.93,"SideOfStreet":"right","CountryId":"20000001","StateId":"20060199","CountyId":"20064592","CityId":"20065258","AddressId":"370864226","RoadLinkId":"288040290"}}},{"Relevance":1.0,"Distance":135.2,"MatchLevel":"houseNumber","MatchQuality":{"Country":1.0,"State":1.0,"County":1.0,"City":1.0,"Street":[1.0],"HouseNumber":1.0,"PostalCode":1.0},"MatchType":"interpolated","Location":{"LocationId":"NT_U-p9R6F.KDDM7LYOU0uyRB_1A","LocationType":"point","DisplayPosition":{"Latitude":47.86013,"Longitude":-3.56421},"MapView":{"TopLeft":{"Latitude":47.8612542,"Longitude":-3.5658855},"BottomRight":{"Latitude":47.8590058,"Longitude":-3.5625345}},"Address":{"Label":"5 Impasse d'Irlande, 29300 Quimperlé, France","Country":"FRA","State":"Bretagne","County":"Finistère","City":"Quimperlé","Street":"Impasse d'Irlande","HouseNumber":"5","PostalCode":"29300","AdditionalData":[{"value":"France","key":"CountryName"},{"value":"Bretagne","key":"StateName"},{"value":"Finistère","key":"CountyName"}]},"MapReference":{"ReferenceId":"813906235","Spot":0.83,"SideOfStreet":"right","CountryId":"20000001","StateId":"20060199","CountyId":"20064592","CityId":"20065258","AddressId":"320748334","RoadLinkId":"201191232"}}}]}]}}