{"Response":{"MetaInfo":{"Timestamp":"2020-03-28T12:02:40.655+0000","NextPageInformation":"2"},"View":[{"_type":"SearchResultsViewType","ViewId":0,"Result":[{"Relevance":1.0,"Distance":0.0,"Direction":0.0,"MatchLevel":"district","MatchQuality":{"Country":1.0,"State":1.0,"County":1.0,"City":1.0,"District":1.0,"PostalCode":1.0},"Location":{"LocationId":"NT_8.Pdkk8XDu3pTqdEAKbbWB","LocationType":"point","DisplayPosition":{"Latitude":47.8713784,"Longitude":20.3251797},"MapView":{"TopLeft":{"Latitude":47.88646,"Longitude":20.31362},"BottomRight":{"Latitude":47.86202,"Longitude":20.33712}},"Address":{"Label":"Egerszalók, Heves, Magyarország","Country":"HUN","State":"Heves","County":"Egri Járás","City":"Egerszalók","District":"Egerszalók","PostalCode":"3394","AdditionalData":[{"value":"Magyarország","key":"CountryName"},{"value":"Heves","key":"StateName"},{"value":"Egri Járás","key":"CountyName"}]},"MapReference":{"ReferenceId":"709546940","SideOfStreet":"neither","CountryId":"20613038","StateId":"20617771","CountyId":"26678491","CityId":"22697858","DistrictId":"26679163"}}},{"Relevance":1.0,"Distance":1.5,"MatchLevel":"houseNumber","MatchQuality":{"Country":1.0,"State":1.0,"County":1.0,"City":1.0,"District":1.0,"Street":[1.0],"HouseNumber":1.0,"PostalCode":1.0},"MatchType":"interpolated","Location":{"LocationId":"NT_KZAumwEAD5JBBfCwU9zcFA_xgD","LocationType":"point","DisplayPosition":{"Latitude":47.87141,"Longitude":20.32532},"MapView":{"TopLeft":{"Latitude":47.8725342,"Longitude":20.3236442},"BottomRight":{"Latitude":47.8702858,"Longitude":20.3269958}},"Address":{"Label":"Kossuth Lajos út 18, Egerszalók 3394, Magyarország","Country":"HUN","State":"Heves","County":"Egri Járás","City":"Egerszalók","District":"Egerszalók","Street":"Kossuth Lajos út","HouseNumber":"18","PostalCode":"3394","AdditionalData":[{"value":"Magyarország","key":"CountryName"},{"value":"Heves","key":"StateName"},{"value":"Egri Járás","key":"CountyName"}]},"MapReference":{"ReferenceId":"708540429","Spot":0.12,"SideOfStreet":"left","CountryId":"20613038","StateId":"20617771","CountyId":"26678491","CityId":"22697858","DistrictId":"26679163","AddressId":"355565775","RoadLinkId":"113830286"}}},{"Relevance":1.0,"Distance":31.4,"MatchLevel":"street","MatchQuality":{"Country":1.0,"State":1.0,"County":1.0,"City":1.0,"District":1.0,"Street":[1.0],"PostalCode":1.0},"Location":{"LocationId":"NT_KZAumwEAD5JBBfCwU9zcFA_l_708540433_R","LocationType":"point","DisplayPosition":{"Latitude":47.87118,"Longitude":20.32548},"MapView":{"TopLeft":{"Latitude":47.87118,"Longitude":20.32548},"BottomRight":{"Latitude":47.87091,"Longitude":20.32627}},"Address":{"Label":"Kossuth Lajos út, Egerszalók 3394, Magyarország","Country":"HUN","State":"Heves","County":"Egri Járás","City":"Egerszalók","District":"Egerszalók","Street":"Kossuth Lajos út","PostalCode":"3394","AdditionalData":[{"value":"Magyarország","key":"CountryName"},{"value":"Heves","key":"StateName"},{"value":"Egri Járás","key":"CountyName"}]},"MapReference":{"ReferenceId":"708540433","Spot":1.0,"SideOfStreet":"right","CountryId":"20613038","StateId":"20617771","CountyId":"26678491","CityId":"22697858","DistrictId":"26679163"}}},{"Relevance":1.0,"Distance":31.4,"MatchLevel":"street","MatchQuality":{"Country":1.0,"State":1.0,"County":1.0,"City":1.0,"District":1.0,"Street":[1.0],"PostalCode":1.0},"Location":{"LocationId":"NT_KZAumwEAD5JBBfCwU9zcFA_l_709546940_L","LocationType":"point","DisplayPosition":{"Latitude":47.87118,"Longitude":20.32548},"MapView":{"TopLeft":{"Latitude":47.87118,"Longitude":20.32548},"BottomRight":{"Latitude":47.87086,"Longitude":20.3257}},"Address":{"Label":"Kossuth Lajos út, Egerszalók 3394, Magyarország","Country":"HUN","State":"Heves","County":"Egri Járás","City":"Egerszalók","District":"Egerszalók","Street":"Kossuth Lajos út","PostalCode":"3394","AdditionalData":[{"value":"Magyarország","key":"CountryName"},{"value":"Heves","key":"StateName"},{"value":"Egri Járás","key":"CountyName"}]},"MapReference":{"ReferenceId":"709546940","Spot":1.0,"SideOfStreet":"left","CountryId":"20613038","StateId":"20617771","CountyId":"26678491","CityId":"22697858","DistrictId":"26679163"}}},{"Relevance":1.0,"Distance":55.3,"MatchLevel":"houseNumber","MatchQuality":{"Country":1.0,"State":1.0,"County":1.0,"City":1.0,"District":1.0,"Street":[1.0],"HouseNumber":1.0,"PostalCode":1.0},"MatchType":"interpolated","Location":{"LocationId":"NT_10tP5FD7YzIW4VlSzoYF-C_xA","LocationType":"point","DisplayPosition":{"Latitude":47.8708,"Longitude":20.32541},"MapView":{"TopLeft":{"Latitude":47.8719242,"Longitude":20.3237342},"BottomRight":{"Latitude":47.8696758,"Longitude":20.3270858}},"Address":{"Label":"Széchenyi István út 1, Egerszalók 3394, Magyarország","Country":"HUN","State":"Heves","County":"Egri Járás","City":"Egerszalók","District":"Egerszalók","Street":"Széchenyi István út","HouseNumber":"1","PostalCode":"3394","AdditionalData":[{"value":"Magyarország","key":"CountryName"},{"value":"Heves","key":"StateName"},{"value":"Egri Járás","key":"CountyName"}]},"MapReference":{"ReferenceId":"1111691988","Spot":1.0,"SideOfStreet":"left","CountryId":"20613038","StateId":"20617771","CountyId":"26678491","CityId":"22697858","DistrictId":"26679163","AddressId":"356192942","RoadLinkId":"421854426"}}},{"Relevance":1.0,"Distance":66.6,"MatchLevel":"houseNumber","MatchQuality":{"Country":1.0,"State":1.0,"County":1.0,"City":1.0,"District":1.0,"Street":[1.0],"HouseNumber":1.0,"PostalCode":1.0},"MatchType":"interpolated","Location":{"LocationId":"NT_10tP5FD7YzIW4VlSzoYF-C_yA","LocationType":"point","DisplayPosition":{"Latitude":47.87081,"Longitude":20.32546},"MapView":{"TopLeft":{"Latitude":47.8719342,"Longitude":20.3237842},"BottomRight":{"Latitude":47.8696858,"Longitude":20.3271358}},"Address":{"Label":"Széchenyi István út 2, Egerszalók 3394, Magyarország","Country":"HUN","State":"Heves","County":"Egri Járás","City":"Egerszalók","District":"Egerszalók","Street":"Széchenyi István út","HouseNumber":"2","PostalCode":"3394","AdditionalData":[{"value":"Magyarország","key":"CountryName"},{"value":"Heves","key":"StateName"},{"value":"Egri Járás","key":"CountyName"}]},"MapReference":{"ReferenceId":"1111691989","Spot":0.17,"SideOfStreet":"right","CountryId":"20613038","StateId":"20617771","CountyId":"26678491","CityId":"22697858","DistrictId":"26679163","AddressId":"356192941","RoadLinkId":"421854427"}}},{"Relevance":1.0,"Distance":69.5,"MatchLevel":"street","MatchQuality":{"Country":1.0,"State":1.0,"County":1.0,"City":1.0,"District":1.0,"Street":[1.0],"PostalCode":1.0},"Location":{"LocationId":"NT_KZAumwEAD5JBBfCwU9zcFA_l_709550842_L","LocationType":"point","DisplayPosition":{"Latitude":47.87086,"Longitude":20.3257},"MapView":{"TopLeft":{"Latitude":47.87091,"Longitude":20.3257},"BottomRight":{"Latitude":47.87086,"Longitude":20.32627}},"Address":{"Label":"Kossuth Lajos út, Egerszalók 3394, Magyarország","Country":"HUN","State":"Heves","County":"Egri Járás","City":"Egerszalók","District":"Egerszalók","Street":"Kossuth Lajos út","PostalCode":"3394","AdditionalData":[{"value":"Magyarország","key":"CountryName"},{"value":"Heves","key":"StateName"},{"value":"Egri Járás","key":"CountyName"}]},"MapReference":{"ReferenceId":"709550842","Spot":0.0,"SideOfStreet":"left","CountryId":"20613038","StateId":"20617771","CountyId":"26678491","CityId":"22697858","DistrictId":"26679163"}}},{"Relevance":1.0,"Distance":93.6,"MatchLevel":"houseNumber","MatchQuality":{"Country":1.0,"State":1.0,"County":1.0,"City":1.0,"District":1.0,"Street":[1.0],"HouseNumber":1.0,"PostalCode":1.0},"MatchType":"interpolated","Location":{"LocationId":"NT_lbPcFxF1ZJWZrNhdqaH2HB_yYD","LocationType":"point","DisplayPosition":{"Latitude":47.87147,"Longitude":20.32374},"MapView":{"TopLeft":{"Latitude":47.8725942,"Longitude":20.3220642},"BottomRight":{"Latitude":47.8703458,"Longitude":20.3254158}},"Address":{"Label":"Sarló utca 26, Egerszalók 3394, Magyarország","Country":"HUN","State":"Heves","County":"Egri Járás","City":"Egerszalók","District":"Egerszalók","Street":"Sarló utca","HouseNumber":"26","PostalCode":"3394","AdditionalData":[{"value":"Magyarország","key":"CountryName"},{"value":"Heves","key":"StateName"},{"value":"Egri Járás","key":"CountyName"}]},"MapReference":{"ReferenceId":"708540425","Spot":0.11,"SideOfStreet":"right","CountryId":"20613038","StateId":"20617771","CountyId":"26678491","CityId":"22697858","DistrictId":"26679163","AddressId":"354867620","RoadLinkId":"113830282"}}},{"Relevance":1.0,"Distance":123.2,"MatchLevel":"houseNumber","MatchQuality":{"Country":1.0,"State":1.0,"County":1.0,"City":1.0,"District":1.0,"Street":[1.0],"HouseNumber":1.0,"PostalCode":1.0},"MatchType":"interpolated","Location":{"LocationId":"NT_hobOHvQtAlIAFEphIocFRA_xA","LocationType":"point","DisplayPosition":{"Latitude":47.87065,"Longitude":20.32646},"MapView":{"TopLeft":{"Latitude":47.8717742,"Longitude":20.3247842},"BottomRight":{"Latitude":47.8695258,"Longitude":20.3281358}},"Address":{"Label":"Sáfrány út 1, Egerszalók 3394, Magyarország","Country":"HUN","State":"Heves","County":"Egri Járás","City":"Egerszalók","District":"Egerszalók","Street":"Sáfrány út","HouseNumber":"1","PostalCode":"3394","AdditionalData":[{"value":"Magyarország","key":"CountryName"},{"value":"Heves","key":"StateName"},{"value":"Egri Járás","key":"CountyName"}]},"MapReference":{"ReferenceId":"709550843","Spot":0.72,"SideOfStreet":"left","CountryId":"20613038","StateId":"20617771","CountyId":"26678491","CityId":"22697858","DistrictId":"26679163","AddressId":"355080012","RoadLinkId":"114914433"}}},{"Relevance":1.0,"Distance":125.9,"MatchLevel":"houseNumber","MatchQuality":{"Country":1.0,"State":1.0,"County":1.0,"City":1.0,"District":1.0,"Street":[1.0],"HouseNumber":1.0,"PostalCode":1.0},"MatchType":"interpolated","Location":{"LocationId":"NT_KZAumwEAD5JBBfCwU9zcFA_xUD","LocationType":"point","DisplayPosition":{"Latitude":47.87092,"Longitude":20.32677},"MapView":{"TopLeft":{"Latitude":47.8720442,"Longitude":20.3250942},"BottomRight":{"Latitude":47.8697958,"Longitude":20.3284458}},"Address":{"Label":"Kossuth Lajos út 15, Egerszalók 3394, Magyarország","Country":"HUN","State":"Heves","County":"Egri Járás","City":"Egerszalók","District":"Egerszalók","Street":"Kossuth Lajos út","HouseNumber":"15","PostalCode":"3394","AdditionalData":[{"value":"Magyarország","key":"CountryName"},{"value":"Heves","key":"StateName"},{"value":"Egri Járás","key":"CountyName"}]},"MapReference":{"ReferenceId":"709577044","Spot":0.15,"SideOfStreet":"left","CountryId":"20613038","StateId":"20617771","CountyId":"26678491","CityId":"22697858","DistrictId":"26679163","AddressId":"356702965","RoadLinkId":"114948751"}}}]}]}}