{"Response":{"MetaInfo":{"Timestamp":"2020-03-28T11:10:01.089+0000","NextPageInformation":"2"},"View":[{"_type":"SearchResultsViewType","ViewId":0,"Result":[{"Relevance":1.0,"Distance":0.0,"Direction":0.0,"MatchLevel":"city","MatchQuality":{"Country":1.0,"State":1.0,"County":1.0,"City":1.0,"PostalCode":1.0},"Location":{"LocationId":"NT_P4GLP6s9WN0Lxd4.r5Yy6B","LocationType":"point","DisplayPosition":{"Latitude":47.8689242,"Longitude":-3.5576552},"MapView":{"TopLeft":{"Latitude":47.88997,"Longitude":-3.61101},"BottomRight":{"Latitude":47.82192,"Longitude":-3.50608}},"Address":{"Label":"Quimperlé, Bretagne, France","Country":"FRA","State":"Bretagne","County":"Finistère","City":"Quimperlé","PostalCode":"29300","AdditionalData":[{"value":"France","key":"CountryName"},{"value":"Bretagne","key":"StateName"},{"value":"Finistère","key":"CountyName"}]},"MapReference":{"ReferenceId":"545644514","SideOfStreet":"neither","CountryId":"20000001","StateId":"20060199","CountyId":"20064592","CityId":"20065258"}}},{"Relevance":1.0,"Distance":4.9,"MatchLevel":"houseNumber","MatchQuality":{"Country":1.0,"State":1.0,"County":1.0,"City":1.0,"Street":[1.0],"HouseNumber":1.0,"PostalCode":1.0},"MatchType":"interpolated","Location":{"LocationId":"NT_M2sZYfwqrAONbFN6ErhUoA_xcD","LocationType":"point","DisplayPosition":{"Latitude":47.8689,"Longitude":-3.55771},"MapView":{"TopLeft":{"Latitude":47.8700242,"Longitude":-3.5593858},"BottomRight":{"Latitude":47.8677758,"Longitude":-3.5560342}},"Address":{"Label":"17 Avenue du Général Leclerc, 29300 Quimperlé, France","Country":"FRA","State":"Bretagne","County":"Finistère","City":"Quimperlé","Street":"Avenue du Général Leclerc","HouseNumber":"17","PostalCode":"29300","AdditionalData":[{"value":"France","key":"CountryName"},{"value":"Bretagne","key":"StateName"},{"value":"Finistère","key":"CountyName"}]},"MapReference":{"ReferenceId":"941861633","Spot":0.34,"SideOfStreet":"left","CountryId":"20000001","StateId":"20060199","CountyId":"20064592","CityId":"20065258","AddressId":"320583029","RoadLinkId":"291782561"}}},{"Relevance":1.0,"Distance":16.4,"MatchLevel":"houseNumber","MatchQuality":{"Country":1.0,"State":1.0,"County":1.0,"City":1.0,"Street":[1.0],"HouseNumber":1.0,"PostalCode":1.0},"MatchType":"interpolated","Location":{"LocationId":"NT_M2sZYfwqrAONbFN6ErhUoA_yAD","LocationType":"point","DisplayPosition":{"Latitude":47.86878,"Longitude":-3.55761},"MapView":{"TopLeft":{"Latitude":47.8699042,"Longitude":-3.5592858},"BottomRight":{"Latitude":47.8676558,"Longitude":-3.5559342}},"Address":{"Label":"20 Avenue du Général Leclerc, 29300 Quimperlé, France","Country":"FRA","State":"Bretagne","County":"Finistère","City":"Quimperlé","Street":"Avenue du Général Leclerc","HouseNumber":"20","PostalCode":"29300","AdditionalData":[{"value":"France","key":"CountryName"},{"value":"Bretagne","key":"StateName"},{"value":"Finistère","key":"CountyName"}]},"MapReference":{"ReferenceId":"941861632","Spot":0.97,"SideOfStreet":"right","CountryId":"20000001","StateId":"20060199","CountyId":"20064592","CityId":"20065258","AddressId":"320583033","RoadLinkId":"291782560"}}},{"Relevance":1.0,"Distance":21.6,"MatchLevel":"landmark","MatchQuality":{"Country":1.0,"State":1.0,"County":1.0,"City":1.0,"PostalCode":1.0,"Name":1.0},"Location":{"LocationId":"NT_isMQkWZu01r88ZdP89LVtC_p_2VHk73GR3Qp9qoRuJQsXyA","LocationType":"hospital","Name":"CH de Quimperlé","DisplayPosition":{"Latitude":47.87021,"Longitude":-3.55574},"MapView":{"TopLeft":{"Latitude":47.87079,"Longitude":-3.55805},"BottomRight":{"Latitude":47.86908,"Longitude":-3.5545}},"Address":{"Label":"29300 Quimperlé, France","Country":"FRA","State":"Bretagne","County":"Finistère","City":"Quimperlé","PostalCode":"29300","AdditionalData":[{"value":"France","key":"CountryName"},{"value":"Bretagne","key":"StateName"},{"value":"Finistère","key":"CountyName"}]},"MapReference":{"CountryId":"20000001","StateId":"20060199","CountyId":"20064592","CityId":"20065258","PlaceId":"73605916"}}},{"Relevance":1.0,"Distance":21.6,"MatchLevel":"street","MatchQuality":{"Country":1.0,"State":1.0,"County":1.0,"City":1.0,"PostalCode":1.0},"Location":{"LocationId":"NT_uC27R.mcvijU4ZnbD3qSlD_l_546217778_L","LocationType":"point","DisplayPosition":{"Latitude":47.86911,"Longitude":-3.55757},"MapView":{"TopLeft":{"Latitude":47.86991,"Longitude":-3.55766},"BottomRight":{"Latitude":47.86908,"Longitude":-3.5568}},"Address":{"Label":"29300 Quimperlé, France","Country":"FRA","State":"Bretagne","County":"Finistère","City":"Quimperlé","PostalCode":"29300","AdditionalData":[{"value":"France","key":"CountryName"},{"value":"Bretagne","key":"StateName"},{"value":"Finistère","key":"CountyName"}]},"MapReference":{"ReferenceId":"546217778","Spot":0.48,"SideOfStreet":"left","CountryId":"20000001","StateId":"20060199","CountyId":"20064592","CityId":"20065258"}}},{"Relevance":1.0,"Distance":53.3,"MatchLevel":"houseNumber","MatchQuality":{"Country":1.0,"State":1.0,"County":1.0,"City":1.0,"Street":[1.0],"HouseNumber":1.0,"PostalCode":1.0},"MatchType":"interpolated","Location":{"LocationId":"NT_PS0w7x0R3YZDJ3lww3cBED_1A","LocationType":"point","DisplayPosition":{"Latitude":47.86856,"Longitude":-3.55812},"MapView":{"TopLeft":{"Latitude":47.8696842,"Longitude":-3.5597958},"BottomRight":{"Latitude":47.8674358,"Longitude":-3.5564442}},"Address":{"Label":"5 Allée des Châtaigniers, 29300 Quimperlé, France","Country":"FRA","State":"Bretagne","County":"Finistère","City":"Quimperlé","Street":"Allée des Châtaigniers","HouseNumber":"5","PostalCode":"29300","AdditionalData":[{"value":"France","key":"CountryName"},{"value":"Bretagne","key":"StateName"},{"value":"Finistère","key":"CountyName"}]},"MapReference":{"ReferenceId":"545647160","Spot":0.04,"SideOfStreet":"left","CountryId":"20000001","StateId":"20060199","CountyId":"20064592","CityId":"20065258","AddressId":"320704636","RoadLinkId":"47692484"}}},{"Relevance":1.0,"Distance":54.5,"MatchLevel":"houseNumber","MatchQuality":{"Country":1.0,"State":1.0,"County":1.0,"City":1.0,"Street":[1.0],"HouseNumber":1.0,"PostalCode":1.0},"MatchType":"interpolated","Location":{"LocationId":"NT_tXZLY.2Rqud2ItDT4SKp0A_xA","LocationType":"point","DisplayPosition":{"Latitude":47.8686,"Longitude":-3.55702},"MapView":{"TopLeft":{"Latitude":47.8697242,"Longitude":-3.5586958},"BottomRight":{"Latitude":47.8674758,"Longitude":-3.5553442}},"Address":{"Label":"1 Rue de la Villeneuve, 29300 Quimperlé, France","Country":"FRA","State":"Bretagne","County":"Finistère","City":"Quimperlé","Street":"Rue de la Villeneuve","HouseNumber":"1","PostalCode":"29300","AdditionalData":[{"value":"France","key":"CountryName"},{"value":"Bretagne","key":"StateName"},{"value":"Finistère","key":"CountyName"}]},"MapReference":{"ReferenceId":"545647113","Spot":0.34,"SideOfStreet":"left","CountryId":"20000001","StateId":"20060199","CountyId":"20064592","CityId":"20065258","AddressId":"320690252","RoadLinkId":"46387005"}}},{"Relevance":1.0,"Distance":58.6,"MatchLevel":"houseNumber","MatchQuality":{"Country":1.0,"State":1.0,"County":1.0,"City":1.0,"Street":[1.0],"HouseNumber":1.0,"PostalCode":1.0},"MatchType":"interpolated","Location":{"LocationId":"NT_M2sZYfwqrAONbFN6ErhUoA_xgDU","LocationType":"point","DisplayPosition":{"Latitude":47.8694,"Longitude":-3.55799},"MapView":{"TopLeft":{"Latitude":47.8705242,"Longitude":-3.5596658},"BottomRight":{"Latitude":47.8682758,"Longitude":-3.5563142}},"Address":{"Label":"18P Avenue du Général Leclerc, 29300 Quimperlé, France","Country":"FRA","State":"Bretagne","County":"Finistère","City":"Quimperlé","Street":"Avenue du Général Leclerc","HouseNumber":"18P","PostalCode":"29300","AdditionalData":[{"value":"France","key":"CountryName"},{"value":"Bretagne","key":"StateName"},{"value":"Finistère","key":"CountyName"}]},"MapReference":{"ReferenceId":"941142577","Spot":0.93,"SideOfStreet":"right","CountryId":"20000001","StateId":"20060199","CountyId":"20064592","CityId":"20065258","AddressId":"370876289","RoadLinkId":"291189675"}}},{"Relevance":1.0,"Distance":60.8,"MatchLevel":"street","MatchQuality":{"Country":1.0,"State":1.0,"County":1.0,"City":1.0,"Street":[1.0],"PostalCode":1.0},"Location":{"LocationId":"NT_lnNEHkQBnBbHzw4nfbneRC_l_1160559155_R","LocationType":"point","DisplayPosition":{"Latitude":47.86942,"Longitude":-3.558},"MapView":{"TopLeft":{"Latitude":47.86959,"Longitude":-3.55808},"BottomRight":{"Latitude":47.86942,"Longitude":-3.558}},"Address":{"Label":"Avenue du Général Leclerc, 29300 Quimperlé, France","Country":"FRA","State":"Bretagne","County":"Finistère","City":"Quimperlé","Street":"Avenue du Général Leclerc","PostalCode":"29300","AdditionalData":[{"value":"France","key":"CountryName"},{"value":"Bretagne","key":"StateName"},{"value":"Finistère","key":"CountyName"}]},"MapReference":{"ReferenceId":"1160559155","Spot":0.0,"SideOfStreet":"right","CountryId":"20000001","StateId":"20060199","CountyId":"20064592","CityId":"20065258"}}},{"Relevance":1.0,"Distance":68.6,"MatchLevel":"street","MatchQuality":{"Country":1.0,"State":1.0,"County":1.0,"City":1.0,"PostalCode":1.0},"Location":{"LocationId":"NT_uC27R.mcvijU4ZnbD3qSlD_l_569957411_R","LocationType":"point","DisplayPosition":{"Latitude":47.86915,"Longitude":-3.5568},"MapView":{"TopLeft":{"Latitude":47.86934,"Longitude":-3.5568},"BottomRight":{"Latitude":47.86915,"Longitude":-3.55592}},"Address":{"Label":"29300 Quimperlé, France","Country":"FRA","State":"Bretagne","County":"Finistère","City":"Quimperlé","PostalCode":"29300","AdditionalData":[{"value":"France","key":"CountryName"},{"value":"Bretagne","key":"StateName"},{"value":"Finistère","key":"CountyName"}]},"MapReference":{"ReferenceId":"569957411","Spot":0.0,"SideOfStreet":"right","CountryId":"20000001","StateId":"20060199","CountyId":"20064592","CityId":"20065258"}}}]}]}}