{"Response":{"MetaInfo":{"Timestamp":"2020-03-28T10:29:51.506+0000","NextPageInformation":"2"},"View":[{"_type":"SearchResultsViewType","ViewId":0,"Result":[{"Relevance":1.0,"Distance":-36.4,"MatchLevel":"landmark","MatchQuality":{"Country":1.0,"State":1.0,"County":1.0,"City":1.0,"PostalCode":1.0,"Name":1.0},"Location":{"LocationId":"NT_w8tYRZns9V71Q19TnyI6yC_p_nbTyffHOQgRVSEZoW1ZZtB","LocationType":"shoppingCentre","Name":"Z.A.C. les Clairions","DisplayPosition":{"Latitude":47.81339,"Longitude":3.56995},"MapView":{"TopLeft":{"Latitude":47.81934,"Longitude":3.56119},"BottomRight":{"Latitude":47.81076,"Longitude":3.57395}},"Address":{"Label":"89000 Auxerre, France","Country":"FRA","State":"Bourgogne-Franche-Comté","County":"Yonne","City":"Auxerre","PostalCode":"89000","AdditionalData":[{"value":"France","key":"CountryName"},{"value":"Bourgogne-Franche-Comté","key":"StateName"},{"value":"Yonne","key":"CountyName"}]},"MapReference":{"CountryId":"20000001","StateId":"20013306","CountyId":"20004500","CityId":"20042916","PlaceId":"1031906534"}}},{"Relevance":1.0,"Distance":0.0,"Direction":0.0,"MatchLevel":"city","MatchQuality":{"Country":1.0,"State":1.0,"County":1.0,"City":1.0,"PostalCode":1.0},"Location":{"LocationId":"NT_kD5XCx8o-.55JGwTpdCWeB","LocationType":"point","DisplayPosition":{"Latitude":47.8137705,"Longitude":3.5673082},"MapView":{"TopLeft":{"Latitude":47.85231,"Longitude":3.5261},"BottomRight":{"Latitude":47.73472,"Longitude":3.63735}},"Address":{"Label":"Auxerre, Bourgogne-Franche-Comté, France","Country":"FRA","State":"Bourgogne-Franche-Comté","County":"Yonne","City":"Auxerre","PostalCode":"89000","AdditionalData":[{"value":"France","key":"CountryName"},{"value":"Bourgogne-Franche-Comté","key":"StateName"},{"value":"Yonne","key":"CountyName"}]},"MapReference":{"ReferenceId":"545403234","SideOfStreet":"neither","CountryId":"20000001","StateId":"20013306","CountyId":"20004500","CityId":"20042916"}}},{"Relevance":1.0,"Distance":7.9,"MatchLevel":"street","MatchQuality":{"Country":1.0,"State":1.0,"County":1.0,"City":1.0,"PostalCode":1.0},"Location":{"LocationId":"NT_PAxUFrQrkM82c5XgiRTKgD_l_990916363_L","LocationType":"point","DisplayPosition":{"Latitude":47.81384,"Longitude":3.56733},"MapView":{"TopLeft":{"Latitude":47.81401,"Longitude":3.5672},"BottomRight":{"Latitude":47.81384,"Longitude":3.56733}},"Address":{"Label":"89000 Auxerre, France","Country":"FRA","State":"Bourgogne-Franche-Comté","County":"Yonne","City":"Auxerre","PostalCode":"89000","AdditionalData":[{"value":"France","key":"CountryName"},{"value":"Bourgogne-Franche-Comté","key":"StateName"},{"value":"Yonne","key":"CountyName"}]},"MapReference":{"ReferenceId":"990916363","Spot":0.0,"SideOfStreet":"left","CountryId":"20000001","StateId":"20013306","CountyId":"20004500","CityId":"20042916"}}},{"Relevance":1.0,"Distance":20.3,"MatchLevel":"houseNumber","MatchQuality":{"Country":1.0,"State":1.0,"County":1.0,"City":1.0,"Street":[1.0],"HouseNumber":1.0,"PostalCode":1.0},"MatchType":"interpolated","Location":{"LocationId":"NT_-ZVFtPnv2dnOHZ8eViWpSB_xID","LocationType":"point","DisplayPosition":{"Latitude":47.8139,"Longitude":3.56702},"MapView":{"TopLeft":{"Latitude":47.8150242,"Longitude":3.565346},"BottomRight":{"Latitude":47.8127758,"Longitude":3.568694}},"Address":{"Label":"12 Avenue Robert Schuman, 89000 Auxerre, France","Country":"FRA","State":"Bourgogne-Franche-Comté","County":"Yonne","City":"Auxerre","Street":"Avenue Robert Schuman","HouseNumber":"12","PostalCode":"89000","AdditionalData":[{"value":"France","key":"CountryName"},{"value":"Bourgogne-Franche-Comté","key":"StateName"},{"value":"Yonne","key":"CountyName"}]},"MapReference":{"ReferenceId":"584905267","Spot":0.55,"SideOfStreet":"right","CountryId":"20000001","StateId":"20013306","CountyId":"20004500","CityId":"20042916","AddressId":"605496278","RoadLinkId":"53087106"}}},{"Relevance":1.0,"Distance":23.4,"MatchLevel":"street","MatchQuality":{"Country":1.0,"State":1.0,"County":1.0,"City":1.0,"PostalCode":1.0},"Location":{"LocationId":"NT_PAxUFrQrkM82c5XgiRTKgD_l_992396309_L","LocationType":"point","DisplayPosition":{"Latitude":47.81356,"Longitude":3.56732},"MapView":{"TopLeft":{"Latitude":47.81356,"Longitude":3.56716},"BottomRight":{"Latitude":47.8133,"Longitude":3.56732}},"Address":{"Label":"89000 Auxerre, France","Country":"FRA","State":"Bourgogne-Franche-Comté","County":"Yonne","City":"Auxerre","PostalCode":"89000","AdditionalData":[{"value":"France","key":"CountryName"},{"value":"Bourgogne-Franche-Comté","key":"StateName"},{"value":"Yonne","key":"CountyName"}]},"MapReference":{"ReferenceId":"992396309","Spot":1.0,"SideOfStreet":"left","CountryId":"20000001","StateId":"20013306","CountyId":"20004500","CityId":"20042916"}}},{"Relevance":1.0,"Distance":27.8,"MatchLevel":"street","MatchQuality":{"Country":1.0,"State":1.0,"County":1.0,"City":1.0,"Street":[1.0],"PostalCode":1.0},"Location":{"LocationId":"NT_-ZVFtPnv2dnOHZ8eViWpSB_l_990781271_R","LocationType":"point","DisplayPosition":{"Latitude":47.81401,"Longitude":3.5672},"MapView":{"TopLeft":{"Latitude":47.8143,"Longitude":3.5672},"BottomRight":{"Latitude":47.81401,"Longitude":3.56757}},"Address":{"Label":"Avenue Robert Schuman, 89000 Auxerre, France","Country":"FRA","State":"Bourgogne-Franche-Comté","County":"Yonne","City":"Auxerre","Street":"Avenue Robert Schuman","PostalCode":"89000","AdditionalData":[{"value":"France","key":"CountryName"},{"value":"Bourgogne-Franche-Comté","key":"StateName"},{"value":"Yonne","key":"CountyName"}]},"MapReference":{"ReferenceId":"990781271","Spot":0.0,"SideOfStreet":"right","CountryId":"20000001","StateId":"20013306","CountyId":"20004500","CityId":"20042916"}}},{"Relevance":1.0,"Distance":36.5,"MatchLevel":"street","MatchQuality":{"Country":1.0,"State":1.0,"County":1.0,"City":1.0,"Street":[1.0],"PostalCode":1.0},"Location":{"LocationId":"NT_SoDV.g4tIClIwyIFdnCt1D_l_545652912_R","LocationType":"point","DisplayPosition":{"Latitude":47.81377,"Longitude":3.56682},"MapView":{"TopLeft":{"Latitude":47.81396,"Longitude":3.56666},"BottomRight":{"Latitude":47.81374,"Longitude":3.56682}},"Address":{"Label":"Rond-Point de la Fontaine Sainte-Marguerite, 89000 Auxerre, France","Country":"FRA","State":"Bourgogne-Franche-Comté","County":"Yonne","City":"Auxerre","Street":"Rond-Point de la Fontaine Sainte-Marguerite","PostalCode":"89000","AdditionalData":[{"value":"France","key":"CountryName"},{"value":"Bourgogne-Franche-Comté","key":"StateName"},{"value":"Yonne","key":"CountyName"}]},"MapReference":{"ReferenceId":"545652912","Spot":0.1,"SideOfStreet":"right","CountryId":"20000001","StateId":"20013306","CountyId":"20004500","CityId":"20042916"}}},{"Relevance":1.0,"Distance":36.6,"MatchLevel":"street","MatchQuality":{"Country":1.0,"State":1.0,"County":1.0,"City":1.0,"Street":[1.0],"PostalCode":1.0},"Location":{"LocationId":"NT_SoDV.g4tIClIwyIFdnCt1D_l_545655392_R","LocationType":"point","DisplayPosition":{"Latitude":47.81374,"Longitude":3.56682},"MapView":{"TopLeft":{"Latitude":47.81374,"Longitude":3.56673},"BottomRight":{"Latitude":47.81358,"Longitude":3.56682}},"Address":{"Label":"Rond-Point de la Fontaine Sainte-Marguerite, 89000 Auxerre, France","Country":"FRA","State":"Bourgogne-Franche-Comté","County":"Yonne","City":"Auxerre","Street":"Rond-Point de la Fontaine Sainte-Marguerite","PostalCode":"89000","AdditionalData":[{"value":"France","key":"CountryName"},{"value":"Bourgogne-Franche-Comté","key":"StateName"},{"value":"Yonne","key":"CountyName"}]},"MapReference":{"ReferenceId":"545655392","Spot":1.0,"SideOfStreet":"right","CountryId":"20000001","StateId":"20013306","CountyId":"20004500","CityId":"20042916"}}},{"Relevance":1.0,"Distance":39.3,"MatchLevel":"street","MatchQuality":{"Country":1.0,"State":1.0,"County":1.0,"City":1.0,"Street":[1.0],"PostalCode":1.0},"Location":{"LocationId":"NT_-ZVFtPnv2dnOHZ8eViWpSB_l_584905260_R","LocationType":"point","DisplayPosition":{"Latitude":47.8140968,"Longitude":3.5671074},"MapView":{"TopLeft":{"Latitude":47.81416,"Longitude":3.56666},"BottomRight":{"Latitude":47.81396,"Longitude":3.56721}},"Address":{"Label":"Avenue Robert Schuman, 89000 Auxerre, France","Country":"FRA","State":"Bourgogne-Franche-Comté","County":"Yonne","City":"Auxerre","Street":"Avenue Robert Schuman","PostalCode":"89000","AdditionalData":[{"value":"France","key":"CountryName"},{"value":"Bourgogne-Franche-Comté","key":"StateName"},{"value":"Yonne","key":"CountyName"}]},"MapReference":{"ReferenceId":"584905260","Spot":0.8,"SideOfStreet":"right","CountryId":"20000001","StateId":"20013306","CountyId":"20004500","CityId":"20042916"}}},{"Relevance":1.0,"Distance":43.9,"MatchLevel":"street","MatchQuality":{"Country":1.0,"State":1.0,"County":1.0,"City":1.0,"Street":[1.0],"PostalCode":1.0},"Location":{"LocationId":"NT_mtU81hdfzlgzrPMl4Ys-8C_l_584905272_R","LocationType":"point","DisplayPosition":{"Latitude":47.81348,"Longitude":3.56691},"MapView":{"TopLeft":{"Latitude":47.81358,"Longitude":3.56673},"BottomRight":{"Latitude":47.81348,"Longitude":3.56691}},"Address":{"Label":"Avenue de Worms, 89000 Auxerre, France","Country":"FRA","State":"Bourgogne-Franche-Comté","County":"Yonne","City":"Auxerre","Street":"Avenue de Worms","PostalCode":"89000","AdditionalData":[{"value":"France","key":"CountryName"},{"value":"Bourgogne-Franche-Comté","key":"StateName"},{"value":"Yonne","key":"CountyName"}]},"MapReference":{"ReferenceId":"584905272","Spot":0.0,"SideOfStreet":"right","CountryId":"20000001","StateId":"20013306","CountyId":"20004500","CityId":"20042916"}}}]}]}}