{"Response":{"MetaInfo":{"Timestamp":"2020-03-28T10:57:53.486+0000","NextPageInformation":"2"},"View":[{"_type":"SearchResultsViewType","ViewId":0,"Result":[{"Relevance":1.0,"Distance":0.0,"Direction":0.0,"MatchLevel":"district","MatchQuality":{"Country":1.0,"State":1.0,"County":1.0,"City":1.0,"District":1.0,"PostalCode":1.0},"Location":{"LocationId":"NT_9ThHta-h08pq26STA-WERD","LocationType":"point","DisplayPosition":{"Latitude":47.860417,"Longitude":12.3612479},"MapView":{"TopLeft":{"Latitude":47.86831,"Longitude":12.33674},"BottomRight":{"Latitude":47.84202,"Longitude":12.37301}},"Address":{"Label":"Prien a. Chiemsee, Bayern, Deutschland","Country":"DEU","State":"Bayern","County":"Rosenheim (Landkreis)","City":"Prien a. Chiemsee","District":"Prien a. Chiemsee","PostalCode":"83209","AdditionalData":[{"value":"Deutschland","key":"CountryName"},{"value":"Bayern","key":"StateName"},{"value":"Rosenheim (Landkreis)","key":"CountyName"}]},"MapReference":{"ReferenceId":"83402996","SideOfStreet":"neither","CountryId":"20147700","StateId":"20177250","CountyId":"20178968","CityId":"20179090","DistrictId":"20179092"}}},{"Relevance":1.0,"Distance":3.4,"MatchLevel":"street","MatchQuality":{"Country":1.0,"State":1.0,"County":1.0,"City":1.0,"District":1.0,"PostalCode":1.0},"Location":{"LocationId":"NT_dKdhbW2v8a7fRfm2MJRjoA_l_1191726327_L","LocationType":"point","DisplayPosition":{"Latitude":47.86039,"Longitude":12.36127},"MapView":{"TopLeft":{"Latitude":47.86044,"Longitude":12.36127},"BottomRight":{"Latitude":47.86039,"Longitude":12.36207}},"Address":{"Label":"83209 Prien a. Chiemsee, Deutschland","Country":"DEU","State":"Bayern","County":"Rosenheim (Landkreis)","City":"Prien a. Chiemsee","District":"Prien a. Chiemsee","PostalCode":"83209","AdditionalData":[{"value":"Deutschland","key":"CountryName"},{"value":"Bayern","key":"StateName"},{"value":"Rosenheim (Landkreis)","key":"CountyName"}]},"MapReference":{"ReferenceId":"1191726327","Spot":0.0,"SideOfStreet":"neither","CountryId":"20147700","StateId":"20177250","CountyId":"20178968","CityId":"20179090","DistrictId":"20179092"}}},{"Relevance":1.0,"Distance":5.9,"MatchLevel":"street","MatchQuality":{"Country":1.0,"State":1.0,"County":1.0,"City":1.0,"District":1.0,"Street":[1.0],"PostalCode":1.0},"Location":{"LocationId":"NT_ZaVdkUkfxn6R2Vn8KNMWAA_l_562816665_R","LocationType":"point","DisplayPosition":{"Latitude":47.86047,"Longitude":12.361247},"MapView":{"TopLeft":{"Latitude":47.86047,"Longitude":12.35944},"BottomRight":{"Latitude":47.86044,"Longitude":12.36125}},"Address":{"Label":"Birkenweg, 83209 Prien a. Chiemsee, Deutschland","Country":"DEU","State":"Bayern","County":"Rosenheim (Landkreis)","City":"Prien a. Chiemsee","District":"Prien a. Chiemsee","Street":"Birkenweg","PostalCode":"83209","AdditionalData":[{"value":"Deutschland","key":"CountryName"},{"value":"Bayern","key":"StateName"},{"value":"Rosenheim (Landkreis)","key":"CountyName"}]},"MapReference":{"ReferenceId":"562816665","Spot":1.0,"SideOfStreet":"right","CountryId":"20147700","StateId":"20177250","CountyId":"20178968","CityId":"20179090","DistrictId":"20179092"}}},{"Relevance":1.0,"Distance":17.3,"MatchLevel":"street","MatchQuality":{"Country":1.0,"State":1.0,"County":1.0,"City":1.0,"PostalCode":1.0},"Location":{"LocationId":"NT_-f5GA-Mcl6nDRwS4lUbN2D_l_1205898626_L","LocationType":"point","DisplayPosition":{"Latitude":47.8605721,"Longitude":12.361235},"MapView":{"TopLeft":{"Latitude":47.86094,"Longitude":12.36113},"BottomRight":{"Latitude":47.86057,"Longitude":12.36145}},"Address":{"Label":"83209 Prien a. Chiemsee, Deutschland","Country":"DEU","State":"Bayern","County":"Rosenheim (Landkreis)","City":"Prien a. Chiemsee","PostalCode":"83209","AdditionalData":[{"value":"Deutschland","key":"CountryName"},{"value":"Bayern","key":"StateName"},{"value":"Rosenheim (Landkreis)","key":"CountyName"}]},"MapReference":{"ReferenceId":"1205898626","Spot":0.35,"SideOfStreet":"left","CountryId":"20147700","StateId":"20177250","CountyId":"20178968","CityId":"20179090"}}},{"Relevance":1.0,"Distance":24.4,"MatchLevel":"street","MatchQuality":{"Country":1.0,"State":1.0,"County":1.0,"City":1.0,"PostalCode":1.0},"Location":{"LocationId":"NT_-f5GA-Mcl6nDRwS4lUbN2D_l_1205898625_L","LocationType":"point","DisplayPosition":{"Latitude":47.86059,"Longitude":12.36145},"MapView":{"TopLeft":{"Latitude":47.86096,"Longitude":12.36135},"BottomRight":{"Latitude":47.86059,"Longitude":12.36145}},"Address":{"Label":"83209 Prien a. Chiemsee, Deutschland","Country":"DEU","State":"Bayern","County":"Rosenheim (Landkreis)","City":"Prien a. Chiemsee","PostalCode":"83209","AdditionalData":[{"value":"Deutschland","key":"CountryName"},{"value":"Bayern","key":"StateName"},{"value":"Rosenheim (Landkreis)","key":"CountyName"}]},"MapReference":{"ReferenceId":"1205898625","Spot":0.0,"SideOfStreet":"left","CountryId":"20147700","StateId":"20177250","CountyId":"20178968","CityId":"20179090"}}},{"Relevance":1.0,"Distance":24.4,"MatchLevel":"street","MatchQuality":{"Country":1.0,"State":1.0,"County":1.0,"City":1.0,"PostalCode":1.0},"Location":{"LocationId":"NT_-f5GA-Mcl6nDRwS4lUbN2D_l_1205898624_R","LocationType":"point","DisplayPosition":{"Latitude":47.86059,"Longitude":12.36145},"MapView":{"TopLeft":{"Latitude":47.8606,"Longitude":12.36145},"BottomRight":{"Latitude":47.86059,"Longitude":12.36163}},"Address":{"Label":"83209 Prien a. Chiemsee, Deutschland","Country":"DEU","State":"Bayern","County":"Rosenheim (Landkreis)","City":"Prien a. Chiemsee","PostalCode":"83209","AdditionalData":[{"value":"Deutschland","key":"CountryName"},{"value":"Bayern","key":"StateName"},{"value":"Rosenheim (Landkreis)","key":"CountyName"}]},"MapReference":{"ReferenceId":"1205898624","Spot":0.0,"SideOfStreet":"right","CountryId":"20147700","StateId":"20177250","CountyId":"20178968","CityId":"20179090"}}},{"Relevance":1.0,"Distance":35.0,"MatchLevel":"street","MatchQuality":{"Country":1.0,"State":1.0,"County":1.0,"City":1.0,"PostalCode":1.0},"Location":{"LocationId":"NT_-f5GA-Mcl6nDRwS4lUbN2D_l_1205889817_R","LocationType":"point","DisplayPosition":{"Latitude":47.8606,"Longitude":12.36163},"MapView":{"TopLeft":{"Latitude":47.86063,"Longitude":12.36163},"BottomRight":{"Latitude":47.8606,"Longitude":12.36187}},"Address":{"Label":"83209 Prien a. Chiemsee, Deutschland","Country":"DEU","State":"Bayern","County":"Rosenheim (Landkreis)","City":"Prien a. Chiemsee","PostalCode":"83209","AdditionalData":[{"value":"Deutschland","key":"CountryName"},{"value":"Bayern","key":"StateName"},{"value":"Rosenheim (Landkreis)","key":"CountyName"}]},"MapReference":{"ReferenceId":"1205889817","Spot":0.0,"SideOfStreet":"right","CountryId":"20147700","StateId":"20177250","CountyId":"20178968","CityId":"20179090"}}},{"Relevance":1.0,"Distance":35.0,"MatchLevel":"street","MatchQuality":{"Country":1.0,"State":1.0,"County":1.0,"City":1.0,"PostalCode":1.0},"Location":{"LocationId":"NT_-f5GA-Mcl6nDRwS4lUbN2D_l_1171465576_L","LocationType":"point","DisplayPosition":{"Latitude":47.8606,"Longitude":12.36163},"MapView":{"TopLeft":{"Latitude":47.86098,"Longitude":12.36154},"BottomRight":{"Latitude":47.8606,"Longitude":12.36163}},"Address":{"Label":"83209 Prien a. Chiemsee, Deutschland","Country":"DEU","State":"Bayern","County":"Rosenheim (Landkreis)","City":"Prien a. Chiemsee","PostalCode":"83209","AdditionalData":[{"value":"Deutschland","key":"CountryName"},{"value":"Bayern","key":"StateName"},{"value":"Rosenheim (Landkreis)","key":"CountyName"}]},"MapReference":{"ReferenceId":"1171465576","Spot":0.0,"SideOfStreet":"left","CountryId":"20147700","StateId":"20177250","CountyId":"20178968","CityId":"20179090"}}},{"Relevance":1.0,"Distance":41.8,"MatchLevel":"houseNumber","MatchQuality":{"Country":1.0,"State":1.0,"County":1.0,"City":1.0,"District":1.0,"Street":[1.0],"HouseNumber":1.0,"PostalCode":1.0},"MatchType":"interpolated","Location":{"LocationId":"NT_ZaVdkUkfxn6R2Vn8KNMWAA_4kD","LocationType":"point","DisplayPosition":{"Latitude":47.86001,"Longitude":12.36073},"MapView":{"TopLeft":{"Latitude":47.8611342,"Longitude":12.3590545},"BottomRight":{"Latitude":47.8588858,"Longitude":12.3624055}},"Address":{"Label":"Seestraße 89, 83209 Prien a. Chiemsee, Deutschland","Country":"DEU","State":"Bayern","County":"Rosenheim (Landkreis)","City":"Prien a. Chiemsee","District":"Prien a. Chiemsee","Street":"Seestraße","HouseNumber":"89","PostalCode":"83209","AdditionalData":[{"value":"Deutschland","key":"CountryName"},{"value":"Bayern","key":"StateName"},{"value":"Rosenheim (Landkreis)","key":"CountyName"}]},"MapReference":{"ReferenceId":"1156512839","Spot":0.39,"SideOfStreet":"left","CountryId":"20147700","StateId":"20177250","CountyId":"20178968","CityId":"20179090","DistrictId":"20179092","AddressId":"184197549","RoadLinkId":"462771597"}}},{"Relevance":1.0,"Distance":52.1,"MatchLevel":"street","MatchQuality":{"Country":1.0,"State":1.0,"County":1.0,"City":1.0,"PostalCode":1.0},"Location":{"LocationId":"NT_-f5GA-Mcl6nDRwS4lUbN2D_l_1205889818_L","LocationType":"point","DisplayPosition":{"Latitude":47.86063,"Longitude":12.36187},"MapView":{"TopLeft":{"Latitude":47.86099,"Longitude":12.36181},"BottomRight":{"Latitude":47.86063,"Longitude":12.36188}},"Address":{"Label":"83209 Prien a. Chiemsee, Deutschland","Country":"DEU","State":"Bayern","County":"Rosenheim (Landkreis)","City":"Prien a. Chiemsee","PostalCode":"83209","AdditionalData":[{"value":"Deutschland","key":"CountryName"},{"value":"Bayern","key":"StateName"},{"value":"Rosenheim (Landkreis)","key":"CountyName"}]},"MapReference":{"ReferenceId":"1205889818","Spot":0.0,"SideOfStreet":"left","CountryId":"20147700","StateId":"20177250","CountyId":"20178968","CityId":"20179090"}}}]}]}}