{"Response":{"MetaInfo":{"Timestamp":"2020-03-28T10:05:44.877+0000","NextPageInformation":"2"},"View":[{"_type":"SearchResultsViewType","ViewId":0,"Result":[{"Relevance":1.0,"Distance":0.0,"Direction":0.0,"MatchLevel":"district","MatchQuality":{"Country":1.0,"State":1.0,"County":1.0,"City":1.0,"District":1.0,"PostalCode":1.0},"Location":{"LocationId":"NT_NfUeTZpgW3Ffhc.45mdJcD","LocationType":"point","DisplayPosition":{"Latitude":47.8698712,"Longitude":11.4723221},"MapView":{"TopLeft":{"Latitude":47.88941,"Longitude":11.45681},"BottomRight":{"Latitude":47.86061,"Longitude":11.48534}},"Address":{"Label":"Gartenberg, Geretsried, Bayern, Deutschland","Country":"DEU","State":"Bayern","County":"Bad Tölz-Wolfratshausen","City":"Geretsried","District":"Gartenberg","PostalCode":"82538","AdditionalData":[{"value":"Deutschland","key":"CountryName"},{"value":"Bayern","key":"StateName"},{"value":"Bad Tölz-Wolfratshausen","key":"CountyName"}]},"MapReference":{"ReferenceId":"82015252","SideOfStreet":"neither","CountryId":"20147700","StateId":"20177250","CountyId":"20177446","CityId":"20177491","DistrictId":"20177494"}}},{"Relevance":1.0,"Distance":5.8,"MatchLevel":"houseNumber","MatchQuality":{"Country":1.0,"State":1.0,"County":1.0,"City":1.0,"District":1.0,"Street":[1.0],"HouseNumber":1.0,"PostalCode":1.0},"MatchType":"interpolated","Location":{"LocationId":"NT_l75Obl.JmXFTx2hEmukHuC_0A","LocationType":"point","DisplayPosition":{"Latitude":47.86998,"Longitude":11.47266},"MapView":{"TopLeft":{"Latitude":47.8711042,"Longitude":11.4709842},"BottomRight":{"Latitude":47.8688558,"Longitude":11.4743358}},"Address":{"Label":"Adalbert-Stifter-Straße 4, 82538 Geretsried, Deutschland","Country":"DEU","State":"Bayern","County":"Bad Tölz-Wolfratshausen","City":"Geretsried","District":"Gartenberg","Street":"Adalbert-Stifter-Straße","HouseNumber":"4","PostalCode":"82538","AdditionalData":[{"value":"Deutschland","key":"CountryName"},{"value":"Bayern","key":"StateName"},{"value":"Bad Tölz-Wolfratshausen","key":"CountyName"}]},"MapReference":{"ReferenceId":"1193690513","Spot":0.56,"SideOfStreet":"left","CountryId":"20147700","StateId":"20177250","CountyId":"20177446","CityId":"20177491","DistrictId":"20177494","AddressId":"185311258","RoadLinkId":"503572025"}}},{"Relevance":1.0,"Distance":39.0,"MatchLevel":"street","MatchQuality":{"Country":1.0,"State":1.0,"County":1.0,"City":1.0,"District":1.0,"Street":[1.0],"PostalCode":1.0},"Location":{"LocationId":"NT_l75Obl.JmXFTx2hEmukHuC_l_1200287870_L","LocationType":"point","DisplayPosition":{"Latitude":47.86969,"Longitude":11.47277},"MapView":{"TopLeft":{"Latitude":47.86969,"Longitude":11.47277},"BottomRight":{"Latitude":47.8695,"Longitude":11.47284}},"Address":{"Label":"Adalbert-Stifter-Straße, 82538 Geretsried, Deutschland","Country":"DEU","State":"Bayern","County":"Bad Tölz-Wolfratshausen","City":"Geretsried","District":"Gartenberg","Street":"Adalbert-Stifter-Straße","PostalCode":"82538","AdditionalData":[{"value":"Deutschland","key":"CountryName"},{"value":"Bayern","key":"StateName"},{"value":"Bad Tölz-Wolfratshausen","key":"CountyName"}]},"MapReference":{"ReferenceId":"1200287870","Spot":1.0,"SideOfStreet":"left","CountryId":"20147700","StateId":"20177250","CountyId":"20177446","CityId":"20177491","DistrictId":"20177494"}}},{"Relevance":1.0,"Distance":39.0,"MatchLevel":"street","MatchQuality":{"Country":1.0,"State":1.0,"County":1.0,"City":1.0,"District":1.0,"PostalCode":1.0},"Location":{"LocationId":"NT_SpFZ8zZimhGsEwEmQsnAGA_l_1187835540_L","LocationType":"point","DisplayPosition":{"Latitude":47.86969,"Longitude":11.47277},"MapView":{"TopLeft":{"Latitude":47.86974,"Longitude":11.47277},"BottomRight":{"Latitude":47.86967,"Longitude":11.47307}},"Address":{"Label":"82538 Geretsried, Deutschland","Country":"DEU","State":"Bayern","County":"Bad Tölz-Wolfratshausen","City":"Geretsried","District":"Gartenberg","PostalCode":"82538","AdditionalData":[{"value":"Deutschland","key":"CountryName"},{"value":"Bayern","key":"StateName"},{"value":"Bad Tölz-Wolfratshausen","key":"CountyName"}]},"MapReference":{"ReferenceId":"1187835540","Spot":0.0,"SideOfStreet":"left","CountryId":"20147700","StateId":"20177250","CountyId":"20177446","CityId":"20177491","DistrictId":"20177494"}}},{"Relevance":1.0,"Distance":42.0,"MatchLevel":"street","MatchQuality":{"Country":1.0,"State":1.0,"County":1.0,"City":1.0,"District":1.0,"Street":[1.0],"PostalCode":1.0},"Location":{"LocationId":"NT_l75Obl.JmXFTx2hEmukHuC_l_1193690514_L","LocationType":"point","DisplayPosition":{"Latitude":47.87021,"Longitude":11.47257},"MapView":{"TopLeft":{"Latitude":47.87045,"Longitude":11.47247},"BottomRight":{"Latitude":47.87021,"Longitude":11.47257}},"Address":{"Label":"Adalbert-Stifter-Straße, 82538 Geretsried, Deutschland","Country":"DEU","State":"Bayern","County":"Bad Tölz-Wolfratshausen","City":"Geretsried","District":"Gartenberg","Street":"Adalbert-Stifter-Straße","PostalCode":"82538","AdditionalData":[{"value":"Deutschland","key":"CountryName"},{"value":"Bayern","key":"StateName"},{"value":"Bad Tölz-Wolfratshausen","key":"CountyName"}]},"MapReference":{"ReferenceId":"1193690514","Spot":0.0,"SideOfStreet":"left","CountryId":"20147700","StateId":"20177250","CountyId":"20177446","CityId":"20177491","DistrictId":"20177494"}}},{"Relevance":1.0,"Distance":42.0,"MatchLevel":"street","MatchQuality":{"Country":1.0,"State":1.0,"County":1.0,"City":1.0,"District":1.0,"PostalCode":1.0},"Location":{"LocationId":"NT_SpFZ8zZimhGsEwEmQsnAGA_l_1193715352_L","LocationType":"point","DisplayPosition":{"Latitude":47.87021,"Longitude":11.47257},"MapView":{"TopLeft":{"Latitude":47.87022,"Longitude":11.47257},"BottomRight":{"Latitude":47.8702,"Longitude":11.47288}},"Address":{"Label":"82538 Geretsried, Deutschland","Country":"DEU","State":"Bayern","County":"Bad Tölz-Wolfratshausen","City":"Geretsried","District":"Gartenberg","PostalCode":"82538","AdditionalData":[{"value":"Deutschland","key":"CountryName"},{"value":"Bayern","key":"StateName"},{"value":"Bad Tölz-Wolfratshausen","key":"CountyName"}]},"MapReference":{"ReferenceId":"1193715352","Spot":1.0,"SideOfStreet":"left","CountryId":"20147700","StateId":"20177250","CountyId":"20177446","CityId":"20177491","DistrictId":"20177494"}}},{"Relevance":1.0,"Distance":49.1,"MatchLevel":"street","MatchQuality":{"Country":1.0,"State":1.0,"County":1.0,"City":1.0,"District":1.0,"PostalCode":1.0},"Location":{"LocationId":"NT_SpFZ8zZimhGsEwEmQsnAGA_l_1193715350_L","LocationType":"point","DisplayPosition":{"Latitude":47.8700484,"Longitude":11.4729246},"MapView":{"TopLeft":{"Latitude":47.8702,"Longitude":11.47288},"BottomRight":{"Latitude":47.86974,"Longitude":11.47307}},"Address":{"Label":"82538 Geretsried, Deutschland","Country":"DEU","State":"Bayern","County":"Bad Tölz-Wolfratshausen","City":"Geretsried","District":"Gartenberg","PostalCode":"82538","AdditionalData":[{"value":"Deutschland","key":"CountryName"},{"value":"Bayern","key":"StateName"},{"value":"Bad Tölz-Wolfratshausen","key":"CountyName"}]},"MapReference":{"ReferenceId":"1193715350","Spot":0.68,"SideOfStreet":"left","CountryId":"20147700","StateId":"20177250","CountyId":"20177446","CityId":"20177491","DistrictId":"20177494"}}},{"Relevance":1.0,"Distance":50.9,"MatchLevel":"houseNumber","MatchQuality":{"Country":1.0,"State":1.0,"County":1.0,"City":1.0,"District":1.0,"Street":[1.0],"HouseNumber":1.0,"PostalCode":1.0},"MatchType":"interpolated","Location":{"LocationId":"NT_e4bmC1ueFBXIeVBfuKimaC_yA","LocationType":"point","DisplayPosition":{"Latitude":47.87039,"Longitude":11.47187},"MapView":{"TopLeft":{"Latitude":47.8715142,"Longitude":11.4701942},"BottomRight":{"Latitude":47.8692658,"Longitude":11.4735458}},"Address":{"Label":"Jahnstraße 2, 82538 Geretsried, Deutschland","Country":"DEU","State":"Bayern","County":"Bad Tölz-Wolfratshausen","City":"Geretsried","District":"Gartenberg","Street":"Jahnstraße","HouseNumber":"2","PostalCode":"82538","AdditionalData":[{"value":"Deutschland","key":"CountryName"},{"value":"Bayern","key":"StateName"},{"value":"Bad Tölz-Wolfratshausen","key":"CountyName"}]},"MapReference":{"ReferenceId":"1194120238","Spot":0.31,"SideOfStreet":"right","CountryId":"20147700","StateId":"20177250","CountyId":"20177446","CityId":"20177491","DistrictId":"20177494","AddressId":"183850808","RoadLinkId":"504084936"}}},{"Relevance":1.0,"Distance":52.8,"MatchLevel":"street","MatchQuality":{"Country":1.0,"State":1.0,"County":1.0,"City":1.0,"District":1.0,"Street":[1.0],"PostalCode":1.0},"Location":{"LocationId":"NT_e4bmC1ueFBXIeVBfuKimaC_l_1194120240_R","LocationType":"point","DisplayPosition":{"Latitude":47.87004,"Longitude":11.47166},"MapView":{"TopLeft":{"Latitude":47.87021,"Longitude":11.47124},"BottomRight":{"Latitude":47.86998,"Longitude":11.47167}},"Address":{"Label":"Jahnstraße, 82538 Geretsried, Deutschland","Country":"DEU","State":"Bayern","County":"Bad Tölz-Wolfratshausen","City":"Geretsried","District":"Gartenberg","Street":"Jahnstraße","PostalCode":"82538","AdditionalData":[{"value":"Deutschland","key":"CountryName"},{"value":"Bayern","key":"StateName"},{"value":"Bad Tölz-Wolfratshausen","key":"CountyName"}]},"MapReference":{"ReferenceId":"1194120240","Spot":0.71,"SideOfStreet":"right","CountryId":"20147700","StateId":"20177250","CountyId":"20177446","CityId":"20177491","DistrictId":"20177494"}}},{"Relevance":1.0,"Distance":55.3,"MatchLevel":"houseNumber","MatchQuality":{"Country":1.0,"State":1.0,"County":1.0,"City":1.0,"District":1.0,"Street":[1.0],"HouseNumber":1.0,"PostalCode":1.0},"MatchType":"interpolated","Location":{"LocationId":"NT_l75Obl.JmXFTx2hEmukHuC_4A","LocationType":"point","DisplayPosition":{"Latitude":47.86943,"Longitude":11.47285},"MapView":{"TopLeft":{"Latitude":47.8705542,"Longitude":11.4711742},"BottomRight":{"Latitude":47.8683058,"Longitude":11.4745258}},"Address":{"Label":"Adalbert-Stifter-Straße 8, 82538 Geretsried, Deutschland","Country":"DEU","State":"Bayern","County":"Bad Tölz-Wolfratshausen","City":"Geretsried","District":"Gartenberg","Street":"Adalbert-Stifter-Straße","HouseNumber":"8","PostalCode":"82538","AdditionalData":[{"value":"Deutschland","key":"CountryName"},{"value":"Bayern","key":"StateName"},{"value":"Bad Tölz-Wolfratshausen","key":"CountyName"}]},"MapReference":{"ReferenceId":"1200287869","Spot":0.7,"SideOfStreet":"left","CountryId":"20147700","StateId":"20177250","CountyId":"20177446","CityId":"20177491","DistrictId":"20177494","AddressId":"183579093","RoadLinkId":"512562854"}}}]}]}}