{"Response":{"MetaInfo":{"Timestamp":"2020-03-28T11:49:24.966+0000","NextPageInformation":"2"},"View":[{"_type":"SearchResultsViewType","ViewId":0,"Result":[{"Relevance":1.0,"Distance":-89.9,"MatchLevel":"landmark","MatchQuality":{"Country":1.0,"State":1.0,"County":1.0,"City":1.0,"PostalCode":1.0,"Name":1.0},"Location":{"LocationId":"NT_w8tYRZns9V71Q19TnyI6yC_p_nbTyffHOQgRVSEZoW1ZZtB","LocationType":"shoppingCentre","Name":"Z.A.C. les Clairions","DisplayPosition":{"Latitude":47.81339,"Longitude":3.56995},"MapView":{"TopLeft":{"Latitude":47.81934,"Longitude":3.56119},"BottomRight":{"Latitude":47.81076,"Longitude":3.57395}},"Address":{"Label":"89000 Auxerre, France","Country":"FRA","State":"Bourgogne-Franche-Comté","County":"Yonne","City":"Auxerre","PostalCode":"89000","AdditionalData":[{"value":"France","key":"CountryName"},{"value":"Bourgogne-Franche-Comté","key":"StateName"},{"value":"Yonne","key":"CountyName"}]},"MapReference":{"CountryId":"20000001","StateId":"20013306","CountyId":"20004500","CityId":"20042916","PlaceId":"1031906534"}}},{"Relevance":1.0,"Distance":0.0,"Direction":0.0,"MatchLevel":"city","MatchQuality":{"Country":1.0,"State":1.0,"County":1.0,"City":1.0,"PostalCode":1.0},"Location":{"LocationId":"NT_kD5XCx8o-.55JGwTpdCWeB","LocationType":"point","DisplayPosition":{"Latitude":47.8122298,"Longitude":3.5703248},"MapView":{"TopLeft":{"Latitude":47.85231,"Longitude":3.5261},"BottomRight":{"Latitude":47.73472,"Longitude":3.63735}},"Address":{"Label":"Auxerre, Bourgogne-Franche-Comté, France","Country":"FRA","State":"Bourgogne-Franche-Comté","County":"Yonne","City":"Auxerre","PostalCode":"89000","AdditionalData":[{"value":"France","key":"CountryName"},{"value":"Bourgogne-Franche-Comté","key":"StateName"},{"value":"Yonne","key":"CountyName"}]},"MapReference":{"ReferenceId":"545403234","SideOfStreet":"neither","CountryId":"20000001","StateId":"20013306","CountyId":"20004500","CityId":"20042916"}}},{"Relevance":1.0,"Distance":5.9,"MatchLevel":"street","MatchQuality":{"Country":1.0,"State":1.0,"County":1.0,"City":1.0,"PostalCode":1.0},"Location":{"LocationId":"NT_PAxUFrQrkM82c5XgiRTKgD_l_987712347_L","LocationType":"point","DisplayPosition":{"Latitude":47.8122829,"Longitude":3.5703313},"MapView":{"TopLeft":{"Latitude":47.81232,"Longitude":3.57003},"BottomRight":{"Latitude":47.81224,"Longitude":3.57068}},"Address":{"Label":"89000 Auxerre, France","Country":"FRA","State":"Bourgogne-Franche-Comté","County":"Yonne","City":"Auxerre","PostalCode":"89000","AdditionalData":[{"value":"France","key":"CountryName"},{"value":"Bourgogne-Franche-Comté","key":"StateName"},{"value":"Yonne","key":"CountyName"}]},"MapReference":{"ReferenceId":"987712347","Spot":0.54,"SideOfStreet":"left","CountryId":"20000001","StateId":"20013306","CountyId":"20004500","CityId":"20042916"}}},{"Relevance":1.0,"Distance":11.9,"MatchLevel":"street","MatchQuality":{"Country":1.0,"State":1.0,"County":1.0,"City":1.0,"PostalCode":1.0},"Location":{"LocationId":"NT_PAxUFrQrkM82c5XgiRTKgD_l_987712339_R","LocationType":"point","DisplayPosition":{"Latitude":47.81215,"Longitude":3.57043},"MapView":{"TopLeft":{"Latitude":47.81215,"Longitude":3.57043},"BottomRight":{"Latitude":47.81209,"Longitude":3.57107}},"Address":{"Label":"89000 Auxerre, France","Country":"FRA","State":"Bourgogne-Franche-Comté","County":"Yonne","City":"Auxerre","PostalCode":"89000","AdditionalData":[{"value":"France","key":"CountryName"},{"value":"Bourgogne-Franche-Comté","key":"StateName"},{"value":"Yonne","key":"CountyName"}]},"MapReference":{"ReferenceId":"987712339","Spot":1.0,"SideOfStreet":"right","CountryId":"20000001","StateId":"20013306","CountyId":"20004500","CityId":"20042916"}}},{"Relevance":1.0,"Distance":26.5,"MatchLevel":"street","MatchQuality":{"Country":1.0,"State":1.0,"County":1.0,"City":1.0,"PostalCode":1.0},"Location":{"LocationId":"NT_PAxUFrQrkM82c5XgiRTKgD_l_987712346_L","LocationType":"point","DisplayPosition":{"Latitude":47.81224,"Longitude":3.57068},"MapView":{"TopLeft":{"Latitude":47.81224,"Longitude":3.57068},"BottomRight":{"Latitude":47.81219,"Longitude":3.57109}},"Address":{"Label":"89000 Auxerre, France","Country":"FRA","State":"Bourgogne-Franche-Comté","County":"Yonne","City":"Auxerre","PostalCode":"89000","AdditionalData":[{"value":"France","key":"CountryName"},{"value":"Bourgogne-Franche-Comté","key":"StateName"},{"value":"Yonne","key":"CountyName"}]},"MapReference":{"ReferenceId":"987712346","Spot":1.0,"SideOfStreet":"left","CountryId":"20000001","StateId":"20013306","CountyId":"20004500","CityId":"20042916"}}},{"Relevance":1.0,"Distance":26.5,"MatchLevel":"street","MatchQuality":{"Country":1.0,"State":1.0,"County":1.0,"City":1.0,"PostalCode":1.0},"Location":{"LocationId":"NT_PAxUFrQrkM82c5XgiRTKgD_l_987712348_L","LocationType":"point","DisplayPosition":{"Latitude":47.81224,"Longitude":3.57068},"MapView":{"TopLeft":{"Latitude":47.81248,"Longitude":3.57068},"BottomRight":{"Latitude":47.81224,"Longitude":3.57073}},"Address":{"Label":"89000 Auxerre, France","Country":"FRA","State":"Bourgogne-Franche-Comté","County":"Yonne","City":"Auxerre","PostalCode":"89000","AdditionalData":[{"value":"France","key":"CountryName"},{"value":"Bourgogne-Franche-Comté","key":"StateName"},{"value":"Yonne","key":"CountyName"}]},"MapReference":{"ReferenceId":"987712348","Spot":0.0,"SideOfStreet":"left","CountryId":"20000001","StateId":"20013306","CountyId":"20004500","CityId":"20042916"}}},{"Relevance":1.0,"Distance":40.1,"MatchLevel":"houseNumber","MatchQuality":{"Country":1.0,"State":1.0,"County":1.0,"City":1.0,"Street":[1.0],"HouseNumber":1.0,"PostalCode":1.0},"MatchType":"interpolated","Location":{"LocationId":"NT_mtU81hdfzlgzrPMl4Ys-8C_3EE","LocationType":"point","DisplayPosition":{"Latitude":47.81187,"Longitude":3.57035},"MapView":{"TopLeft":{"Latitude":47.8129942,"Longitude":3.5686761},"BottomRight":{"Latitude":47.8107458,"Longitude":3.5720239}},"Address":{"Label":"7A Avenue de Worms, 89000 Auxerre, France","Country":"FRA","State":"Bourgogne-Franche-Comté","County":"Yonne","City":"Auxerre","Street":"Avenue de Worms","HouseNumber":"7A","PostalCode":"89000","AdditionalData":[{"value":"France","key":"CountryName"},{"value":"Bourgogne-Franche-Comté","key":"StateName"},{"value":"Yonne","key":"CountyName"}]},"MapReference":{"ReferenceId":"987712364","Spot":0.26,"SideOfStreet":"left","CountryId":"20000001","StateId":"20013306","CountyId":"20004500","CityId":"20042916","AddressId":"605494725","RoadLinkId":"317465528"}}},{"Relevance":1.0,"Distance":41.4,"MatchLevel":"street","MatchQuality":{"Country":1.0,"State":1.0,"County":1.0,"City":1.0,"PostalCode":1.0},"Location":{"LocationId":"NT_PAxUFrQrkM82c5XgiRTKgD_l_987712367_R","LocationType":"point","DisplayPosition":{"Latitude":47.81191,"Longitude":3.57004},"MapView":{"TopLeft":{"Latitude":47.81191,"Longitude":3.56995},"BottomRight":{"Latitude":47.81162,"Longitude":3.57004}},"Address":{"Label":"89000 Auxerre, France","Country":"FRA","State":"Bourgogne-Franche-Comté","County":"Yonne","City":"Auxerre","PostalCode":"89000","AdditionalData":[{"value":"France","key":"CountryName"},{"value":"Bourgogne-Franche-Comté","key":"StateName"},{"value":"Yonne","key":"CountyName"}]},"MapReference":{"ReferenceId":"987712367","Spot":1.0,"SideOfStreet":"right","CountryId":"20000001","StateId":"20013306","CountyId":"20004500","CityId":"20042916"}}},{"Relevance":1.0,"Distance":43.4,"MatchLevel":"street","MatchQuality":{"Country":1.0,"State":1.0,"County":1.0,"City":1.0,"Street":[1.0],"PostalCode":1.0},"Location":{"LocationId":"NT_mtU81hdfzlgzrPMl4Ys-8C_l_987712363_R","LocationType":"point","DisplayPosition":{"Latitude":47.81185,"Longitude":3.57046},"MapView":{"TopLeft":{"Latitude":47.81185,"Longitude":3.57046},"BottomRight":{"Latitude":47.81179,"Longitude":3.57099}},"Address":{"Label":"Avenue de Worms, 89000 Auxerre, France","Country":"FRA","State":"Bourgogne-Franche-Comté","County":"Yonne","City":"Auxerre","Street":"Avenue de Worms","PostalCode":"89000","AdditionalData":[{"value":"France","key":"CountryName"},{"value":"Bourgogne-Franche-Comté","key":"StateName"},{"value":"Yonne","key":"CountyName"}]},"MapReference":{"ReferenceId":"987712363","Spot":1.0,"SideOfStreet":"right","CountryId":"20000001","StateId":"20013306","CountyId":"20004500","CityId":"20042916"}}},{"Relevance":1.0,"Distance":43.4,"MatchLevel":"street","MatchQuality":{"Country":1.0,"State":1.0,"County":1.0,"City":1.0,"PostalCode":1.0},"Location":{"LocationId":"NT_PAxUFrQrkM82c5XgiRTKgD_l_987712366_L","LocationType":"point","DisplayPosition":{"Latitude":47.81185,"Longitude":3.57046},"MapView":{"TopLeft":{"Latitude":47.81185,"Longitude":3.5704},"BottomRight":{"Latitude":47.81166,"Longitude":3.57046}},"Address":{"Label":"89000 Auxerre, France","Country":"FRA","State":"Bourgogne-Franche-Comté","County":"Yonne","City":"Auxerre","PostalCode":"89000","AdditionalData":[{"value":"France","key":"CountryName"},{"value":"Bourgogne-Franche-Comté","key":"StateName"},{"value":"Yonne","key":"CountyName"}]},"MapReference":{"ReferenceId":"987712366","Spot":1.0,"SideOfStreet":"left","CountryId":"20000001","StateId":"20013306","CountyId":"20004500","CityId":"20042916"}}}]}]}}