{"Response":{"MetaInfo":{"Timestamp":"2020-03-28T11:13:47.334+0000","NextPageInformation":"2"},"View":[{"_type":"SearchResultsViewType","ViewId":0,"Result":[{"Relevance":1.0,"Distance":0.0,"Direction":0.0,"MatchLevel":"city","MatchQuality":{"Country":1.0,"State":1.0,"County":1.0,"City":1.0,"PostalCode":1.0},"Location":{"LocationId":"NT_pmzYZGm9FKFEyKC2aNS.CA","LocationType":"point","DisplayPosition":{"Latitude":47.86775,"Longitude":7.3497},"MapView":{"TopLeft":{"Latitude":47.87927,"Longitude":7.31482},"BottomRight":{"Latitude":47.8272,"Longitude":7.44083}},"Address":{"Label":"Ensisheim, Grand Est, France","Country":"FRA","State":"Grand Est","County":"Haut-Rhin","City":"Ensisheim","PostalCode":"68190","AdditionalData":[{"value":"France","key":"CountryName"},{"value":"Grand Est","key":"StateName"},{"value":"Haut-Rhin","key":"CountyName"}]},"MapReference":{"ReferenceId":"545435116","SideOfStreet":"neither","CountryId":"20000001","StateId":"20002047","CountyId":"20034358","CityId":"20034592"}}},{"Relevance":1.0,"Distance":39.2,"MatchLevel":"street","MatchQuality":{"Country":1.0,"State":1.0,"County":1.0,"City":1.0,"Street":[1.0],"PostalCode":1.0},"Location":{"LocationId":"NT_pQiy9ZLHIDY763espzON5D_l_797999020_R","LocationType":"point","DisplayPosition":{"Latitude":47.8680596,"Longitude":7.34945},"MapView":{"TopLeft":{"Latitude":47.86895,"Longitude":7.34895},"BottomRight":{"Latitude":47.86767,"Longitude":7.35039}},"Address":{"Label":"D2, 68190 Ensisheim, France","Country":"FRA","State":"Grand Est","County":"Haut-Rhin","City":"Ensisheim","Street":"D2","PostalCode":"68190","AdditionalData":[{"value":"France","key":"CountryName"},{"value":"Grand Est","key":"StateName"},{"value":"Haut-Rhin","key":"CountyName"}]},"MapReference":{"ReferenceId":"797999020","Spot":0.33,"SideOfStreet":"right","CountryId":"20000001","StateId":"20002047","CountyId":"20034358","CityId":"20034592"}}},{"Relevance":1.0,"Distance":55.9,"MatchLevel":"street","MatchQuality":{"Country":1.0,"State":1.0,"County":1.0,"City":1.0,"Street":[1.0],"PostalCode":1.0},"Location":{"LocationId":"NT_.X8vfxgjBBXOw71COdLwOC_l_1155618210_R","LocationType":"point","DisplayPosition":{"Latitude":47.86775,"Longitude":7.34895},"MapView":{"TopLeft":{"Latitude":47.86778,"Longitude":7.34895},"BottomRight":{"Latitude":47.86767,"Longitude":7.34895}},"Address":{"Label":"Rue du 6 Février, 68190 Ensisheim, France","Country":"FRA","State":"Grand Est","County":"Haut-Rhin","City":"Ensisheim","Street":"Rue du 6 Février","PostalCode":"68190","AdditionalData":[{"value":"France","key":"CountryName"},{"value":"Grand Est","key":"StateName"},{"value":"Haut-Rhin","key":"CountyName"}]},"MapReference":{"ReferenceId":"1155618210","Spot":0.73,"SideOfStreet":"right","CountryId":"20000001","StateId":"20002047","CountyId":"20034358","CityId":"20034592"}}},{"Relevance":1.0,"Distance":56.0,"MatchLevel":"street","MatchQuality":{"Country":1.0,"State":1.0,"County":1.0,"City":1.0,"Street":[1.0],"PostalCode":1.0},"Location":{"LocationId":"NT_.X8vfxgjBBXOw71COdLwOC_l_1155618211_R","LocationType":"point","DisplayPosition":{"Latitude":47.86778,"Longitude":7.34895},"MapView":{"TopLeft":{"Latitude":47.86823,"Longitude":7.34889},"BottomRight":{"Latitude":47.86778,"Longitude":7.34895}},"Address":{"Label":"Rue du 6 Février, 68190 Ensisheim, France","Country":"FRA","State":"Grand Est","County":"Haut-Rhin","City":"Ensisheim","Street":"Rue du 6 Février","PostalCode":"68190","AdditionalData":[{"value":"France","key":"CountryName"},{"value":"Grand Est","key":"StateName"},{"value":"Haut-Rhin","key":"CountyName"}]},"MapReference":{"ReferenceId":"1155618211","Spot":0.0,"SideOfStreet":"right","CountryId":"20000001","StateId":"20002047","CountyId":"20034358","CityId":"20034592"}}},{"Relevance":1.0,"Distance":56.0,"MatchLevel":"street","MatchQuality":{"Country":1.0,"State":1.0,"County":1.0,"City":1.0,"PostalCode":1.0},"Location":{"LocationId":"NT_qH3nFxdy1amqB3TCBxMJnB_l_1155619865_R","LocationType":"point","DisplayPosition":{"Latitude":47.86778,"Longitude":7.34895},"MapView":{"TopLeft":{"Latitude":47.86778,"Longitude":7.34779},"BottomRight":{"Latitude":47.86705,"Longitude":7.34895}},"Address":{"Label":"68190 Ensisheim, France","Country":"FRA","State":"Grand Est","County":"Haut-Rhin","City":"Ensisheim","PostalCode":"68190","AdditionalData":[{"value":"France","key":"CountryName"},{"value":"Grand Est","key":"StateName"},{"value":"Haut-Rhin","key":"CountyName"}]},"MapReference":{"ReferenceId":"1155619865","Spot":1.0,"SideOfStreet":"right","CountryId":"20000001","StateId":"20002047","CountyId":"20034358","CityId":"20034592"}}},{"Relevance":1.0,"Distance":56.6,"MatchLevel":"street","MatchQuality":{"Country":1.0,"State":1.0,"County":1.0,"City":1.0,"Street":[1.0],"PostalCode":1.0},"Location":{"LocationId":"NT_pQiy9ZLHIDY763espzON5D_l_936051041_R","LocationType":"point","DisplayPosition":{"Latitude":47.86767,"Longitude":7.34895},"MapView":{"TopLeft":{"Latitude":47.86767,"Longitude":7.34869},"BottomRight":{"Latitude":47.86748,"Longitude":7.34895}},"Address":{"Label":"D2, 68190 Ensisheim, France","Country":"FRA","State":"Grand Est","County":"Haut-Rhin","City":"Ensisheim","Street":"D2","PostalCode":"68190","AdditionalData":[{"value":"France","key":"CountryName"},{"value":"Grand Est","key":"StateName"},{"value":"Haut-Rhin","key":"CountyName"}]},"MapReference":{"ReferenceId":"936051041","Spot":1.0,"SideOfStreet":"right","CountryId":"20000001","StateId":"20002047","CountyId":"20034358","CityId":"20034592"}}},{"Relevance":1.0,"Distance":76.2,"MatchLevel":"houseNumber","MatchQuality":{"Country":1.0,"State":1.0,"County":1.0,"City":1.0,"Street":[1.0],"HouseNumber":1.0,"PostalCode":1.0},"MatchType":"interpolated","Location":{"LocationId":"NT_.X8vfxgjBBXOw71COdLwOC_yA","LocationType":"point","DisplayPosition":{"Latitude":47.86719,"Longitude":7.34903},"MapView":{"TopLeft":{"Latitude":47.8683142,"Longitude":7.3473543},"BottomRight":{"Latitude":47.8660658,"Longitude":7.3507057}},"Address":{"Label":"2 Rue du 6 Février, 68190 Ensisheim, France","Country":"FRA","State":"Grand Est","County":"Haut-Rhin","City":"Ensisheim","Street":"Rue du 6 Février","HouseNumber":"2","PostalCode":"68190","AdditionalData":[{"value":"France","key":"CountryName"},{"value":"Grand Est","key":"StateName"},{"value":"Haut-Rhin","key":"CountyName"}]},"MapReference":{"ReferenceId":"545321312","Spot":0.84,"SideOfStreet":"right","CountryId":"20000001","StateId":"20002047","CountyId":"20034358","CityId":"20034592","AddressId":"316392926","RoadLinkId":"44656938"}}},{"Relevance":1.0,"Distance":80.6,"MatchLevel":"street","MatchQuality":{"Country":1.0,"State":1.0,"County":1.0,"City":1.0,"Street":[1.0],"PostalCode":1.0},"Location":{"LocationId":"NT_bJX8RNr745xN1Pd9AyvkoC_l_1070029816_L","LocationType":"point","DisplayPosition":{"Latitude":47.86823,"Longitude":7.34889},"MapView":{"TopLeft":{"Latitude":47.86858,"Longitude":7.34807},"BottomRight":{"Latitude":47.86823,"Longitude":7.34889}},"Address":{"Label":"Rue du 6 Février 1945, 68190 Ensisheim, France","Country":"FRA","State":"Grand Est","County":"Haut-Rhin","City":"Ensisheim","Street":"Rue du 6 Février 1945","PostalCode":"68190","AdditionalData":[{"value":"France","key":"CountryName"},{"value":"Grand Est","key":"StateName"},{"value":"Haut-Rhin","key":"CountyName"}]},"MapReference":{"ReferenceId":"1070029816","Spot":0.0,"SideOfStreet":"left","CountryId":"20000001","StateId":"20002047","CountyId":"20034358","CityId":"20034592"}}},{"Relevance":1.0,"Distance":81.1,"MatchLevel":"street","MatchQuality":{"Country":1.0,"State":1.0,"County":1.0,"City":1.0,"Street":[1.0],"PostalCode":1.0},"Location":{"LocationId":"NT_pQiy9ZLHIDY763espzON5D_l_936051040_R","LocationType":"point","DisplayPosition":{"Latitude":47.86748,"Longitude":7.34869},"MapView":{"TopLeft":{"Latitude":47.86748,"Longitude":7.34769},"BottomRight":{"Latitude":47.86684,"Longitude":7.34869}},"Address":{"Label":"D2, 68190 Ensisheim, France","Country":"FRA","State":"Grand Est","County":"Haut-Rhin","City":"Ensisheim","Street":"D2","PostalCode":"68190","AdditionalData":[{"value":"France","key":"CountryName"},{"value":"Grand Est","key":"StateName"},{"value":"Haut-Rhin","key":"CountyName"}]},"MapReference":{"ReferenceId":"936051040","Spot":1.0,"SideOfStreet":"right","CountryId":"20000001","StateId":"20002047","CountyId":"20034358","CityId":"20034592"}}},{"Relevance":1.0,"Distance":86.7,"MatchLevel":"houseNumber","MatchQuality":{"Country":1.0,"State":1.0,"County":1.0,"City":1.0,"Street":[1.0],"HouseNumber":1.0,"PostalCode":1.0},"MatchType":"interpolated","Location":{"LocationId":"NT_zKNKUnsAULlUUBMtC.g3FC_3A","LocationType":"point","DisplayPosition":{"Latitude":47.86827,"Longitude":7.35062},"MapView":{"TopLeft":{"Latitude":47.8693942,"Longitude":7.3489443},"BottomRight":{"Latitude":47.8671458,"Longitude":7.3522957}},"Address":{"Label":"7 Rue Colbert, 68190 Ensisheim, France","Country":"FRA","State":"Grand Est","County":"Haut-Rhin","City":"Ensisheim","Street":"Rue Colbert","HouseNumber":"7","PostalCode":"68190","AdditionalData":[{"value":"France","key":"CountryName"},{"value":"Grand Est","key":"StateName"},{"value":"Haut-Rhin","key":"CountyName"}]},"MapReference":{"ReferenceId":"962117256","Spot":0.0,"SideOfStreet":"right","CountryId":"20000001","StateId":"20002047","CountyId":"20034358","CityId":"20034592","AddressId":"569769690","RoadLinkId":"303939803"}}}]}]}}