{"Response":{"MetaInfo":{"Timestamp":"2020-03-28T12:02:29.428+0000","NextPageInformation":"2"},"View":[{"_type":"SearchResultsViewType","ViewId":0,"Result":[{"Relevance":1.0,"Distance":0.0,"Direction":0.0,"MatchLevel":"district","MatchQuality":{"Country":1.0,"State":1.0,"County":1.0,"City":1.0,"District":1.0,"PostalCode":1.0},"Location":{"LocationId":"NT_z7L.yj1z70-mEfLaK-NFJA","LocationType":"point","DisplayPosition":{"Latitude":47.935873,"Longitude":17.3742201},"MapView":{"TopLeft":{"Latitude":47.94603,"Longitude":17.35503},"BottomRight":{"Latitude":47.92183,"Longitude":17.38682}},"Address":{"Label":"Cikolasziget, Dunasziget, Győr-Moson-Sopron, Magyarország","Country":"HUN","State":"Győr-Moson-Sopron","County":"Mosonmagyaróvári Járás","City":"Dunasziget","District":"Cikolasziget","PostalCode":"9226","AdditionalData":[{"value":"Magyarország","key":"CountryName"},{"value":"Győr-Moson-Sopron","key":"StateName"},{"value":"Mosonmagyaróvári Járás","key":"CountyName"}]},"MapReference":{"ReferenceId":"809623050","SideOfStreet":"neither","CountryId":"20613038","StateId":"20616900","CountyId":"26679917","CityId":"26679941","DistrictId":"20617015"}}},{"Relevance":1.0,"Distance":45.5,"MatchLevel":"houseNumber","MatchQuality":{"Country":1.0,"State":1.0,"County":1.0,"City":1.0,"District":1.0,"Street":[1.0],"HouseNumber":1.0,"PostalCode":1.0},"MatchType":"interpolated","Location":{"LocationId":"NT_eB.I6d.hOv8AVmcJgewy-B_1gD","LocationType":"point","DisplayPosition":{"Latitude":47.93595,"Longitude":17.37345},"MapView":{"TopLeft":{"Latitude":47.9370742,"Longitude":17.3717721},"BottomRight":{"Latitude":47.9348258,"Longitude":17.3751279}},"Address":{"Label":"Cikola utca 58, Dunasziget 9226, Magyarország","Country":"HUN","State":"Győr-Moson-Sopron","County":"Mosonmagyaróvári Járás","City":"Dunasziget","District":"Cikolasziget","Street":"Cikola utca","HouseNumber":"58","PostalCode":"9226","AdditionalData":[{"value":"Magyarország","key":"CountryName"},{"value":"Győr-Moson-Sopron","key":"StateName"},{"value":"Mosonmagyaróvári Járás","key":"CountyName"}]},"MapReference":{"ReferenceId":"598265375","Spot":0.8,"SideOfStreet":"right","CountryId":"20613038","StateId":"20616900","CountyId":"26679917","CityId":"26679941","DistrictId":"20617015","AddressId":"354874844","RoadLinkId":"60339408"}}},{"Relevance":1.0,"Distance":48.7,"MatchLevel":"houseNumber","MatchQuality":{"Country":1.0,"State":1.0,"County":1.0,"City":1.0,"District":1.0,"Street":[1.0],"HouseNumber":1.0,"PostalCode":1.0},"MatchType":"interpolated","Location":{"LocationId":"NT_fwto00mbP70P90wAvq3I1C_zA","LocationType":"point","DisplayPosition":{"Latitude":47.93547,"Longitude":17.37454},"MapView":{"TopLeft":{"Latitude":47.9365942,"Longitude":17.3728621},"BottomRight":{"Latitude":47.9343458,"Longitude":17.3762179}},"Address":{"Label":"Dózsa György utca 3, Dunasziget 9226, Magyarország","Country":"HUN","State":"Győr-Moson-Sopron","County":"Mosonmagyaróvári Járás","City":"Dunasziget","District":"Cikolasziget","Street":"Dózsa György utca","HouseNumber":"3","PostalCode":"9226","AdditionalData":[{"value":"Magyarország","key":"CountryName"},{"value":"Győr-Moson-Sopron","key":"StateName"},{"value":"Mosonmagyaróvári Járás","key":"CountyName"}]},"MapReference":{"ReferenceId":"598265270","Spot":0.11,"SideOfStreet":"left","CountryId":"20613038","StateId":"20616900","CountyId":"26679917","CityId":"26679941","DistrictId":"20617015","AddressId":"355916929","RoadLinkId":"60502894"}}},{"Relevance":1.0,"Distance":76.6,"MatchLevel":"houseNumber","MatchQuality":{"Country":1.0,"State":1.0,"County":1.0,"City":1.0,"District":1.0,"Street":[1.0],"HouseNumber":1.0,"PostalCode":1.0},"MatchType":"interpolated","Location":{"LocationId":"NT_6PMieqnkrCkNs8IMuIhnOC_xA","LocationType":"point","DisplayPosition":{"Latitude":47.93528,"Longitude":17.37502},"MapView":{"TopLeft":{"Latitude":47.9364042,"Longitude":17.3733421},"BottomRight":{"Latitude":47.9341558,"Longitude":17.3766979}},"Address":{"Label":"Duna utca 1, Dunasziget 9226, Magyarország","Country":"HUN","State":"Győr-Moson-Sopron","County":"Mosonmagyaróvári Járás","City":"Dunasziget","District":"Cikolasziget","Street":"Duna utca","HouseNumber":"1","PostalCode":"9226","AdditionalData":[{"value":"Magyarország","key":"CountryName"},{"value":"Győr-Moson-Sopron","key":"StateName"},{"value":"Mosonmagyaróvári Járás","key":"CountyName"}]},"MapReference":{"ReferenceId":"598265273","Spot":0.11,"SideOfStreet":"left","CountryId":"20613038","StateId":"20616900","CountyId":"26679917","CityId":"26679941","DistrictId":"20617015","AddressId":"357343471","RoadLinkId":"60528966"}}},{"Relevance":1.0,"Distance":90.9,"MatchLevel":"houseNumber","MatchQuality":{"Country":1.0,"State":1.0,"County":1.0,"City":1.0,"District":1.0,"Street":[1.0],"HouseNumber":1.0,"PostalCode":1.0},"MatchType":"interpolated","Location":{"LocationId":"NT_fwto00mbP70P90wAvq3I1C_1A","LocationType":"point","DisplayPosition":{"Latitude":47.9351,"Longitude":17.37466},"MapView":{"TopLeft":{"Latitude":47.9362242,"Longitude":17.3729821},"BottomRight":{"Latitude":47.9339758,"Longitude":17.3763379}},"Address":{"Label":"Dózsa György utca 5, Dunasziget 9226, Magyarország","Country":"HUN","State":"Győr-Moson-Sopron","County":"Mosonmagyaróvári Járás","City":"Dunasziget","District":"Cikolasziget","Street":"Dózsa György utca","HouseNumber":"5","PostalCode":"9226","AdditionalData":[{"value":"Magyarország","key":"CountryName"},{"value":"Győr-Moson-Sopron","key":"StateName"},{"value":"Mosonmagyaróvári Járás","key":"CountyName"}]},"MapReference":{"ReferenceId":"598265388","Spot":0.92,"SideOfStreet":"left","CountryId":"20613038","StateId":"20616900","CountyId":"26679917","CityId":"26679941","DistrictId":"20617015","AddressId":"356970064","RoadLinkId":"60385545"}}},{"Relevance":1.0,"Distance":128.9,"MatchLevel":"houseNumber","MatchQuality":{"Country":1.0,"State":1.0,"County":1.0,"City":1.0,"District":1.0,"Street":[1.0],"HouseNumber":1.0,"PostalCode":1.0},"MatchType":"interpolated","Location":{"LocationId":"NT_eB.I6d.hOv8AVmcJgewy-B_1QD","LocationType":"point","DisplayPosition":{"Latitude":47.93692,"Longitude":17.37331},"MapView":{"TopLeft":{"Latitude":47.9380442,"Longitude":17.371632},"BottomRight":{"Latitude":47.9357958,"Longitude":17.374988}},"Address":{"Label":"Cikola utca 54, Dunasziget 9226, Magyarország","Country":"HUN","State":"Győr-Moson-Sopron","County":"Mosonmagyaróvári Járás","City":"Dunasziget","District":"Cikolasziget","Street":"Cikola utca","HouseNumber":"54","PostalCode":"9226","AdditionalData":[{"value":"Magyarország","key":"CountryName"},{"value":"Győr-Moson-Sopron","key":"StateName"},{"value":"Mosonmagyaróvári Járás","key":"CountyName"}]},"MapReference":{"ReferenceId":"598265167","Spot":0.45,"SideOfStreet":"right","CountryId":"20613038","StateId":"20616900","CountyId":"26679917","CityId":"26679941","DistrictId":"20617015","AddressId":"357029302","RoadLinkId":"60413642"}}},{"Relevance":1.0,"Distance":181.5,"MatchLevel":"houseNumber","MatchQuality":{"Country":1.0,"State":1.0,"County":1.0,"City":1.0,"District":1.0,"Street":[1.0],"HouseNumber":1.0,"PostalCode":1.0},"MatchType":"interpolated","Location":{"LocationId":"NT_C.T0vLieklTPV59OblPElA_xA","LocationType":"point","DisplayPosition":{"Latitude":47.93727,"Longitude":17.37296},"MapView":{"TopLeft":{"Latitude":47.9383942,"Longitude":17.371282},"BottomRight":{"Latitude":47.9361458,"Longitude":17.374638}},"Address":{"Label":"Galambos utca 1, Dunasziget 9226, Magyarország","Country":"HUN","State":"Győr-Moson-Sopron","County":"Mosonmagyaróvári Járás","City":"Dunasziget","District":"Cikolasziget","Street":"Galambos utca","HouseNumber":"1","PostalCode":"9226","AdditionalData":[{"value":"Magyarország","key":"CountryName"},{"value":"Győr-Moson-Sopron","key":"StateName"},{"value":"Mosonmagyaróvári Járás","key":"CountyName"}]},"MapReference":{"ReferenceId":"598265126","Spot":0.65,"SideOfStreet":"left","CountryId":"20613038","StateId":"20616900","CountyId":"26679917","CityId":"26679941","DistrictId":"20617015","AddressId":"356660858","RoadLinkId":"60406758"}}},{"Relevance":1.0,"Distance":192.8,"MatchLevel":"street","MatchQuality":{"Country":1.0,"State":1.0,"County":1.0,"City":1.0,"District":1.0,"Street":[1.0],"PostalCode":1.0},"Location":{"LocationId":"NT_C.T0vLieklTPV59OblPElA_l_598265132_R","LocationType":"point","DisplayPosition":{"Latitude":47.93718,"Longitude":17.37252},"MapView":{"TopLeft":{"Latitude":47.93718,"Longitude":17.3719},"BottomRight":{"Latitude":47.93705,"Longitude":17.37252}},"Address":{"Label":"Galambos utca, Dunasziget 9226, Magyarország","Country":"HUN","State":"Győr-Moson-Sopron","County":"Mosonmagyaróvári Járás","City":"Dunasziget","District":"Cikolasziget","Street":"Galambos utca","PostalCode":"9226","AdditionalData":[{"value":"Magyarország","key":"CountryName"},{"value":"Győr-Moson-Sopron","key":"StateName"},{"value":"Mosonmagyaróvári Járás","key":"CountyName"}]},"MapReference":{"ReferenceId":"598265132","Spot":1.0,"SideOfStreet":"right","CountryId":"20613038","StateId":"20616900","CountyId":"26679917","CityId":"26679941","DistrictId":"20617015"}}},{"Relevance":1.0,"Distance":233.6,"MatchLevel":"houseNumber","MatchQuality":{"Country":1.0,"State":1.0,"County":1.0,"City":1.0,"District":1.0,"Street":[1.0],"HouseNumber":1.0,"PostalCode":1.0},"MatchType":"interpolated","Location":{"LocationId":"NT_eB.I6d.hOv8AVmcJgewy-B_1ID","LocationType":"point","DisplayPosition":{"Latitude":47.93781,"Longitude":17.37295},"MapView":{"TopLeft":{"Latitude":47.9389342,"Longitude":17.371272},"BottomRight":{"Latitude":47.9366858,"Longitude":17.374628}},"Address":{"Label":"Cikola utca 52, Dunasziget 9226, Magyarország","Country":"HUN","State":"Győr-Moson-Sopron","County":"Mosonmagyaróvári Járás","City":"Dunasziget","District":"Cikolasziget","Street":"Cikola utca","HouseNumber":"52","PostalCode":"9226","AdditionalData":[{"value":"Magyarország","key":"CountryName"},{"value":"Győr-Moson-Sopron","key":"StateName"},{"value":"Mosonmagyaróvári Járás","key":"CountyName"}]},"MapReference":{"ReferenceId":"598265116","Spot":0.52,"SideOfStreet":"right","CountryId":"20613038","StateId":"20616900","CountyId":"26679917","CityId":"26679941","DistrictId":"20617015","AddressId":"356495382","RoadLinkId":"60683210"}}},{"Relevance":1.0,"Distance":274.9,"MatchLevel":"houseNumber","MatchQuality":{"Country":1.0,"State":1.0,"County":1.0,"City":1.0,"District":1.0,"Street":[1.0],"HouseNumber":1.0,"PostalCode":1.0},"MatchType":"interpolated","Location":{"LocationId":"NT_C.T0vLieklTPV59OblPElA_yA","LocationType":"point","DisplayPosition":{"Latitude":47.93691,"Longitude":17.37087},"MapView":{"TopLeft":{"Latitude":47.9380342,"Longitude":17.369192},"BottomRight":{"Latitude":47.9357858,"Longitude":17.372548}},"Address":{"Label":"Galambos utca 2, Dunasziget 9226, Magyarország","Country":"HUN","State":"Győr-Moson-Sopron","County":"Mosonmagyaróvári Járás","City":"Dunasziget","District":"Cikolasziget","Street":"Galambos utca","HouseNumber":"2","PostalCode":"9226","AdditionalData":[{"value":"Magyarország","key":"CountryName"},{"value":"Győr-Moson-Sopron","key":"StateName"},{"value":"Mosonmagyaróvári Járás","key":"CountyName"}]},"MapReference":{"ReferenceId":"598265145","Spot":0.24,"SideOfStreet":"left","CountryId":"20613038","StateId":"20616900","CountyId":"26679917","CityId":"26679941","DistrictId":"20617015","AddressId":"354868676","RoadLinkId":"60599457"}}}]}]}}