{"Response":{"MetaInfo":{"Timestamp":"2020-03-28T10:15:02.818+0000","NextPageInformation":"2"},"View":[{"_type":"SearchResultsViewType","ViewId":0,"Result":[{"Relevance":1.0,"Distance":0.0,"Direction":0.0,"MatchLevel":"city","MatchQuality":{"Country":1.0,"State":1.0,"County":1.0,"City":1.0,"PostalCode":1.0},"Location":{"LocationId":"NT_sb.sAU1dGoRR1pHtCm50NC","LocationType":"point","DisplayPosition":{"Latitude":47.9951331,"Longitude":16.6660265},"MapView":{"TopLeft":{"Latitude":48.01998,"Longitude":16.58423},"BottomRight":{"Latitude":47.94606,"Longitude":16.70248}},"Address":{"Label":"Sommerein, Niederösterreich, Österreich","Country":"AUT","State":"Niederösterreich","County":"Bruck an der Leitha","City":"Sommerein","PostalCode":"2453","AdditionalData":[{"value":"Österreich","key":"CountryName"},{"value":"Niederösterreich","key":"StateName"},{"value":"Bruck an der Leitha","key":"CountyName"}]},"MapReference":{"ReferenceId":"69737860","SideOfStreet":"neither","CountryId":"20128885","StateId":"20130295","CountyId":"20130582","CityId":"20130644"}}},{"Relevance":1.0,"Distance":13.4,"MatchLevel":"houseNumber","MatchQuality":{"Country":1.0,"State":1.0,"County":1.0,"City":1.0,"Street":[1.0],"HouseNumber":1.0,"PostalCode":1.0},"MatchType":"interpolated","Location":{"LocationId":"NT_EsZx2SQUee1X.Q19SbBv-D_5A","LocationType":"point","DisplayPosition":{"Latitude":47.99525,"Longitude":16.66607},"MapView":{"TopLeft":{"Latitude":47.9963742,"Longitude":16.6643901},"BottomRight":{"Latitude":47.9941258,"Longitude":16.6677499}},"Address":{"Label":"Wolfsbrunn 9, 2453 Sommerein, Österreich","Country":"AUT","State":"Niederösterreich","County":"Bruck an der Leitha","City":"Sommerein","Street":"Wolfsbrunn","HouseNumber":"9","PostalCode":"2453","AdditionalData":[{"value":"Österreich","key":"CountryName"},{"value":"Niederösterreich","key":"StateName"},{"value":"Bruck an der Leitha","key":"CountyName"}]},"MapReference":{"ReferenceId":"1112698779","Spot":0.22,"SideOfStreet":"right","CountryId":"20128885","StateId":"20130295","CountyId":"20130582","CityId":"20130644","AddressId":"778545843","RoadLinkId":"422538841"}}},{"Relevance":1.0,"Distance":39.7,"MatchLevel":"street","MatchQuality":{"Country":1.0,"State":1.0,"County":1.0,"City":1.0,"Street":[1.0],"PostalCode":1.0},"Location":{"LocationId":"NT_5odrAOtQ5j1S9Xy7h7WDcC_l_1112698780_R","LocationType":"point","DisplayPosition":{"Latitude":47.99542,"Longitude":16.66571},"MapView":{"TopLeft":{"Latitude":47.99542,"Longitude":16.66544},"BottomRight":{"Latitude":47.99541,"Longitude":16.66571}},"Address":{"Label":"Mathiasgasse, 2453 Sommerein, Österreich","Country":"AUT","State":"Niederösterreich","County":"Bruck an der Leitha","City":"Sommerein","Street":"Mathiasgasse","PostalCode":"2453","AdditionalData":[{"value":"Österreich","key":"CountryName"},{"value":"Niederösterreich","key":"StateName"},{"value":"Bruck an der Leitha","key":"CountyName"}]},"MapReference":{"ReferenceId":"1112698780","Spot":1.0,"SideOfStreet":"right","CountryId":"20128885","StateId":"20130295","CountyId":"20130582","CityId":"20130644"}}},{"Relevance":1.0,"Distance":52.6,"MatchLevel":"houseNumber","MatchQuality":{"Country":1.0,"State":1.0,"County":1.0,"City":1.0,"District":1.0,"Street":[1.0],"HouseNumber":1.0,"PostalCode":1.0},"MatchType":"interpolated","Location":{"LocationId":"NT_jFA83fkjYiMP4g-UYzFCYA_xgD","LocationType":"point","DisplayPosition":{"Latitude":47.99526,"Longitude":16.66513},"MapView":{"TopLeft":{"Latitude":47.9963842,"Longitude":16.6634501},"BottomRight":{"Latitude":47.9941358,"Longitude":16.6668099}},"Address":{"Label":"Getreidegasse 18, 2453 Sommerein, Österreich","Country":"AUT","State":"Niederösterreich","County":"Bruck an der Leitha","City":"Sommerein","District":"Sommerein","Street":"Getreidegasse","HouseNumber":"18","PostalCode":"2453","AdditionalData":[{"value":"Österreich","key":"CountryName"},{"value":"Niederösterreich","key":"StateName"},{"value":"Bruck an der Leitha","key":"CountyName"}]},"MapReference":{"ReferenceId":"69742964","Spot":0.89,"SideOfStreet":"right","CountryId":"20128885","StateId":"20130295","CountyId":"20130582","CityId":"20130644","DistrictId":"20130646","AddressId":"162095470","RoadLinkId":"28471559"}}},{"Relevance":1.0,"Distance":62.7,"MatchLevel":"houseNumber","MatchQuality":{"Country":1.0,"State":1.0,"County":1.0,"City":1.0,"District":1.0,"Street":[1.0],"HouseNumber":1.0,"PostalCode":1.0},"MatchType":"interpolated","Location":{"LocationId":"NT_af2lx8M0rYIcXk2h2.uXwB_l_62820496_L_yAD","LocationType":"point","DisplayPosition":{"Latitude":47.995395,"Longitude":16.6652803},"MapView":{"TopLeft":{"Latitude":47.9965192,"Longitude":16.6636004},"BottomRight":{"Latitude":47.9942709,"Longitude":16.6669602}},"Address":{"Label":"Mathiasgasse 20, 2453 Sommerein, Österreich","Country":"AUT","State":"Niederösterreich","County":"Bruck an der Leitha","City":"Sommerein","District":"Sommerein","Street":"Mathiasgasse","HouseNumber":"20","PostalCode":"2453","AdditionalData":[{"value":"Österreich","key":"CountryName"},{"value":"Niederösterreich","key":"StateName"},{"value":"Bruck an der Leitha","key":"CountyName"}]},"MapReference":{"ReferenceId":"62820496","Spot":0.5,"SideOfStreet":"left","CountryId":"20128885","StateId":"20130295","CountyId":"20130582","CityId":"20130644","DistrictId":"20130646"}}},{"Relevance":1.0,"Distance":72.8,"MatchLevel":"street","MatchQuality":{"Country":1.0,"State":1.0,"County":1.0,"City":1.0,"District":1.0,"Street":[1.0],"PostalCode":1.0},"Location":{"LocationId":"NT_af2lx8M0rYIcXk2h2.uXwB_l_69742966_R","LocationType":"point","DisplayPosition":{"Latitude":47.99538,"Longitude":16.66512},"MapView":{"TopLeft":{"Latitude":47.99538,"Longitude":16.66427},"BottomRight":{"Latitude":47.99529,"Longitude":16.66512}},"Address":{"Label":"Mathiasgasse, 2453 Sommerein, Österreich","Country":"AUT","State":"Niederösterreich","County":"Bruck an der Leitha","City":"Sommerein","District":"Sommerein","Street":"Mathiasgasse","PostalCode":"2453","AdditionalData":[{"value":"Österreich","key":"CountryName"},{"value":"Niederösterreich","key":"StateName"},{"value":"Bruck an der Leitha","key":"CountyName"}]},"MapReference":{"ReferenceId":"69742966","Spot":1.0,"SideOfStreet":"right","CountryId":"20128885","StateId":"20130295","CountyId":"20130582","CityId":"20130644","DistrictId":"20130646"}}},{"Relevance":1.0,"Distance":79.7,"MatchLevel":"houseNumber","MatchQuality":{"Country":1.0,"State":1.0,"County":1.0,"City":1.0,"District":1.0,"Street":[1.0],"HouseNumber":1.0,"PostalCode":1.0},"MatchType":"interpolated","Location":{"LocationId":"NT_jFA83fkjYiMP4g-UYzFCYA_yAD","LocationType":"point","DisplayPosition":{"Latitude":47.99563,"Longitude":16.66509},"MapView":{"TopLeft":{"Latitude":47.9967542,"Longitude":16.6634101},"BottomRight":{"Latitude":47.9945058,"Longitude":16.6667699}},"Address":{"Label":"Getreidegasse 20, 2453 Sommerein, Österreich","Country":"AUT","State":"Niederösterreich","County":"Bruck an der Leitha","City":"Sommerein","District":"Sommerein","Street":"Getreidegasse","HouseNumber":"20","PostalCode":"2453","AdditionalData":[{"value":"Österreich","key":"CountryName"},{"value":"Niederösterreich","key":"StateName"},{"value":"Bruck an der Leitha","key":"CountyName"}]},"MapReference":{"ReferenceId":"1258193808","Spot":0.04,"SideOfStreet":"right","CountryId":"20128885","StateId":"20130295","CountyId":"20130582","CityId":"20130644","DistrictId":"20130646","AddressId":"162095439","RoadLinkId":"582707011"}}},{"Relevance":1.0,"Distance":84.9,"MatchLevel":"houseNumber","MatchQuality":{"Country":1.0,"State":1.0,"County":1.0,"City":1.0,"District":1.0,"Street":[1.0],"HouseNumber":1.0,"PostalCode":1.0},"MatchType":"interpolated","Location":{"LocationId":"NT_jFA83fkjYiMP4g-UYzFCYA_xMD","LocationType":"point","DisplayPosition":{"Latitude":47.99557,"Longitude":16.66509},"MapView":{"TopLeft":{"Latitude":47.9966942,"Longitude":16.6634101},"BottomRight":{"Latitude":47.9944458,"Longitude":16.6667699}},"Address":{"Label":"Getreidegasse 13, 2453 Sommerein, Österreich","Country":"AUT","State":"Niederösterreich","County":"Bruck an der Leitha","City":"Sommerein","District":"Sommerein","Street":"Getreidegasse","HouseNumber":"13","PostalCode":"2453","AdditionalData":[{"value":"Österreich","key":"CountryName"},{"value":"Niederösterreich","key":"StateName"},{"value":"Bruck an der Leitha","key":"CountyName"}]},"MapReference":{"ReferenceId":"1258193807","Spot":0.87,"SideOfStreet":"left","CountryId":"20128885","StateId":"20130295","CountyId":"20130582","CityId":"20130644","DistrictId":"20130646","AddressId":"162095443","RoadLinkId":"582707010"}}},{"Relevance":1.0,"Distance":86.9,"MatchLevel":"street","MatchQuality":{"Country":1.0,"State":1.0,"County":1.0,"City":1.0,"District":1.0,"PostalCode":1.0},"Location":{"LocationId":"NT_GAqe5XSs5lUGcC8l899GqD_l_1258193804_R","LocationType":"point","DisplayPosition":{"Latitude":47.9956,"Longitude":16.66509},"MapView":{"TopLeft":{"Latitude":47.9956,"Longitude":16.6648},"BottomRight":{"Latitude":47.99558,"Longitude":16.66509}},"Address":{"Label":"2453 Sommerein, Österreich","Country":"AUT","State":"Niederösterreich","County":"Bruck an der Leitha","City":"Sommerein","District":"Sommerein","PostalCode":"2453","AdditionalData":[{"value":"Österreich","key":"CountryName"},{"value":"Niederösterreich","key":"StateName"},{"value":"Bruck an der Leitha","key":"CountyName"}]},"MapReference":{"ReferenceId":"1258193804","Spot":1.0,"SideOfStreet":"right","CountryId":"20128885","StateId":"20130295","CountyId":"20130582","CityId":"20130644","DistrictId":"20130646"}}},{"Relevance":1.0,"Distance":87.5,"MatchLevel":"houseNumber","MatchQuality":{"Country":1.0,"State":1.0,"County":1.0,"City":1.0,"Street":[1.0],"HouseNumber":1.0,"PostalCode":1.0},"MatchType":"interpolated","Location":{"LocationId":"NT_EsZx2SQUee1X.Q19SbBv-D_zA","LocationType":"point","DisplayPosition":{"Latitude":47.9959,"Longitude":16.66565},"MapView":{"TopLeft":{"Latitude":47.9970242,"Longitude":16.6639701},"BottomRight":{"Latitude":47.9947758,"Longitude":16.6673299}},"Address":{"Label":"Wolfsbrunn 3, 2453 Sommerein, Österreich","Country":"AUT","State":"Niederösterreich","County":"Bruck an der Leitha","City":"Sommerein","Street":"Wolfsbrunn","HouseNumber":"3","PostalCode":"2453","AdditionalData":[{"value":"Österreich","key":"CountryName"},{"value":"Niederösterreich","key":"StateName"},{"value":"Bruck an der Leitha","key":"CountyName"}]},"MapReference":{"ReferenceId":"1112698778","Spot":0.47,"SideOfStreet":"right","CountryId":"20128885","StateId":"20130295","CountyId":"20130582","CityId":"20130644","AddressId":"729060369","RoadLinkId":"422538839"}}}]}]}}