{"Response":{"MetaInfo":{"Timestamp":"2020-03-28T10:15:16.288+0000","NextPageInformation":"2"},"View":[{"_type":"SearchResultsViewType","ViewId":0,"Result":[{"Relevance":1.0,"Distance":0.0,"Direction":0.0,"MatchLevel":"city","MatchQuality":{"Country":1.0,"State":1.0,"County":1.0,"City":1.0,"PostalCode":1.0},"Location":{"LocationId":"NT_NrbChEjWxZCZFR8rrG1AGA","LocationType":"point","DisplayPosition":{"Latitude":47.9610712,"Longitude":13.2013213},"MapView":{"TopLeft":{"Latitude":47.97927,"Longitude":13.1264},"BottomRight":{"Latitude":47.911,"Longitude":13.23052}},"Address":{"Label":"Köstendorf, Salzburg, Österreich","Country":"AUT","State":"Salzburg","County":"Salzburg-Umgebung","City":"Köstendorf","PostalCode":"5203","AdditionalData":[{"value":"Österreich","key":"CountryName"},{"value":"Salzburg","key":"StateName"},{"value":"Salzburg-Umgebung","key":"CountyName"}]},"MapReference":{"ReferenceId":"546587286","SideOfStreet":"neither","CountryId":"20128885","StateId":"20134400","CountyId":"20134475","CityId":"20134549"}}},{"Relevance":1.0,"Distance":7.7,"MatchLevel":"houseNumber","MatchQuality":{"Country":1.0,"State":1.0,"County":1.0,"City":1.0,"Street":[1.0],"HouseNumber":1.0,"PostalCode":1.0},"MatchType":"interpolated","Location":{"LocationId":"NT_fki8vMFUDdn2tpKANXPHgD_xUD","LocationType":"point","DisplayPosition":{"Latitude":47.96115,"Longitude":13.20137},"MapView":{"TopLeft":{"Latitude":47.9622742,"Longitude":13.1996912},"BottomRight":{"Latitude":47.9600258,"Longitude":13.2030488}},"Address":{"Label":"Hochwiesenstraße 15, 5203 Köstendorf, Österreich","Country":"AUT","State":"Salzburg","County":"Salzburg-Umgebung","City":"Köstendorf","Street":"Hochwiesenstraße","HouseNumber":"15","PostalCode":"5203","AdditionalData":[{"value":"Österreich","key":"CountryName"},{"value":"Salzburg","key":"StateName"},{"value":"Salzburg-Umgebung","key":"CountyName"}]},"MapReference":{"ReferenceId":"546572848","Spot":0.71,"SideOfStreet":"right","CountryId":"20128885","StateId":"20134400","CountyId":"20134475","CityId":"20134549","AddressId":"161568622","RoadLinkId":"27863724"}}},{"Relevance":1.0,"Distance":32.7,"MatchLevel":"street","MatchQuality":{"Country":1.0,"State":1.0,"County":1.0,"City":1.0,"Street":[1.0],"PostalCode":1.0},"Location":{"LocationId":"NT_KetGXRRrp00WsaBXgTVreC_l_546573019_L","LocationType":"point","DisplayPosition":{"Latitude":47.96116,"Longitude":13.20174},"MapView":{"TopLeft":{"Latitude":47.96116,"Longitude":13.20174},"BottomRight":{"Latitude":47.961,"Longitude":13.20187}},"Address":{"Label":"Carl-Zuckmayer-Straße, 5203 Köstendorf, Österreich","Country":"AUT","State":"Salzburg","County":"Salzburg-Umgebung","City":"Köstendorf","Street":"Carl-Zuckmayer-Straße","PostalCode":"5203","AdditionalData":[{"value":"Österreich","key":"CountryName"},{"value":"Salzburg","key":"StateName"},{"value":"Salzburg-Umgebung","key":"CountyName"}]},"MapReference":{"ReferenceId":"546573019","Spot":1.0,"SideOfStreet":"left","CountryId":"20128885","StateId":"20134400","CountyId":"20134475","CityId":"20134549"}}},{"Relevance":1.0,"Distance":43.6,"MatchLevel":"houseNumber","MatchQuality":{"Country":1.0,"State":1.0,"County":1.0,"City":1.0,"Street":[1.0],"HouseNumber":1.0,"PostalCode":1.0},"MatchType":"interpolated","Location":{"LocationId":"NT_aPpD02N-Ir-V1YwZKH-i-A_xID","LocationType":"point","DisplayPosition":{"Latitude":47.96077,"Longitude":13.20064},"MapView":{"TopLeft":{"Latitude":47.9618942,"Longitude":13.1989613},"BottomRight":{"Latitude":47.9596458,"Longitude":13.2023187}},"Address":{"Label":"Kohbauernstraße 12, 5203 Köstendorf, Österreich","Country":"AUT","State":"Salzburg","County":"Salzburg-Umgebung","City":"Köstendorf","Street":"Kohbauernstraße","HouseNumber":"12","PostalCode":"5203","AdditionalData":[{"value":"Österreich","key":"CountryName"},{"value":"Salzburg","key":"StateName"},{"value":"Salzburg-Umgebung","key":"CountyName"}]},"MapReference":{"ReferenceId":"546572932","Spot":0.53,"SideOfStreet":"right","CountryId":"20128885","StateId":"20134400","CountyId":"20134475","CityId":"20134549","AddressId":"161568625","RoadLinkId":"28052794"}}},{"Relevance":1.0,"Distance":45.1,"MatchLevel":"houseNumber","MatchQuality":{"Country":1.0,"State":1.0,"County":1.0,"City":1.0,"District":1.0,"Street":[1.0],"HouseNumber":1.0,"PostalCode":1.0},"MatchType":"interpolated","Location":{"LocationId":"NT_aEWGLbc5q6h0t2zfE9j52A_xMD","LocationType":"point","DisplayPosition":{"Latitude":47.96078,"Longitude":13.20196},"MapView":{"TopLeft":{"Latitude":47.9619042,"Longitude":13.2002813},"BottomRight":{"Latitude":47.9596558,"Longitude":13.2036387}},"Address":{"Label":"Carl-Zuckmayer-Straße 13, 5203 Köstendorf, Österreich","Country":"AUT","State":"Salzburg","County":"Salzburg-Umgebung","City":"Köstendorf","District":"Köstendorf","Street":"Carl-Zuckmayer-Straße","HouseNumber":"13","PostalCode":"5203","AdditionalData":[{"value":"Österreich","key":"CountryName"},{"value":"Salzburg","key":"StateName"},{"value":"Salzburg-Umgebung","key":"CountyName"}]},"MapReference":{"ReferenceId":"1036149478","Spot":0.77,"SideOfStreet":"left","CountryId":"20128885","StateId":"20134400","CountyId":"20134475","CityId":"20134549","DistrictId":"20134552","AddressId":"213690654","RoadLinkId":"358093225"}}},{"Relevance":1.0,"Distance":55.4,"MatchLevel":"houseNumber","MatchQuality":{"Country":1.0,"State":1.0,"County":1.0,"City":1.0,"Street":[1.0],"HouseNumber":1.0,"PostalCode":1.0},"MatchType":"interpolated","Location":{"LocationId":"NT_fki8vMFUDdn2tpKANXPHgD_xED","LocationType":"point","DisplayPosition":{"Latitude":47.9612,"Longitude":13.20204},"MapView":{"TopLeft":{"Latitude":47.9623242,"Longitude":13.2003612},"BottomRight":{"Latitude":47.9600758,"Longitude":13.2037188}},"Address":{"Label":"Hochwiesenstraße 11, 5203 Köstendorf, Österreich","Country":"AUT","State":"Salzburg","County":"Salzburg-Umgebung","City":"Köstendorf","Street":"Hochwiesenstraße","HouseNumber":"11","PostalCode":"5203","AdditionalData":[{"value":"Österreich","key":"CountryName"},{"value":"Salzburg","key":"StateName"},{"value":"Salzburg-Umgebung","key":"CountyName"}]},"MapReference":{"ReferenceId":"546573033","Spot":0.46,"SideOfStreet":"right","CountryId":"20128885","StateId":"20134400","CountyId":"20134475","CityId":"20134549","AddressId":"161568624","RoadLinkId":"28589791"}}},{"Relevance":1.0,"Distance":64.5,"MatchLevel":"street","MatchQuality":{"Country":1.0,"State":1.0,"County":1.0,"City":1.0,"Street":[1.0],"PostalCode":1.0},"Location":{"LocationId":"NT_fki8vMFUDdn2tpKANXPHgD_l_546572774_R","LocationType":"point","DisplayPosition":{"Latitude":47.96113,"Longitude":13.20046},"MapView":{"TopLeft":{"Latitude":47.96132,"Longitude":13.19693},"BottomRight":{"Latitude":47.96113,"Longitude":13.20046}},"Address":{"Label":"Hochwiesenstraße, 5203 Köstendorf, Österreich","Country":"AUT","State":"Salzburg","County":"Salzburg-Umgebung","City":"Köstendorf","Street":"Hochwiesenstraße","PostalCode":"5203","AdditionalData":[{"value":"Österreich","key":"CountryName"},{"value":"Salzburg","key":"StateName"},{"value":"Salzburg-Umgebung","key":"CountyName"}]},"MapReference":{"ReferenceId":"546572774","Spot":0.0,"SideOfStreet":"right","CountryId":"20128885","StateId":"20134400","CountyId":"20134475","CityId":"20134549"}}},{"Relevance":1.0,"Distance":66.6,"MatchLevel":"houseNumber","MatchQuality":{"Country":1.0,"State":1.0,"County":1.0,"City":1.0,"Street":[1.0],"HouseNumber":1.0,"PostalCode":1.0},"MatchType":"interpolated","Location":{"LocationId":"NT_wy-d4IgRk7CIO.8VyqEOcB_1A","LocationType":"point","DisplayPosition":{"Latitude":47.9604,"Longitude":13.20105},"MapView":{"TopLeft":{"Latitude":47.9615242,"Longitude":13.1993713},"BottomRight":{"Latitude":47.9592758,"Longitude":13.2027287}},"Address":{"Label":"Josef-Klampfer-Straße 5, 5203 Köstendorf, Österreich","Country":"AUT","State":"Salzburg","County":"Salzburg-Umgebung","City":"Köstendorf","Street":"Josef-Klampfer-Straße","HouseNumber":"5","PostalCode":"5203","AdditionalData":[{"value":"Österreich","key":"CountryName"},{"value":"Salzburg","key":"StateName"},{"value":"Salzburg-Umgebung","key":"CountyName"}]},"MapReference":{"ReferenceId":"546572909","Spot":0.54,"SideOfStreet":"left","CountryId":"20128885","StateId":"20134400","CountyId":"20134475","CityId":"20134549","AddressId":"213708133","RoadLinkId":"28638153"}}},{"Relevance":1.0,"Distance":86.8,"MatchLevel":"street","MatchQuality":{"Country":1.0,"State":1.0,"County":1.0,"City":1.0,"Street":[1.0],"PostalCode":1.0},"Location":{"LocationId":"NT_aPpD02N-Ir-V1YwZKH-i-A_l_546572836_R","LocationType":"point","DisplayPosition":{"Latitude":47.96036,"Longitude":13.20084},"MapView":{"TopLeft":{"Latitude":47.96036,"Longitude":13.20084},"BottomRight":{"Latitude":47.9598,"Longitude":13.20109}},"Address":{"Label":"Kohbauernstraße, 5203 Köstendorf, Österreich","Country":"AUT","State":"Salzburg","County":"Salzburg-Umgebung","City":"Köstendorf","Street":"Kohbauernstraße","PostalCode":"5203","AdditionalData":[{"value":"Österreich","key":"CountryName"},{"value":"Salzburg","key":"StateName"},{"value":"Salzburg-Umgebung","key":"CountyName"}]},"MapReference":{"ReferenceId":"546572836","Spot":1.0,"SideOfStreet":"right","CountryId":"20128885","StateId":"20134400","CountyId":"20134475","CityId":"20134549"}}},{"Relevance":1.0,"Distance":89.4,"MatchLevel":"houseNumber","MatchQuality":{"Country":1.0,"State":1.0,"County":1.0,"City":1.0,"District":1.0,"Street":[1.0],"HouseNumber":1.0,"PostalCode":1.0},"MatchType":"interpolated","Location":{"LocationId":"NT_PXe.c0rxgbz0AFaaqHhhLB_5A","LocationType":"point","DisplayPosition":{"Latitude":47.9613,"Longitude":13.20278},"MapView":{"TopLeft":{"Latitude":47.9624242,"Longitude":13.2011012},"BottomRight":{"Latitude":47.9601758,"Longitude":13.2044588}},"Address":{"Label":"Hochwiesenstraße 9, 5203 Köstendorf, Österreich","Country":"AUT","State":"Salzburg","County":"Salzburg-Umgebung","City":"Köstendorf","District":"Köstendorf","Street":"Hochwiesenstraße","HouseNumber":"9","PostalCode":"5203","AdditionalData":[{"value":"Österreich","key":"CountryName"},{"value":"Salzburg","key":"StateName"},{"value":"Salzburg-Umgebung","key":"CountyName"}]},"MapReference":{"ReferenceId":"546572752","Spot":0.49,"SideOfStreet":"right","CountryId":"20128885","StateId":"20134400","CountyId":"20134475","CityId":"20134549","DistrictId":"20134552","AddressId":"213702721","RoadLinkId":"28509422"}}}]}]}}