{"Response":{"MetaInfo":{"Timestamp":"2020-03-28T11:14:46.758+0000","NextPageInformation":"2"},"View":[{"_type":"SearchResultsViewType","ViewId":0,"Result":[{"Relevance":1.0,"Distance":-11.0,"MatchLevel":"landmark","MatchQuality":{"Country":1.0,"State":1.0,"County":1.0,"City":1.0,"District":1.0,"Street":[1.0],"HouseNumber":1.0,"PostalCode":1.0,"Name":1.0},"Location":{"LocationId":"NT_PHHcE4MP5xFmjQWn5Y1AzB_p_qNMS5GxXZL4pE5.cX40UPC","LocationType":"sportsComplex","Name":"Circuit Bugatti","DisplayPosition":{"Latitude":47.95618,"Longitude":0.20753},"MapView":{"TopLeft":{"Latitude":47.9573042,"Longitude":0.2058514},"BottomRight":{"Latitude":47.9550558,"Longitude":0.2092086}},"Address":{"Label":"445 Rue de Laigné, 72100 Le Mans, France","Country":"FRA","State":"Pays de la Loire","County":"Sarthe","City":"Le Mans","District":"Sud","Street":"Rue de Laigné","HouseNumber":"445","PostalCode":"72100","AdditionalData":[{"value":"France","key":"CountryName"},{"value":"Pays de la Loire","key":"StateName"},{"value":"Sarthe","key":"CountyName"}]},"MapReference":{"CountryId":"20000001","StateId":"20068992","CountyId":"20076677","CityId":"20077199","PlaceId":"51259950"}}},{"Relevance":1.0,"Distance":0.0,"Direction":0.0,"MatchLevel":"district","MatchQuality":{"Country":1.0,"State":1.0,"County":1.0,"City":1.0,"District":1.0,"PostalCode":1.0},"Location":{"LocationId":"NT_Djbb9DsMC.UdqUlkw0IHAB","LocationType":"point","DisplayPosition":{"Latitude":47.9558359,"Longitude":0.2071079},"MapView":{"TopLeft":{"Latitude":47.98495,"Longitude":0.19181},"BottomRight":{"Latitude":47.92793,"Longitude":0.2552}},"Address":{"Label":"Sud, Le Mans, Pays de la Loire, France","Country":"FRA","State":"Pays de la Loire","County":"Sarthe","City":"Le Mans","District":"Sud","PostalCode":"72100","AdditionalData":[{"value":"France","key":"CountryName"},{"value":"Pays de la Loire","key":"StateName"},{"value":"Sarthe","key":"CountyName"}]},"MapReference":{"ReferenceId":"76705109","SideOfStreet":"neither","CountryId":"20000001","StateId":"20068992","CountyId":"20076677","CityId":"20077199"}}},{"Relevance":1.0,"Distance":11.1,"MatchLevel":"street","MatchQuality":{"Country":1.0,"State":1.0,"County":1.0,"City":1.0,"District":1.0,"Street":[1.0],"PostalCode":1.0},"Location":{"LocationId":"NT_MBhYD3x-C8.t768lVQGzpC_l_59342039_R","LocationType":"point","DisplayPosition":{"Latitude":47.9559049,"Longitude":0.2069995},"MapView":{"TopLeft":{"Latitude":47.956,"Longitude":0.2069},"BottomRight":{"Latitude":47.95577,"Longitude":0.20706}},"Address":{"Label":"Boulevard des Italiens, 72100 Le Mans, France","Country":"FRA","State":"Pays de la Loire","County":"Sarthe","City":"Le Mans","District":"Sud","Street":"Boulevard des Italiens","PostalCode":"72100","AdditionalData":[{"value":"France","key":"CountryName"},{"value":"Pays de la Loire","key":"StateName"},{"value":"Sarthe","key":"CountyName"}]},"MapReference":{"ReferenceId":"59342039","Spot":0.6,"SideOfStreet":"right","CountryId":"20000001","StateId":"20068992","CountyId":"20076677","CityId":"20077199"}}},{"Relevance":1.0,"Distance":16.0,"MatchLevel":"landmark","MatchQuality":{"Country":1.0,"State":1.0,"County":1.0,"City":1.0,"District":1.0,"Street":[1.0],"PostalCode":1.0,"Name":1.0},"Location":{"LocationId":"NT_iFKvO9ifxLaz0XPwmkteUA_p_rGfVirKZakn1f0qiVUmzlB","LocationType":"airport","Name":"Aéroport Le Mans-Arnage","DisplayPosition":{"Latitude":47.94687,"Longitude":0.19601},"MapView":{"TopLeft":{"Latitude":47.95646,"Longitude":0.19316},"BottomRight":{"Latitude":47.94126,"Longitude":0.20693}},"Address":{"Label":"Route d'Angers, 72100 Le Mans, France","Country":"FRA","State":"Pays de la Loire","County":"Sarthe","City":"Le Mans","District":"Sud","Street":"Route d'Angers","PostalCode":"72100","AdditionalData":[{"value":"France","key":"CountryName"},{"value":"Pays de la Loire","key":"StateName"},{"value":"Sarthe","key":"CountyName"}]},"MapReference":{"CountryId":"20000001","StateId":"20068992","CountyId":"20076677","CityId":"20077199","PlaceId":"51260057"}}},{"Relevance":1.0,"Distance":16.0,"MatchLevel":"street","MatchQuality":{"Country":1.0,"State":1.0,"County":1.0,"City":1.0,"District":1.0,"Street":[1.0],"PostalCode":1.0},"Location":{"LocationId":"NT_wUULMqH.4yXZ-gQN8zy.hB_l_59342037_R","LocationType":"point","DisplayPosition":{"Latitude":47.9558123,"Longitude":0.2068953},"MapView":{"TopLeft":{"Latitude":47.95604,"Longitude":0.20689},"BottomRight":{"Latitude":47.95577,"Longitude":0.20693}},"Address":{"Label":"Boulevard des Italiens, 72100 Le Mans, France","Country":"FRA","State":"Pays de la Loire","County":"Sarthe","City":"Le Mans","District":"Sud","Street":"Boulevard des Italiens","PostalCode":"72100","AdditionalData":[{"value":"France","key":"CountryName"},{"value":"Pays de la Loire","key":"StateName"},{"value":"Sarthe","key":"CountyName"}]},"MapReference":{"ReferenceId":"59342037","Spot":0.15,"SideOfStreet":"right","CountryId":"20000001","StateId":"20068992","CountyId":"20076677","CityId":"20077199"}}},{"Relevance":1.0,"Distance":17.1,"MatchLevel":"street","MatchQuality":{"Country":1.0,"State":1.0,"County":1.0,"City":1.0,"District":1.0,"Street":[1.0],"PostalCode":1.0},"Location":{"LocationId":"NT_wUULMqH.4yXZ-gQN8zy.hB_l_928162301_R","LocationType":"point","DisplayPosition":{"Latitude":47.95577,"Longitude":0.2069},"MapView":{"TopLeft":{"Latitude":47.95577,"Longitude":0.20686},"BottomRight":{"Latitude":47.95555,"Longitude":0.2069}},"Address":{"Label":"Boulevard des Italiens, 72100 Le Mans, France","Country":"FRA","State":"Pays de la Loire","County":"Sarthe","City":"Le Mans","District":"Sud","Street":"Boulevard des Italiens","PostalCode":"72100","AdditionalData":[{"value":"France","key":"CountryName"},{"value":"Pays de la Loire","key":"StateName"},{"value":"Sarthe","key":"CountyName"}]},"MapReference":{"ReferenceId":"928162301","Spot":1.0,"SideOfStreet":"right","CountryId":"20000001","StateId":"20068992","CountyId":"20076677","CityId":"20077199"}}},{"Relevance":1.0,"Distance":18.6,"MatchLevel":"street","MatchQuality":{"Country":1.0,"State":1.0,"County":1.0,"City":1.0,"District":1.0,"Street":[1.0],"PostalCode":1.0},"Location":{"LocationId":"NT_MBhYD3x-C8.t768lVQGzpC_l_57503092_R","LocationType":"point","DisplayPosition":{"Latitude":47.956,"Longitude":0.20706},"MapView":{"TopLeft":{"Latitude":47.95624,"Longitude":0.20706},"BottomRight":{"Latitude":47.956,"Longitude":0.20726}},"Address":{"Label":"Boulevard des Italiens, 72100 Le Mans, France","Country":"FRA","State":"Pays de la Loire","County":"Sarthe","City":"Le Mans","District":"Sud","Street":"Boulevard des Italiens","PostalCode":"72100","AdditionalData":[{"value":"France","key":"CountryName"},{"value":"Pays de la Loire","key":"StateName"},{"value":"Sarthe","key":"CountyName"}]},"MapReference":{"ReferenceId":"57503092","Spot":0.0,"SideOfStreet":"right","CountryId":"20000001","StateId":"20068992","CountyId":"20076677","CityId":"20077199"}}},{"Relevance":1.0,"Distance":24.0,"MatchLevel":"street","MatchQuality":{"Country":1.0,"State":1.0,"County":1.0,"City":1.0,"District":1.0,"Street":[1.0],"PostalCode":1.0},"Location":{"LocationId":"NT_nHPyqtnsUqqrywz2aFndKC_l_855595481_L","LocationType":"point","DisplayPosition":{"Latitude":47.9557688,"Longitude":0.2074147},"MapView":{"TopLeft":{"Latitude":47.95611,"Longitude":0.20738},"BottomRight":{"Latitude":47.95561,"Longitude":0.2078}},"Address":{"Label":"Circuit Bugatti, 72100 Le Mans, France","Country":"FRA","State":"Pays de la Loire","County":"Sarthe","City":"Le Mans","District":"Sud","Street":"Circuit Bugatti","PostalCode":"72100","AdditionalData":[{"value":"France","key":"CountryName"},{"value":"Pays de la Loire","key":"StateName"},{"value":"Sarthe","key":"CountyName"}]},"MapReference":{"ReferenceId":"855595481","Spot":0.23,"SideOfStreet":"left","CountryId":"20000001","StateId":"20068992","CountyId":"20076677","CityId":"20077199"}}},{"Relevance":1.0,"Distance":26.3,"MatchLevel":"street","MatchQuality":{"Country":1.0,"State":1.0,"County":1.0,"City":1.0,"District":1.0,"Street":[1.0],"PostalCode":1.0},"Location":{"LocationId":"NT_MBhYD3x-C8.t768lVQGzpC_l_59342043_R","LocationType":"point","DisplayPosition":{"Latitude":47.95604,"Longitude":0.20693},"MapView":{"TopLeft":{"Latitude":47.95624,"Longitude":0.20693},"BottomRight":{"Latitude":47.95604,"Longitude":0.20704}},"Address":{"Label":"Boulevard des Italiens, 72100 Le Mans, France","Country":"FRA","State":"Pays de la Loire","County":"Sarthe","City":"Le Mans","District":"Sud","Street":"Boulevard des Italiens","PostalCode":"72100","AdditionalData":[{"value":"France","key":"CountryName"},{"value":"Pays de la Loire","key":"StateName"},{"value":"Sarthe","key":"CountyName"}]},"MapReference":{"ReferenceId":"59342043","Spot":0.0,"SideOfStreet":"right","CountryId":"20000001","StateId":"20068992","CountyId":"20076677","CityId":"20077199"}}},{"Relevance":1.0,"Distance":26.3,"MatchLevel":"street","MatchQuality":{"Country":1.0,"State":1.0,"County":1.0,"City":1.0,"District":1.0,"Street":[1.0],"PostalCode":1.0},"Location":{"LocationId":"NT_aU9xLUM6M0zKo7J0xAxKDD_l_59342036_R","LocationType":"point","DisplayPosition":{"Latitude":47.95604,"Longitude":0.20693},"MapView":{"TopLeft":{"Latitude":47.95627,"Longitude":0.20677},"BottomRight":{"Latitude":47.95604,"Longitude":0.20693}},"Address":{"Label":"Rue des 24 Heures, 72100 Le Mans, France","Country":"FRA","State":"Pays de la Loire","County":"Sarthe","City":"Le Mans","District":"Sud","Street":"Rue des 24 Heures","PostalCode":"72100","AdditionalData":[{"value":"France","key":"CountryName"},{"value":"Pays de la Loire","key":"StateName"},{"value":"Sarthe","key":"CountyName"}]},"MapReference":{"ReferenceId":"59342036","Spot":0.0,"SideOfStreet":"right","CountryId":"20000001","StateId":"20068992","CountyId":"20076677","CityId":"20077199"}}}]}]}}