{"Response":{"MetaInfo":{"Timestamp":"2020-03-28T10:29:47.581+0000","NextPageInformation":"2"},"View":[{"_type":"SearchResultsViewType","ViewId":0,"Result":[{"Relevance":1.0,"Distance":0.0,"Direction":0.0,"MatchLevel":"city","MatchQuality":{"Country":1.0,"State":1.0,"County":1.0,"City":1.0,"PostalCode":1.0},"Location":{"LocationId":"NT_6tmlV-YZ8yotTGm68FvbkC","LocationType":"point","DisplayPosition":{"Latitude":47.917807,"Longitude":1.085643},"MapView":{"TopLeft":{"Latitude":47.95717,"Longitude":1.05009},"BottomRight":{"Latitude":47.87993,"Longitude":1.14535}},"Address":{"Label":"La Ville-aux-Clercs, Centre-Val de Loire, France","Country":"FRA","State":"Centre-Val de Loire","County":"Loir-et-Cher","City":"La Ville-aux-Clercs","PostalCode":"41160","AdditionalData":[{"value":"France","key":"CountryName"},{"value":"Centre-Val de Loire","key":"StateName"},{"value":"Loir-et-Cher","key":"CountyName"}]},"MapReference":{"ReferenceId":"57077033","SideOfStreet":"neither","CountryId":"20000001","StateId":"20002113","CountyId":"20068106","CityId":"20068921"}}},{"Relevance":1.0,"Distance":21.2,"MatchLevel":"houseNumber","MatchQuality":{"Country":1.0,"State":1.0,"County":1.0,"City":1.0,"Street":[1.0],"HouseNumber":1.0,"PostalCode":1.0},"MatchType":"interpolated","Location":{"LocationId":"NT_imic-pG7rIV3j85bimi8TB_xA","LocationType":"point","DisplayPosition":{"Latitude":47.91788,"Longitude":1.08527},"MapView":{"TopLeft":{"Latitude":47.9190042,"Longitude":1.0835926},"BottomRight":{"Latitude":47.9167558,"Longitude":1.0869474}},"Address":{"Label":"1 Rue de Vendôme, 41160 La Ville-aux-Clercs, France","Country":"FRA","State":"Centre-Val de Loire","County":"Loir-et-Cher","City":"La Ville-aux-Clercs","Street":"Rue de Vendôme","HouseNumber":"1","PostalCode":"41160","AdditionalData":[{"value":"France","key":"CountryName"},{"value":"Centre-Val de Loire","key":"StateName"},{"value":"Loir-et-Cher","key":"CountyName"}]},"MapReference":{"ReferenceId":"557835639","Spot":0.9,"SideOfStreet":"right","CountryId":"20000001","StateId":"20002113","CountyId":"20068106","CityId":"20068921","AddressId":"318930415","RoadLinkId":"53101208"}}},{"Relevance":1.0,"Distance":25.3,"MatchLevel":"houseNumber","MatchQuality":{"Country":1.0,"State":1.0,"County":1.0,"City":1.0,"Street":[1.0],"HouseNumber":1.0,"PostalCode":1.0},"MatchType":"interpolated","Location":{"LocationId":"NT_vfiC2ElgdjYhy8pROuFmfC_xUD","LocationType":"point","DisplayPosition":{"Latitude":47.91804,"Longitude":1.08536},"MapView":{"TopLeft":{"Latitude":47.9191642,"Longitude":1.0836826},"BottomRight":{"Latitude":47.9169158,"Longitude":1.0870374}},"Address":{"Label":"15 Place de l'Église, 41160 La Ville-aux-Clercs, France","Country":"FRA","State":"Centre-Val de Loire","County":"Loir-et-Cher","City":"La Ville-aux-Clercs","Street":"Place de l'Église","HouseNumber":"15","PostalCode":"41160","AdditionalData":[{"value":"France","key":"CountryName"},{"value":"Centre-Val de Loire","key":"StateName"},{"value":"Loir-et-Cher","key":"CountyName"}]},"MapReference":{"ReferenceId":"557835640","Spot":0.16,"SideOfStreet":"right","CountryId":"20000001","StateId":"20002113","CountyId":"20068106","CityId":"20068921","AddressId":"318824701","RoadLinkId":"52760143"}}},{"Relevance":1.0,"Distance":32.6,"MatchLevel":"houseNumber","MatchQuality":{"Country":1.0,"State":1.0,"County":1.0,"City":1.0,"Street":[1.0],"HouseNumber":1.0,"PostalCode":1.0},"MatchType":"interpolated","Location":{"LocationId":"NT_WHiaw0OmDFAVAt5lh88AdD_xA","LocationType":"point","DisplayPosition":{"Latitude":47.91825,"Longitude":1.08545},"MapView":{"TopLeft":{"Latitude":47.9193742,"Longitude":1.0837726},"BottomRight":{"Latitude":47.9171258,"Longitude":1.0871274}},"Address":{"Label":"1 Place du Puits, 41160 La Ville-aux-Clercs, France","Country":"FRA","State":"Centre-Val de Loire","County":"Loir-et-Cher","City":"La Ville-aux-Clercs","Street":"Place du Puits","HouseNumber":"1","PostalCode":"41160","AdditionalData":[{"value":"France","key":"CountryName"},{"value":"Centre-Val de Loire","key":"StateName"},{"value":"Loir-et-Cher","key":"CountyName"}]},"MapReference":{"ReferenceId":"557836169","Spot":0.11,"SideOfStreet":"left","CountryId":"20000001","StateId":"20002113","CountyId":"20068106","CityId":"20068921","AddressId":"318948070","RoadLinkId":"53181883"}}},{"Relevance":1.0,"Distance":37.0,"MatchLevel":"houseNumber","MatchQuality":{"Country":1.0,"State":1.0,"County":1.0,"City":1.0,"Street":[1.0],"HouseNumber":1.0,"PostalCode":1.0},"MatchType":"interpolated","Location":{"LocationId":"NT_vfiC2ElgdjYhy8pROuFmfC_xMD","LocationType":"point","DisplayPosition":{"Latitude":47.91825,"Longitude":1.0856},"MapView":{"TopLeft":{"Latitude":47.9193742,"Longitude":1.0839226},"BottomRight":{"Latitude":47.9171258,"Longitude":1.0872774}},"Address":{"Label":"13 Place de l'Église, 41160 La Ville-aux-Clercs, France","Country":"FRA","State":"Centre-Val de Loire","County":"Loir-et-Cher","City":"La Ville-aux-Clercs","Street":"Place de l'Église","HouseNumber":"13","PostalCode":"41160","AdditionalData":[{"value":"France","key":"CountryName"},{"value":"Centre-Val de Loire","key":"StateName"},{"value":"Loir-et-Cher","key":"CountyName"}]},"MapReference":{"ReferenceId":"557836168","Spot":0.18,"SideOfStreet":"right","CountryId":"20000001","StateId":"20002113","CountyId":"20068106","CityId":"20068921","AddressId":"318619903","RoadLinkId":"53220541"}}},{"Relevance":1.0,"Distance":49.7,"MatchLevel":"street","MatchQuality":{"Country":1.0,"State":1.0,"County":1.0,"City":1.0,"Street":[1.0],"PostalCode":1.0},"Location":{"LocationId":"NT_vfiC2ElgdjYhy8pROuFmfC_l_557785349_R","LocationType":"point","DisplayPosition":{"Latitude":47.91824,"Longitude":1.08548},"MapView":{"TopLeft":{"Latitude":47.91838,"Longitude":1.08548},"BottomRight":{"Latitude":47.91824,"Longitude":1.08551}},"Address":{"Label":"Place de l'Église, 41160 La Ville-aux-Clercs, France","Country":"FRA","State":"Centre-Val de Loire","County":"Loir-et-Cher","City":"La Ville-aux-Clercs","Street":"Place de l'Église","PostalCode":"41160","AdditionalData":[{"value":"France","key":"CountryName"},{"value":"Centre-Val de Loire","key":"StateName"},{"value":"Loir-et-Cher","key":"CountyName"}]},"MapReference":{"ReferenceId":"557785349","Spot":0.0,"SideOfStreet":"right","CountryId":"20000001","StateId":"20002113","CountyId":"20068106","CityId":"20068921"}}},{"Relevance":1.0,"Distance":64.6,"MatchLevel":"street","MatchQuality":{"Country":1.0,"State":1.0,"County":1.0,"City":1.0,"Street":[1.0],"PostalCode":1.0},"Location":{"LocationId":"NT_vfiC2ElgdjYhy8pROuFmfC_l_557836166_R","LocationType":"point","DisplayPosition":{"Latitude":47.91838,"Longitude":1.0855},"MapView":{"TopLeft":{"Latitude":47.91851,"Longitude":1.0855},"BottomRight":{"Latitude":47.91838,"Longitude":1.08601}},"Address":{"Label":"Place de l'Église, 41160 La Ville-aux-Clercs, France","Country":"FRA","State":"Centre-Val de Loire","County":"Loir-et-Cher","City":"La Ville-aux-Clercs","Street":"Place de l'Église","PostalCode":"41160","AdditionalData":[{"value":"France","key":"CountryName"},{"value":"Centre-Val de Loire","key":"StateName"},{"value":"Loir-et-Cher","key":"CountyName"}]},"MapReference":{"ReferenceId":"557836166","Spot":0.0,"SideOfStreet":"right","CountryId":"20000001","StateId":"20002113","CountyId":"20068106","CityId":"20068921"}}},{"Relevance":1.0,"Distance":75.1,"MatchLevel":"street","MatchQuality":{"Country":1.0,"State":1.0,"County":1.0,"City":1.0,"Street":[1.0],"PostalCode":1.0},"Location":{"LocationId":"NT_WHiaw0OmDFAVAt5lh88AdD_l_557836171_R","LocationType":"point","DisplayPosition":{"Latitude":47.91844,"Longitude":1.08529},"MapView":{"TopLeft":{"Latitude":47.91844,"Longitude":1.08472},"BottomRight":{"Latitude":47.91839,"Longitude":1.08529}},"Address":{"Label":"Place du Puits, 41160 La Ville-aux-Clercs, France","Country":"FRA","State":"Centre-Val de Loire","County":"Loir-et-Cher","City":"La Ville-aux-Clercs","Street":"Place du Puits","PostalCode":"41160","AdditionalData":[{"value":"France","key":"CountryName"},{"value":"Centre-Val de Loire","key":"StateName"},{"value":"Loir-et-Cher","key":"CountyName"}]},"MapReference":{"ReferenceId":"557836171","Spot":1.0,"SideOfStreet":"right","CountryId":"20000001","StateId":"20002113","CountyId":"20068106","CityId":"20068921"}}},{"Relevance":1.0,"Distance":76.1,"MatchLevel":"houseNumber","MatchQuality":{"Country":1.0,"State":1.0,"County":1.0,"City":1.0,"Street":[1.0],"HouseNumber":1.0,"PostalCode":1.0},"MatchType":"interpolated","Location":{"LocationId":"NT_WHiaw0OmDFAVAt5lh88AdD_yA","LocationType":"point","DisplayPosition":{"Latitude":47.91848,"Longitude":1.08546},"MapView":{"TopLeft":{"Latitude":47.9196042,"Longitude":1.0837826},"BottomRight":{"Latitude":47.9173558,"Longitude":1.0871374}},"Address":{"Label":"2 Place du Puits, 41160 La Ville-aux-Clercs, France","Country":"FRA","State":"Centre-Val de Loire","County":"Loir-et-Cher","City":"La Ville-aux-Clercs","Street":"Place du Puits","HouseNumber":"2","PostalCode":"41160","AdditionalData":[{"value":"France","key":"CountryName"},{"value":"Centre-Val de Loire","key":"StateName"},{"value":"Loir-et-Cher","key":"CountyName"}]},"MapReference":{"ReferenceId":"57077033","Spot":0.24,"SideOfStreet":"left","CountryId":"20000001","StateId":"20002113","CountyId":"20068106","CityId":"20068921","AddressId":"570737090","RoadLinkId":"165771034"}}},{"Relevance":1.0,"Distance":81.1,"MatchLevel":"houseNumber","MatchQuality":{"Country":1.0,"State":1.0,"County":1.0,"City":1.0,"Street":[1.0],"HouseNumber":1.0,"PostalCode":1.0},"MatchType":"interpolated","Location":{"LocationId":"NT_WHiaw0OmDFAVAt5lh88AdD_2A","LocationType":"point","DisplayPosition":{"Latitude":47.91849,"Longitude":1.08526},"MapView":{"TopLeft":{"Latitude":47.9196142,"Longitude":1.0835826},"BottomRight":{"Latitude":47.9173658,"Longitude":1.0869374}},"Address":{"Label":"6 Place du Puits, 41160 La Ville-aux-Clercs, France","Country":"FRA","State":"Centre-Val de Loire","County":"Loir-et-Cher","City":"La Ville-aux-Clercs","Street":"Place du Puits","HouseNumber":"6","PostalCode":"41160","AdditionalData":[{"value":"France","key":"CountryName"},{"value":"Centre-Val de Loire","key":"StateName"},{"value":"Loir-et-Cher","key":"CountyName"}]},"MapReference":{"ReferenceId":"557836170","Spot":0.16,"SideOfStreet":"left","CountryId":"20000001","StateId":"20002113","CountyId":"20068106","CityId":"20068921","AddressId":"318913862","RoadLinkId":"52634895"}}}]}]}}