{"Response":{"MetaInfo":{"Timestamp":"2020-03-28T11:09:28.743+0000","NextPageInformation":"2"},"View":[{"_type":"SearchResultsViewType","ViewId":0,"Result":[{"Relevance":1.0,"Distance":0.0,"Direction":0.0,"MatchLevel":"city","MatchQuality":{"Country":1.0,"State":1.0,"County":1.0,"City":1.0,"PostalCode":1.0},"Location":{"LocationId":"NT_TOm6Oa1cmU4krwkJgxOubC","LocationType":"point","DisplayPosition":{"Latitude":47.9467441,"Longitude":5.7327711},"MapView":{"TopLeft":{"Latitude":47.9823,"Longitude":5.65939},"BottomRight":{"Latitude":47.90301,"Longitude":5.81738}},"Address":{"Label":"Bourbonne-les-Bains, Grand Est, France","Country":"FRA","State":"Grand Est","County":"Haute-Marne","City":"Bourbonne-les-Bains","PostalCode":"52400","AdditionalData":[{"value":"France","key":"CountryName"},{"value":"Grand Est","key":"StateName"},{"value":"Haute-Marne","key":"CountyName"}]},"MapReference":{"ReferenceId":"1181674813","SideOfStreet":"neither","CountryId":"20000001","StateId":"20002047","CountyId":"20018579","CityId":"20018720"}}},{"Relevance":1.0,"Distance":7.2,"MatchLevel":"street","MatchQuality":{"Country":1.0,"State":1.0,"County":1.0,"City":1.0,"PostalCode":1.0},"Location":{"LocationId":"NT_cKwJHsw0DsPkwUC-bupiwA_l_917445758_R","LocationType":"point","DisplayPosition":{"Latitude":47.9466841,"Longitude":5.7327353},"MapView":{"TopLeft":{"Latitude":47.94853,"Longitude":5.72989},"BottomRight":{"Latitude":47.94624,"Longitude":5.73348}},"Address":{"Label":"52400 Bourbonne-les-Bains, France","Country":"FRA","State":"Grand Est","County":"Haute-Marne","City":"Bourbonne-les-Bains","PostalCode":"52400","AdditionalData":[{"value":"France","key":"CountryName"},{"value":"Grand Est","key":"StateName"},{"value":"Haute-Marne","key":"CountyName"}]},"MapReference":{"ReferenceId":"917445758","Spot":0.2,"SideOfStreet":"right","CountryId":"20000001","StateId":"20002047","CountyId":"20018579","CityId":"20018720"}}},{"Relevance":1.0,"Distance":77.0,"MatchLevel":"street","MatchQuality":{"Country":1.0,"State":1.0,"County":1.0,"City":1.0,"PostalCode":1.0},"Location":{"LocationId":"NT_cKwJHsw0DsPkwUC-bupiwA_l_917445757_R","LocationType":"point","DisplayPosition":{"Latitude":47.94624,"Longitude":5.73348},"MapView":{"TopLeft":{"Latitude":47.94624,"Longitude":5.73348},"BottomRight":{"Latitude":47.94517,"Longitude":5.7361}},"Address":{"Label":"52400 Bourbonne-les-Bains, France","Country":"FRA","State":"Grand Est","County":"Haute-Marne","City":"Bourbonne-les-Bains","PostalCode":"52400","AdditionalData":[{"value":"France","key":"CountryName"},{"value":"Grand Est","key":"StateName"},{"value":"Haute-Marne","key":"CountyName"}]},"MapReference":{"ReferenceId":"917445757","Spot":1.0,"SideOfStreet":"right","CountryId":"20000001","StateId":"20002047","CountyId":"20018579","CityId":"20018720"}}},{"Relevance":1.0,"Distance":292.3,"MatchLevel":"street","MatchQuality":{"Country":1.0,"State":1.0,"County":1.0,"City":1.0,"Street":[1.0],"PostalCode":1.0},"Location":{"LocationId":"NT_8x0JFyvOwMbO6PWTbd1XcB_l_917640265_L","LocationType":"point","DisplayPosition":{"Latitude":47.94495,"Longitude":5.73564},"MapView":{"TopLeft":{"Latitude":47.94505,"Longitude":5.73564},"BottomRight":{"Latitude":47.94495,"Longitude":5.73584}},"Address":{"Label":"Rue du Parc Animalier, 52400 Bourbonne-les-Bains, France","Country":"FRA","State":"Grand Est","County":"Haute-Marne","City":"Bourbonne-les-Bains","Street":"Rue du Parc Animalier","PostalCode":"52400","AdditionalData":[{"value":"France","key":"CountryName"},{"value":"Grand Est","key":"StateName"},{"value":"Haute-Marne","key":"CountyName"}]},"MapReference":{"ReferenceId":"917640265","Spot":0.0,"SideOfStreet":"left","CountryId":"20000001","StateId":"20002047","CountyId":"20018579","CityId":"20018720"}}},{"Relevance":1.0,"Distance":292.4,"MatchLevel":"street","MatchQuality":{"Country":1.0,"State":1.0,"County":1.0,"City":1.0,"Street":[1.0],"PostalCode":1.0},"Location":{"LocationId":"NT_9Adkz0zXP1v4LSoI2LkeID_l_718067930_R","LocationType":"point","DisplayPosition":{"Latitude":47.94853,"Longitude":5.72989},"MapView":{"TopLeft":{"Latitude":47.94969,"Longitude":5.72812},"BottomRight":{"Latitude":47.94853,"Longitude":5.72989}},"Address":{"Label":"Lieu-dit Le Jardinot, 52400 Bourbonne-les-Bains, France","Country":"FRA","State":"Grand Est","County":"Haute-Marne","City":"Bourbonne-les-Bains","Street":"Lieu-dit Le Jardinot","PostalCode":"52400","AdditionalData":[{"value":"France","key":"CountryName"},{"value":"Grand Est","key":"StateName"},{"value":"Haute-Marne","key":"CountyName"}]},"MapReference":{"ReferenceId":"718067930","Spot":0.0,"SideOfStreet":"right","CountryId":"20000001","StateId":"20002047","CountyId":"20018579","CityId":"20018720"}}},{"Relevance":1.0,"Distance":292.9,"MatchLevel":"street","MatchQuality":{"Country":1.0,"State":1.0,"County":1.0,"City":1.0,"Street":[1.0],"PostalCode":1.0},"Location":{"LocationId":"NT_8x0JFyvOwMbO6PWTbd1XcB_l_917455638_L","LocationType":"point","DisplayPosition":{"Latitude":47.9445,"Longitude":5.73483},"MapView":{"TopLeft":{"Latitude":47.94495,"Longitude":5.73458},"BottomRight":{"Latitude":47.94415,"Longitude":5.73564}},"Address":{"Label":"Rue du Parc Animalier, 52400 Bourbonne-les-Bains, France","Country":"FRA","State":"Grand Est","County":"Haute-Marne","City":"Bourbonne-les-Bains","Street":"Rue du Parc Animalier","PostalCode":"52400","AdditionalData":[{"value":"France","key":"CountryName"},{"value":"Grand Est","key":"StateName"},{"value":"Haute-Marne","key":"CountyName"}]},"MapReference":{"ReferenceId":"917455638","Spot":0.32,"SideOfStreet":"left","CountryId":"20000001","StateId":"20002047","CountyId":"20018579","CityId":"20018720"}}},{"Relevance":1.0,"Distance":296.2,"MatchLevel":"street","MatchQuality":{"Country":1.0,"State":1.0,"County":1.0,"City":1.0,"Street":[1.0],"PostalCode":1.0},"Location":{"LocationId":"NT_8x0JFyvOwMbO6PWTbd1XcB_l_917445756_L","LocationType":"point","DisplayPosition":{"Latitude":47.94505,"Longitude":5.73584},"MapView":{"TopLeft":{"Latitude":47.94517,"Longitude":5.73584},"BottomRight":{"Latitude":47.94505,"Longitude":5.7361}},"Address":{"Label":"Rue du Parc Animalier, 52400 Bourbonne-les-Bains, France","Country":"FRA","State":"Grand Est","County":"Haute-Marne","City":"Bourbonne-les-Bains","Street":"Rue du Parc Animalier","PostalCode":"52400","AdditionalData":[{"value":"France","key":"CountryName"},{"value":"Grand Est","key":"StateName"},{"value":"Haute-Marne","key":"CountyName"}]},"MapReference":{"ReferenceId":"917445756","Spot":0.0,"SideOfStreet":"left","CountryId":"20000001","StateId":"20002047","CountyId":"20018579","CityId":"20018720"}}},{"Relevance":1.0,"Distance":296.2,"MatchLevel":"street","MatchQuality":{"Country":1.0,"State":1.0,"County":1.0,"City":1.0,"PostalCode":1.0},"Location":{"LocationId":"NT_cKwJHsw0DsPkwUC-bupiwA_l_1046022790_R","LocationType":"point","DisplayPosition":{"Latitude":47.94505,"Longitude":5.73584},"MapView":{"TopLeft":{"Latitude":47.94517,"Longitude":5.73584},"BottomRight":{"Latitude":47.94472,"Longitude":5.74246}},"Address":{"Label":"52400 Bourbonne-les-Bains, France","Country":"FRA","State":"Grand Est","County":"Haute-Marne","City":"Bourbonne-les-Bains","PostalCode":"52400","AdditionalData":[{"value":"France","key":"CountryName"},{"value":"Grand Est","key":"StateName"},{"value":"Haute-Marne","key":"CountyName"}]},"MapReference":{"ReferenceId":"1046022790","Spot":1.0,"SideOfStreet":"right","CountryId":"20000001","StateId":"20002047","CountyId":"20018579","CityId":"20018720"}}},{"Relevance":1.0,"Distance":303.5,"MatchLevel":"street","MatchQuality":{"Country":1.0,"State":1.0,"County":1.0,"City":1.0,"Street":[1.0],"PostalCode":1.0},"Location":{"LocationId":"NT_j7Zs53HvqAwhctVXWVSBoD_l_1202320220_L","LocationType":"point","DisplayPosition":{"Latitude":47.94517,"Longitude":5.7361},"MapView":{"TopLeft":{"Latitude":47.94538,"Longitude":5.7361},"BottomRight":{"Latitude":47.94517,"Longitude":5.73641}},"Address":{"Label":"Rue Jean Carbon, 52400 Bourbonne-les-Bains, France","Country":"FRA","State":"Grand Est","County":"Haute-Marne","City":"Bourbonne-les-Bains","Street":"Rue Jean Carbon","PostalCode":"52400","AdditionalData":[{"value":"France","key":"CountryName"},{"value":"Grand Est","key":"StateName"},{"value":"Haute-Marne","key":"CountyName"}]},"MapReference":{"ReferenceId":"1202320220","Spot":0.0,"SideOfStreet":"left","CountryId":"20000001","StateId":"20002047","CountyId":"20018579","CityId":"20018720"}}},{"Relevance":1.0,"Distance":310.6,"MatchLevel":"street","MatchQuality":{"Country":1.0,"State":1.0,"County":1.0,"City":1.0,"Street":[1.0],"PostalCode":1.0},"Location":{"LocationId":"NT_j7Zs53HvqAwhctVXWVSBoD_l_1202320221_L","LocationType":"point","DisplayPosition":{"Latitude":47.94538,"Longitude":5.73641},"MapView":{"TopLeft":{"Latitude":47.94548,"Longitude":5.73641},"BottomRight":{"Latitude":47.94538,"Longitude":5.73653}},"Address":{"Label":"Rue Jean Carbon, 52400 Bourbonne-les-Bains, France","Country":"FRA","State":"Grand Est","County":"Haute-Marne","City":"Bourbonne-les-Bains","Street":"Rue Jean Carbon","PostalCode":"52400","AdditionalData":[{"value":"France","key":"CountryName"},{"value":"Grand Est","key":"StateName"},{"value":"Haute-Marne","key":"CountyName"}]},"MapReference":{"ReferenceId":"1202320221","Spot":0.0,"SideOfStreet":"left","CountryId":"20000001","StateId":"20002047","CountyId":"20018579","CityId":"20018720"}}}]}]}}