{"Response":{"MetaInfo":{"Timestamp":"2020-03-28T10:06:27.270+0000","NextPageInformation":"2"},"View":[{"_type":"SearchResultsViewType","ViewId":0,"Result":[{"Relevance":1.0,"Distance":0.0,"Direction":0.0,"MatchLevel":"city","MatchQuality":{"Country":1.0,"State":1.0,"County":1.0,"City":1.0,"PostalCode":1.0},"Location":{"LocationId":"NT_Ydk91-TY3Zms-6ZgWf9OPD","LocationType":"point","DisplayPosition":{"Latitude":47.993257,"Longitude":3.613183},"MapView":{"TopLeft":{"Latitude":48.03261,"Longitude":3.57887},"BottomRight":{"Latitude":47.97174,"Longitude":3.65965}},"Address":{"Label":"Brienon-sur-Armançon, Bourgogne-Franche-Comté, France","Country":"FRA","State":"Bourgogne-Franche-Comté","County":"Yonne","City":"Brienon-sur-Armançon","PostalCode":"89210","AdditionalData":[{"value":"France","key":"CountryName"},{"value":"Bourgogne-Franche-Comté","key":"StateName"},{"value":"Yonne","key":"CountyName"}]},"MapReference":{"ReferenceId":"926351976","SideOfStreet":"neither","CountryId":"20000001","StateId":"20013306","CountyId":"20004500","CityId":"20043001"}}},{"Relevance":1.0,"Distance":25.7,"MatchLevel":"houseNumber","MatchQuality":{"Country":1.0,"State":1.0,"County":1.0,"City":1.0,"Street":[1.0],"HouseNumber":1.0,"PostalCode":1.0},"MatchType":"interpolated","Location":{"LocationId":"NT_VniSk9cex6eP5lRRyCXvgB_yEE","LocationType":"point","DisplayPosition":{"Latitude":47.99339,"Longitude":3.61285},"MapView":{"TopLeft":{"Latitude":47.9945142,"Longitude":3.6111702},"BottomRight":{"Latitude":47.9922658,"Longitude":3.6145298}},"Address":{"Label":"2A Rue du 8 Mai 1945, 89210 Brienon-sur-Armançon, France","Country":"FRA","State":"Bourgogne-Franche-Comté","County":"Yonne","City":"Brienon-sur-Armançon","Street":"Rue du 8 Mai 1945","HouseNumber":"2A","PostalCode":"89210","AdditionalData":[{"value":"France","key":"CountryName"},{"value":"Bourgogne-Franche-Comté","key":"StateName"},{"value":"Yonne","key":"CountyName"}]},"MapReference":{"ReferenceId":"1067717232","Spot":0.4,"SideOfStreet":"right","CountryId":"20000001","StateId":"20013306","CountyId":"20004500","CityId":"20043001","AddressId":"370823697","RoadLinkId":"390013735"}}},{"Relevance":1.0,"Distance":30.0,"MatchLevel":"street","MatchQuality":{"Country":1.0,"State":1.0,"County":1.0,"City":1.0,"Street":[1.0],"PostalCode":1.0},"Location":{"LocationId":"NT_PbkWDLR.7Mb.V5D9EeT7GD_l_1067717230_R","LocationType":"point","DisplayPosition":{"Latitude":47.9929874,"Longitude":3.6131569},"MapView":{"TopLeft":{"Latitude":47.99302,"Longitude":3.61282},"BottomRight":{"Latitude":47.99287,"Longitude":3.61437}},"Address":{"Label":"Rue Émile Moreau, 89210 Brienon-sur-Armançon, France","Country":"FRA","State":"Bourgogne-Franche-Comté","County":"Yonne","City":"Brienon-sur-Armançon","Street":"Rue Émile Moreau","PostalCode":"89210","AdditionalData":[{"value":"France","key":"CountryName"},{"value":"Bourgogne-Franche-Comté","key":"StateName"},{"value":"Yonne","key":"CountyName"}]},"MapReference":{"ReferenceId":"1067717230","Spot":0.78,"SideOfStreet":"right","CountryId":"20000001","StateId":"20013306","CountyId":"20004500","CityId":"20043001"}}},{"Relevance":1.0,"Distance":37.7,"MatchLevel":"street","MatchQuality":{"Country":1.0,"State":1.0,"County":1.0,"City":1.0,"Street":[1.0],"PostalCode":1.0},"Location":{"LocationId":"NT_VniSk9cex6eP5lRRyCXvgB_l_1067717231_R","LocationType":"point","DisplayPosition":{"Latitude":47.99302,"Longitude":3.61282},"MapView":{"TopLeft":{"Latitude":47.99302,"Longitude":3.61282},"BottomRight":{"Latitude":47.99288,"Longitude":3.61286}},"Address":{"Label":"Rue du 8 Mai 1945, 89210 Brienon-sur-Armançon, France","Country":"FRA","State":"Bourgogne-Franche-Comté","County":"Yonne","City":"Brienon-sur-Armançon","Street":"Rue du 8 Mai 1945","PostalCode":"89210","AdditionalData":[{"value":"France","key":"CountryName"},{"value":"Bourgogne-Franche-Comté","key":"StateName"},{"value":"Yonne","key":"CountyName"}]},"MapReference":{"ReferenceId":"1067717231","Spot":1.0,"SideOfStreet":"right","CountryId":"20000001","StateId":"20013306","CountyId":"20004500","CityId":"20043001"}}},{"Relevance":1.0,"Distance":44.0,"MatchLevel":"street","MatchQuality":{"Country":1.0,"State":1.0,"County":1.0,"City":1.0,"Street":[1.0],"PostalCode":1.0},"Location":{"LocationId":"NT_PbkWDLR.7Mb.V5D9EeT7GD_l_545689250_R","LocationType":"point","DisplayPosition":{"Latitude":47.9928618,"Longitude":3.6131438},"MapView":{"TopLeft":{"Latitude":47.99288,"Longitude":3.61286},"BottomRight":{"Latitude":47.99276,"Longitude":3.61435}},"Address":{"Label":"Rue Émile Moreau, 89210 Brienon-sur-Armançon, France","Country":"FRA","State":"Bourgogne-Franche-Comté","County":"Yonne","City":"Brienon-sur-Armançon","Street":"Rue Émile Moreau","PostalCode":"89210","AdditionalData":[{"value":"France","key":"CountryName"},{"value":"Bourgogne-Franche-Comté","key":"StateName"},{"value":"Yonne","key":"CountyName"}]},"MapReference":{"ReferenceId":"545689250","Spot":0.81,"SideOfStreet":"right","CountryId":"20000001","StateId":"20013306","CountyId":"20004500","CityId":"20043001"}}},{"Relevance":1.0,"Distance":59.4,"MatchLevel":"houseNumber","MatchQuality":{"Country":1.0,"State":1.0,"County":1.0,"City":1.0,"Street":[1.0],"HouseNumber":1.0,"PostalCode":1.0},"MatchType":"interpolated","Location":{"LocationId":"NT_PbkWDLR.7Mb.V5D9EeT7GD_xA","LocationType":"point","DisplayPosition":{"Latitude":47.99293,"Longitude":3.61249},"MapView":{"TopLeft":{"Latitude":47.9940542,"Longitude":3.6108102},"BottomRight":{"Latitude":47.9918058,"Longitude":3.6141698}},"Address":{"Label":"1 Rue Émile Moreau, 89210 Brienon-sur-Armançon, France","Country":"FRA","State":"Bourgogne-Franche-Comté","County":"Yonne","City":"Brienon-sur-Armançon","Street":"Rue Émile Moreau","HouseNumber":"1","PostalCode":"89210","AdditionalData":[{"value":"France","key":"CountryName"},{"value":"Bourgogne-Franche-Comté","key":"StateName"},{"value":"Yonne","key":"CountyName"}]},"MapReference":{"ReferenceId":"926351983","Spot":0.33,"SideOfStreet":"right","CountryId":"20000001","StateId":"20013306","CountyId":"20004500","CityId":"20043001","AddressId":"370822193","RoadLinkId":"281819249"}}},{"Relevance":1.0,"Distance":83.6,"MatchLevel":"houseNumber","MatchQuality":{"Country":1.0,"State":1.0,"County":1.0,"City":1.0,"Street":[1.0],"HouseNumber":1.0,"PostalCode":1.0},"MatchType":"interpolated","Location":{"LocationId":"NT_SSuxnz.6c96kwuk21GNehD_l_763021648_L_yYD","LocationType":"point","DisplayPosition":{"Latitude":47.9929179,"Longitude":3.6143966},"MapView":{"TopLeft":{"Latitude":47.994042,"Longitude":3.6127168},"BottomRight":{"Latitude":47.9917937,"Longitude":3.6160764}},"Address":{"Label":"26 Boulevard du Maréchal de Lattre de Tassigny, 89210 Brienon-sur-Armançon, France","Country":"FRA","State":"Bourgogne-Franche-Comté","County":"Yonne","City":"Brienon-sur-Armançon","Street":"Boulevard du Maréchal de Lattre de Tassigny","HouseNumber":"26","PostalCode":"89210","AdditionalData":[{"value":"France","key":"CountryName"},{"value":"Bourgogne-Franche-Comté","key":"StateName"},{"value":"Yonne","key":"CountyName"}]},"MapReference":{"ReferenceId":"763021648","Spot":0.53,"SideOfStreet":"left","CountryId":"20000001","StateId":"20013306","CountyId":"20004500","CityId":"20043001"}}},{"Relevance":1.0,"Distance":84.1,"MatchLevel":"houseNumber","MatchQuality":{"Country":1.0,"State":1.0,"County":1.0,"City":1.0,"Street":[1.0],"HouseNumber":1.0,"PostalCode":1.0},"MatchType":"interpolated","Location":{"LocationId":"NT_SSuxnz.6c96kwuk21GNehD_l_763021647_L_yQD","LocationType":"point","DisplayPosition":{"Latitude":47.9928435,"Longitude":3.6143624},"MapView":{"TopLeft":{"Latitude":47.9939677,"Longitude":3.6126826},"BottomRight":{"Latitude":47.9917193,"Longitude":3.6160422}},"Address":{"Label":"24 Boulevard du Maréchal de Lattre de Tassigny, 89210 Brienon-sur-Armançon, France","Country":"FRA","State":"Bourgogne-Franche-Comté","County":"Yonne","City":"Brienon-sur-Armançon","Street":"Boulevard du Maréchal de Lattre de Tassigny","HouseNumber":"24","PostalCode":"89210","AdditionalData":[{"value":"France","key":"CountryName"},{"value":"Bourgogne-Franche-Comté","key":"StateName"},{"value":"Yonne","key":"CountyName"}]},"MapReference":{"ReferenceId":"763021647","Spot":0.62,"SideOfStreet":"left","CountryId":"20000001","StateId":"20013306","CountyId":"20004500","CityId":"20043001"}}},{"Relevance":1.0,"Distance":94.1,"MatchLevel":"houseNumber","MatchQuality":{"Country":1.0,"State":1.0,"County":1.0,"City":1.0,"Street":[1.0],"HouseNumber":1.0,"PostalCode":1.0},"MatchType":"interpolated","Location":{"LocationId":"NT_f6kRLpLUAbJsr3Xa4T-SOB_yA","LocationType":"point","DisplayPosition":{"Latitude":47.994,"Longitude":3.61249},"MapView":{"TopLeft":{"Latitude":47.9951242,"Longitude":3.6108102},"BottomRight":{"Latitude":47.9928758,"Longitude":3.6141698}},"Address":{"Label":"2 Rue de Konz, 89210 Brienon-sur-Armançon, France","Country":"FRA","State":"Bourgogne-Franche-Comté","County":"Yonne","City":"Brienon-sur-Armançon","Street":"Rue de Konz","HouseNumber":"2","PostalCode":"89210","AdditionalData":[{"value":"France","key":"CountryName"},{"value":"Bourgogne-Franche-Comté","key":"StateName"},{"value":"Yonne","key":"CountyName"}]},"MapReference":{"ReferenceId":"548646312","Spot":0.53,"SideOfStreet":"left","CountryId":"20000001","StateId":"20013306","CountyId":"20004500","CityId":"20043001","AddressId":"370815614","RoadLinkId":"53093054"}}},{"Relevance":1.0,"Distance":99.3,"MatchLevel":"houseNumber","MatchQuality":{"Country":1.0,"State":1.0,"County":1.0,"City":1.0,"Street":[1.0],"HouseNumber":1.0,"PostalCode":1.0},"MatchType":"interpolated","Location":{"LocationId":"NT_VniSk9cex6eP5lRRyCXvgB_yIE","LocationType":"point","DisplayPosition":{"Latitude":47.99416,"Longitude":3.61314},"MapView":{"TopLeft":{"Latitude":47.9952842,"Longitude":3.6114602},"BottomRight":{"Latitude":47.9930358,"Longitude":3.6148198}},"Address":{"Label":"2B Rue du 8 Mai 1945, 89210 Brienon-sur-Armançon, France","Country":"FRA","State":"Bourgogne-Franche-Comté","County":"Yonne","City":"Brienon-sur-Armançon","Street":"Rue du 8 Mai 1945","HouseNumber":"2B","PostalCode":"89210","AdditionalData":[{"value":"France","key":"CountryName"},{"value":"Bourgogne-Franche-Comté","key":"StateName"},{"value":"Yonne","key":"CountyName"}]},"MapReference":{"ReferenceId":"545689226","Spot":0.19,"SideOfStreet":"right","CountryId":"20000001","StateId":"20013306","CountyId":"20004500","CityId":"20043001","AddressId":"370855458","RoadLinkId":"52845616"}}}]}]}}