{"Response":{"MetaInfo":{"Timestamp":"2020-03-28T10:54:36.604+0000","NextPageInformation":"2"},"View":[{"_type":"SearchResultsViewType","ViewId":0,"Result":[{"Relevance":1.0,"Distance":0.0,"Direction":0.0,"MatchLevel":"city","MatchQuality":{"Country":1.0,"State":1.0,"County":1.0,"City":1.0,"PostalCode":1.0},"Location":{"LocationId":"NT_bfX3rPpUnxf9r-WdEEWPxB","LocationType":"point","DisplayPosition":{"Latitude":47.9145093,"Longitude":12.907351},"MapView":{"TopLeft":{"Latitude":47.9622,"Longitude":12.84879},"BottomRight":{"Latitude":47.89421,"Longitude":12.96656}},"Address":{"Label":"Laufen, Bayern, Deutschland","Country":"DEU","State":"Bayern","County":"Berchtesgadener Land","City":"Laufen","PostalCode":"83410","AdditionalData":[{"value":"Deutschland","key":"CountryName"},{"value":"Bayern","key":"StateName"},{"value":"Berchtesgadener Land","key":"CountyName"}]},"MapReference":{"ReferenceId":"562768613","SideOfStreet":"neither","CountryId":"20147700","StateId":"20177250","CountyId":"20177377","CityId":"20177410"}}},{"Relevance":1.0,"Distance":7.9,"MatchLevel":"houseNumber","MatchQuality":{"Country":1.0,"State":1.0,"County":1.0,"City":1.0,"Street":[1.0],"HouseNumber":1.0,"PostalCode":1.0},"MatchType":"interpolated","Location":{"LocationId":"NT_6A2reL9xUhXiMSEPUTEo8A_zED","LocationType":"point","DisplayPosition":{"Latitude":47.91509,"Longitude":12.90713},"MapView":{"TopLeft":{"Latitude":47.9162142,"Longitude":12.9054527},"BottomRight":{"Latitude":47.9139658,"Longitude":12.9088073}},"Address":{"Label":"Abtsee 31, 83410 Laufen, Deutschland","Country":"DEU","State":"Bayern","County":"Berchtesgadener Land","City":"Laufen","Street":"Abtsee","HouseNumber":"31","PostalCode":"83410","AdditionalData":[{"value":"Deutschland","key":"CountryName"},{"value":"Bayern","key":"StateName"},{"value":"Berchtesgadener Land","key":"CountyName"}]},"MapReference":{"ReferenceId":"1059854237","Spot":0.48,"SideOfStreet":"right","CountryId":"20147700","StateId":"20177250","CountyId":"20177377","CityId":"20177410","AddressId":"208398314","RoadLinkId":"382108969"}}},{"Relevance":1.0,"Distance":42.2,"MatchLevel":"houseNumber","MatchQuality":{"Country":1.0,"State":1.0,"County":1.0,"City":1.0,"Street":[1.0],"HouseNumber":1.0,"PostalCode":1.0},"MatchType":"interpolated","Location":{"LocationId":"NT_uBDFKedjJX8jd6Ourms.3D_ykD","LocationType":"point","DisplayPosition":{"Latitude":47.91518,"Longitude":12.90782},"MapView":{"TopLeft":{"Latitude":47.9163042,"Longitude":12.9061427},"BottomRight":{"Latitude":47.9140558,"Longitude":12.9094973}},"Address":{"Label":"Abtsee 29, 83410 Laufen, Deutschland","Country":"DEU","State":"Bayern","County":"Berchtesgadener Land","City":"Laufen","Street":"Abtsee","HouseNumber":"29","PostalCode":"83410","AdditionalData":[{"value":"Deutschland","key":"CountryName"},{"value":"Bayern","key":"StateName"},{"value":"Berchtesgadener Land","key":"CountyName"}]},"MapReference":{"ReferenceId":"773227985","Spot":0.97,"SideOfStreet":"left","CountryId":"20147700","StateId":"20177250","CountyId":"20177377","CityId":"20177410","AddressId":"208398315","RoadLinkId":"166893247"}}},{"Relevance":1.0,"Distance":56.4,"MatchLevel":"landmark","MatchQuality":{"Country":1.0,"State":1.0,"County":1.0,"City":1.0,"PostalCode":1.0,"Name":1.0},"Location":{"LocationId":"NT_6OdxFlbLsU0HzMXu27OUTC","LocationType":"lake","Name":"Abtsdorfer See","DisplayPosition":{"Latitude":47.91044,"Longitude":12.90971},"MapView":{"TopLeft":{"Latitude":47.91703,"Longitude":12.90099},"BottomRight":{"Latitude":47.90384,"Longitude":12.9145}},"Address":{"Label":"83416 Saaldorf-Surheim, Deutschland","Country":"DEU","State":"Bayern","County":"Berchtesgadener Land","City":"Saaldorf-Surheim","PostalCode":"83416","AdditionalData":[{"value":"Deutschland","key":"CountryName"},{"value":"Bayern","key":"StateName"},{"value":"Berchtesgadener Land","key":"CountyName"}]},"MapReference":{"CountryId":"20147700","StateId":"20177250","CountyId":"20177377","CityId":"20177424","PlaceId":"69334737"}}},{"Relevance":1.0,"Distance":83.5,"MatchLevel":"street","MatchQuality":{"Country":1.0,"State":1.0,"County":1.0,"City":1.0,"Street":[1.0],"PostalCode":1.0},"Location":{"LocationId":"NT_6A2reL9xUhXiMSEPUTEo8A_l_1059854238_L","LocationType":"point","DisplayPosition":{"Latitude":47.91524,"Longitude":12.90761},"MapView":{"TopLeft":{"Latitude":47.91524,"Longitude":12.90761},"BottomRight":{"Latitude":47.91519,"Longitude":12.9078}},"Address":{"Label":"Abtsee, 83410 Laufen, Deutschland","Country":"DEU","State":"Bayern","County":"Berchtesgadener Land","City":"Laufen","Street":"Abtsee","PostalCode":"83410","AdditionalData":[{"value":"Deutschland","key":"CountryName"},{"value":"Bayern","key":"StateName"},{"value":"Berchtesgadener Land","key":"CountyName"}]},"MapReference":{"ReferenceId":"1059854238","Spot":1.0,"SideOfStreet":"left","CountryId":"20147700","StateId":"20177250","CountyId":"20177377","CityId":"20177410"}}},{"Relevance":1.0,"Distance":104.2,"MatchLevel":"street","MatchQuality":{"Country":1.0,"State":1.0,"County":1.0,"City":1.0,"PostalCode":1.0},"Location":{"LocationId":"NT_0VY-r0KYaLR6kuo-0.hueC_l_79601617_L","LocationType":"point","DisplayPosition":{"Latitude":47.91493,"Longitude":12.9086},"MapView":{"TopLeft":{"Latitude":47.91493,"Longitude":12.9086},"BottomRight":{"Latitude":47.91407,"Longitude":12.90999}},"Address":{"Label":"83410 Laufen, Deutschland","Country":"DEU","State":"Bayern","County":"Berchtesgadener Land","City":"Laufen","PostalCode":"83410","AdditionalData":[{"value":"Deutschland","key":"CountryName"},{"value":"Bayern","key":"StateName"},{"value":"Berchtesgadener Land","key":"CountyName"}]},"MapReference":{"ReferenceId":"79601617","Spot":1.0,"SideOfStreet":"left","CountryId":"20147700","StateId":"20177250","CountyId":"20177377","CityId":"20177410"}}},{"Relevance":1.0,"Distance":184.5,"MatchLevel":"street","MatchQuality":{"Country":1.0,"State":1.0,"County":1.0,"City":1.0,"PostalCode":1.0},"Location":{"LocationId":"NT_0VY-r0KYaLR6kuo-0.hueC_l_773227915_L","LocationType":"point","DisplayPosition":{"Latitude":47.91376,"Longitude":12.90956},"MapView":{"TopLeft":{"Latitude":47.91376,"Longitude":12.90956},"BottomRight":{"Latitude":47.91318,"Longitude":12.91095}},"Address":{"Label":"83410 Laufen, Deutschland","Country":"DEU","State":"Bayern","County":"Berchtesgadener Land","City":"Laufen","PostalCode":"83410","AdditionalData":[{"value":"Deutschland","key":"CountryName"},{"value":"Bayern","key":"StateName"},{"value":"Berchtesgadener Land","key":"CountyName"}]},"MapReference":{"ReferenceId":"773227915","Spot":1.0,"SideOfStreet":"left","CountryId":"20147700","StateId":"20177250","CountyId":"20177377","CityId":"20177410"}}},{"Relevance":1.0,"Distance":184.5,"MatchLevel":"street","MatchQuality":{"Country":1.0,"State":1.0,"County":1.0,"City":1.0,"PostalCode":1.0},"Location":{"LocationId":"NT_0VY-r0KYaLR6kuo-0.hueC_l_773227916_L","LocationType":"point","DisplayPosition":{"Latitude":47.91376,"Longitude":12.90956},"MapView":{"TopLeft":{"Latitude":47.91392,"Longitude":12.90956},"BottomRight":{"Latitude":47.91376,"Longitude":12.90977}},"Address":{"Label":"83410 Laufen, Deutschland","Country":"DEU","State":"Bayern","County":"Berchtesgadener Land","City":"Laufen","PostalCode":"83410","AdditionalData":[{"value":"Deutschland","key":"CountryName"},{"value":"Bayern","key":"StateName"},{"value":"Berchtesgadener Land","key":"CountyName"}]},"MapReference":{"ReferenceId":"773227916","Spot":0.0,"SideOfStreet":"left","CountryId":"20147700","StateId":"20177250","CountyId":"20177377","CityId":"20177410"}}},{"Relevance":1.0,"Distance":189.7,"MatchLevel":"street","MatchQuality":{"Country":1.0,"State":1.0,"County":1.0,"City":1.0,"PostalCode":1.0},"Location":{"LocationId":"NT_0VY-r0KYaLR6kuo-0.hueC_l_773227920_L","LocationType":"point","DisplayPosition":{"Latitude":47.9135714,"Longitude":12.9094768},"MapView":{"TopLeft":{"Latitude":47.91376,"Longitude":12.90941},"BottomRight":{"Latitude":47.91342,"Longitude":12.90956}},"Address":{"Label":"83410 Laufen, Deutschland","Country":"DEU","State":"Bayern","County":"Berchtesgadener Land","City":"Laufen","PostalCode":"83410","AdditionalData":[{"value":"Deutschland","key":"CountryName"},{"value":"Bayern","key":"StateName"},{"value":"Berchtesgadener Land","key":"CountyName"}]},"MapReference":{"ReferenceId":"773227920","Spot":0.45,"SideOfStreet":"left","CountryId":"20147700","StateId":"20177250","CountyId":"20177377","CityId":"20177410"}}},{"Relevance":1.0,"Distance":191.8,"MatchLevel":"street","MatchQuality":{"Country":1.0,"State":1.0,"County":1.0,"City":1.0,"PostalCode":1.0},"Location":{"LocationId":"NT_0VY-r0KYaLR6kuo-0.hueC_l_773227914_L","LocationType":"point","DisplayPosition":{"Latitude":47.91392,"Longitude":12.90977},"MapView":{"TopLeft":{"Latitude":47.91392,"Longitude":12.90977},"BottomRight":{"Latitude":47.91318,"Longitude":12.91114}},"Address":{"Label":"83410 Laufen, Deutschland","Country":"DEU","State":"Bayern","County":"Berchtesgadener Land","City":"Laufen","PostalCode":"83410","AdditionalData":[{"value":"Deutschland","key":"CountryName"},{"value":"Bayern","key":"StateName"},{"value":"Berchtesgadener Land","key":"CountyName"}]},"MapReference":{"ReferenceId":"773227914","Spot":1.0,"SideOfStreet":"left","CountryId":"20147700","StateId":"20177250","CountyId":"20177377","CityId":"20177410"}}}]}]}}