{"Response":{"MetaInfo":{"Timestamp":"2020-03-28T09:36:41.073+0000","NextPageInformation":"2"},"View":[{"_type":"SearchResultsViewType","ViewId":0,"Result":[{"Relevance":1.0,"Distance":0.0,"Direction":0.0,"MatchLevel":"district","MatchQuality":{"Country":1.0,"State":1.0,"County":1.0,"City":1.0,"District":1.0,"PostalCode":1.0},"Location":{"LocationId":"NT_irSEAJeArzSsgDSEwH9KKB","LocationType":"point","DisplayPosition":{"Latitude":47.9125839,"Longitude":9.762139},"MapView":{"TopLeft":{"Latitude":47.94125,"Longitude":9.73339},"BottomRight":{"Latitude":47.90815,"Longitude":9.77133}},"Address":{"Label":"Bad Waldsee, Baden-Württemberg, Deutschland","Country":"DEU","State":"Baden-Württemberg","County":"Ravensburg","City":"Bad Waldsee","District":"Bad Waldsee","PostalCode":"88339","AdditionalData":[{"value":"Deutschland","key":"CountryName"},{"value":"Baden-Württemberg","key":"StateName"},{"value":"Ravensburg","key":"CountyName"}]},"MapReference":{"ReferenceId":"836684118","SideOfStreet":"neither","CountryId":"20147700","StateId":"20171489","CountyId":"20176884","CityId":"20176910","DistrictId":"20176917"}}},{"Relevance":1.0,"Distance":24.9,"MatchLevel":"houseNumber","MatchQuality":{"Country":1.0,"State":1.0,"County":1.0,"City":1.0,"District":1.0,"Street":[1.0],"HouseNumber":1.0,"PostalCode":1.0},"MatchType":"interpolated","Location":{"LocationId":"NT_BdWgcD3qo7yrPIuO2whjOC_zED","LocationType":"point","DisplayPosition":{"Latitude":47.9129,"Longitude":9.7622},"MapView":{"TopLeft":{"Latitude":47.9140242,"Longitude":9.7605228},"BottomRight":{"Latitude":47.9117758,"Longitude":9.7638772}},"Address":{"Label":"Badstraße 31, 88339 Bad Waldsee, Deutschland","Country":"DEU","State":"Baden-Württemberg","County":"Ravensburg","City":"Bad Waldsee","District":"Bad Waldsee","Street":"Badstraße","HouseNumber":"31","PostalCode":"88339","AdditionalData":[{"value":"Deutschland","key":"CountryName"},{"value":"Baden-Württemberg","key":"StateName"},{"value":"Ravensburg","key":"CountyName"}]},"MapReference":{"ReferenceId":"538771519","Spot":0.16,"SideOfStreet":"right","CountryId":"20147700","StateId":"20171489","CountyId":"20176884","CityId":"20176910","DistrictId":"20176917","AddressId":"180497666","RoadLinkId":"38720017"}}},{"Relevance":1.0,"Distance":26.5,"MatchLevel":"landmark","MatchQuality":{"Country":1.0,"State":1.0,"County":1.0,"City":1.0,"District":1.0,"Street":[1.0],"PostalCode":1.0,"Name":1.0},"Location":{"LocationId":"NT_vvaC-8UpgZQGEInKc963XB_p_Sil5bgbljpN--i7Gt01BxD","LocationType":"park","Name":"Kurpark","DisplayPosition":{"Latitude":47.91526,"Longitude":9.75969},"MapView":{"TopLeft":{"Latitude":47.91691,"Longitude":9.75745},"BottomRight":{"Latitude":47.91144,"Longitude":9.7618}},"Address":{"Label":"Unterurbacher Weg, 88339 Bad Waldsee, Deutschland","Country":"DEU","State":"Baden-Württemberg","County":"Ravensburg","City":"Bad Waldsee","District":"Bad Waldsee","Street":"Unterurbacher Weg","PostalCode":"88339","AdditionalData":[{"value":"Deutschland","key":"CountryName"},{"value":"Baden-Württemberg","key":"StateName"},{"value":"Ravensburg","key":"CountyName"}]},"MapReference":{"CountryId":"20147700","StateId":"20171489","CountyId":"20176884","CityId":"20176910","DistrictId":"20176917","PlaceId":"57564048"}}},{"Relevance":1.0,"Distance":26.5,"MatchLevel":"street","MatchQuality":{"Country":1.0,"State":1.0,"County":1.0,"City":1.0,"District":1.0,"Street":[1.0],"PostalCode":1.0},"Location":{"LocationId":"NT_4cf3UWgWpM62tnjdgnxPgB_l_538772732_R","LocationType":"point","DisplayPosition":{"Latitude":47.9125305,"Longitude":9.7617922},"MapView":{"TopLeft":{"Latitude":47.91274,"Longitude":9.76176},"BottomRight":{"Latitude":47.91248,"Longitude":9.7618}},"Address":{"Label":"Unterurbacher Weg, 88339 Bad Waldsee, Deutschland","Country":"DEU","State":"Baden-Württemberg","County":"Ravensburg","City":"Bad Waldsee","District":"Bad Waldsee","Street":"Unterurbacher Weg","PostalCode":"88339","AdditionalData":[{"value":"Deutschland","key":"CountryName"},{"value":"Baden-Württemberg","key":"StateName"},{"value":"Ravensburg","key":"CountyName"}]},"MapReference":{"ReferenceId":"538772732","Spot":0.19,"SideOfStreet":"right","CountryId":"20147700","StateId":"20171489","CountyId":"20176884","CityId":"20176910","DistrictId":"20176917"}}},{"Relevance":1.0,"Distance":119.3,"MatchLevel":"houseNumber","MatchQuality":{"Country":1.0,"State":1.0,"County":1.0,"City":1.0,"Street":[1.0],"HouseNumber":1.0,"PostalCode":1.0},"MatchType":"interpolated","Location":{"LocationId":"NT_KgABXxZWKiHRx7-wl2ASGC_3MD","LocationType":"point","DisplayPosition":{"Latitude":47.91152,"Longitude":9.76193},"MapView":{"TopLeft":{"Latitude":47.9126442,"Longitude":9.7602529},"BottomRight":{"Latitude":47.9103958,"Longitude":9.7636071}},"Address":{"Label":"Unterurbacher Weg 73, 88339 Bad Waldsee, Deutschland","Country":"DEU","State":"Baden-Württemberg","County":"Ravensburg","City":"Bad Waldsee","Street":"Unterurbacher Weg","HouseNumber":"73","PostalCode":"88339","AdditionalData":[{"value":"Deutschland","key":"CountryName"},{"value":"Baden-Württemberg","key":"StateName"},{"value":"Ravensburg","key":"CountyName"}]},"MapReference":{"ReferenceId":"563924562","Spot":0.79,"SideOfStreet":"right","CountryId":"20147700","StateId":"20171489","CountyId":"20176884","CityId":"20176910","AddressId":"177437949","RoadLinkId":"38915244"}}},{"Relevance":1.0,"Distance":195.9,"MatchLevel":"street","MatchQuality":{"Country":1.0,"State":1.0,"County":1.0,"City":1.0,"Street":[1.0],"PostalCode":1.0},"Location":{"LocationId":"NT_oejsx5B5BYixR4RqM3e.2A_l_717638734_L","LocationType":"point","DisplayPosition":{"Latitude":47.9115171,"Longitude":9.7642299},"MapView":{"TopLeft":{"Latitude":47.91443,"Longitude":9.76414},"BottomRight":{"Latitude":47.91058,"Longitude":9.76543}},"Address":{"Label":"Schützenstraße, 88339 Bad Waldsee, Deutschland","Country":"DEU","State":"Baden-Württemberg","County":"Ravensburg","City":"Bad Waldsee","Street":"Schützenstraße","PostalCode":"88339","AdditionalData":[{"value":"Deutschland","key":"CountryName"},{"value":"Baden-Württemberg","key":"StateName"},{"value":"Ravensburg","key":"CountyName"}]},"MapReference":{"ReferenceId":"717638734","Spot":0.27,"SideOfStreet":"left","CountryId":"20147700","StateId":"20171489","CountyId":"20176884","CityId":"20176910"}}},{"Relevance":1.0,"Distance":235.6,"MatchLevel":"street","MatchQuality":{"Country":1.0,"State":1.0,"County":1.0,"City":1.0,"District":1.0,"PostalCode":1.0},"Location":{"LocationId":"NT_owokeOkzpEDvxjLbHRFDKA_l_538771578_L","LocationType":"point","DisplayPosition":{"Latitude":47.91449,"Longitude":9.76352},"MapView":{"TopLeft":{"Latitude":47.91521,"Longitude":9.76299},"BottomRight":{"Latitude":47.91449,"Longitude":9.76359}},"Address":{"Label":"88339 Bad Waldsee, Deutschland","Country":"DEU","State":"Baden-Württemberg","County":"Ravensburg","City":"Bad Waldsee","District":"Bad Waldsee","PostalCode":"88339","AdditionalData":[{"value":"Deutschland","key":"CountryName"},{"value":"Baden-Württemberg","key":"StateName"},{"value":"Ravensburg","key":"CountyName"}]},"MapReference":{"ReferenceId":"538771578","Spot":0.0,"SideOfStreet":"left","CountryId":"20147700","StateId":"20171489","CountyId":"20176884","CityId":"20176910","DistrictId":"20176917"}}},{"Relevance":1.0,"Distance":271.5,"MatchLevel":"houseNumber","MatchQuality":{"Country":1.0,"State":1.0,"County":1.0,"City":1.0,"District":1.0,"Street":[1.0],"HouseNumber":1.0,"PostalCode":1.0},"MatchType":"interpolated","Location":{"LocationId":"NT_sBU2JCYjzvAdAtLvJHKnwC_yMD","LocationType":"point","DisplayPosition":{"Latitude":47.91331,"Longitude":9.75848},"MapView":{"TopLeft":{"Latitude":47.9144342,"Longitude":9.7568028},"BottomRight":{"Latitude":47.9121858,"Longitude":9.7601572}},"Address":{"Label":"Kolpingstraße 23, 88339 Bad Waldsee, Deutschland","Country":"DEU","State":"Baden-Württemberg","County":"Ravensburg","City":"Bad Waldsee","District":"Bad Waldsee","Street":"Kolpingstraße","HouseNumber":"23","PostalCode":"88339","AdditionalData":[{"value":"Deutschland","key":"CountryName"},{"value":"Baden-Württemberg","key":"StateName"},{"value":"Ravensburg","key":"CountyName"}]},"MapReference":{"ReferenceId":"537984945","Spot":0.35,"SideOfStreet":"right","CountryId":"20147700","StateId":"20171489","CountyId":"20176884","CityId":"20176910","DistrictId":"20176917","AddressId":"179912247","RoadLinkId":"38513872"}}},{"Relevance":1.0,"Distance":280.8,"MatchLevel":"street","MatchQuality":{"Country":1.0,"State":1.0,"County":1.0,"City":1.0,"Street":[1.0],"PostalCode":1.0},"Location":{"LocationId":"NT_oejsx5B5BYixR4RqM3e.2A_l_717638733_L","LocationType":"point","DisplayPosition":{"Latitude":47.9104,"Longitude":9.76403},"MapView":{"TopLeft":{"Latitude":47.9104,"Longitude":9.76369},"BottomRight":{"Latitude":47.90998,"Longitude":9.76403}},"Address":{"Label":"Schützenstraße, 88339 Bad Waldsee, Deutschland","Country":"DEU","State":"Baden-Württemberg","County":"Ravensburg","City":"Bad Waldsee","Street":"Schützenstraße","PostalCode":"88339","AdditionalData":[{"value":"Deutschland","key":"CountryName"},{"value":"Baden-Württemberg","key":"StateName"},{"value":"Ravensburg","key":"CountyName"}]},"MapReference":{"ReferenceId":"717638733","Spot":1.0,"SideOfStreet":"left","CountryId":"20147700","StateId":"20171489","CountyId":"20176884","CityId":"20176910"}}},{"Relevance":1.0,"Distance":292.0,"MatchLevel":"street","MatchQuality":{"Country":1.0,"State":1.0,"County":1.0,"City":1.0,"Street":[1.0],"PostalCode":1.0},"Location":{"LocationId":"NT_-fi1H1p9J60NCh5xFYxwLD_l_717638736_L","LocationType":"point","DisplayPosition":{"Latitude":47.91058,"Longitude":9.76467},"MapView":{"TopLeft":{"Latitude":47.91441,"Longitude":9.76467},"BottomRight":{"Latitude":47.91058,"Longitude":9.76613}},"Address":{"Label":"K7936, 88339 Bad Waldsee, Deutschland","Country":"DEU","State":"Baden-Württemberg","County":"Ravensburg","City":"Bad Waldsee","Street":"K7936","PostalCode":"88339","AdditionalData":[{"value":"Deutschland","key":"CountryName"},{"value":"Baden-Württemberg","key":"StateName"},{"value":"Ravensburg","key":"CountyName"}]},"MapReference":{"ReferenceId":"717638736","Spot":0.0,"SideOfStreet":"left","CountryId":"20147700","StateId":"20171489","CountyId":"20176884","CityId":"20176910"}}}]}]}}