{"Response":{"MetaInfo":{"Timestamp":"2020-03-28T12:07:30.960+0000","NextPageInformation":"2"},"View":[{"_type":"SearchResultsViewType","ViewId":0,"Result":[{"Relevance":1.0,"Distance":0.0,"Direction":0.0,"MatchLevel":"district","MatchQuality":{"Country":1.0,"State":1.0,"County":1.0,"City":1.0,"District":1.0,"PostalCode":1.0},"Location":{"LocationId":"NT_fkEn1pa140Xv.JbfB59h0B","LocationType":"point","DisplayPosition":{"Latitude":47.9384777,"Longitude":17.7165687},"MapView":{"TopLeft":{"Latitude":47.94864,"Longitude":17.7053},"BottomRight":{"Latitude":47.92734,"Longitude":17.72059}},"Address":{"Label":"Dolný Štál, Trnavský kraj, Slovenská Republika","Country":"SVK","State":"Trnavský kraj","County":"Dunajská Streda","City":"Dolný Štál","District":"Dolný Štál","PostalCode":"930 10","AdditionalData":[{"value":"Slovenská Republika","key":"CountryName"},{"value":"Trnavský kraj","key":"StateName"},{"value":"Dunajská Streda","key":"CountyName"}]},"MapReference":{"ReferenceId":"1168553515","SideOfStreet":"neither","CountryId":"20428682","StateId":"20492134","CountyId":"20492135","CityId":"20492162","DistrictId":"22186306"}}},{"Relevance":1.0,"Distance":17.7,"MatchLevel":"houseNumber","MatchQuality":{"Country":1.0,"State":1.0,"County":1.0,"City":1.0,"District":1.0,"Street":[1.0],"HouseNumber":1.0,"PostalCode":1.0},"MatchType":"interpolated","Location":{"LocationId":"NT_BMm4dLnDgL70fwF08qOvdB_4YTMvgD","LocationType":"point","DisplayPosition":{"Latitude":47.93803,"Longitude":17.7169},"MapView":{"TopLeft":{"Latitude":47.9391542,"Longitude":17.715222},"BottomRight":{"Latitude":47.9369058,"Longitude":17.718578}},"Address":{"Label":"Tichá 861/8, 930 10 Dolný Štál, Slovenská Republika","Country":"SVK","State":"Trnavský kraj","County":"Dunajská Streda","City":"Dolný Štál","District":"Dolný Štál","Street":"Tichá","HouseNumber":"861/8","PostalCode":"930 10","AdditionalData":[{"value":"Slovenská Republika","key":"CountryName"},{"value":"Trnavský kraj","key":"StateName"},{"value":"Dunajská Streda","key":"CountyName"}]},"MapReference":{"ReferenceId":"704256423","Spot":0.42,"SideOfStreet":"left","CountryId":"20428682","StateId":"20492134","CountyId":"20492135","CityId":"20492162","DistrictId":"22186306","AddressId":"589707861","RoadLinkId":"98447582"}}},{"Relevance":1.0,"Distance":43.8,"MatchLevel":"houseNumber","MatchQuality":{"Country":1.0,"State":1.0,"County":1.0,"City":1.0,"District":1.0,"Street":[1.0],"HouseNumber":1.0,"PostalCode":1.0},"MatchType":"interpolated","Location":{"LocationId":"NT_vDgrG9PO3AeJghx2OzbSOB_2cTNvQD","LocationType":"point","DisplayPosition":{"Latitude":47.93885,"Longitude":17.7159},"MapView":{"TopLeft":{"Latitude":47.9399742,"Longitude":17.714222},"BottomRight":{"Latitude":47.9377258,"Longitude":17.717578}},"Address":{"Label":"Mateja Korvína 675/4, 930 10 Dolný Štál, Slovenská Republika","Country":"SVK","State":"Trnavský kraj","County":"Dunajská Streda","City":"Dolný Štál","District":"Dolný Štál","Street":"Mateja Korvína","HouseNumber":"675/4","PostalCode":"930 10","AdditionalData":[{"value":"Slovenská Republika","key":"CountryName"},{"value":"Trnavský kraj","key":"StateName"},{"value":"Dunajská Streda","key":"CountyName"}]},"MapReference":{"ReferenceId":"704256409","Spot":0.28,"SideOfStreet":"right","CountryId":"20428682","StateId":"20492134","CountyId":"20492135","CityId":"20492162","DistrictId":"22186306","AddressId":"676372755","RoadLinkId":"149499775"}}},{"Relevance":1.0,"Distance":88.4,"MatchLevel":"street","MatchQuality":{"Country":1.0,"State":1.0,"County":1.0,"City":1.0,"District":1.0,"PostalCode":1.0},"Location":{"LocationId":"NT_fV9M9SRxQy.uzQdfg6sykC_l_1202900703_R","LocationType":"point","DisplayPosition":{"Latitude":47.93927,"Longitude":17.71647},"MapView":{"TopLeft":{"Latitude":47.93952,"Longitude":17.71647},"BottomRight":{"Latitude":47.93927,"Longitude":17.71754}},"Address":{"Label":"930 10 Dolný Štál, Slovenská Republika","Country":"SVK","State":"Trnavský kraj","County":"Dunajská Streda","City":"Dolný Štál","District":"Dolný Štál","PostalCode":"930 10","AdditionalData":[{"value":"Slovenská Republika","key":"CountryName"},{"value":"Trnavský kraj","key":"StateName"},{"value":"Dunajská Streda","key":"CountyName"}]},"MapReference":{"ReferenceId":"1202900703","Spot":0.0,"SideOfStreet":"right","CountryId":"20428682","StateId":"20492134","CountyId":"20492135","CityId":"20492162","DistrictId":"22186306"}}},{"Relevance":1.0,"Distance":88.6,"MatchLevel":"houseNumber","MatchQuality":{"Country":1.0,"State":1.0,"County":1.0,"City":1.0,"District":1.0,"Street":[1.0],"HouseNumber":1.0,"PostalCode":1.0},"MatchType":"interpolated","Location":{"LocationId":"NT_JJ6TXAtNh-oTsdEGemxq7B_xQjNvETN","LocationType":"point","DisplayPosition":{"Latitude":47.93887,"Longitude":17.71778},"MapView":{"TopLeft":{"Latitude":47.9399942,"Longitude":17.716102},"BottomRight":{"Latitude":47.9377458,"Longitude":17.719458}},"Address":{"Label":"Komárňanská cesta 146/15, 930 10 Dolný Štál, Slovenská Republika","Country":"SVK","State":"Trnavský kraj","County":"Dunajská Streda","City":"Dolný Štál","District":"Dolný Štál","Street":"Komárňanská cesta","HouseNumber":"146/15","PostalCode":"930 10","AdditionalData":[{"value":"Slovenská Republika","key":"CountryName"},{"value":"Trnavský kraj","key":"StateName"},{"value":"Dunajská Streda","key":"CountyName"}]},"MapReference":{"ReferenceId":"704256422","Spot":0.65,"SideOfStreet":"left","CountryId":"20428682","StateId":"20492134","CountyId":"20492135","CityId":"20492162","DistrictId":"22186306","AddressId":"300065018","RoadLinkId":"149354824"}}},{"Relevance":1.0,"Distance":95.1,"MatchLevel":"houseNumber","MatchQuality":{"Country":1.0,"State":1.0,"County":1.0,"City":1.0,"District":1.0,"Street":[1.0],"HouseNumber":1.0,"PostalCode":1.0},"MatchType":"interpolated","Location":{"LocationId":"NT_JJ6TXAtNh-oTsdEGemxq7B_xUTMvITN","LocationType":"point","DisplayPosition":{"Latitude":47.93931,"Longitude":17.71691},"MapView":{"TopLeft":{"Latitude":47.9404342,"Longitude":17.715232},"BottomRight":{"Latitude":47.9381858,"Longitude":17.718588}},"Address":{"Label":"Komárňanská cesta 151/25, 930 10 Dolný Štál, Slovenská Republika","Country":"SVK","State":"Trnavský kraj","County":"Dunajská Streda","City":"Dolný Štál","District":"Dolný Štál","Street":"Komárňanská cesta","HouseNumber":"151/25","PostalCode":"930 10","AdditionalData":[{"value":"Slovenská Republika","key":"CountryName"},{"value":"Trnavský kraj","key":"StateName"},{"value":"Dunajská Streda","key":"CountyName"}]},"MapReference":{"ReferenceId":"704256427","Spot":0.12,"SideOfStreet":"left","CountryId":"20428682","StateId":"20492134","CountyId":"20492135","CityId":"20492162","DistrictId":"22186306","AddressId":"382315509","RoadLinkId":"149354802"}}},{"Relevance":1.0,"Distance":104.0,"MatchLevel":"houseNumber","MatchQuality":{"Country":1.0,"State":1.0,"County":1.0,"City":1.0,"District":1.0,"Street":[1.0],"HouseNumber":1.0,"PostalCode":1.0},"MatchType":"interpolated","Location":{"LocationId":"NT_JJ6TXAtNh-oTsdEGemxq7B_xQDOvETO","LocationType":"point","DisplayPosition":{"Latitude":47.93923,"Longitude":17.7175},"MapView":{"TopLeft":{"Latitude":47.9403542,"Longitude":17.715822},"BottomRight":{"Latitude":47.9381058,"Longitude":17.719178}},"Address":{"Label":"Komárňanská cesta 148/19, 930 10 Dolný Štál, Slovenská Republika","Country":"SVK","State":"Trnavský kraj","County":"Dunajská Streda","City":"Dolný Štál","District":"Dolný Štál","Street":"Komárňanská cesta","HouseNumber":"148/19","PostalCode":"930 10","AdditionalData":[{"value":"Slovenská Republika","key":"CountryName"},{"value":"Trnavský kraj","key":"StateName"},{"value":"Dunajská Streda","key":"CountyName"}]},"MapReference":{"ReferenceId":"704256426","Spot":0.81,"SideOfStreet":"right","CountryId":"20428682","StateId":"20492134","CountyId":"20492135","CityId":"20492162","DistrictId":"22186306","AddressId":"299955140","RoadLinkId":"149354822"}}},{"Relevance":1.0,"Distance":106.1,"MatchLevel":"houseNumber","MatchQuality":{"Country":1.0,"State":1.0,"County":1.0,"City":1.0,"District":1.0,"Street":[1.0],"HouseNumber":1.0,"PostalCode":1.0},"MatchType":"interpolated","Location":{"LocationId":"NT_JJ6TXAtNh-oTsdEGemxq7B_xMjNvkD","LocationType":"point","DisplayPosition":{"Latitude":47.9381,"Longitude":17.71807},"MapView":{"TopLeft":{"Latitude":47.9392242,"Longitude":17.716392},"BottomRight":{"Latitude":47.9369758,"Longitude":17.719748}},"Address":{"Label":"Komárňanská cesta 136/9, 930 10 Dolný Štál, Slovenská Republika","Country":"SVK","State":"Trnavský kraj","County":"Dunajská Streda","City":"Dolný Štál","District":"Dolný Štál","Street":"Komárňanská cesta","HouseNumber":"136/9","PostalCode":"930 10","AdditionalData":[{"value":"Slovenská Republika","key":"CountryName"},{"value":"Trnavský kraj","key":"StateName"},{"value":"Dunajská Streda","key":"CountyName"}]},"MapReference":{"ReferenceId":"894195555","Spot":0.86,"SideOfStreet":"left","CountryId":"20428682","StateId":"20492134","CountyId":"20492135","CityId":"20492162","DistrictId":"22186306","AddressId":"299372972","RoadLinkId":"256750473"}}},{"Relevance":1.0,"Distance":114.5,"MatchLevel":"houseNumber","MatchQuality":{"Country":1.0,"State":1.0,"County":1.0,"City":1.0,"District":1.0,"Street":[1.0],"HouseNumber":1.0,"PostalCode":1.0},"MatchType":"interpolated","Location":{"LocationId":"NT_vDgrG9PO3AeJghx2OzbSOB_5ADOvITY","LocationType":"point","DisplayPosition":{"Latitude":47.93741,"Longitude":17.7163},"MapView":{"TopLeft":{"Latitude":47.9385342,"Longitude":17.714622},"BottomRight":{"Latitude":47.9362858,"Longitude":17.717978}},"Address":{"Label":"Mateja Korvína 908/2a, 930 10 Dolný Štál, Slovenská Republika","Country":"SVK","State":"Trnavský kraj","County":"Dunajská Streda","City":"Dolný Štál","District":"Dolný Štál","Street":"Mateja Korvína","HouseNumber":"908/2a","PostalCode":"930 10","AdditionalData":[{"value":"Slovenská Republika","key":"CountryName"},{"value":"Trnavský kraj","key":"StateName"},{"value":"Dunajská Streda","key":"CountyName"}]},"MapReference":{"ReferenceId":"704256416","Spot":0.61,"SideOfStreet":"right","CountryId":"20428682","StateId":"20492134","CountyId":"20492135","CityId":"20492162","DistrictId":"22186306","AddressId":"589731756","RoadLinkId":"98447571"}}},{"Relevance":1.0,"Distance":118.0,"MatchLevel":"street","MatchQuality":{"Country":1.0,"State":1.0,"County":1.0,"City":1.0,"District":1.0,"Street":[1.0],"PostalCode":1.0},"Location":{"LocationId":"NT_gCGjYlRG72Zogem87DP3dC_l_704256412_L","LocationType":"point","DisplayPosition":{"Latitude":47.93926,"Longitude":17.71764},"MapView":{"TopLeft":{"Latitude":47.93947,"Longitude":17.71756},"BottomRight":{"Latitude":47.93926,"Longitude":17.71764}},"Address":{"Label":"Komárňanská cesta, 930 10 Dolný Štál, Slovenská Republika","Country":"SVK","State":"Trnavský kraj","County":"Dunajská Streda","City":"Dolný Štál","District":"Dolný Štál","Street":"Komárňanská cesta","PostalCode":"930 10","AdditionalData":[{"value":"Slovenská Republika","key":"CountryName"},{"value":"Trnavský kraj","key":"StateName"},{"value":"Dunajská Streda","key":"CountyName"}]},"MapReference":{"ReferenceId":"704256412","Spot":0.0,"SideOfStreet":"left","CountryId":"20428682","StateId":"20492134","CountyId":"20492135","CityId":"20492162","DistrictId":"22186306"}}}]}]}}