{"Response":{"MetaInfo":{"Timestamp":"2020-03-28T11:41:46.261+0000","NextPageInformation":"2"},"View":[{"_type":"SearchResultsViewType","ViewId":0,"Result":[{"Relevance":1.0,"Distance":0.0,"Direction":0.0,"MatchLevel":"district","MatchQuality":{"Country":1.0,"State":1.0,"County":1.0,"City":1.0,"District":1.0,"PostalCode":1.0},"Location":{"LocationId":"NT_PwSJqxo9-3heaea7Y9vLnC","LocationType":"point","DisplayPosition":{"Latitude":47.9477235,"Longitude":11.2936703},"MapView":{"TopLeft":{"Latitude":47.95554,"Longitude":11.2799},"BottomRight":{"Latitude":47.93134,"Longitude":11.30729}},"Address":{"Label":"Feldafing, Bayern, Deutschland","Country":"DEU","State":"Bayern","County":"Starnberg","City":"Feldafing","District":"Feldafing","PostalCode":"82340","AdditionalData":[{"value":"Deutschland","key":"CountryName"},{"value":"Bayern","key":"StateName"},{"value":"Starnberg","key":"CountyName"}]},"MapReference":{"ReferenceId":"781827543","SideOfStreet":"neither","CountryId":"20147700","StateId":"20177250","CountyId":"20179164","CityId":"20179180","DistrictId":"20179182"}}},{"Relevance":1.0,"Distance":13.7,"MatchLevel":"houseNumber","MatchQuality":{"Country":1.0,"State":1.0,"County":1.0,"City":1.0,"District":1.0,"Street":[1.0],"HouseNumber":1.0,"PostalCode":1.0},"MatchType":"interpolated","Location":{"LocationId":"NT_WuXdtCtfJ-x9kzsr8JcUyB_ycD","LocationType":"point","DisplayPosition":{"Latitude":47.94775,"Longitude":11.29343},"MapView":{"TopLeft":{"Latitude":47.9488742,"Longitude":11.2917517},"BottomRight":{"Latitude":47.9466258,"Longitude":11.2951083}},"Address":{"Label":"Bahnhofstraße 27, 82340 Feldafing, Deutschland","Country":"DEU","State":"Bayern","County":"Starnberg","City":"Feldafing","District":"Feldafing","Street":"Bahnhofstraße","HouseNumber":"27","PostalCode":"82340","AdditionalData":[{"value":"Deutschland","key":"CountryName"},{"value":"Bayern","key":"StateName"},{"value":"Starnberg","key":"CountyName"}]},"MapReference":{"ReferenceId":"79563848","Spot":0.43,"SideOfStreet":"right","CountryId":"20147700","StateId":"20177250","CountyId":"20179164","CityId":"20179180","DistrictId":"20179182","AddressId":"183763645","RoadLinkId":"32562466"}}},{"Relevance":1.0,"Distance":39.0,"MatchLevel":"street","MatchQuality":{"Country":1.0,"State":1.0,"County":1.0,"City":1.0,"District":1.0,"Street":[1.0],"PostalCode":1.0},"Location":{"LocationId":"NT_kCY7v.f7PKdLqyc7rMtsfB_l_1158707242_L","LocationType":"point","DisplayPosition":{"Latitude":47.947386,"Longitude":11.2938141},"MapView":{"TopLeft":{"Latitude":47.94764,"Longitude":11.2938},"BottomRight":{"Latitude":47.94738,"Longitude":11.29441}},"Address":{"Label":"Neindorffstraße, 82340 Feldafing, Deutschland","Country":"DEU","State":"Bayern","County":"Starnberg","City":"Feldafing","District":"Feldafing","Street":"Neindorffstraße","PostalCode":"82340","AdditionalData":[{"value":"Deutschland","key":"CountryName"},{"value":"Bayern","key":"StateName"},{"value":"Starnberg","key":"CountyName"}]},"MapReference":{"ReferenceId":"1158707242","Spot":0.02,"SideOfStreet":"left","CountryId":"20147700","StateId":"20177250","CountyId":"20179164","CityId":"20179180","DistrictId":"20179182"}}},{"Relevance":1.0,"Distance":39.4,"MatchLevel":"street","MatchQuality":{"Country":1.0,"State":1.0,"County":1.0,"City":1.0,"District":1.0,"Street":[1.0],"PostalCode":1.0},"Location":{"LocationId":"NT_RDxRLuQsr0KytTd-6KTD-B_l_1158707243_R","LocationType":"point","DisplayPosition":{"Latitude":47.94738,"Longitude":11.2938},"MapView":{"TopLeft":{"Latitude":47.94738,"Longitude":11.2938},"BottomRight":{"Latitude":47.94701,"Longitude":11.29414}},"Address":{"Label":"Bernheimer Platz, 82340 Feldafing, Deutschland","Country":"DEU","State":"Bayern","County":"Starnberg","City":"Feldafing","District":"Feldafing","Street":"Bernheimer Platz","PostalCode":"82340","AdditionalData":[{"value":"Deutschland","key":"CountryName"},{"value":"Bayern","key":"StateName"},{"value":"Starnberg","key":"CountyName"}]},"MapReference":{"ReferenceId":"1158707243","Spot":1.0,"SideOfStreet":"right","CountryId":"20147700","StateId":"20177250","CountyId":"20179164","CityId":"20179180","DistrictId":"20179182"}}},{"Relevance":1.0,"Distance":55.9,"MatchLevel":"street","MatchQuality":{"Country":1.0,"State":1.0,"County":1.0,"City":1.0,"District":1.0,"Street":[1.0],"PostalCode":1.0},"Location":{"LocationId":"NT_r9fxFtZZW5f1bu-buTtHUB_l_79563837_R","LocationType":"point","DisplayPosition":{"Latitude":47.94764,"Longitude":11.29441},"MapView":{"TopLeft":{"Latitude":47.94765,"Longitude":11.29441},"BottomRight":{"Latitude":47.94721,"Longitude":11.29534}},"Address":{"Label":"Thurn-und-Taxis-Straße, 82340 Feldafing, Deutschland","Country":"DEU","State":"Bayern","County":"Starnberg","City":"Feldafing","District":"Feldafing","Street":"Thurn-und-Taxis-Straße","PostalCode":"82340","AdditionalData":[{"value":"Deutschland","key":"CountryName"},{"value":"Bayern","key":"StateName"},{"value":"Starnberg","key":"CountyName"}]},"MapReference":{"ReferenceId":"79563837","Spot":1.0,"SideOfStreet":"right","CountryId":"20147700","StateId":"20177250","CountyId":"20179164","CityId":"20179180","DistrictId":"20179182"}}},{"Relevance":1.0,"Distance":56.2,"MatchLevel":"houseNumber","MatchQuality":{"Country":1.0,"State":1.0,"County":1.0,"City":1.0,"District":1.0,"Street":[1.0],"HouseNumber":1.0,"PostalCode":1.0},"MatchType":"interpolated","Location":{"LocationId":"NT_kCY7v.f7PKdLqyc7rMtsfB_yA","LocationType":"point","DisplayPosition":{"Latitude":47.94722,"Longitude":11.29341},"MapView":{"TopLeft":{"Latitude":47.9483442,"Longitude":11.2917317},"BottomRight":{"Latitude":47.9460958,"Longitude":11.2950883}},"Address":{"Label":"Neindorffstraße 2, 82340 Feldafing, Deutschland","Country":"DEU","State":"Bayern","County":"Starnberg","City":"Feldafing","District":"Feldafing","Street":"Neindorffstraße","HouseNumber":"2","PostalCode":"82340","AdditionalData":[{"value":"Deutschland","key":"CountryName"},{"value":"Bayern","key":"StateName"},{"value":"Starnberg","key":"CountyName"}]},"MapReference":{"ReferenceId":"1158707241","Spot":0.56,"SideOfStreet":"left","CountryId":"20147700","StateId":"20177250","CountyId":"20179164","CityId":"20179180","DistrictId":"20179182","AddressId":"790278089","RoadLinkId":"465251967"}}},{"Relevance":1.0,"Distance":56.8,"MatchLevel":"houseNumber","MatchQuality":{"Country":1.0,"State":1.0,"County":1.0,"City":1.0,"District":1.0,"Street":[1.0],"HouseNumber":1.0,"PostalCode":1.0},"MatchType":"interpolated","Location":{"LocationId":"NT_oPbkWPX7I8isJfy8M.zj0C_3EE","LocationType":"point","DisplayPosition":{"Latitude":47.94752,"Longitude":11.29437},"MapView":{"TopLeft":{"Latitude":47.9486442,"Longitude":11.2926917},"BottomRight":{"Latitude":47.9463958,"Longitude":11.2960483}},"Address":{"Label":"Höhenbergstraße 7A, 82340 Feldafing, Deutschland","Country":"DEU","State":"Bayern","County":"Starnberg","City":"Feldafing","District":"Feldafing","Street":"Höhenbergstraße","HouseNumber":"7A","PostalCode":"82340","AdditionalData":[{"value":"Deutschland","key":"CountryName"},{"value":"Bayern","key":"StateName"},{"value":"Starnberg","key":"CountyName"}]},"MapReference":{"ReferenceId":"1158707240","Spot":0.82,"SideOfStreet":"right","CountryId":"20147700","StateId":"20177250","CountyId":"20179164","CityId":"20179180","DistrictId":"20179182","AddressId":"184987749","RoadLinkId":"465251966"}}},{"Relevance":1.0,"Distance":72.1,"MatchLevel":"houseNumber","MatchQuality":{"Country":1.0,"State":1.0,"County":1.0,"City":1.0,"District":1.0,"Street":[1.0],"HouseNumber":1.0,"PostalCode":1.0},"MatchType":"interpolated","Location":{"LocationId":"NT_oPbkWPX7I8isJfy8M.zj0C_xA","LocationType":"point","DisplayPosition":{"Latitude":47.94798,"Longitude":11.29456},"MapView":{"TopLeft":{"Latitude":47.9491042,"Longitude":11.2928817},"BottomRight":{"Latitude":47.9468558,"Longitude":11.2962383}},"Address":{"Label":"Höhenbergstraße 1, 82340 Feldafing, Deutschland","Country":"DEU","State":"Bayern","County":"Starnberg","City":"Feldafing","District":"Feldafing","Street":"Höhenbergstraße","HouseNumber":"1","PostalCode":"82340","AdditionalData":[{"value":"Deutschland","key":"CountryName"},{"value":"Bayern","key":"StateName"},{"value":"Starnberg","key":"CountyName"}]},"MapReference":{"ReferenceId":"819638371","Spot":0.72,"SideOfStreet":"right","CountryId":"20147700","StateId":"20177250","CountyId":"20179164","CityId":"20179180","DistrictId":"20179182","AddressId":"249306997","RoadLinkId":"206690349"}}},{"Relevance":1.0,"Distance":81.2,"MatchLevel":"houseNumber","MatchQuality":{"Country":1.0,"State":1.0,"County":1.0,"City":1.0,"District":1.0,"Street":[1.0],"HouseNumber":1.0,"PostalCode":1.0},"MatchType":"interpolated","Location":{"LocationId":"NT_cu7jYlz6w7FtYxRwWdu-4D_zMD","LocationType":"point","DisplayPosition":{"Latitude":47.94717,"Longitude":11.29276},"MapView":{"TopLeft":{"Latitude":47.9482942,"Longitude":11.2910817},"BottomRight":{"Latitude":47.9460458,"Longitude":11.2944383}},"Address":{"Label":"Parkstraße 33, 82340 Feldafing, Deutschland","Country":"DEU","State":"Bayern","County":"Starnberg","City":"Feldafing","District":"Feldafing","Street":"Parkstraße","HouseNumber":"33","PostalCode":"82340","AdditionalData":[{"value":"Deutschland","key":"CountryName"},{"value":"Bayern","key":"StateName"},{"value":"Starnberg","key":"CountyName"}]},"MapReference":{"ReferenceId":"79563850","Spot":0.4,"SideOfStreet":"right","CountryId":"20147700","StateId":"20177250","CountyId":"20179164","CityId":"20179180","DistrictId":"20179182","AddressId":"777589684","RoadLinkId":"33105860"}}},{"Relevance":1.0,"Distance":81.5,"MatchLevel":"street","MatchQuality":{"Country":1.0,"State":1.0,"County":1.0,"City":1.0,"District":1.0,"Street":[1.0],"PostalCode":1.0},"Location":{"LocationId":"NT_oPbkWPX7I8isJfy8M.zj0C_l_819638372_L","LocationType":"point","DisplayPosition":{"Latitude":47.94812,"Longitude":11.29459},"MapView":{"TopLeft":{"Latitude":47.94833,"Longitude":11.29452},"BottomRight":{"Latitude":47.94812,"Longitude":11.29459}},"Address":{"Label":"Höhenbergstraße, 82340 Feldafing, Deutschland","Country":"DEU","State":"Bayern","County":"Starnberg","City":"Feldafing","District":"Feldafing","Street":"Höhenbergstraße","PostalCode":"82340","AdditionalData":[{"value":"Deutschland","key":"CountryName"},{"value":"Bayern","key":"StateName"},{"value":"Starnberg","key":"CountyName"}]},"MapReference":{"ReferenceId":"819638372","Spot":0.0,"SideOfStreet":"left","CountryId":"20147700","StateId":"20177250","CountyId":"20179164","CityId":"20179180","DistrictId":"20179182"}}}]}]}}