{"Response":{"MetaInfo":{"Timestamp":"2020-03-28T10:21:32.170+0000","NextPageInformation":"2"},"View":[{"_type":"SearchResultsViewType","ViewId":0,"Result":[{"Relevance":1.0,"Distance":0.0,"Direction":0.0,"MatchLevel":"district","MatchQuality":{"Country":1.0,"State":1.0,"County":1.0,"City":1.0,"District":1.0,"PostalCode":1.0},"Location":{"LocationId":"NT_LN8HZ.T-9Gah7W.-6GmAWC","LocationType":"point","DisplayPosition":{"Latitude":47.9431191,"Longitude":10.7421626},"MapView":{"TopLeft":{"Latitude":47.94972,"Longitude":10.7357},"BottomRight":{"Latitude":47.93802,"Longitude":10.74762}},"Address":{"Label":"Oberostendorf, Bayern, Deutschland","Country":"DEU","State":"Bayern","County":"Ostallgäu","City":"Oberostendorf","District":"Oberostendorf","PostalCode":"86869","AdditionalData":[{"value":"Deutschland","key":"CountryName"},{"value":"Bayern","key":"StateName"},{"value":"Ostallgäu","key":"CountyName"}]},"MapReference":{"ReferenceId":"576264740","SideOfStreet":"neither","CountryId":"20147700","StateId":"20177250","CountyId":"20186162","CityId":"20186269","DistrictId":"20186271"}}},{"Relevance":1.0,"Distance":15.7,"MatchLevel":"houseNumber","MatchQuality":{"Country":1.0,"State":1.0,"County":1.0,"City":1.0,"District":1.0,"Street":[1.0],"HouseNumber":1.0,"PostalCode":1.0},"MatchType":"interpolated","Location":{"LocationId":"NT_Hu8eTPXPsi13FVGrkdBoXC_1A","LocationType":"point","DisplayPosition":{"Latitude":47.94326,"Longitude":10.74218},"MapView":{"TopLeft":{"Latitude":47.9443842,"Longitude":10.7405018},"BottomRight":{"Latitude":47.9421358,"Longitude":10.7438582}},"Address":{"Label":"Kirchstraße 5, 86869 Oberostendorf, Deutschland","Country":"DEU","State":"Bayern","County":"Ostallgäu","City":"Oberostendorf","District":"Oberostendorf","Street":"Kirchstraße","HouseNumber":"5","PostalCode":"86869","AdditionalData":[{"value":"Deutschland","key":"CountryName"},{"value":"Bayern","key":"StateName"},{"value":"Ostallgäu","key":"CountyName"}]},"MapReference":{"ReferenceId":"773929539","Spot":0.71,"SideOfStreet":"left","CountryId":"20147700","StateId":"20177250","CountyId":"20186162","CityId":"20186269","DistrictId":"20186271","AddressId":"184591179","RoadLinkId":"167608065"}}},{"Relevance":1.0,"Distance":22.7,"MatchLevel":"houseNumber","MatchQuality":{"Country":1.0,"State":1.0,"County":1.0,"City":1.0,"District":1.0,"Street":[1.0],"HouseNumber":1.0,"PostalCode":1.0},"MatchType":"interpolated","Location":{"LocationId":"NT_Hu8eTPXPsi13FVGrkdBoXC_zA","LocationType":"point","DisplayPosition":{"Latitude":47.94297,"Longitude":10.74237},"MapView":{"TopLeft":{"Latitude":47.9440942,"Longitude":10.7406918},"BottomRight":{"Latitude":47.9418458,"Longitude":10.7440482}},"Address":{"Label":"Kirchstraße 3, 86869 Oberostendorf, Deutschland","Country":"DEU","State":"Bayern","County":"Ostallgäu","City":"Oberostendorf","District":"Oberostendorf","Street":"Kirchstraße","HouseNumber":"3","PostalCode":"86869","AdditionalData":[{"value":"Deutschland","key":"CountryName"},{"value":"Bayern","key":"StateName"},{"value":"Ostallgäu","key":"CountyName"}]},"MapReference":{"ReferenceId":"576264755","Spot":0.74,"SideOfStreet":"left","CountryId":"20147700","StateId":"20177250","CountyId":"20186162","CityId":"20186269","DistrictId":"20186271","AddressId":"183608378","RoadLinkId":"32532505"}}},{"Relevance":1.0,"Distance":35.8,"MatchLevel":"houseNumber","MatchQuality":{"Country":1.0,"State":1.0,"County":1.0,"City":1.0,"District":1.0,"Street":[1.0],"HouseNumber":1.0,"PostalCode":1.0},"MatchType":"interpolated","Location":{"LocationId":"NT_tdjZHrHh3zf.Z9s9Kr1XYD_zA","LocationType":"point","DisplayPosition":{"Latitude":47.94341,"Longitude":10.74237},"MapView":{"TopLeft":{"Latitude":47.9445342,"Longitude":10.7406918},"BottomRight":{"Latitude":47.9422858,"Longitude":10.7440482}},"Address":{"Label":"Mühlweg 3, 86869 Oberostendorf, Deutschland","Country":"DEU","State":"Bayern","County":"Ostallgäu","City":"Oberostendorf","District":"Oberostendorf","Street":"Mühlweg","HouseNumber":"3","PostalCode":"86869","AdditionalData":[{"value":"Deutschland","key":"CountryName"},{"value":"Bayern","key":"StateName"},{"value":"Ostallgäu","key":"CountyName"}]},"MapReference":{"ReferenceId":"83383186","Spot":0.22,"SideOfStreet":"right","CountryId":"20147700","StateId":"20177250","CountyId":"20186162","CityId":"20186269","DistrictId":"20186271","AddressId":"184876059","RoadLinkId":"32776413"}}},{"Relevance":1.0,"Distance":50.4,"MatchLevel":"houseNumber","MatchQuality":{"Country":1.0,"State":1.0,"County":1.0,"City":1.0,"District":1.0,"Street":[1.0],"HouseNumber":1.0,"PostalCode":1.0},"MatchType":"interpolated","Location":{"LocationId":"NT_Hu8eTPXPsi13FVGrkdBoXC_3A","LocationType":"point","DisplayPosition":{"Latitude":47.94354,"Longitude":10.74191},"MapView":{"TopLeft":{"Latitude":47.9446642,"Longitude":10.7402318},"BottomRight":{"Latitude":47.9424158,"Longitude":10.7435882}},"Address":{"Label":"Kirchstraße 7, 86869 Oberostendorf, Deutschland","Country":"DEU","State":"Bayern","County":"Ostallgäu","City":"Oberostendorf","District":"Oberostendorf","Street":"Kirchstraße","HouseNumber":"7","PostalCode":"86869","AdditionalData":[{"value":"Deutschland","key":"CountryName"},{"value":"Bayern","key":"StateName"},{"value":"Ostallgäu","key":"CountyName"}]},"MapReference":{"ReferenceId":"773929540","Spot":0.47,"SideOfStreet":"left","CountryId":"20147700","StateId":"20177250","CountyId":"20186162","CityId":"20186269","DistrictId":"20186271","AddressId":"184591180","RoadLinkId":"167608066"}}},{"Relevance":1.0,"Distance":57.0,"MatchLevel":"houseNumber","MatchQuality":{"Country":1.0,"State":1.0,"County":1.0,"City":1.0,"District":1.0,"Street":[1.0],"HouseNumber":1.0,"PostalCode":1.0},"MatchType":"interpolated","Location":{"LocationId":"NT_Wv-Kk7FVuCByLWitSim78A_xA","LocationType":"point","DisplayPosition":{"Latitude":47.94284,"Longitude":10.74152},"MapView":{"TopLeft":{"Latitude":47.9439642,"Longitude":10.7398418},"BottomRight":{"Latitude":47.9417158,"Longitude":10.7431982}},"Address":{"Label":"Sankt-Mang-Weg 1, 86869 Oberostendorf, Deutschland","Country":"DEU","State":"Bayern","County":"Ostallgäu","City":"Oberostendorf","District":"Oberostendorf","Street":"Sankt-Mang-Weg","HouseNumber":"1","PostalCode":"86869","AdditionalData":[{"value":"Deutschland","key":"CountryName"},{"value":"Bayern","key":"StateName"},{"value":"Ostallgäu","key":"CountyName"}]},"MapReference":{"ReferenceId":"83386765","Spot":0.32,"SideOfStreet":"left","CountryId":"20147700","StateId":"20177250","CountyId":"20186162","CityId":"20186269","DistrictId":"20186271","AddressId":"249304152","RoadLinkId":"33691007"}}},{"Relevance":1.0,"Distance":77.6,"MatchLevel":"street","MatchQuality":{"Country":1.0,"State":1.0,"County":1.0,"City":1.0,"District":1.0,"Street":[1.0],"PostalCode":1.0},"Location":{"LocationId":"NT_4BSzgv3HXBzkYHyovQwr1B_l_83383191_L","LocationType":"point","DisplayPosition":{"Latitude":47.94248,"Longitude":10.74258},"MapView":{"TopLeft":{"Latitude":47.94285,"Longitude":10.74258},"BottomRight":{"Latitude":47.94248,"Longitude":10.74375}},"Address":{"Label":"Kardinalstraße, 86869 Oberostendorf, Deutschland","Country":"DEU","State":"Bayern","County":"Ostallgäu","City":"Oberostendorf","District":"Oberostendorf","Street":"Kardinalstraße","PostalCode":"86869","AdditionalData":[{"value":"Deutschland","key":"CountryName"},{"value":"Bayern","key":"StateName"},{"value":"Ostallgäu","key":"CountyName"}]},"MapReference":{"ReferenceId":"83383191","Spot":0.0,"SideOfStreet":"left","CountryId":"20147700","StateId":"20177250","CountyId":"20186162","CityId":"20186269","DistrictId":"20186271"}}},{"Relevance":1.0,"Distance":81.7,"MatchLevel":"houseNumber","MatchQuality":{"Country":1.0,"State":1.0,"County":1.0,"City":1.0,"District":1.0,"Street":[1.0],"HouseNumber":1.0,"PostalCode":1.0},"MatchType":"interpolated","Location":{"LocationId":"NT_axyCeWf-HtXxN9IeWaEMAD_zA","LocationType":"point","DisplayPosition":{"Latitude":47.94381,"Longitude":10.74179},"MapView":{"TopLeft":{"Latitude":47.9449342,"Longitude":10.7401118},"BottomRight":{"Latitude":47.9426858,"Longitude":10.7434682}},"Address":{"Label":"Angerstraße 3, 86869 Oberostendorf, Deutschland","Country":"DEU","State":"Bayern","County":"Ostallgäu","City":"Oberostendorf","District":"Oberostendorf","Street":"Angerstraße","HouseNumber":"3","PostalCode":"86869","AdditionalData":[{"value":"Deutschland","key":"CountryName"},{"value":"Bayern","key":"StateName"},{"value":"Ostallgäu","key":"CountyName"}]},"MapReference":{"ReferenceId":"1076402849","Spot":0.64,"SideOfStreet":"right","CountryId":"20147700","StateId":"20177250","CountyId":"20186162","CityId":"20186269","DistrictId":"20186271","AddressId":"612849473","RoadLinkId":"396360887"}}},{"Relevance":1.0,"Distance":83.8,"MatchLevel":"street","MatchQuality":{"Country":1.0,"State":1.0,"County":1.0,"City":1.0,"District":1.0,"Street":[1.0],"PostalCode":1.0},"Location":{"LocationId":"NT_Hu8eTPXPsi13FVGrkdBoXC_l_83383210_R","LocationType":"point","DisplayPosition":{"Latitude":47.94379,"Longitude":10.74165},"MapView":{"TopLeft":{"Latitude":47.94386,"Longitude":10.74165},"BottomRight":{"Latitude":47.94379,"Longitude":10.74174}},"Address":{"Label":"Kirchstraße, 86869 Oberostendorf, Deutschland","Country":"DEU","State":"Bayern","County":"Ostallgäu","City":"Oberostendorf","District":"Oberostendorf","Street":"Kirchstraße","PostalCode":"86869","AdditionalData":[{"value":"Deutschland","key":"CountryName"},{"value":"Bayern","key":"StateName"},{"value":"Ostallgäu","key":"CountyName"}]},"MapReference":{"ReferenceId":"83383210","Spot":0.0,"SideOfStreet":"right","CountryId":"20147700","StateId":"20177250","CountyId":"20186162","CityId":"20186269","DistrictId":"20186271"}}},{"Relevance":1.0,"Distance":89.9,"MatchLevel":"houseNumber","MatchQuality":{"Country":1.0,"State":1.0,"County":1.0,"City":1.0,"District":1.0,"Street":[1.0],"HouseNumber":1.0,"PostalCode":1.0},"MatchType":"interpolated","Location":{"LocationId":"NT_tsqsrlgHvzJVGFUEIdUKXB_yA","LocationType":"point","DisplayPosition":{"Latitude":47.94389,"Longitude":10.7418},"MapView":{"TopLeft":{"Latitude":47.9450142,"Longitude":10.7401218},"BottomRight":{"Latitude":47.9427658,"Longitude":10.7434782}},"Address":{"Label":"Buchenweg 2, 86869 Oberostendorf, Deutschland","Country":"DEU","State":"Bayern","County":"Ostallgäu","City":"Oberostendorf","District":"Oberostendorf","Street":"Buchenweg","HouseNumber":"2","PostalCode":"86869","AdditionalData":[{"value":"Deutschland","key":"CountryName"},{"value":"Bayern","key":"StateName"},{"value":"Ostallgäu","key":"CountyName"}]},"MapReference":{"ReferenceId":"83383201","Spot":0.08,"SideOfStreet":"left","CountryId":"20147700","StateId":"20177250","CountyId":"20186162","CityId":"20186269","DistrictId":"20186271","AddressId":"182246643","RoadLinkId":"33633973"}}}]}]}}