{"Response":{"MetaInfo":{"Timestamp":"2020-03-28T10:17:15.727+0000","NextPageInformation":"2"},"View":[{"_type":"SearchResultsViewType","ViewId":0,"Result":[{"Relevance":1.0,"Distance":0.0,"Direction":0.0,"MatchLevel":"district","MatchQuality":{"Country":1.0,"State":1.0,"County":1.0,"City":1.0,"District":1.0,"PostalCode":1.0},"Location":{"LocationId":"NT_YuNkU7R3FqO2.xfBy9MdGC","LocationType":"point","DisplayPosition":{"Latitude":47.9906179,"Longitude":10.7755139},"MapView":{"TopLeft":{"Latitude":48.0012,"Longitude":10.77126},"BottomRight":{"Latitude":47.9897,"Longitude":10.78578}},"Address":{"Label":"Waal, Bayern, Deutschland","Country":"DEU","State":"Bayern","County":"Ostallgäu","City":"Waal","District":"Waal","PostalCode":"86875","AdditionalData":[{"value":"Deutschland","key":"CountryName"},{"value":"Bayern","key":"StateName"},{"value":"Ostallgäu","key":"CountyName"}]},"MapReference":{"ReferenceId":"562805127","SideOfStreet":"neither","CountryId":"20147700","StateId":"20177250","CountyId":"20186162","CityId":"20186344","DistrictId":"20186346"}}},{"Relevance":1.0,"Distance":13.9,"MatchLevel":"houseNumber","MatchQuality":{"Country":1.0,"State":1.0,"County":1.0,"City":1.0,"District":1.0,"Street":[1.0],"HouseNumber":1.0,"PostalCode":1.0},"MatchType":"interpolated","Location":{"LocationId":"NT_H8Fp0Ib2iW1SW8v7H7VHzA_0A","LocationType":"point","DisplayPosition":{"Latitude":47.99064,"Longitude":10.77573},"MapView":{"TopLeft":{"Latitude":47.9917642,"Longitude":10.7740503},"BottomRight":{"Latitude":47.9895158,"Longitude":10.7774097}},"Address":{"Label":"Grüntenweg 4, 86875 Waal, Deutschland","Country":"DEU","State":"Bayern","County":"Ostallgäu","City":"Waal","District":"Waal","Street":"Grüntenweg","HouseNumber":"4","PostalCode":"86875","AdditionalData":[{"value":"Deutschland","key":"CountryName"},{"value":"Bayern","key":"StateName"},{"value":"Ostallgäu","key":"CountyName"}]},"MapReference":{"ReferenceId":"83380201","Spot":0.67,"SideOfStreet":"left","CountryId":"20147700","StateId":"20177250","CountyId":"20186162","CityId":"20186344","DistrictId":"20186346","AddressId":"585291082","RoadLinkId":"33384378"}}},{"Relevance":1.0,"Distance":19.8,"MatchLevel":"street","MatchQuality":{"Country":1.0,"State":1.0,"County":1.0,"City":1.0,"District":1.0,"Street":[1.0],"PostalCode":1.0},"Location":{"LocationId":"NT_H8Fp0Ib2iW1SW8v7H7VHzA_l_83527746_R","LocationType":"point","DisplayPosition":{"Latitude":47.9907008,"Longitude":10.7752791},"MapView":{"TopLeft":{"Latitude":47.99076,"Longitude":10.77509},"BottomRight":{"Latitude":47.99051,"Longitude":10.7753}},"Address":{"Label":"Grüntenweg, 86875 Waal, Deutschland","Country":"DEU","State":"Bayern","County":"Ostallgäu","City":"Waal","District":"Waal","Street":"Grüntenweg","PostalCode":"86875","AdditionalData":[{"value":"Deutschland","key":"CountryName"},{"value":"Bayern","key":"StateName"},{"value":"Ostallgäu","key":"CountyName"}]},"MapReference":{"ReferenceId":"83527746","Spot":0.82,"SideOfStreet":"right","CountryId":"20147700","StateId":"20177250","CountyId":"20186162","CityId":"20186344","DistrictId":"20186346"}}},{"Relevance":1.0,"Distance":22.4,"MatchLevel":"street","MatchQuality":{"Country":1.0,"State":1.0,"County":1.0,"City":1.0,"District":1.0,"Street":[1.0],"PostalCode":1.0},"Location":{"LocationId":"NT_H8Fp0Ib2iW1SW8v7H7VHzA_l_83527747_R","LocationType":"point","DisplayPosition":{"Latitude":47.99076,"Longitude":10.7753},"MapView":{"TopLeft":{"Latitude":47.99111,"Longitude":10.7753},"BottomRight":{"Latitude":47.99076,"Longitude":10.77541}},"Address":{"Label":"Grüntenweg, 86875 Waal, Deutschland","Country":"DEU","State":"Bayern","County":"Ostallgäu","City":"Waal","District":"Waal","Street":"Grüntenweg","PostalCode":"86875","AdditionalData":[{"value":"Deutschland","key":"CountryName"},{"value":"Bayern","key":"StateName"},{"value":"Ostallgäu","key":"CountyName"}]},"MapReference":{"ReferenceId":"83527747","Spot":0.0,"SideOfStreet":"right","CountryId":"20147700","StateId":"20177250","CountyId":"20186162","CityId":"20186344","DistrictId":"20186346"}}},{"Relevance":1.0,"Distance":33.2,"MatchLevel":"houseNumber","MatchQuality":{"Country":1.0,"State":1.0,"County":1.0,"City":1.0,"District":1.0,"Street":[1.0],"HouseNumber":1.0,"PostalCode":1.0},"MatchType":"interpolated","Location":{"LocationId":"NT_2r4ujyx9ssZJJm4oKMRUtB_1A","LocationType":"point","DisplayPosition":{"Latitude":47.99102,"Longitude":10.77573},"MapView":{"TopLeft":{"Latitude":47.9921442,"Longitude":10.7740503},"BottomRight":{"Latitude":47.9898958,"Longitude":10.7774097}},"Address":{"Label":"Alpenstraße 5, 86875 Waal, Deutschland","Country":"DEU","State":"Bayern","County":"Ostallgäu","City":"Waal","District":"Waal","Street":"Alpenstraße","HouseNumber":"5","PostalCode":"86875","AdditionalData":[{"value":"Deutschland","key":"CountryName"},{"value":"Bayern","key":"StateName"},{"value":"Ostallgäu","key":"CountyName"}]},"MapReference":{"ReferenceId":"83380194","Spot":0.73,"SideOfStreet":"left","CountryId":"20147700","StateId":"20177250","CountyId":"20186162","CityId":"20186344","DistrictId":"20186346","AddressId":"184887504","RoadLinkId":"33274434"}}},{"Relevance":1.0,"Distance":42.0,"MatchLevel":"houseNumber","MatchQuality":{"Country":1.0,"State":1.0,"County":1.0,"City":1.0,"District":1.0,"Street":[1.0],"HouseNumber":1.0,"PostalCode":1.0},"MatchType":"interpolated","Location":{"LocationId":"NT_H8Fp0Ib2iW1SW8v7H7VHzA_2A","LocationType":"point","DisplayPosition":{"Latitude":47.99056,"Longitude":10.77487},"MapView":{"TopLeft":{"Latitude":47.9916842,"Longitude":10.7731903},"BottomRight":{"Latitude":47.9894358,"Longitude":10.7765497}},"Address":{"Label":"Grüntenweg 6, 86875 Waal, Deutschland","Country":"DEU","State":"Bayern","County":"Ostallgäu","City":"Waal","District":"Waal","Street":"Grüntenweg","HouseNumber":"6","PostalCode":"86875","AdditionalData":[{"value":"Deutschland","key":"CountryName"},{"value":"Bayern","key":"StateName"},{"value":"Ostallgäu","key":"CountyName"}]},"MapReference":{"ReferenceId":"83380188","Spot":0.17,"SideOfStreet":"right","CountryId":"20147700","StateId":"20177250","CountyId":"20186162","CityId":"20186344","DistrictId":"20186346","AddressId":"585291068","RoadLinkId":"32891290"}}},{"Relevance":1.0,"Distance":56.9,"MatchLevel":"houseNumber","MatchQuality":{"Country":1.0,"State":1.0,"County":1.0,"City":1.0,"District":1.0,"Street":[1.0],"HouseNumber":1.0,"PostalCode":1.0},"MatchType":"interpolated","Location":{"LocationId":"NT_2r4ujyx9ssZJJm4oKMRUtB_3A","LocationType":"point","DisplayPosition":{"Latitude":47.99117,"Longitude":10.7752},"MapView":{"TopLeft":{"Latitude":47.9922942,"Longitude":10.7735203},"BottomRight":{"Latitude":47.9900458,"Longitude":10.7768797}},"Address":{"Label":"Alpenstraße 7, 86875 Waal, Deutschland","Country":"DEU","State":"Bayern","County":"Ostallgäu","City":"Waal","District":"Waal","Street":"Alpenstraße","HouseNumber":"7","PostalCode":"86875","AdditionalData":[{"value":"Deutschland","key":"CountryName"},{"value":"Bayern","key":"StateName"},{"value":"Ostallgäu","key":"CountyName"}]},"MapReference":{"ReferenceId":"83380191","Spot":0.2,"SideOfStreet":"left","CountryId":"20147700","StateId":"20177250","CountyId":"20186162","CityId":"20186344","DistrictId":"20186346","AddressId":"183535719","RoadLinkId":"33869763"}}},{"Relevance":1.0,"Distance":67.0,"MatchLevel":"houseNumber","MatchQuality":{"Country":1.0,"State":1.0,"County":1.0,"City":1.0,"District":1.0,"Street":[1.0],"HouseNumber":1.0,"PostalCode":1.0},"MatchType":"interpolated","Location":{"LocationId":"NT_493Mnj59UpivPm0muoM4kA_1A","LocationType":"point","DisplayPosition":{"Latitude":47.99122,"Longitude":10.77547},"MapView":{"TopLeft":{"Latitude":47.9923442,"Longitude":10.7737903},"BottomRight":{"Latitude":47.9900958,"Longitude":10.7771497}},"Address":{"Label":"Südring 5, 86875 Waal, Deutschland","Country":"DEU","State":"Bayern","County":"Ostallgäu","City":"Waal","District":"Waal","Street":"Südring","HouseNumber":"5","PostalCode":"86875","AdditionalData":[{"value":"Deutschland","key":"CountryName"},{"value":"Bayern","key":"StateName"},{"value":"Ostallgäu","key":"CountyName"}]},"MapReference":{"ReferenceId":"83380190","Spot":0.09,"SideOfStreet":"right","CountryId":"20147700","StateId":"20177250","CountyId":"20186162","CityId":"20186344","DistrictId":"20186346","AddressId":"184232460","RoadLinkId":"32917757"}}},{"Relevance":1.0,"Distance":80.9,"MatchLevel":"street","MatchQuality":{"Country":1.0,"State":1.0,"County":1.0,"City":1.0,"District":1.0,"Street":[1.0],"PostalCode":1.0},"Location":{"LocationId":"NT_pLIqOckBdP9.IdoseAihLC_l_83380189_L","LocationType":"point","DisplayPosition":{"Latitude":47.99069,"Longitude":10.7765953},"MapView":{"TopLeft":{"Latitude":47.99077,"Longitude":10.77659},"BottomRight":{"Latitude":47.99047,"Longitude":10.77661}},"Address":{"Label":"Theaterstraße, 86875 Waal, Deutschland","Country":"DEU","State":"Bayern","County":"Ostallgäu","City":"Waal","District":"Waal","Street":"Theaterstraße","PostalCode":"86875","AdditionalData":[{"value":"Deutschland","key":"CountryName"},{"value":"Bayern","key":"StateName"},{"value":"Ostallgäu","key":"CountyName"}]},"MapReference":{"ReferenceId":"83380189","Spot":0.73,"SideOfStreet":"left","CountryId":"20147700","StateId":"20177250","CountyId":"20186162","CityId":"20186344","DistrictId":"20186346"}}},{"Relevance":1.0,"Distance":83.2,"MatchLevel":"street","MatchQuality":{"Country":1.0,"State":1.0,"County":1.0,"City":1.0,"District":1.0,"Street":[1.0],"PostalCode":1.0},"Location":{"LocationId":"NT_pLIqOckBdP9.IdoseAihLC_l_83380205_L","LocationType":"point","DisplayPosition":{"Latitude":47.99047,"Longitude":10.77661},"MapView":{"TopLeft":{"Latitude":47.99047,"Longitude":10.77661},"BottomRight":{"Latitude":47.98994,"Longitude":10.77663}},"Address":{"Label":"Theaterstraße, 86875 Waal, Deutschland","Country":"DEU","State":"Bayern","County":"Ostallgäu","City":"Waal","District":"Waal","Street":"Theaterstraße","PostalCode":"86875","AdditionalData":[{"value":"Deutschland","key":"CountryName"},{"value":"Bayern","key":"StateName"},{"value":"Ostallgäu","key":"CountyName"}]},"MapReference":{"ReferenceId":"83380205","Spot":1.0,"SideOfStreet":"left","CountryId":"20147700","StateId":"20177250","CountyId":"20186162","CityId":"20186344","DistrictId":"20186346"}}}]}]}}