{"Response":{"MetaInfo":{"Timestamp":"2020-03-28T10:59:15.389+0000","NextPageInformation":"2"},"View":[{"_type":"SearchResultsViewType","ViewId":0,"Result":[{"Relevance":1.0,"Distance":0.0,"Direction":0.0,"MatchLevel":"city","MatchQuality":{"Country":1.0,"State":1.0,"County":1.0,"City":1.0,"PostalCode":1.0},"Location":{"LocationId":"NT_Y2.6RZXxLefc3Ki4UAM6cB","LocationType":"point","DisplayPosition":{"Latitude":48.028123,"Longitude":12.5417131},"MapView":{"TopLeft":{"Latitude":48.07011,"Longitude":12.49807},"BottomRight":{"Latitude":47.98624,"Longitude":12.61876}},"Address":{"Label":"Trostberg, Bayern, Deutschland","Country":"DEU","State":"Bayern","County":"Traunstein","City":"Trostberg","PostalCode":"83308","AdditionalData":[{"value":"Deutschland","key":"CountryName"},{"value":"Bayern","key":"StateName"},{"value":"Traunstein","key":"CountyName"}]},"MapReference":{"ReferenceId":"1170675393","SideOfStreet":"neither","CountryId":"20147700","StateId":"20177250","CountyId":"20179246","CityId":"20179376"}}},{"Relevance":1.0,"Distance":2.4,"MatchLevel":"street","MatchQuality":{"Country":1.0,"State":1.0,"County":1.0,"City":1.0,"PostalCode":1.0},"Location":{"LocationId":"NT_PMt41K5Z0wUdaqxVys9UtC_l_1259915629_L","LocationType":"point","DisplayPosition":{"Latitude":48.0281062,"Longitude":12.5416937},"MapView":{"TopLeft":{"Latitude":48.02818,"Longitude":12.54163},"BottomRight":{"Latitude":48.02758,"Longitude":12.54367}},"Address":{"Label":"83308 Trostberg, Deutschland","Country":"DEU","State":"Bayern","County":"Traunstein","City":"Trostberg","PostalCode":"83308","AdditionalData":[{"value":"Deutschland","key":"CountryName"},{"value":"Bayern","key":"StateName"},{"value":"Traunstein","key":"CountyName"}]},"MapReference":{"ReferenceId":"1259915629","Spot":0.96,"SideOfStreet":"neither","CountryId":"20147700","StateId":"20177250","CountyId":"20179246","CityId":"20179376"}}},{"Relevance":1.0,"Distance":8.9,"MatchLevel":"houseNumber","MatchQuality":{"Country":1.0,"State":1.0,"County":1.0,"City":1.0,"Street":[1.0],"HouseNumber":1.0,"PostalCode":1.0},"MatchType":"interpolated","Location":{"LocationId":"NT_Rz64ESq39bL1-EOpFEfHiB_yA","LocationType":"point","DisplayPosition":{"Latitude":48.02818,"Longitude":12.54163},"MapView":{"TopLeft":{"Latitude":48.0293042,"Longitude":12.5399491},"BottomRight":{"Latitude":48.0270558,"Longitude":12.5433109}},"Address":{"Label":"Siegerthöhe 2, 83308 Trostberg, Deutschland","Country":"DEU","State":"Bayern","County":"Traunstein","City":"Trostberg","Street":"Siegerthöhe","HouseNumber":"2","PostalCode":"83308","AdditionalData":[{"value":"Deutschland","key":"CountryName"},{"value":"Bayern","key":"StateName"},{"value":"Traunstein","key":"CountyName"}]},"MapReference":{"ReferenceId":"1259915627","Spot":1.0,"SideOfStreet":"right","CountryId":"20147700","StateId":"20177250","CountyId":"20179246","CityId":"20179376","AddressId":"249188829","RoadLinkId":"585249071"}}},{"Relevance":1.0,"Distance":9.1,"MatchLevel":"street","MatchQuality":{"Country":1.0,"State":1.0,"County":1.0,"City":1.0,"Street":[1.0],"PostalCode":1.0},"Location":{"LocationId":"NT_Rz64ESq39bL1-EOpFEfHiB_l_1259915628_R","LocationType":"point","DisplayPosition":{"Latitude":48.0282014,"Longitude":12.5416782},"MapView":{"TopLeft":{"Latitude":48.02822,"Longitude":12.54163},"BottomRight":{"Latitude":48.02818,"Longitude":12.54172}},"Address":{"Label":"Siegerthöhe, 83308 Trostberg, Deutschland","Country":"DEU","State":"Bayern","County":"Traunstein","City":"Trostberg","Street":"Siegerthöhe","PostalCode":"83308","AdditionalData":[{"value":"Deutschland","key":"CountryName"},{"value":"Bayern","key":"StateName"},{"value":"Traunstein","key":"CountyName"}]},"MapReference":{"ReferenceId":"1259915628","Spot":0.54,"SideOfStreet":"right","CountryId":"20147700","StateId":"20177250","CountyId":"20179246","CityId":"20179376"}}},{"Relevance":1.0,"Distance":10.1,"MatchLevel":"landmark","MatchQuality":{"Country":1.0,"State":1.0,"County":1.0,"City":1.0,"PostalCode":1.0,"Name":1.0},"Location":{"LocationId":"NT_TH7wH4BpVFKMxiL0qnaspA_p_ZrHUcGaOiPoJTP2RSW5Z6D","LocationType":"hospital","Name":"Kreisklinik Trostberg","DisplayPosition":{"Latitude":48.02823,"Longitude":12.54217},"MapView":{"TopLeft":{"Latitude":48.0293,"Longitude":12.54172},"BottomRight":{"Latitude":48.02785,"Longitude":12.54553}},"Address":{"Label":"83308 Trostberg, Deutschland","Country":"DEU","State":"Bayern","County":"Traunstein","City":"Trostberg","PostalCode":"83308","AdditionalData":[{"value":"Deutschland","key":"CountryName"},{"value":"Bayern","key":"StateName"},{"value":"Traunstein","key":"CountyName"}]},"MapReference":{"CountryId":"20147700","StateId":"20177250","CountyId":"20179246","CityId":"20179376","PlaceId":"69477288"}}},{"Relevance":1.0,"Distance":10.8,"MatchLevel":"street","MatchQuality":{"Country":1.0,"State":1.0,"County":1.0,"City":1.0,"Street":[1.0],"PostalCode":1.0},"Location":{"LocationId":"NT_Rz64ESq39bL1-EOpFEfHiB_l_586898258_R","LocationType":"point","DisplayPosition":{"Latitude":48.02822,"Longitude":12.54172},"MapView":{"TopLeft":{"Latitude":48.0283,"Longitude":12.54172},"BottomRight":{"Latitude":48.02822,"Longitude":12.54193}},"Address":{"Label":"Siegerthöhe, 83308 Trostberg, Deutschland","Country":"DEU","State":"Bayern","County":"Traunstein","City":"Trostberg","Street":"Siegerthöhe","PostalCode":"83308","AdditionalData":[{"value":"Deutschland","key":"CountryName"},{"value":"Bayern","key":"StateName"},{"value":"Traunstein","key":"CountyName"}]},"MapReference":{"ReferenceId":"586898258","Spot":0.0,"SideOfStreet":"right","CountryId":"20147700","StateId":"20177250","CountyId":"20179246","CityId":"20179376"}}},{"Relevance":1.0,"Distance":25.4,"MatchLevel":"street","MatchQuality":{"Country":1.0,"State":1.0,"County":1.0,"City":1.0,"Street":[1.0],"PostalCode":1.0},"Location":{"LocationId":"NT_Rz64ESq39bL1-EOpFEfHiB_l_586898244_L","LocationType":"point","DisplayPosition":{"Latitude":48.0283,"Longitude":12.54193},"MapView":{"TopLeft":{"Latitude":48.029,"Longitude":12.54193},"BottomRight":{"Latitude":48.0283,"Longitude":12.54241}},"Address":{"Label":"Siegerthöhe, 83308 Trostberg, Deutschland","Country":"DEU","State":"Bayern","County":"Traunstein","City":"Trostberg","Street":"Siegerthöhe","PostalCode":"83308","AdditionalData":[{"value":"Deutschland","key":"CountryName"},{"value":"Bayern","key":"StateName"},{"value":"Traunstein","key":"CountyName"}]},"MapReference":{"ReferenceId":"586898244","Spot":0.0,"SideOfStreet":"left","CountryId":"20147700","StateId":"20177250","CountyId":"20179246","CityId":"20179376"}}},{"Relevance":1.0,"Distance":25.4,"MatchLevel":"street","MatchQuality":{"Country":1.0,"State":1.0,"County":1.0,"City":1.0,"PostalCode":1.0},"Location":{"LocationId":"NT_PMt41K5Z0wUdaqxVys9UtC_l_586898251_L","LocationType":"point","DisplayPosition":{"Latitude":48.0283,"Longitude":12.54193},"MapView":{"TopLeft":{"Latitude":48.0283,"Longitude":12.54193},"BottomRight":{"Latitude":48.02824,"Longitude":12.54204}},"Address":{"Label":"83308 Trostberg, Deutschland","Country":"DEU","State":"Bayern","County":"Traunstein","City":"Trostberg","PostalCode":"83308","AdditionalData":[{"value":"Deutschland","key":"CountryName"},{"value":"Bayern","key":"StateName"},{"value":"Traunstein","key":"CountyName"}]},"MapReference":{"ReferenceId":"586898251","Spot":1.0,"SideOfStreet":"left","CountryId":"20147700","StateId":"20177250","CountyId":"20179246","CityId":"20179376"}}},{"Relevance":1.0,"Distance":25.4,"MatchLevel":"street","MatchQuality":{"Country":1.0,"State":1.0,"County":1.0,"City":1.0,"PostalCode":1.0},"Location":{"LocationId":"NT_PMt41K5Z0wUdaqxVys9UtC_l_586898246_R","LocationType":"point","DisplayPosition":{"Latitude":48.0283,"Longitude":12.54193},"MapView":{"TopLeft":{"Latitude":48.02835,"Longitude":12.54193},"BottomRight":{"Latitude":48.0283,"Longitude":12.54219}},"Address":{"Label":"83308 Trostberg, Deutschland","Country":"DEU","State":"Bayern","County":"Traunstein","City":"Trostberg","PostalCode":"83308","AdditionalData":[{"value":"Deutschland","key":"CountryName"},{"value":"Bayern","key":"StateName"},{"value":"Traunstein","key":"CountyName"}]},"MapReference":{"ReferenceId":"586898246","Spot":0.0,"SideOfStreet":"right","CountryId":"20147700","StateId":"20177250","CountyId":"20179246","CityId":"20179376"}}},{"Relevance":1.0,"Distance":27.6,"MatchLevel":"street","MatchQuality":{"Country":1.0,"State":1.0,"County":1.0,"City":1.0,"PostalCode":1.0},"Location":{"LocationId":"NT_PMt41K5Z0wUdaqxVys9UtC_l_586898245_R","LocationType":"point","DisplayPosition":{"Latitude":48.02824,"Longitude":12.54204},"MapView":{"TopLeft":{"Latitude":48.02832,"Longitude":12.54204},"BottomRight":{"Latitude":48.02822,"Longitude":12.5422}},"Address":{"Label":"83308 Trostberg, Deutschland","Country":"DEU","State":"Bayern","County":"Traunstein","City":"Trostberg","PostalCode":"83308","AdditionalData":[{"value":"Deutschland","key":"CountryName"},{"value":"Bayern","key":"StateName"},{"value":"Traunstein","key":"CountyName"}]},"MapReference":{"ReferenceId":"586898245","Spot":0.0,"SideOfStreet":"right","CountryId":"20147700","StateId":"20177250","CountyId":"20179246","CityId":"20179376"}}}]}]}}