{"Response":{"MetaInfo":{"Timestamp":"2020-03-28T11:37:29.996+0000","NextPageInformation":"2"},"View":[{"_type":"SearchResultsViewType","ViewId":0,"Result":[{"Relevance":1.0,"Distance":0.0,"Direction":0.0,"MatchLevel":"district","MatchQuality":{"Country":1.0,"State":1.0,"County":1.0,"City":1.0,"District":1.0,"PostalCode":1.0},"Location":{"LocationId":"NT_02VvF3jgk4ZcgfPLv4j0dB","LocationType":"point","DisplayPosition":{"Latitude":48.098959,"Longitude":16.2393473},"MapView":{"TopLeft":{"Latitude":48.10012,"Longitude":16.22897},"BottomRight":{"Latitude":48.09349,"Longitude":16.26067}},"Address":{"Label":"Gießhübl, Niederösterreich, Österreich","Country":"AUT","State":"Niederösterreich","County":"Mödling","City":"Gießhübl","District":"Gießhübl","PostalCode":"2372","AdditionalData":[{"value":"Österreich","key":"CountryName"},{"value":"Niederösterreich","key":"StateName"},{"value":"Mödling","key":"CountyName"}]},"MapReference":{"ReferenceId":"62721769","SideOfStreet":"neither","CountryId":"20128885","StateId":"20130295","CountyId":"20131864","CityId":"20131882","DistrictId":"20131884"}}},{"Relevance":1.0,"Distance":9.5,"MatchLevel":"houseNumber","MatchQuality":{"Country":1.0,"State":1.0,"County":1.0,"City":1.0,"District":1.0,"Street":[1.0],"HouseNumber":1.0,"PostalCode":1.0},"MatchType":"interpolated","Location":{"LocationId":"NT_YxU4.e73Y1Sz.Bv7xfxa-B_1A","LocationType":"point","DisplayPosition":{"Latitude":48.09902,"Longitude":16.23953},"MapView":{"TopLeft":{"Latitude":48.1001442,"Longitude":16.2378467},"BottomRight":{"Latitude":48.0978958,"Longitude":16.2412133}},"Address":{"Label":"Perchtoldsdorfer Straße 5, 2372 Gießhübl, Österreich","Country":"AUT","State":"Niederösterreich","County":"Mödling","City":"Gießhübl","District":"Gießhübl","Street":"Perchtoldsdorfer Straße","HouseNumber":"5","PostalCode":"2372","AdditionalData":[{"value":"Österreich","key":"CountryName"},{"value":"Niederösterreich","key":"StateName"},{"value":"Mödling","key":"CountyName"}]},"MapReference":{"ReferenceId":"62721723","Spot":0.11,"SideOfStreet":"left","CountryId":"20128885","StateId":"20130295","CountyId":"20131864","CityId":"20131882","DistrictId":"20131884","AddressId":"160700793","RoadLinkId":"28296744"}}},{"Relevance":1.0,"Distance":36.3,"MatchLevel":"houseNumber","MatchQuality":{"Country":1.0,"State":1.0,"County":1.0,"City":1.0,"District":1.0,"Street":[1.0],"HouseNumber":1.0,"PostalCode":1.0},"MatchType":"interpolated","Location":{"LocationId":"NT_YxU4.e73Y1Sz.Bv7xfxa-B_zA","LocationType":"point","DisplayPosition":{"Latitude":48.09862,"Longitude":16.23954},"MapView":{"TopLeft":{"Latitude":48.0997442,"Longitude":16.2378568},"BottomRight":{"Latitude":48.0974958,"Longitude":16.2412232}},"Address":{"Label":"Perchtoldsdorfer Straße 3, 2372 Gießhübl, Österreich","Country":"AUT","State":"Niederösterreich","County":"Mödling","City":"Gießhübl","District":"Gießhübl","Street":"Perchtoldsdorfer Straße","HouseNumber":"3","PostalCode":"2372","AdditionalData":[{"value":"Österreich","key":"CountryName"},{"value":"Niederösterreich","key":"StateName"},{"value":"Mödling","key":"CountyName"}]},"MapReference":{"ReferenceId":"62721768","Spot":0.74,"SideOfStreet":"left","CountryId":"20128885","StateId":"20130295","CountyId":"20131864","CityId":"20131882","DistrictId":"20131884","AddressId":"160700792","RoadLinkId":"27855651"}}},{"Relevance":1.0,"Distance":52.1,"MatchLevel":"houseNumber","MatchQuality":{"Country":1.0,"State":1.0,"County":1.0,"City":1.0,"District":1.0,"Street":[1.0],"HouseNumber":1.0,"PostalCode":1.0},"MatchType":"interpolated","Location":{"LocationId":"NT_zv9E9nkoB06ZWJ9xF-y1LD_0A","LocationType":"point","DisplayPosition":{"Latitude":48.09923,"Longitude":16.23992},"MapView":{"TopLeft":{"Latitude":48.1003542,"Longitude":16.2382367},"BottomRight":{"Latitude":48.0981058,"Longitude":16.2416033}},"Address":{"Label":"Tirolerhofweg 4, 2372 Gießhübl, Österreich","Country":"AUT","State":"Niederösterreich","County":"Mödling","City":"Gießhübl","District":"Gießhübl","Street":"Tirolerhofweg","HouseNumber":"4","PostalCode":"2372","AdditionalData":[{"value":"Österreich","key":"CountryName"},{"value":"Niederösterreich","key":"StateName"},{"value":"Mödling","key":"CountyName"}]},"MapReference":{"ReferenceId":"62726153","Spot":1.0,"SideOfStreet":"right","CountryId":"20128885","StateId":"20130295","CountyId":"20131864","CityId":"20131882","DistrictId":"20131884","AddressId":"213771692","RoadLinkId":"28970300"}}},{"Relevance":1.0,"Distance":74.1,"MatchLevel":"houseNumber","MatchQuality":{"Country":1.0,"State":1.0,"County":1.0,"City":1.0,"District":1.0,"Street":[1.0],"HouseNumber":1.0,"PostalCode":1.0},"MatchType":"interpolated","Location":{"LocationId":"NT_b3JOqo2MnQTrRsejxzh9IB_2ITY","LocationType":"point","DisplayPosition":{"Latitude":48.09777,"Longitude":16.23882},"MapView":{"TopLeft":{"Latitude":48.0988942,"Longitude":16.2371368},"BottomRight":{"Latitude":48.0966458,"Longitude":16.2405032}},"Address":{"Label":"Hauptstraße 62a, 2372 Gießhübl, Österreich","Country":"AUT","State":"Niederösterreich","County":"Mödling","City":"Gießhübl","District":"Gießhübl","Street":"Hauptstraße","HouseNumber":"62a","PostalCode":"2372","AdditionalData":[{"value":"Österreich","key":"CountryName"},{"value":"Niederösterreich","key":"StateName"},{"value":"Mödling","key":"CountyName"}]},"MapReference":{"ReferenceId":"62721769","Spot":0.2,"SideOfStreet":"right","CountryId":"20128885","StateId":"20130295","CountyId":"20131864","CityId":"20131882","DistrictId":"20131884","AddressId":"768322013","RoadLinkId":"27862820"}}},{"Relevance":1.0,"Distance":77.3,"MatchLevel":"houseNumber","MatchQuality":{"Country":1.0,"State":1.0,"County":1.0,"City":1.0,"District":1.0,"Street":[1.0],"HouseNumber":1.0,"PostalCode":1.0},"MatchType":"interpolated","Location":{"LocationId":"NT_zHoX2HMxTF1kF1zwvbsmvA_zUG","LocationType":"point","DisplayPosition":{"Latitude":48.09883,"Longitude":16.24033},"MapView":{"TopLeft":{"Latitude":48.0999542,"Longitude":16.2386468},"BottomRight":{"Latitude":48.0977058,"Longitude":16.2420132}},"Address":{"Label":"Neue Perchtoldsdorfer Straße 3e, 2372 Gießhübl, Österreich","Country":"AUT","State":"Niederösterreich","County":"Mödling","City":"Gießhübl","District":"Gießhübl","Street":"Neue Perchtoldsdorfer Straße","HouseNumber":"3e","PostalCode":"2372","AdditionalData":[{"value":"Österreich","key":"CountryName"},{"value":"Niederösterreich","key":"StateName"},{"value":"Mödling","key":"CountyName"}]},"MapReference":{"ReferenceId":"772171608","Spot":0.45,"SideOfStreet":"left","CountryId":"20128885","StateId":"20130295","CountyId":"20131864","CityId":"20131882","DistrictId":"20131884","AddressId":"177015074","RoadLinkId":"165775865"}}},{"Relevance":1.0,"Distance":100.2,"MatchLevel":"houseNumber","MatchQuality":{"Country":1.0,"State":1.0,"County":1.0,"City":1.0,"District":1.0,"Street":[1.0],"HouseNumber":1.0,"PostalCode":1.0},"MatchType":"interpolated","Location":{"LocationId":"NT_b3JOqo2MnQTrRsejxzh9IB_1YD","LocationType":"point","DisplayPosition":{"Latitude":48.09785,"Longitude":16.23999},"MapView":{"TopLeft":{"Latitude":48.0989742,"Longitude":16.2383068},"BottomRight":{"Latitude":48.0967258,"Longitude":16.2416732}},"Address":{"Label":"Hauptstraße 56, 2372 Gießhübl, Österreich","Country":"AUT","State":"Niederösterreich","County":"Mödling","City":"Gießhübl","District":"Gießhübl","Street":"Hauptstraße","HouseNumber":"56","PostalCode":"2372","AdditionalData":[{"value":"Österreich","key":"CountryName"},{"value":"Niederösterreich","key":"StateName"},{"value":"Mödling","key":"CountyName"}]},"MapReference":{"ReferenceId":"62726128","Spot":0.89,"SideOfStreet":"left","CountryId":"20128885","StateId":"20130295","CountyId":"20131864","CityId":"20131882","DistrictId":"20131884","AddressId":"160701209","RoadLinkId":"28848147"}}},{"Relevance":1.0,"Distance":106.8,"MatchLevel":"houseNumber","MatchQuality":{"Country":1.0,"State":1.0,"County":1.0,"City":1.0,"District":1.0,"Street":[1.0],"HouseNumber":1.0,"PostalCode":1.0},"MatchType":"interpolated","Location":{"LocationId":"NT_b3JOqo2MnQTrRsejxzh9IB_1QD","LocationType":"point","DisplayPosition":{"Latitude":48.09789,"Longitude":16.24014},"MapView":{"TopLeft":{"Latitude":48.0990142,"Longitude":16.2384568},"BottomRight":{"Latitude":48.0967658,"Longitude":16.2418232}},"Address":{"Label":"Hauptstraße 54, 2372 Gießhübl, Österreich","Country":"AUT","State":"Niederösterreich","County":"Mödling","City":"Gießhübl","District":"Gießhübl","Street":"Hauptstraße","HouseNumber":"54","PostalCode":"2372","AdditionalData":[{"value":"Österreich","key":"CountryName"},{"value":"Niederösterreich","key":"StateName"},{"value":"Mödling","key":"CountyName"}]},"MapReference":{"ReferenceId":"62726129","Spot":0.01,"SideOfStreet":"left","CountryId":"20128885","StateId":"20130295","CountyId":"20131864","CityId":"20131882","DistrictId":"20131884","AddressId":"160679952","RoadLinkId":"28728408"}}},{"Relevance":1.0,"Distance":117.2,"MatchLevel":"houseNumber","MatchQuality":{"Country":1.0,"State":1.0,"County":1.0,"City":1.0,"District":1.0,"Street":[1.0],"HouseNumber":1.0,"PostalCode":1.0},"MatchType":"interpolated","Location":{"LocationId":"NT_zHoX2HMxTF1kF1zwvbsmvA_yIG","LocationType":"point","DisplayPosition":{"Latitude":48.09877,"Longitude":16.2409},"MapView":{"TopLeft":{"Latitude":48.0998942,"Longitude":16.2392168},"BottomRight":{"Latitude":48.0976458,"Longitude":16.2425832}},"Address":{"Label":"Neue Perchtoldsdorfer Straße 2b, 2372 Gießhübl, Österreich","Country":"AUT","State":"Niederösterreich","County":"Mödling","City":"Gießhübl","District":"Gießhübl","Street":"Neue Perchtoldsdorfer Straße","HouseNumber":"2b","PostalCode":"2372","AdditionalData":[{"value":"Österreich","key":"CountryName"},{"value":"Niederösterreich","key":"StateName"},{"value":"Mödling","key":"CountyName"}]},"MapReference":{"ReferenceId":"772171607","Spot":0.85,"SideOfStreet":"right","CountryId":"20128885","StateId":"20130295","CountyId":"20131864","CityId":"20131882","DistrictId":"20131884","AddressId":"177015070","RoadLinkId":"165775864"}}},{"Relevance":1.0,"Distance":128.0,"MatchLevel":"houseNumber","MatchQuality":{"Country":1.0,"State":1.0,"County":1.0,"City":1.0,"District":1.0,"Street":[1.0],"HouseNumber":1.0,"PostalCode":1.0},"MatchType":"interpolated","Location":{"LocationId":"NT_b3JOqo2MnQTrRsejxzh9IB_2YD","LocationType":"point","DisplayPosition":{"Latitude":48.09781,"Longitude":16.23827},"MapView":{"TopLeft":{"Latitude":48.0989342,"Longitude":16.2365868},"BottomRight":{"Latitude":48.0966858,"Longitude":16.2399532}},"Address":{"Label":"Hauptstraße 66, 2372 Gießhübl, Österreich","Country":"AUT","State":"Niederösterreich","County":"Mödling","City":"Gießhübl","District":"Gießhübl","Street":"Hauptstraße","HouseNumber":"66","PostalCode":"2372","AdditionalData":[{"value":"Österreich","key":"CountryName"},{"value":"Niederösterreich","key":"StateName"},{"value":"Mödling","key":"CountyName"}]},"MapReference":{"ReferenceId":"62721765","Spot":0.18,"SideOfStreet":"right","CountryId":"20128885","StateId":"20130295","CountyId":"20131864","CityId":"20131882","DistrictId":"20131884","AddressId":"160679389","RoadLinkId":"28374148"}}}]}]}}