{"Response":{"MetaInfo":{"Timestamp":"2020-03-28T11:42:30.448+0000","NextPageInformation":"2"},"View":[{"_type":"SearchResultsViewType","ViewId":0,"Result":[{"Relevance":1.0,"Distance":0.0,"Direction":0.0,"MatchLevel":"district","MatchQuality":{"Country":1.0,"State":1.0,"County":1.0,"City":1.0,"District":1.0,"PostalCode":1.0},"Location":{"LocationId":"NT_US85Trv7dHFTuAUJSO7aSA","LocationType":"point","DisplayPosition":{"Latitude":48.0045947,"Longitude":10.5930229},"MapView":{"TopLeft":{"Latitude":48.02732,"Longitude":10.57845},"BottomRight":{"Latitude":47.99492,"Longitude":10.61066}},"Address":{"Label":"Bad Wörishofen, Bayern, Deutschland","Country":"DEU","State":"Bayern","County":"Unterallgäu","City":"Bad Wörishofen","District":"Bad Wörishofen","PostalCode":"86825","AdditionalData":[{"value":"Deutschland","key":"CountryName"},{"value":"Bayern","key":"StateName"},{"value":"Unterallgäu","key":"CountyName"}]},"MapReference":{"ReferenceId":"542115344","SideOfStreet":"neither","CountryId":"20147700","StateId":"20177250","CountyId":"20186358","CityId":"20186371","DistrictId":"20186373"}}},{"Relevance":1.0,"Distance":15.4,"MatchLevel":"houseNumber","MatchQuality":{"Country":1.0,"State":1.0,"County":1.0,"City":1.0,"District":1.0,"Street":[1.0],"HouseNumber":1.0,"PostalCode":1.0},"MatchType":"interpolated","Location":{"LocationId":"NT_o4HhrevU08Q8kEQSu2MUqC_xED","LocationType":"point","DisplayPosition":{"Latitude":48.00478,"Longitude":10.59277},"MapView":{"TopLeft":{"Latitude":48.0059042,"Longitude":10.5910898},"BottomRight":{"Latitude":48.0036558,"Longitude":10.5944502}},"Address":{"Label":"Kneippstraße 11, 86825 Bad Wörishofen, Deutschland","Country":"DEU","State":"Bayern","County":"Unterallgäu","City":"Bad Wörishofen","District":"Bad Wörishofen","Street":"Kneippstraße","HouseNumber":"11","PostalCode":"86825","AdditionalData":[{"value":"Deutschland","key":"CountryName"},{"value":"Bayern","key":"StateName"},{"value":"Unterallgäu","key":"CountyName"}]},"MapReference":{"ReferenceId":"542115629","Spot":0.88,"SideOfStreet":"right","CountryId":"20147700","StateId":"20177250","CountyId":"20186358","CityId":"20186371","DistrictId":"20186373","AddressId":"184865835","RoadLinkId":"33502066"}}},{"Relevance":1.0,"Distance":24.9,"MatchLevel":"houseNumber","MatchQuality":{"Country":1.0,"State":1.0,"County":1.0,"City":1.0,"District":1.0,"Street":[1.0],"HouseNumber":1.0,"PostalCode":1.0},"MatchType":"interpolated","Location":{"LocationId":"NT_eEA4TprMyH0OGWeCqdYOKC_zITQ","LocationType":"point","DisplayPosition":{"Latitude":48.0043,"Longitude":10.59377},"MapView":{"TopLeft":{"Latitude":48.0054242,"Longitude":10.5920898},"BottomRight":{"Latitude":48.0031758,"Longitude":10.5954502}},"Address":{"Label":"Hauptstraße 32A, 86825 Bad Wörishofen, Deutschland","Country":"DEU","State":"Bayern","County":"Unterallgäu","City":"Bad Wörishofen","District":"Bad Wörishofen","Street":"Hauptstraße","HouseNumber":"32A","PostalCode":"86825","AdditionalData":[{"value":"Deutschland","key":"CountryName"},{"value":"Bayern","key":"StateName"},{"value":"Unterallgäu","key":"CountyName"}]},"MapReference":{"ReferenceId":"542115605","Spot":0.51,"SideOfStreet":"left","CountryId":"20147700","StateId":"20177250","CountyId":"20186358","CityId":"20186371","DistrictId":"20186373","AddressId":"790119280","RoadLinkId":"33552070"}}},{"Relevance":1.0,"Distance":36.1,"MatchLevel":"houseNumber","MatchQuality":{"Country":1.0,"State":1.0,"County":1.0,"City":1.0,"District":1.0,"Street":[1.0],"HouseNumber":1.0,"PostalCode":1.0},"MatchType":"interpolated","Location":{"LocationId":"NT_TLEDabiFBfeP4Yyq4nMlBA_yA","LocationType":"point","DisplayPosition":{"Latitude":48.00476,"Longitude":10.59344},"MapView":{"TopLeft":{"Latitude":48.0058842,"Longitude":10.5917598},"BottomRight":{"Latitude":48.0036358,"Longitude":10.5951202}},"Address":{"Label":"Ludwig-Geromiller-Straße 2, 86825 Bad Wörishofen, Deutschland","Country":"DEU","State":"Bayern","County":"Unterallgäu","City":"Bad Wörishofen","District":"Bad Wörishofen","Street":"Ludwig-Geromiller-Straße","HouseNumber":"2","PostalCode":"86825","AdditionalData":[{"value":"Deutschland","key":"CountryName"},{"value":"Bayern","key":"StateName"},{"value":"Unterallgäu","key":"CountyName"}]},"MapReference":{"ReferenceId":"542115626","Spot":0.46,"SideOfStreet":"right","CountryId":"20147700","StateId":"20177250","CountyId":"20186358","CityId":"20186371","DistrictId":"20186373","AddressId":"184725548","RoadLinkId":"32621046"}}},{"Relevance":1.0,"Distance":38.2,"MatchLevel":"houseNumber","MatchQuality":{"Country":1.0,"State":1.0,"County":1.0,"City":1.0,"District":1.0,"Street":[1.0],"HouseNumber":1.0,"PostalCode":1.0},"MatchType":"interpolated","Location":{"LocationId":"NT_o4HhrevU08Q8kEQSu2MUqC_5A","LocationType":"point","DisplayPosition":{"Latitude":48.00497,"Longitude":10.59287},"MapView":{"TopLeft":{"Latitude":48.0060942,"Longitude":10.5911898},"BottomRight":{"Latitude":48.0038458,"Longitude":10.5945502}},"Address":{"Label":"Kneippstraße 9, 86825 Bad Wörishofen, Deutschland","Country":"DEU","State":"Bayern","County":"Unterallgäu","City":"Bad Wörishofen","District":"Bad Wörishofen","Street":"Kneippstraße","HouseNumber":"9","PostalCode":"86825","AdditionalData":[{"value":"Deutschland","key":"CountryName"},{"value":"Bayern","key":"StateName"},{"value":"Unterallgäu","key":"CountyName"}]},"MapReference":{"ReferenceId":"547333272","Spot":0.08,"SideOfStreet":"right","CountryId":"20147700","StateId":"20177250","CountyId":"20186358","CityId":"20186371","DistrictId":"20186373","AddressId":"184531229","RoadLinkId":"33095141"}}},{"Relevance":1.0,"Distance":52.6,"MatchLevel":"houseNumber","MatchQuality":{"Country":1.0,"State":1.0,"County":1.0,"City":1.0,"District":1.0,"Street":[1.0],"HouseNumber":1.0,"PostalCode":1.0},"MatchType":"interpolated","Location":{"LocationId":"NT_cnO3I7dOVEzc5SpTLPrORB_0A","LocationType":"point","DisplayPosition":{"Latitude":48.00405,"Longitude":10.59272},"MapView":{"TopLeft":{"Latitude":48.0051742,"Longitude":10.5910398},"BottomRight":{"Latitude":48.0029258,"Longitude":10.5944002}},"Address":{"Label":"Schmiedstraße 4, 86825 Bad Wörishofen, Deutschland","Country":"DEU","State":"Bayern","County":"Unterallgäu","City":"Bad Wörishofen","District":"Bad Wörishofen","Street":"Schmiedstraße","HouseNumber":"4","PostalCode":"86825","AdditionalData":[{"value":"Deutschland","key":"CountryName"},{"value":"Bayern","key":"StateName"},{"value":"Unterallgäu","key":"CountyName"}]},"MapReference":{"ReferenceId":"542115627","Spot":0.69,"SideOfStreet":"right","CountryId":"20147700","StateId":"20177250","CountyId":"20186358","CityId":"20186371","DistrictId":"20186373","AddressId":"185969094","RoadLinkId":"32783856"}}},{"Relevance":1.0,"Distance":64.4,"MatchLevel":"houseNumber","MatchQuality":{"Country":1.0,"State":1.0,"County":1.0,"City":1.0,"District":1.0,"Street":[1.0],"HouseNumber":1.0,"PostalCode":1.0},"MatchType":"interpolated","Location":{"LocationId":"NT_eEA4TprMyH0OGWeCqdYOKC_ygD","LocationType":"point","DisplayPosition":{"Latitude":48.00475,"Longitude":10.59402},"MapView":{"TopLeft":{"Latitude":48.0058742,"Longitude":10.5923398},"BottomRight":{"Latitude":48.0036258,"Longitude":10.5957002}},"Address":{"Label":"Hauptstraße 28, 86825 Bad Wörishofen, Deutschland","Country":"DEU","State":"Bayern","County":"Unterallgäu","City":"Bad Wörishofen","District":"Bad Wörishofen","Street":"Hauptstraße","HouseNumber":"28","PostalCode":"86825","AdditionalData":[{"value":"Deutschland","key":"CountryName"},{"value":"Bayern","key":"StateName"},{"value":"Unterallgäu","key":"CountyName"}]},"MapReference":{"ReferenceId":"542115606","Spot":0.06,"SideOfStreet":"left","CountryId":"20147700","StateId":"20177250","CountyId":"20186358","CityId":"20186371","DistrictId":"20186373","AddressId":"186168630","RoadLinkId":"33228702"}}},{"Relevance":1.0,"Distance":85.5,"MatchLevel":"houseNumber","MatchQuality":{"Country":1.0,"State":1.0,"County":1.0,"City":1.0,"District":1.0,"Street":[1.0],"HouseNumber":1.0,"PostalCode":1.0},"MatchType":"interpolated","Location":{"LocationId":"NT_eEA4TprMyH0OGWeCqdYOKC_zYD","LocationType":"point","DisplayPosition":{"Latitude":48.00379,"Longitude":10.59347},"MapView":{"TopLeft":{"Latitude":48.0049142,"Longitude":10.5917899},"BottomRight":{"Latitude":48.0026658,"Longitude":10.5951501}},"Address":{"Label":"Hauptstraße 36, 86825 Bad Wörishofen, Deutschland","Country":"DEU","State":"Bayern","County":"Unterallgäu","City":"Bad Wörishofen","District":"Bad Wörishofen","Street":"Hauptstraße","HouseNumber":"36","PostalCode":"86825","AdditionalData":[{"value":"Deutschland","key":"CountryName"},{"value":"Bayern","key":"StateName"},{"value":"Unterallgäu","key":"CountyName"}]},"MapReference":{"ReferenceId":"542115604","Spot":0.86,"SideOfStreet":"left","CountryId":"20147700","StateId":"20177250","CountyId":"20186358","CityId":"20186371","DistrictId":"20186373","AddressId":"185897706","RoadLinkId":"33113136"}}},{"Relevance":1.0,"Distance":93.2,"MatchLevel":"street","MatchQuality":{"Country":1.0,"State":1.0,"County":1.0,"City":1.0,"District":1.0,"PostalCode":1.0},"Location":{"LocationId":"NT_ZTd.FJV4-tL4YefvXnR7.C_l_1189448815_R","LocationType":"point","DisplayPosition":{"Latitude":48.0047,"Longitude":10.59178},"MapView":{"TopLeft":{"Latitude":48.00483,"Longitude":10.59086},"BottomRight":{"Latitude":48.0047,"Longitude":10.59178}},"Address":{"Label":"86825 Bad Wörishofen, Deutschland","Country":"DEU","State":"Bayern","County":"Unterallgäu","City":"Bad Wörishofen","District":"Bad Wörishofen","PostalCode":"86825","AdditionalData":[{"value":"Deutschland","key":"CountryName"},{"value":"Bayern","key":"StateName"},{"value":"Unterallgäu","key":"CountyName"}]},"MapReference":{"ReferenceId":"1189448815","Spot":0.0,"SideOfStreet":"right","CountryId":"20147700","StateId":"20177250","CountyId":"20186358","CityId":"20186371","DistrictId":"20186373"}}},{"Relevance":1.0,"Distance":97.4,"MatchLevel":"houseNumber","MatchQuality":{"Country":1.0,"State":1.0,"County":1.0,"City":1.0,"District":1.0,"Street":[1.0],"HouseNumber":1.0,"PostalCode":1.0},"MatchType":"interpolated","Location":{"LocationId":"NT_mYNXbXSV9M6C4E92Griq9B_yA","LocationType":"point","DisplayPosition":{"Latitude":48.00422,"Longitude":10.59175},"MapView":{"TopLeft":{"Latitude":48.0053442,"Longitude":10.5900698},"BottomRight":{"Latitude":48.0030958,"Longitude":10.5934302}},"Address":{"Label":"Hans-Holzmann-Straße 2, 86825 Bad Wörishofen, Deutschland","Country":"DEU","State":"Bayern","County":"Unterallgäu","City":"Bad Wörishofen","District":"Bad Wörishofen","Street":"Hans-Holzmann-Straße","HouseNumber":"2","PostalCode":"86825","AdditionalData":[{"value":"Deutschland","key":"CountryName"},{"value":"Bayern","key":"StateName"},{"value":"Unterallgäu","key":"CountyName"}]},"MapReference":{"ReferenceId":"542115642","Spot":0.35,"SideOfStreet":"right","CountryId":"20147700","StateId":"20177250","CountyId":"20186358","CityId":"20186371","DistrictId":"20186373","AddressId":"183415141","RoadLinkId":"33252060"}}}]}]}}