{"Response":{"MetaInfo":{"Timestamp":"2020-03-28T11:11:40.840+0000","NextPageInformation":"2"},"View":[{"_type":"SearchResultsViewType","ViewId":0,"Result":[{"Relevance":1.0,"Distance":0.0,"Direction":0.0,"MatchLevel":"district","MatchQuality":{"Country":1.0,"State":1.0,"County":1.0,"City":1.0,"District":1.0,"PostalCode":1.0},"Location":{"LocationId":"NT_zQa4xRrqOHByJlm8W-9SFC","LocationType":"point","DisplayPosition":{"Latitude":48.0662522,"Longitude":7.3459896},"MapView":{"TopLeft":{"Latitude":48.07368,"Longitude":7.33822},"BottomRight":{"Latitude":48.05872,"Longitude":7.36078}},"Address":{"Label":"Sud, Colmar, Grand Est, France","Country":"FRA","State":"Grand Est","County":"Haut-Rhin","City":"Colmar","District":"Sud","PostalCode":"68000","AdditionalData":[{"value":"France","key":"CountryName"},{"value":"Grand Est","key":"StateName"},{"value":"Haut-Rhin","key":"CountyName"}]},"MapReference":{"ReferenceId":"546506517","SideOfStreet":"neither","CountryId":"20000001","StateId":"20002047","CountyId":"20034358","CityId":"20034544"}}},{"Relevance":1.0,"Distance":14.2,"MatchLevel":"houseNumber","MatchQuality":{"Country":1.0,"State":1.0,"County":1.0,"City":1.0,"District":1.0,"Street":[1.0],"HouseNumber":1.0,"PostalCode":1.0},"MatchType":"interpolated","Location":{"LocationId":"NT_f-tQ7rglrpDwjSni6KuM5B_xQD","LocationType":"point","DisplayPosition":{"Latitude":48.06634,"Longitude":7.34585},"MapView":{"TopLeft":{"Latitude":48.0674642,"Longitude":7.3441678},"BottomRight":{"Latitude":48.0652158,"Longitude":7.3475322}},"Address":{"Label":"14 Rue Charles Sandherr, 68000 Colmar, France","Country":"FRA","State":"Grand Est","County":"Haut-Rhin","City":"Colmar","District":"Sud","Street":"Rue Charles Sandherr","HouseNumber":"14","PostalCode":"68000","AdditionalData":[{"value":"France","key":"CountryName"},{"value":"Grand Est","key":"StateName"},{"value":"Haut-Rhin","key":"CountyName"}]},"MapReference":{"ReferenceId":"546506505","Spot":0.55,"SideOfStreet":"left","CountryId":"20000001","StateId":"20002047","CountyId":"20034358","CityId":"20034544","AddressId":"316384725","RoadLinkId":"44691889"}}},{"Relevance":1.0,"Distance":51.2,"MatchLevel":"houseNumber","MatchQuality":{"Country":1.0,"State":1.0,"County":1.0,"City":1.0,"District":1.0,"Street":[1.0],"HouseNumber":1.0,"PostalCode":1.0},"MatchType":"interpolated","Location":{"LocationId":"NT_.fZfy9m1tIf.rbDSBsbHsA_xED","LocationType":"point","DisplayPosition":{"Latitude":48.06654,"Longitude":7.34513},"MapView":{"TopLeft":{"Latitude":48.0676642,"Longitude":7.3434478},"BottomRight":{"Latitude":48.0654158,"Longitude":7.3468122}},"Address":{"Label":"11 Rue Camille Méquillet, 68000 Colmar, France","Country":"FRA","State":"Grand Est","County":"Haut-Rhin","City":"Colmar","District":"Sud","Street":"Rue Camille Méquillet","HouseNumber":"11","PostalCode":"68000","AdditionalData":[{"value":"France","key":"CountryName"},{"value":"Grand Est","key":"StateName"},{"value":"Haut-Rhin","key":"CountyName"}]},"MapReference":{"ReferenceId":"546506490","Spot":0.04,"SideOfStreet":"right","CountryId":"20000001","StateId":"20002047","CountyId":"20034358","CityId":"20034544","AddressId":"316394986","RoadLinkId":"44410743"}}},{"Relevance":1.0,"Distance":52.7,"MatchLevel":"houseNumber","MatchQuality":{"Country":1.0,"State":1.0,"County":1.0,"City":1.0,"District":1.0,"Street":[1.0],"HouseNumber":1.0,"PostalCode":1.0},"MatchType":"interpolated","Location":{"LocationId":"NT_f-tQ7rglrpDwjSni6KuM5B_xgD","LocationType":"point","DisplayPosition":{"Latitude":48.06616,"Longitude":7.34677},"MapView":{"TopLeft":{"Latitude":48.0672842,"Longitude":7.3450878},"BottomRight":{"Latitude":48.0650358,"Longitude":7.3484522}},"Address":{"Label":"18 Rue Charles Sandherr, 68000 Colmar, France","Country":"FRA","State":"Grand Est","County":"Haut-Rhin","City":"Colmar","District":"Sud","Street":"Rue Charles Sandherr","HouseNumber":"18","PostalCode":"68000","AdditionalData":[{"value":"France","key":"CountryName"},{"value":"Grand Est","key":"StateName"},{"value":"Haut-Rhin","key":"CountyName"}]},"MapReference":{"ReferenceId":"546506518","Spot":1.0,"SideOfStreet":"left","CountryId":"20000001","StateId":"20002047","CountyId":"20034358","CityId":"20034544","AddressId":"316370091","RoadLinkId":"44611349"}}},{"Relevance":1.0,"Distance":53.6,"MatchLevel":"houseNumber","MatchQuality":{"Country":1.0,"State":1.0,"County":1.0,"City":1.0,"District":1.0,"Street":[1.0],"HouseNumber":1.0,"PostalCode":1.0},"MatchType":"interpolated","Location":{"LocationId":"NT_p.W3f19yLyHyaTfyI4.dFB_xYD","LocationType":"point","DisplayPosition":{"Latitude":48.0664,"Longitude":7.34683},"MapView":{"TopLeft":{"Latitude":48.0675242,"Longitude":7.3451478},"BottomRight":{"Latitude":48.0652758,"Longitude":7.3485122}},"Address":{"Label":"16 Rue Jean-Jacques Rousseau, 68000 Colmar, France","Country":"FRA","State":"Grand Est","County":"Haut-Rhin","City":"Colmar","District":"Sud","Street":"Rue Jean-Jacques Rousseau","HouseNumber":"16","PostalCode":"68000","AdditionalData":[{"value":"France","key":"CountryName"},{"value":"Grand Est","key":"StateName"},{"value":"Haut-Rhin","key":"CountyName"}]},"MapReference":{"ReferenceId":"546506504","Spot":1.0,"SideOfStreet":"left","CountryId":"20000001","StateId":"20002047","CountyId":"20034358","CityId":"20034544","AddressId":"316452538","RoadLinkId":"44908594"}}},{"Relevance":1.0,"Distance":61.0,"MatchLevel":"houseNumber","MatchQuality":{"Country":1.0,"State":1.0,"County":1.0,"City":1.0,"District":1.0,"Street":[1.0],"HouseNumber":1.0,"PostalCode":1.0},"MatchType":"interpolated","Location":{"LocationId":"NT_p.W3f19yLyHyaTfyI4.dFB_xQD","LocationType":"point","DisplayPosition":{"Latitude":48.06681,"Longitude":7.34673},"MapView":{"TopLeft":{"Latitude":48.0679342,"Longitude":7.3450478},"BottomRight":{"Latitude":48.0656858,"Longitude":7.3484122}},"Address":{"Label":"14 Rue Jean-Jacques Rousseau, 68000 Colmar, France","Country":"FRA","State":"Grand Est","County":"Haut-Rhin","City":"Colmar","District":"Sud","Street":"Rue Jean-Jacques Rousseau","HouseNumber":"14","PostalCode":"68000","AdditionalData":[{"value":"France","key":"CountryName"},{"value":"Grand Est","key":"StateName"},{"value":"Haut-Rhin","key":"CountyName"}]},"MapReference":{"ReferenceId":"546506497","Spot":0.28,"SideOfStreet":"left","CountryId":"20000001","StateId":"20002047","CountyId":"20034358","CityId":"20034544","AddressId":"749839781","RoadLinkId":"43951086"}}},{"Relevance":1.0,"Distance":67.5,"MatchLevel":"houseNumber","MatchQuality":{"Country":1.0,"State":1.0,"County":1.0,"City":1.0,"District":1.0,"Street":[1.0],"HouseNumber":1.0,"PostalCode":1.0},"MatchType":"interpolated","Location":{"LocationId":"NT_m4FUQIXqQ3GVpvcuCBJbdC_xA","LocationType":"point","DisplayPosition":{"Latitude":48.06614,"Longitude":7.34502},"MapView":{"TopLeft":{"Latitude":48.0672642,"Longitude":7.3433378},"BottomRight":{"Latitude":48.0650158,"Longitude":7.3467022}},"Address":{"Label":"1 Rue du 1er Cuirassiers, 68000 Colmar, France","Country":"FRA","State":"Grand Est","County":"Haut-Rhin","City":"Colmar","District":"Sud","Street":"Rue du 1er Cuirassiers","HouseNumber":"1","PostalCode":"68000","AdditionalData":[{"value":"France","key":"CountryName"},{"value":"Grand Est","key":"StateName"},{"value":"Haut-Rhin","key":"CountyName"}]},"MapReference":{"ReferenceId":"940722185","Spot":0.63,"SideOfStreet":"right","CountryId":"20000001","StateId":"20002047","CountyId":"20034358","CityId":"20034544","AddressId":"316474016","RoadLinkId":"290749526"}}},{"Relevance":1.0,"Distance":78.6,"MatchLevel":"houseNumber","MatchQuality":{"Country":1.0,"State":1.0,"County":1.0,"City":1.0,"District":1.0,"Street":[1.0],"HouseNumber":1.0,"PostalCode":1.0},"MatchType":"interpolated","Location":{"LocationId":"NT_oPFvoprQQcwkF59adc4RAB_l_546506496_L_yAD","LocationType":"point","DisplayPosition":{"Latitude":48.06646,"Longitude":7.3470001},"MapView":{"TopLeft":{"Latitude":48.0675842,"Longitude":7.3453179},"BottomRight":{"Latitude":48.0653359,"Longitude":7.3486822}},"Address":{"Label":"20 Rue Victor Hugo, 68000 Colmar, France","Country":"FRA","State":"Grand Est","County":"Haut-Rhin","City":"Colmar","District":"Sud","Street":"Rue Victor Hugo","HouseNumber":"20","PostalCode":"68000","AdditionalData":[{"value":"France","key":"CountryName"},{"value":"Grand Est","key":"StateName"},{"value":"Haut-Rhin","key":"CountyName"}]},"MapReference":{"ReferenceId":"546506496","Spot":0.09,"SideOfStreet":"left","CountryId":"20000001","StateId":"20002047","CountyId":"20034358","CityId":"20034544"}}},{"Relevance":1.0,"Distance":104.6,"MatchLevel":"houseNumber","MatchQuality":{"Country":1.0,"State":1.0,"County":1.0,"City":1.0,"District":1.0,"Street":[1.0],"HouseNumber":1.0,"PostalCode":1.0},"MatchType":"interpolated","Location":{"LocationId":"NT_f-tQ7rglrpDwjSni6KuM5B_xAD","LocationType":"point","DisplayPosition":{"Latitude":48.06658,"Longitude":7.34467},"MapView":{"TopLeft":{"Latitude":48.0677042,"Longitude":7.3429878},"BottomRight":{"Latitude":48.0654558,"Longitude":7.3463522}},"Address":{"Label":"10 Rue Charles Sandherr, 68000 Colmar, France","Country":"FRA","State":"Grand Est","County":"Haut-Rhin","City":"Colmar","District":"Sud","Street":"Rue Charles Sandherr","HouseNumber":"10","PostalCode":"68000","AdditionalData":[{"value":"France","key":"CountryName"},{"value":"Grand Est","key":"StateName"},{"value":"Haut-Rhin","key":"CountyName"}]},"MapReference":{"ReferenceId":"546506491","Spot":0.22,"SideOfStreet":"left","CountryId":"20000001","StateId":"20002047","CountyId":"20034358","CityId":"20034544","AddressId":"569844037","RoadLinkId":"44620644"}}},{"Relevance":1.0,"Distance":119.3,"MatchLevel":"houseNumber","MatchQuality":{"Country":1.0,"State":1.0,"County":1.0,"City":1.0,"District":1.0,"Street":[1.0],"HouseNumber":1.0,"PostalCode":1.0},"MatchType":"interpolated","Location":{"LocationId":"NT_m4FUQIXqQ3GVpvcuCBJbdC_3A","LocationType":"point","DisplayPosition":{"Latitude":48.06547,"Longitude":7.34486},"MapView":{"TopLeft":{"Latitude":48.0665942,"Longitude":7.3431778},"BottomRight":{"Latitude":48.0643458,"Longitude":7.3465422}},"Address":{"Label":"7 Rue du 1er Cuirassiers, 68000 Colmar, France","Country":"FRA","State":"Grand Est","County":"Haut-Rhin","City":"Colmar","District":"Sud","Street":"Rue du 1er Cuirassiers","HouseNumber":"7","PostalCode":"68000","AdditionalData":[{"value":"France","key":"CountryName"},{"value":"Grand Est","key":"StateName"},{"value":"Haut-Rhin","key":"CountyName"}]},"MapReference":{"ReferenceId":"940722184","Spot":0.85,"SideOfStreet":"right","CountryId":"20000001","StateId":"20002047","CountyId":"20034358","CityId":"20034544","AddressId":"316474018","RoadLinkId":"290749525"}}}]}]}}