{"Response":{"MetaInfo":{"Timestamp":"2020-03-28T10:29:11.522+0000","NextPageInformation":"2"},"View":[{"_type":"SearchResultsViewType","ViewId":0,"Result":[{"Relevance":1.0,"Distance":0.0,"Direction":0.0,"MatchLevel":"city","MatchQuality":{"Country":1.0,"State":1.0,"County":1.0,"City":1.0,"PostalCode":1.0},"Location":{"LocationId":"NT_8Z0ZOJTKy.m2sKL17NMuED","LocationType":"point","DisplayPosition":{"Latitude":48.0013952,"Longitude":-3.5405598},"MapView":{"TopLeft":{"Latitude":48.03467,"Longitude":-3.5903},"BottomRight":{"Latitude":47.97434,"Longitude":-3.47675}},"Address":{"Label":"Lanvénégen, Bretagne, France","Country":"FRA","State":"Bretagne","County":"Morbihan","City":"Lanvénégen","PostalCode":"56320","AdditionalData":[{"value":"France","key":"CountryName"},{"value":"Bretagne","key":"StateName"},{"value":"Morbihan","key":"CountyName"}]},"MapReference":{"ReferenceId":"548973428","SideOfStreet":"neither","CountryId":"20000001","StateId":"20060199","CountyId":"20074367","CityId":"20074682"}}},{"Relevance":1.0,"Distance":12.0,"MatchLevel":"houseNumber","MatchQuality":{"Country":1.0,"State":1.0,"County":1.0,"City":1.0,"Street":[1.0],"HouseNumber":1.0,"PostalCode":1.0},"MatchType":"interpolated","Location":{"LocationId":"NT_bP6xMA2yuGodO0hQLp4YYA_xgjQ","LocationType":"point","DisplayPosition":{"Latitude":48.00138,"Longitude":-3.54072},"MapView":{"TopLeft":{"Latitude":48.0025042,"Longitude":-3.5424001},"BottomRight":{"Latitude":48.0002558,"Longitude":-3.5390399}},"Address":{"Label":"18B Rue Marcel Le Strat, 56320 Lanvénégen, France","Country":"FRA","State":"Bretagne","County":"Morbihan","City":"Lanvénégen","Street":"Rue Marcel Le Strat","HouseNumber":"18B","PostalCode":"56320","AdditionalData":[{"value":"France","key":"CountryName"},{"value":"Bretagne","key":"StateName"},{"value":"Morbihan","key":"CountyName"}]},"MapReference":{"ReferenceId":"548973883","Spot":0.18,"SideOfStreet":"right","CountryId":"20000001","StateId":"20060199","CountyId":"20074367","CityId":"20074682","AddressId":"375442362","RoadLinkId":"47260862"}}},{"Relevance":1.0,"Distance":39.4,"MatchLevel":"houseNumber","MatchQuality":{"Country":1.0,"State":1.0,"County":1.0,"City":1.0,"Street":[1.0],"HouseNumber":1.0,"PostalCode":1.0},"MatchType":"interpolated","Location":{"LocationId":"NT_bP6xMA2yuGodO0hQLp4YYA_xYD","LocationType":"point","DisplayPosition":{"Latitude":48.00106,"Longitude":-3.54078},"MapView":{"TopLeft":{"Latitude":48.0021842,"Longitude":-3.5424601},"BottomRight":{"Latitude":47.9999358,"Longitude":-3.5390999}},"Address":{"Label":"16 Rue Marcel Le Strat, 56320 Lanvénégen, France","Country":"FRA","State":"Bretagne","County":"Morbihan","City":"Lanvénégen","Street":"Rue Marcel Le Strat","HouseNumber":"16","PostalCode":"56320","AdditionalData":[{"value":"France","key":"CountryName"},{"value":"Bretagne","key":"StateName"},{"value":"Morbihan","key":"CountyName"}]},"MapReference":{"ReferenceId":"548973435","Spot":0.98,"SideOfStreet":"right","CountryId":"20000001","StateId":"20060199","CountyId":"20074367","CityId":"20074682","AddressId":"375450914","RoadLinkId":"47052363"}}},{"Relevance":1.0,"Distance":63.1,"MatchLevel":"houseNumber","MatchQuality":{"Country":1.0,"State":1.0,"County":1.0,"City":1.0,"Street":[1.0],"HouseNumber":1.0,"PostalCode":1.0},"MatchType":"interpolated","Location":{"LocationId":"NT_bZh7q3JCr2JIBtFEroENPA_1A","LocationType":"point","DisplayPosition":{"Latitude":48.00091,"Longitude":-3.541},"MapView":{"TopLeft":{"Latitude":48.0020342,"Longitude":-3.54268},"BottomRight":{"Latitude":47.9997858,"Longitude":-3.53932}},"Address":{"Label":"5 Rue de Saint-Urlo, 56320 Lanvénégen, France","Country":"FRA","State":"Bretagne","County":"Morbihan","City":"Lanvénégen","Street":"Rue de Saint-Urlo","HouseNumber":"5","PostalCode":"56320","AdditionalData":[{"value":"France","key":"CountryName"},{"value":"Bretagne","key":"StateName"},{"value":"Morbihan","key":"CountyName"}]},"MapReference":{"ReferenceId":"548973431","Spot":0.64,"SideOfStreet":"left","CountryId":"20000001","StateId":"20060199","CountyId":"20074367","CityId":"20074682","AddressId":"320722207","RoadLinkId":"47817791"}}},{"Relevance":1.0,"Distance":108.4,"MatchLevel":"street","MatchQuality":{"Country":1.0,"State":1.0,"County":1.0,"City":1.0,"Street":[1.0],"PostalCode":1.0},"Location":{"LocationId":"NT_S861XzblMwlKyRbJPYU32A_l_548973432_R","LocationType":"point","DisplayPosition":{"Latitude":48.00058,"Longitude":-3.54136},"MapView":{"TopLeft":{"Latitude":48.00098,"Longitude":-3.54187},"BottomRight":{"Latitude":48.00058,"Longitude":-3.54136}},"Address":{"Label":"Impasse Ber Ar Vorc'h, 56320 Lanvénégen, France","Country":"FRA","State":"Bretagne","County":"Morbihan","City":"Lanvénégen","Street":"Impasse Ber Ar Vorc'h","PostalCode":"56320","AdditionalData":[{"value":"France","key":"CountryName"},{"value":"Bretagne","key":"StateName"},{"value":"Morbihan","key":"CountyName"}]},"MapReference":{"ReferenceId":"548973432","Spot":0.0,"SideOfStreet":"right","CountryId":"20000001","StateId":"20060199","CountyId":"20074367","CityId":"20074682"}}},{"Relevance":1.0,"Distance":113.4,"MatchLevel":"houseNumber","MatchQuality":{"Country":1.0,"State":1.0,"County":1.0,"City":1.0,"Street":[1.0],"HouseNumber":1.0,"PostalCode":1.0},"MatchType":"interpolated","Location":{"LocationId":"NT_bZh7q3JCr2JIBtFEroENPA_xA","LocationType":"point","DisplayPosition":{"Latitude":48.00054,"Longitude":-3.54139},"MapView":{"TopLeft":{"Latitude":48.0016642,"Longitude":-3.54307},"BottomRight":{"Latitude":47.9994158,"Longitude":-3.53971}},"Address":{"Label":"1 Rue de Saint-Urlo, 56320 Lanvénégen, France","Country":"FRA","State":"Bretagne","County":"Morbihan","City":"Lanvénégen","Street":"Rue de Saint-Urlo","HouseNumber":"1","PostalCode":"56320","AdditionalData":[{"value":"France","key":"CountryName"},{"value":"Bretagne","key":"StateName"},{"value":"Morbihan","key":"CountyName"}]},"MapReference":{"ReferenceId":"548973433","Spot":0.67,"SideOfStreet":"left","CountryId":"20000001","StateId":"20060199","CountyId":"20074367","CityId":"20074682","AddressId":"320341251","RoadLinkId":"47815055"}}},{"Relevance":1.0,"Distance":118.4,"MatchLevel":"houseNumber","MatchQuality":{"Country":1.0,"State":1.0,"County":1.0,"City":1.0,"Street":[1.0],"HouseNumber":1.0,"PostalCode":1.0},"MatchType":"interpolated","Location":{"LocationId":"NT_AEqe4opV1KxlyuQQtSH2LD_xIE","LocationType":"point","DisplayPosition":{"Latitude":48.00034,"Longitude":-3.54077},"MapView":{"TopLeft":{"Latitude":48.0014642,"Longitude":-3.54245},"BottomRight":{"Latitude":47.9992158,"Longitude":-3.53909}},"Address":{"Label":"1B Rue du Château d'Eau, 56320 Lanvénégen, France","Country":"FRA","State":"Bretagne","County":"Morbihan","City":"Lanvénégen","Street":"Rue du Château d'Eau","HouseNumber":"1B","PostalCode":"56320","AdditionalData":[{"value":"France","key":"CountryName"},{"value":"Bretagne","key":"StateName"},{"value":"Morbihan","key":"CountyName"}]},"MapReference":{"ReferenceId":"548973434","Spot":0.4,"SideOfStreet":"left","CountryId":"20000001","StateId":"20060199","CountyId":"20074367","CityId":"20074682","AddressId":"570454480","RoadLinkId":"47074763"}}},{"Relevance":1.0,"Distance":140.4,"MatchLevel":"houseNumber","MatchQuality":{"Country":1.0,"State":1.0,"County":1.0,"City":1.0,"Street":[1.0],"HouseNumber":1.0,"PostalCode":1.0},"MatchType":"interpolated","Location":{"LocationId":"NT_bP6xMA2yuGodO0hQLp4YYA_xAD","LocationType":"point","DisplayPosition":{"Latitude":48.00015,"Longitude":-3.54025},"MapView":{"TopLeft":{"Latitude":48.0012742,"Longitude":-3.54193},"BottomRight":{"Latitude":47.9990258,"Longitude":-3.53857}},"Address":{"Label":"10 Rue Marcel Le Strat, 56320 Lanvénégen, France","Country":"FRA","State":"Bretagne","County":"Morbihan","City":"Lanvénégen","Street":"Rue Marcel Le Strat","HouseNumber":"10","PostalCode":"56320","AdditionalData":[{"value":"France","key":"CountryName"},{"value":"Bretagne","key":"StateName"},{"value":"Morbihan","key":"CountyName"}]},"MapReference":{"ReferenceId":"548973436","Spot":0.59,"SideOfStreet":"left","CountryId":"20000001","StateId":"20060199","CountyId":"20074367","CityId":"20074682","AddressId":"375473182","RoadLinkId":"47337840"}}},{"Relevance":1.0,"Distance":149.0,"MatchLevel":"street","MatchQuality":{"Country":1.0,"State":1.0,"County":1.0,"City":1.0,"Street":[1.0],"PostalCode":1.0},"Location":{"LocationId":"NT_bP6xMA2yuGodO0hQLp4YYA_l_548973885_R","LocationType":"point","DisplayPosition":{"Latitude":48.00272,"Longitude":-3.54086},"MapView":{"TopLeft":{"Latitude":48.00272,"Longitude":-3.54179},"BottomRight":{"Latitude":48.0027,"Longitude":-3.54086}},"Address":{"Label":"Rue Marcel Le Strat, 56320 Lanvénégen, France","Country":"FRA","State":"Bretagne","County":"Morbihan","City":"Lanvénégen","Street":"Rue Marcel Le Strat","PostalCode":"56320","AdditionalData":[{"value":"France","key":"CountryName"},{"value":"Bretagne","key":"StateName"},{"value":"Morbihan","key":"CountyName"}]},"MapReference":{"ReferenceId":"548973885","Spot":1.0,"SideOfStreet":"right","CountryId":"20000001","StateId":"20060199","CountyId":"20074367","CityId":"20074682"}}},{"Relevance":1.0,"Distance":162.6,"MatchLevel":"houseNumber","MatchQuality":{"Country":1.0,"State":1.0,"County":1.0,"City":1.0,"Street":[1.0],"HouseNumber":1.0,"PostalCode":1.0},"MatchType":"interpolated","Location":{"LocationId":"NT_bZh7q3JCr2JIBtFEroENPA_0A","LocationType":"point","DisplayPosition":{"Latitude":48.00014,"Longitude":-3.54168},"MapView":{"TopLeft":{"Latitude":48.0012642,"Longitude":-3.54336},"BottomRight":{"Latitude":47.9990158,"Longitude":-3.54}},"Address":{"Label":"4 Rue de Saint-Urlo, 56320 Lanvénégen, France","Country":"FRA","State":"Bretagne","County":"Morbihan","City":"Lanvénégen","Street":"Rue de Saint-Urlo","HouseNumber":"4","PostalCode":"56320","AdditionalData":[{"value":"France","key":"CountryName"},{"value":"Bretagne","key":"StateName"},{"value":"Morbihan","key":"CountyName"}]},"MapReference":{"ReferenceId":"548973426","Spot":0.67,"SideOfStreet":"right","CountryId":"20000001","StateId":"20060199","CountyId":"20074367","CityId":"20074682","AddressId":"320642178","RoadLinkId":"46711817"}}}]}]}}