{"Response":{"MetaInfo":{"Timestamp":"2020-03-28T11:14:14.929+0000","NextPageInformation":"2"},"View":[{"_type":"SearchResultsViewType","ViewId":0,"Result":[{"Relevance":1.0,"Distance":0.0,"Direction":0.0,"MatchLevel":"city","MatchQuality":{"Country":1.0,"State":1.0,"County":1.0,"City":1.0,"PostalCode":1.0},"Location":{"LocationId":"NT_YdiOq9VS3tHpnjebkrymbA","LocationType":"point","DisplayPosition":{"Latitude":48.0968782,"Longitude":-0.7782552},"MapView":{"TopLeft":{"Latitude":48.14257,"Longitude":-0.86929},"BottomRight":{"Latitude":48.0836,"Longitude":-0.72264}},"Address":{"Label":"Changé, Pays de la Loire, France","Country":"FRA","State":"Pays de la Loire","County":"Mayenne","City":"Changé","PostalCode":"53810","AdditionalData":[{"value":"France","key":"CountryName"},{"value":"Pays de la Loire","key":"StateName"},{"value":"Mayenne","key":"CountyName"}]},"MapReference":{"ReferenceId":"568002591","SideOfStreet":"neither","CountryId":"20000001","StateId":"20068992","CountyId":"20073581","CityId":"20073734"}}},{"Relevance":1.0,"Distance":44.4,"MatchLevel":"street","MatchQuality":{"Country":1.0,"State":1.0,"County":1.0,"City":1.0,"Street":[1.0],"PostalCode":1.0},"Location":{"LocationId":"NT_TyMqgiWoRJVu2de-NK0Z2B_l_765273619_R","LocationType":"point","DisplayPosition":{"Latitude":48.0964829,"Longitude":-0.7783343},"MapView":{"TopLeft":{"Latitude":48.09663,"Longitude":-0.77889},"BottomRight":{"Latitude":48.09625,"Longitude":-0.7777}},"Address":{"Label":"Rue Esculape, 53810 Changé, France","Country":"FRA","State":"Pays de la Loire","County":"Mayenne","City":"Changé","Street":"Rue Esculape","PostalCode":"53810","AdditionalData":[{"value":"France","key":"CountryName"},{"value":"Pays de la Loire","key":"StateName"},{"value":"Mayenne","key":"CountyName"}]},"MapReference":{"ReferenceId":"765273619","Spot":0.54,"SideOfStreet":"right","CountryId":"20000001","StateId":"20068992","CountyId":"20073581","CityId":"20073734"}}},{"Relevance":1.0,"Distance":54.6,"MatchLevel":"street","MatchQuality":{"Country":1.0,"State":1.0,"County":1.0,"City":1.0,"Street":[1.0],"PostalCode":1.0},"Location":{"LocationId":"NT_TyMqgiWoRJVu2de-NK0Z2B_l_568004372_R","LocationType":"point","DisplayPosition":{"Latitude":48.09663,"Longitude":-0.77889},"MapView":{"TopLeft":{"Latitude":48.09685,"Longitude":-0.77929},"BottomRight":{"Latitude":48.09663,"Longitude":-0.77889}},"Address":{"Label":"Rue Esculape, 53810 Changé, France","Country":"FRA","State":"Pays de la Loire","County":"Mayenne","City":"Changé","Street":"Rue Esculape","PostalCode":"53810","AdditionalData":[{"value":"France","key":"CountryName"},{"value":"Pays de la Loire","key":"StateName"},{"value":"Mayenne","key":"CountyName"}]},"MapReference":{"ReferenceId":"568004372","Spot":0.0,"SideOfStreet":"right","CountryId":"20000001","StateId":"20068992","CountyId":"20073581","CityId":"20073734"}}},{"Relevance":1.0,"Distance":59.3,"MatchLevel":"houseNumber","MatchQuality":{"Country":1.0,"State":1.0,"County":1.0,"City":1.0,"Street":[1.0],"HouseNumber":1.0,"PostalCode":1.0},"MatchType":"interpolated","Location":{"LocationId":"NT_X0hImpQ7FjNV7OApHGidAD_zA","LocationType":"point","DisplayPosition":{"Latitude":48.09741,"Longitude":-0.7782},"MapView":{"TopLeft":{"Latitude":48.0985342,"Longitude":-0.7798832},"BottomRight":{"Latitude":48.0962858,"Longitude":-0.7765168}},"Address":{"Label":"3 Rue des Rouliers, 53810 Changé, France","Country":"FRA","State":"Pays de la Loire","County":"Mayenne","City":"Changé","Street":"Rue des Rouliers","HouseNumber":"3","PostalCode":"53810","AdditionalData":[{"value":"France","key":"CountryName"},{"value":"Pays de la Loire","key":"StateName"},{"value":"Mayenne","key":"CountyName"}]},"MapReference":{"ReferenceId":"568001418","Spot":0.59,"SideOfStreet":"left","CountryId":"20000001","StateId":"20068992","CountyId":"20073581","CityId":"20073734","AddressId":"323924750","RoadLinkId":"47931133"}}},{"Relevance":1.0,"Distance":70.5,"MatchLevel":"houseNumber","MatchQuality":{"Country":1.0,"State":1.0,"County":1.0,"City":1.0,"Street":[1.0],"HouseNumber":1.0,"PostalCode":1.0},"MatchType":"interpolated","Location":{"LocationId":"NT_HGB0w6Myku55JPGgrRc1VA_xA","LocationType":"point","DisplayPosition":{"Latitude":48.09635,"Longitude":-0.77883},"MapView":{"TopLeft":{"Latitude":48.0974742,"Longitude":-0.7805132},"BottomRight":{"Latitude":48.0952258,"Longitude":-0.7771468}},"Address":{"Label":"1 Domaine de la Petite Lande, 53810 Changé, France","Country":"FRA","State":"Pays de la Loire","County":"Mayenne","City":"Changé","Street":"Domaine de la Petite Lande","HouseNumber":"1","PostalCode":"53810","AdditionalData":[{"value":"France","key":"CountryName"},{"value":"Pays de la Loire","key":"StateName"},{"value":"Mayenne","key":"CountyName"}]},"MapReference":{"ReferenceId":"568004373","Spot":0.58,"SideOfStreet":"right","CountryId":"20000001","StateId":"20068992","CountyId":"20073581","CityId":"20073734","AddressId":"572820277","RoadLinkId":"47734649"}}},{"Relevance":1.0,"Distance":76.9,"MatchLevel":"street","MatchQuality":{"Country":1.0,"State":1.0,"County":1.0,"City":1.0,"Street":[1.0],"PostalCode":1.0},"Location":{"LocationId":"NT_TyMqgiWoRJVu2de-NK0Z2B_l_568001404_R","LocationType":"point","DisplayPosition":{"Latitude":48.09685,"Longitude":-0.77929},"MapView":{"TopLeft":{"Latitude":48.09723,"Longitude":-0.77963},"BottomRight":{"Latitude":48.09685,"Longitude":-0.77929}},"Address":{"Label":"Rue Esculape, 53810 Changé, France","Country":"FRA","State":"Pays de la Loire","County":"Mayenne","City":"Changé","Street":"Rue Esculape","PostalCode":"53810","AdditionalData":[{"value":"France","key":"CountryName"},{"value":"Pays de la Loire","key":"StateName"},{"value":"Mayenne","key":"CountyName"}]},"MapReference":{"ReferenceId":"568001404","Spot":0.0,"SideOfStreet":"right","CountryId":"20000001","StateId":"20068992","CountyId":"20073581","CityId":"20073734"}}},{"Relevance":1.0,"Distance":81.1,"MatchLevel":"street","MatchQuality":{"Country":1.0,"State":1.0,"County":1.0,"City":1.0,"Street":[1.0],"PostalCode":1.0},"Location":{"LocationId":"NT_TyMqgiWoRJVu2de-NK0Z2B_l_765273618_R","LocationType":"point","DisplayPosition":{"Latitude":48.09625,"Longitude":-0.7777},"MapView":{"TopLeft":{"Latitude":48.09625,"Longitude":-0.7777},"BottomRight":{"Latitude":48.0961,"Longitude":-0.77742}},"Address":{"Label":"Rue Esculape, 53810 Changé, France","Country":"FRA","State":"Pays de la Loire","County":"Mayenne","City":"Changé","Street":"Rue Esculape","PostalCode":"53810","AdditionalData":[{"value":"France","key":"CountryName"},{"value":"Pays de la Loire","key":"StateName"},{"value":"Mayenne","key":"CountyName"}]},"MapReference":{"ReferenceId":"765273618","Spot":1.0,"SideOfStreet":"right","CountryId":"20000001","StateId":"20068992","CountyId":"20073581","CityId":"20073734"}}},{"Relevance":1.0,"Distance":81.7,"MatchLevel":"houseNumber","MatchQuality":{"Country":1.0,"State":1.0,"County":1.0,"City":1.0,"Street":[1.0],"HouseNumber":1.0,"PostalCode":1.0},"MatchType":"interpolated","Location":{"LocationId":"NT_35t4KDb0kksyF1xM-chgQB_0A","LocationType":"point","DisplayPosition":{"Latitude":48.09676,"Longitude":-0.77717},"MapView":{"TopLeft":{"Latitude":48.0978842,"Longitude":-0.7788532},"BottomRight":{"Latitude":48.0956358,"Longitude":-0.7754868}},"Address":{"Label":"4 Boulevard des Manouvriers, 53810 Changé, France","Country":"FRA","State":"Pays de la Loire","County":"Mayenne","City":"Changé","Street":"Boulevard des Manouvriers","HouseNumber":"4","PostalCode":"53810","AdditionalData":[{"value":"France","key":"CountryName"},{"value":"Pays de la Loire","key":"StateName"},{"value":"Mayenne","key":"CountyName"}]},"MapReference":{"ReferenceId":"1004748994","Spot":0.16,"SideOfStreet":"right","CountryId":"20000001","StateId":"20068992","CountyId":"20073581","CityId":"20073734","AddressId":"323339693","RoadLinkId":"330607813"}}},{"Relevance":1.0,"Distance":83.3,"MatchLevel":"street","MatchQuality":{"Country":1.0,"State":1.0,"County":1.0,"City":1.0,"Street":[1.0],"PostalCode":1.0},"Location":{"LocationId":"NT_35t4KDb0kksyF1xM-chgQB_l_1004748995_L","LocationType":"point","DisplayPosition":{"Latitude":48.09669,"Longitude":-0.77717},"MapView":{"TopLeft":{"Latitude":48.09669,"Longitude":-0.77717},"BottomRight":{"Latitude":48.09655,"Longitude":-0.77717}},"Address":{"Label":"Boulevard des Manouvriers, 53810 Changé, France","Country":"FRA","State":"Pays de la Loire","County":"Mayenne","City":"Changé","Street":"Boulevard des Manouvriers","PostalCode":"53810","AdditionalData":[{"value":"France","key":"CountryName"},{"value":"Pays de la Loire","key":"StateName"},{"value":"Mayenne","key":"CountyName"}]},"MapReference":{"ReferenceId":"1004748995","Spot":1.0,"SideOfStreet":"left","CountryId":"20000001","StateId":"20068992","CountyId":"20073581","CityId":"20073734"}}},{"Relevance":1.0,"Distance":83.3,"MatchLevel":"street","MatchQuality":{"Country":1.0,"State":1.0,"County":1.0,"City":1.0,"PostalCode":1.0},"Location":{"LocationId":"NT_1ce2XA.2TCxE7c7Tj8I9JA_l_1005279028_L","LocationType":"point","DisplayPosition":{"Latitude":48.09669,"Longitude":-0.77717},"MapView":{"TopLeft":{"Latitude":48.09678,"Longitude":-0.77717},"BottomRight":{"Latitude":48.09669,"Longitude":-0.77695}},"Address":{"Label":"53810 Changé, France","Country":"FRA","State":"Pays de la Loire","County":"Mayenne","City":"Changé","PostalCode":"53810","AdditionalData":[{"value":"France","key":"CountryName"},{"value":"Pays de la Loire","key":"StateName"},{"value":"Mayenne","key":"CountyName"}]},"MapReference":{"ReferenceId":"1005279028","Spot":0.0,"SideOfStreet":"left","CountryId":"20000001","StateId":"20068992","CountyId":"20073581","CityId":"20073734"}}}]}]}}