{"Response":{"MetaInfo":{"Timestamp":"2020-03-28T10:19:23.045+0000","NextPageInformation":"2"},"View":[{"_type":"SearchResultsViewType","ViewId":0,"Result":[{"Relevance":1.0,"Distance":0.0,"Direction":0.0,"MatchLevel":"district","MatchQuality":{"Country":1.0,"State":1.0,"County":1.0,"City":1.0,"District":1.0,"PostalCode":1.0},"Location":{"LocationId":"NT_3zhT-1NU5XrJ75wsV0nNLC","LocationType":"point","DisplayPosition":{"Latitude":48.0062094,"Longitude":7.8599645},"MapView":{"TopLeft":{"Latitude":48.02149,"Longitude":7.84831},"BottomRight":{"Latitude":48.00098,"Longitude":7.88191}},"Address":{"Label":"Herdern, Freiburg im Breisgau, Baden-Württemberg, Deutschland","Country":"DEU","State":"Baden-Württemberg","County":"Freiburg im Breisgau","City":"Freiburg im Breisgau","District":"Herdern","PostalCode":"79104","AdditionalData":[{"value":"Deutschland","key":"CountryName"},{"value":"Baden-Württemberg","key":"StateName"},{"value":"Freiburg im Breisgau","key":"CountyName"}]},"MapReference":{"ReferenceId":"53174762","SideOfStreet":"neither","CountryId":"20147700","StateId":"20171489","CountyId":"20174375","CityId":"20174376","DistrictId":"20460654"}}},{"Relevance":1.0,"Distance":8.4,"MatchLevel":"houseNumber","MatchQuality":{"Country":1.0,"State":1.0,"County":1.0,"City":1.0,"District":1.0,"Street":[1.0],"HouseNumber":1.0,"PostalCode":1.0},"MatchType":"interpolated","Location":{"LocationId":"NT_O9wSCfOvtBpzmLBzlAaoiD_yMD","LocationType":"point","DisplayPosition":{"Latitude":48.00616,"Longitude":7.86022},"MapView":{"TopLeft":{"Latitude":48.0072842,"Longitude":7.8585398},"BottomRight":{"Latitude":48.0050358,"Longitude":7.8619002}},"Address":{"Label":"Burgunder Straße 23, 79104 Freiburg im Breisgau, Deutschland","Country":"DEU","State":"Baden-Württemberg","County":"Freiburg im Breisgau","City":"Freiburg im Breisgau","District":"Herdern","Street":"Burgunder Straße","HouseNumber":"23","PostalCode":"79104","AdditionalData":[{"value":"Deutschland","key":"CountryName"},{"value":"Baden-Württemberg","key":"StateName"},{"value":"Freiburg im Breisgau","key":"CountyName"}]},"MapReference":{"ReferenceId":"704454904","Spot":0.57,"SideOfStreet":"left","CountryId":"20147700","StateId":"20171489","CountyId":"20174375","CityId":"20174376","DistrictId":"20460654","AddressId":"178983085","RoadLinkId":"105848023"}}},{"Relevance":1.0,"Distance":20.4,"MatchLevel":"houseNumber","MatchQuality":{"Country":1.0,"State":1.0,"County":1.0,"City":1.0,"District":1.0,"Street":[1.0],"HouseNumber":1.0,"PostalCode":1.0},"MatchType":"interpolated","Location":{"LocationId":"NT_z.x-vfooExeYaNFE178jMA_xMD","LocationType":"point","DisplayPosition":{"Latitude":48.00622,"Longitude":7.85944},"MapView":{"TopLeft":{"Latitude":48.0073442,"Longitude":7.8577598},"BottomRight":{"Latitude":48.0050958,"Longitude":7.8611202}},"Address":{"Label":"Lerchenstraße 13, 79104 Freiburg im Breisgau, Deutschland","Country":"DEU","State":"Baden-Württemberg","County":"Freiburg im Breisgau","City":"Freiburg im Breisgau","District":"Herdern","Street":"Lerchenstraße","HouseNumber":"13","PostalCode":"79104","AdditionalData":[{"value":"Deutschland","key":"CountryName"},{"value":"Baden-Württemberg","key":"StateName"},{"value":"Freiburg im Breisgau","key":"CountyName"}]},"MapReference":{"ReferenceId":"53174618","Spot":0.14,"SideOfStreet":"right","CountryId":"20147700","StateId":"20171489","CountyId":"20174375","CityId":"20174376","DistrictId":"20460654","AddressId":"177371372","RoadLinkId":"38407101"}}},{"Relevance":1.0,"Distance":26.9,"MatchLevel":"houseNumber","MatchQuality":{"Country":1.0,"State":1.0,"County":1.0,"City":1.0,"District":1.0,"Street":[1.0],"HouseNumber":1.0,"PostalCode":1.0},"MatchType":"interpolated","Location":{"LocationId":"NT_O9wSCfOvtBpzmLBzlAaoiD_ygD","LocationType":"point","DisplayPosition":{"Latitude":48.00602,"Longitude":7.85974},"MapView":{"TopLeft":{"Latitude":48.0071442,"Longitude":7.8580598},"BottomRight":{"Latitude":48.0048958,"Longitude":7.8614202}},"Address":{"Label":"Burgunder Straße 28, 79104 Freiburg im Breisgau, Deutschland","Country":"DEU","State":"Baden-Württemberg","County":"Freiburg im Breisgau","City":"Freiburg im Breisgau","District":"Herdern","Street":"Burgunder Straße","HouseNumber":"28","PostalCode":"79104","AdditionalData":[{"value":"Deutschland","key":"CountryName"},{"value":"Baden-Württemberg","key":"StateName"},{"value":"Freiburg im Breisgau","key":"CountyName"}]},"MapReference":{"ReferenceId":"704454903","Spot":0.58,"SideOfStreet":"left","CountryId":"20147700","StateId":"20171489","CountyId":"20174375","CityId":"20174376","DistrictId":"20460654","AddressId":"208807362","RoadLinkId":"105848022"}}},{"Relevance":1.0,"Distance":36.2,"MatchLevel":"houseNumber","MatchQuality":{"Country":1.0,"State":1.0,"County":1.0,"City":1.0,"District":1.0,"Street":[1.0],"HouseNumber":1.0,"PostalCode":1.0},"MatchType":"interpolated","Location":{"LocationId":"NT_O9wSCfOvtBpzmLBzlAaoiD_ykD","LocationType":"point","DisplayPosition":{"Latitude":48.00599,"Longitude":7.86043},"MapView":{"TopLeft":{"Latitude":48.0071142,"Longitude":7.8587498},"BottomRight":{"Latitude":48.0048658,"Longitude":7.8621102}},"Address":{"Label":"Burgunder Straße 29, 79104 Freiburg im Breisgau, Deutschland","Country":"DEU","State":"Baden-Württemberg","County":"Freiburg im Breisgau","City":"Freiburg im Breisgau","District":"Herdern","Street":"Burgunder Straße","HouseNumber":"29","PostalCode":"79104","AdditionalData":[{"value":"Deutschland","key":"CountryName"},{"value":"Baden-Württemberg","key":"StateName"},{"value":"Freiburg im Breisgau","key":"CountyName"}]},"MapReference":{"ReferenceId":"704454902","Spot":0.7,"SideOfStreet":"right","CountryId":"20147700","StateId":"20171489","CountyId":"20174375","CityId":"20174376","DistrictId":"20460654","AddressId":"208739182","RoadLinkId":"105848021"}}},{"Relevance":1.0,"Distance":63.5,"MatchLevel":"houseNumber","MatchQuality":{"Country":1.0,"State":1.0,"County":1.0,"City":1.0,"District":1.0,"Street":[1.0],"HouseNumber":1.0,"PostalCode":1.0},"MatchType":"interpolated","Location":{"LocationId":"NT_z.x-vfooExeYaNFE178jMA_5A","LocationType":"point","DisplayPosition":{"Latitude":48.00572,"Longitude":7.85935},"MapView":{"TopLeft":{"Latitude":48.0068442,"Longitude":7.8576698},"BottomRight":{"Latitude":48.0045958,"Longitude":7.8610302}},"Address":{"Label":"Lerchenstraße 9, 79104 Freiburg im Breisgau, Deutschland","Country":"DEU","State":"Baden-Württemberg","County":"Freiburg im Breisgau","City":"Freiburg im Breisgau","District":"Herdern","Street":"Lerchenstraße","HouseNumber":"9","PostalCode":"79104","AdditionalData":[{"value":"Deutschland","key":"CountryName"},{"value":"Baden-Württemberg","key":"StateName"},{"value":"Freiburg im Breisgau","key":"CountyName"}]},"MapReference":{"ReferenceId":"53174619","Spot":0.73,"SideOfStreet":"right","CountryId":"20147700","StateId":"20171489","CountyId":"20174375","CityId":"20174376","DistrictId":"20460654","AddressId":"179160993","RoadLinkId":"38449089"}}},{"Relevance":1.0,"Distance":66.3,"MatchLevel":"houseNumber","MatchQuality":{"Country":1.0,"State":1.0,"County":1.0,"City":1.0,"District":1.0,"Street":[1.0],"HouseNumber":1.0,"PostalCode":1.0},"MatchType":"interpolated","Location":{"LocationId":"NT_32ABQFCSx6ElfDL.Gh91NC_xID","LocationType":"point","DisplayPosition":{"Latitude":48.00611,"Longitude":7.86101},"MapView":{"TopLeft":{"Latitude":48.0072342,"Longitude":7.8593298},"BottomRight":{"Latitude":48.0049858,"Longitude":7.8626902}},"Address":{"Label":"Schlüsselstraße 12, 79104 Freiburg im Breisgau, Deutschland","Country":"DEU","State":"Baden-Württemberg","County":"Freiburg im Breisgau","City":"Freiburg im Breisgau","District":"Herdern","Street":"Schlüsselstraße","HouseNumber":"12","PostalCode":"79104","AdditionalData":[{"value":"Deutschland","key":"CountryName"},{"value":"Baden-Württemberg","key":"StateName"},{"value":"Freiburg im Breisgau","key":"CountyName"}]},"MapReference":{"ReferenceId":"53174624","Spot":0.13,"SideOfStreet":"left","CountryId":"20147700","StateId":"20171489","CountyId":"20174375","CityId":"20174376","DistrictId":"20460654","AddressId":"177512157","RoadLinkId":"38912675"}}},{"Relevance":1.0,"Distance":68.1,"MatchLevel":"houseNumber","MatchQuality":{"Country":1.0,"State":1.0,"County":1.0,"City":1.0,"District":1.0,"Street":[1.0],"HouseNumber":1.0,"PostalCode":1.0},"MatchType":"interpolated","Location":{"LocationId":"NT_O9wSCfOvtBpzmLBzlAaoiD_yED","LocationType":"point","DisplayPosition":{"Latitude":48.00605,"Longitude":7.85904},"MapView":{"TopLeft":{"Latitude":48.0071742,"Longitude":7.8573598},"BottomRight":{"Latitude":48.0049258,"Longitude":7.8607202}},"Address":{"Label":"Burgunder Straße 21, 79104 Freiburg im Breisgau, Deutschland","Country":"DEU","State":"Baden-Württemberg","County":"Freiburg im Breisgau","City":"Freiburg im Breisgau","District":"Herdern","Street":"Burgunder Straße","HouseNumber":"21","PostalCode":"79104","AdditionalData":[{"value":"Deutschland","key":"CountryName"},{"value":"Baden-Württemberg","key":"StateName"},{"value":"Freiburg im Breisgau","key":"CountyName"}]},"MapReference":{"ReferenceId":"53174629","Spot":0.17,"SideOfStreet":"right","CountryId":"20147700","StateId":"20171489","CountyId":"20174375","CityId":"20174376","DistrictId":"20460654","AddressId":"178761884","RoadLinkId":"38807550"}}},{"Relevance":1.0,"Distance":82.7,"MatchLevel":"houseNumber","MatchQuality":{"Country":1.0,"State":1.0,"County":1.0,"City":1.0,"District":1.0,"Street":[1.0],"HouseNumber":1.0,"PostalCode":1.0},"MatchType":"interpolated","Location":{"LocationId":"NT_32ABQFCSx6ElfDL.Gh91NC_4A","LocationType":"point","DisplayPosition":{"Latitude":48.00562,"Longitude":7.86084},"MapView":{"TopLeft":{"Latitude":48.0067442,"Longitude":7.8591598},"BottomRight":{"Latitude":48.0044958,"Longitude":7.8625202}},"Address":{"Label":"Schlüsselstraße 8, 79104 Freiburg im Breisgau, Deutschland","Country":"DEU","State":"Baden-Württemberg","County":"Freiburg im Breisgau","City":"Freiburg im Breisgau","District":"Herdern","Street":"Schlüsselstraße","HouseNumber":"8","PostalCode":"79104","AdditionalData":[{"value":"Deutschland","key":"CountryName"},{"value":"Baden-Württemberg","key":"StateName"},{"value":"Freiburg im Breisgau","key":"CountyName"}]},"MapReference":{"ReferenceId":"53174623","Spot":0.69,"SideOfStreet":"left","CountryId":"20147700","StateId":"20171489","CountyId":"20174375","CityId":"20174376","DistrictId":"20460654","AddressId":"178269118","RoadLinkId":"38730988"}}},{"Relevance":1.0,"Distance":100.3,"MatchLevel":"houseNumber","MatchQuality":{"Country":1.0,"State":1.0,"County":1.0,"City":1.0,"District":1.0,"Street":[1.0],"HouseNumber":1.0,"PostalCode":1.0},"MatchType":"interpolated","Location":{"LocationId":"NT_rLfJ9lQZMeYE.TmQOOI7JB_zAD","LocationType":"point","DisplayPosition":{"Latitude":48.00729,"Longitude":7.86027},"MapView":{"TopLeft":{"Latitude":48.0084142,"Longitude":7.8585897},"BottomRight":{"Latitude":48.0061658,"Longitude":7.8619503}},"Address":{"Label":"Hauptstraße 30, 79104 Freiburg im Breisgau, Deutschland","Country":"DEU","State":"Baden-Württemberg","County":"Freiburg im Breisgau","City":"Freiburg im Breisgau","District":"Herdern","Street":"Hauptstraße","HouseNumber":"30","PostalCode":"79104","AdditionalData":[{"value":"Deutschland","key":"CountryName"},{"value":"Baden-Württemberg","key":"StateName"},{"value":"Freiburg im Breisgau","key":"CountyName"}]},"MapReference":{"ReferenceId":"53174616","Spot":0.65,"SideOfStreet":"left","CountryId":"20147700","StateId":"20171489","CountyId":"20174375","CityId":"20174376","DistrictId":"20460654","AddressId":"179886458","RoadLinkId":"38925787"}}}]}]}}