{"Response":{"MetaInfo":{"Timestamp":"2020-03-28T11:37:17.008+0000","NextPageInformation":"2"},"View":[{"_type":"SearchResultsViewType","ViewId":0,"Result":[{"Relevance":1.0,"Distance":0.0,"Direction":0.0,"MatchLevel":"district","MatchQuality":{"Country":1.0,"State":1.0,"County":1.0,"City":1.0,"District":1.0,"PostalCode":1.0},"Location":{"LocationId":"NT_YbyKTXz0ywATmu1D3BJDCC","LocationType":"point","DisplayPosition":{"Latitude":48.007617,"Longitude":16.2703517},"MapView":{"TopLeft":{"Latitude":48.00827,"Longitude":16.25746},"BottomRight":{"Latitude":47.99578,"Longitude":16.27735}},"Address":{"Label":"Tribuswinkel, Traiskirchen, Niederösterreich, Österreich","Country":"AUT","State":"Niederösterreich","County":"Baden","City":"Traiskirchen","District":"Tribuswinkel","PostalCode":"2512","AdditionalData":[{"value":"Österreich","key":"CountryName"},{"value":"Niederösterreich","key":"StateName"},{"value":"Baden","key":"CountyName"}]},"MapReference":{"ReferenceId":"65829414","SideOfStreet":"neither","CountryId":"20128885","StateId":"20130295","CountyId":"20130462","CityId":"20130565","DistrictId":"20227066"}}},{"Relevance":1.0,"Distance":19.0,"MatchLevel":"houseNumber","MatchQuality":{"Country":1.0,"State":1.0,"County":1.0,"City":1.0,"District":1.0,"Street":[1.0],"HouseNumber":1.0,"PostalCode":1.0},"MatchType":"interpolated","Location":{"LocationId":"NT_R2p7GVqHQUgcBli0GfNwWB_xED","LocationType":"point","DisplayPosition":{"Latitude":48.00754,"Longitude":16.27058},"MapView":{"TopLeft":{"Latitude":48.0086642,"Longitude":16.2688997},"BottomRight":{"Latitude":48.0064158,"Longitude":16.2722603}},"Address":{"Label":"Bahnzeile 11, 2512 Traiskirchen, Österreich","Country":"AUT","State":"Niederösterreich","County":"Baden","City":"Traiskirchen","District":"Tribuswinkel","Street":"Bahnzeile","HouseNumber":"11","PostalCode":"2512","AdditionalData":[{"value":"Österreich","key":"CountryName"},{"value":"Niederösterreich","key":"StateName"},{"value":"Baden","key":"CountyName"}]},"MapReference":{"ReferenceId":"60342430","Spot":0.19,"SideOfStreet":"right","CountryId":"20128885","StateId":"20130295","CountyId":"20130462","CityId":"20130565","DistrictId":"20227066","AddressId":"728366436","RoadLinkId":"28784611"}}},{"Relevance":1.0,"Distance":28.2,"MatchLevel":"houseNumber","MatchQuality":{"Country":1.0,"State":1.0,"County":1.0,"City":1.0,"District":1.0,"Street":[1.0],"HouseNumber":1.0,"PostalCode":1.0},"MatchType":"interpolated","Location":{"LocationId":"NT_aTQccH0wrHmQLv9OH-bEFB_1A","LocationType":"point","DisplayPosition":{"Latitude":48.00786,"Longitude":16.27046},"MapView":{"TopLeft":{"Latitude":48.0089842,"Longitude":16.2687797},"BottomRight":{"Latitude":48.0067358,"Longitude":16.2721403}},"Address":{"Label":"Bahnzeile 5, 2512 Traiskirchen, Österreich","Country":"AUT","State":"Niederösterreich","County":"Baden","City":"Traiskirchen","District":"Josefsthal","Street":"Bahnzeile","HouseNumber":"5","PostalCode":"2512","AdditionalData":[{"value":"Österreich","key":"CountryName"},{"value":"Niederösterreich","key":"StateName"},{"value":"Baden","key":"CountyName"}]},"MapReference":{"ReferenceId":"65802590","Spot":0.19,"SideOfStreet":"right","CountryId":"20128885","StateId":"20130295","CountyId":"20130462","CityId":"20130565","DistrictId":"20227067","AddressId":"160610335","RoadLinkId":"28752046"}}},{"Relevance":1.0,"Distance":30.6,"MatchLevel":"houseNumber","MatchQuality":{"Country":1.0,"State":1.0,"County":1.0,"City":1.0,"District":1.0,"Street":[1.0],"HouseNumber":1.0,"PostalCode":1.0},"MatchType":"interpolated","Location":{"LocationId":"NT_CpiLd1LO06sAsixEdF7jZD_xgD","LocationType":"point","DisplayPosition":{"Latitude":48.00736,"Longitude":16.27062},"MapView":{"TopLeft":{"Latitude":48.0084842,"Longitude":16.2689397},"BottomRight":{"Latitude":48.0062358,"Longitude":16.2723003}},"Address":{"Label":"Bahnzeile 18, 2512 Traiskirchen, Österreich","Country":"AUT","State":"Niederösterreich","County":"Baden","City":"Traiskirchen","District":"Tribuswinkel","Street":"Bahnzeile","HouseNumber":"18","PostalCode":"2512","AdditionalData":[{"value":"Österreich","key":"CountryName"},{"value":"Niederösterreich","key":"StateName"},{"value":"Baden","key":"CountyName"}]},"MapReference":{"ReferenceId":"62856213","Spot":0.5,"SideOfStreet":"left","CountryId":"20128885","StateId":"20130295","CountyId":"20130462","CityId":"20130565","DistrictId":"20227066","AddressId":"160599995","RoadLinkId":"27883813"}}},{"Relevance":1.0,"Distance":37.5,"MatchLevel":"houseNumber","MatchQuality":{"Country":1.0,"State":1.0,"County":1.0,"City":1.0,"District":1.0,"Street":[1.0],"HouseNumber":1.0,"PostalCode":1.0},"MatchType":"interpolated","Location":{"LocationId":"NT_OwtWj3YcMCkKRksoYtZPNA_3A","LocationType":"point","DisplayPosition":{"Latitude":48.0073,"Longitude":16.27084},"MapView":{"TopLeft":{"Latitude":48.0084242,"Longitude":16.2691597},"BottomRight":{"Latitude":48.0061758,"Longitude":16.2725203}},"Address":{"Label":"Pfarrgasse 7, 2512 Traiskirchen, Österreich","Country":"AUT","State":"Niederösterreich","County":"Baden","City":"Traiskirchen","District":"Tribuswinkel","Street":"Pfarrgasse","HouseNumber":"7","PostalCode":"2512","AdditionalData":[{"value":"Österreich","key":"CountryName"},{"value":"Niederösterreich","key":"StateName"},{"value":"Baden","key":"CountyName"}]},"MapReference":{"ReferenceId":"958049746","Spot":0.93,"SideOfStreet":"left","CountryId":"20128885","StateId":"20130295","CountyId":"20130462","CityId":"20130565","DistrictId":"20227066","AddressId":"160599946","RoadLinkId":"301022209"}}},{"Relevance":1.0,"Distance":39.7,"MatchLevel":"street","MatchQuality":{"Country":1.0,"State":1.0,"County":1.0,"City":1.0,"District":1.0,"Street":[1.0],"PostalCode":1.0},"Location":{"LocationId":"NT_OwtWj3YcMCkKRksoYtZPNA_l_60342429_L","LocationType":"point","DisplayPosition":{"Latitude":48.0075928,"Longitude":16.2708842},"MapView":{"TopLeft":{"Latitude":48.00772,"Longitude":16.27088},"BottomRight":{"Latitude":48.0075,"Longitude":16.27089}},"Address":{"Label":"Pfarrgasse, 2512 Traiskirchen, Österreich","Country":"AUT","State":"Niederösterreich","County":"Baden","City":"Traiskirchen","District":"Tribuswinkel","Street":"Pfarrgasse","PostalCode":"2512","AdditionalData":[{"value":"Österreich","key":"CountryName"},{"value":"Niederösterreich","key":"StateName"},{"value":"Baden","key":"CountyName"}]},"MapReference":{"ReferenceId":"60342429","Spot":0.42,"SideOfStreet":"left","CountryId":"20128885","StateId":"20130295","CountyId":"20130462","CityId":"20130565","DistrictId":"20227066"}}},{"Relevance":1.0,"Distance":41.4,"MatchLevel":"street","MatchQuality":{"Country":1.0,"State":1.0,"County":1.0,"City":1.0,"District":1.0,"Street":[1.0],"PostalCode":1.0},"Location":{"LocationId":"NT_21WsXirsJIcEmXnBLi-zQA_l_1102544644_L","LocationType":"point","DisplayPosition":{"Latitude":48.0075,"Longitude":16.27088},"MapView":{"TopLeft":{"Latitude":48.0075,"Longitude":16.27087},"BottomRight":{"Latitude":48.00744,"Longitude":16.27088}},"Address":{"Label":"Pfarrgasse, 2512 Traiskirchen, Österreich","Country":"AUT","State":"Niederösterreich","County":"Baden","City":"Traiskirchen","District":"Tribuswinkel","Street":"Pfarrgasse","PostalCode":"2512","AdditionalData":[{"value":"Österreich","key":"CountryName"},{"value":"Niederösterreich","key":"StateName"},{"value":"Baden","key":"CountyName"}]},"MapReference":{"ReferenceId":"1102544644","Spot":1.0,"SideOfStreet":"left","CountryId":"20128885","StateId":"20130295","CountyId":"20130462","CityId":"20130565","DistrictId":"20227066"}}},{"Relevance":1.0,"Distance":41.7,"MatchLevel":"street","MatchQuality":{"Country":1.0,"State":1.0,"County":1.0,"City":1.0,"District":1.0,"Street":[1.0],"PostalCode":1.0},"Location":{"LocationId":"NT_21WsXirsJIcEmXnBLi-zQA_l_65802595_L","LocationType":"point","DisplayPosition":{"Latitude":48.00772,"Longitude":16.27089},"MapView":{"TopLeft":{"Latitude":48.00783,"Longitude":16.27089},"BottomRight":{"Latitude":48.00772,"Longitude":16.27091}},"Address":{"Label":"Pfarrgasse, 2512 Traiskirchen, Österreich","Country":"AUT","State":"Niederösterreich","County":"Baden","City":"Traiskirchen","District":"Tribuswinkel","Street":"Pfarrgasse","PostalCode":"2512","AdditionalData":[{"value":"Österreich","key":"CountryName"},{"value":"Niederösterreich","key":"StateName"},{"value":"Baden","key":"CountyName"}]},"MapReference":{"ReferenceId":"65802595","Spot":0.0,"SideOfStreet":"left","CountryId":"20128885","StateId":"20130295","CountyId":"20130462","CityId":"20130565","DistrictId":"20227066"}}},{"Relevance":1.0,"Distance":43.3,"MatchLevel":"street","MatchQuality":{"Country":1.0,"State":1.0,"County":1.0,"City":1.0,"District":1.0,"Street":[1.0],"PostalCode":1.0},"Location":{"LocationId":"NT_21WsXirsJIcEmXnBLi-zQA_l_1102544643_L","LocationType":"point","DisplayPosition":{"Latitude":48.00744,"Longitude":16.27087},"MapView":{"TopLeft":{"Latitude":48.00744,"Longitude":16.27085},"BottomRight":{"Latitude":48.00733,"Longitude":16.27087}},"Address":{"Label":"Pfarrgasse, 2512 Traiskirchen, Österreich","Country":"AUT","State":"Niederösterreich","County":"Baden","City":"Traiskirchen","District":"Tribuswinkel","Street":"Pfarrgasse","PostalCode":"2512","AdditionalData":[{"value":"Österreich","key":"CountryName"},{"value":"Niederösterreich","key":"StateName"},{"value":"Baden","key":"CountyName"}]},"MapReference":{"ReferenceId":"1102544643","Spot":1.0,"SideOfStreet":"left","CountryId":"20128885","StateId":"20130295","CountyId":"20130462","CityId":"20130565","DistrictId":"20227066"}}},{"Relevance":1.0,"Distance":43.3,"MatchLevel":"street","MatchQuality":{"Country":1.0,"State":1.0,"County":1.0,"City":1.0,"District":1.0,"PostalCode":1.0},"Location":{"LocationId":"NT_3H5Hl7H2t6N6OAhaxIUVeA_l_1102544646_L","LocationType":"point","DisplayPosition":{"Latitude":48.00744,"Longitude":16.27087},"MapView":{"TopLeft":{"Latitude":48.00744,"Longitude":16.27087},"BottomRight":{"Latitude":48.00744,"Longitude":16.27104}},"Address":{"Label":"2512 Traiskirchen, Österreich","Country":"AUT","State":"Niederösterreich","County":"Baden","City":"Traiskirchen","District":"Tribuswinkel","PostalCode":"2512","AdditionalData":[{"value":"Österreich","key":"CountryName"},{"value":"Niederösterreich","key":"StateName"},{"value":"Baden","key":"CountyName"}]},"MapReference":{"ReferenceId":"1102544646","Spot":0.0,"SideOfStreet":"left","CountryId":"20128885","StateId":"20130295","CountyId":"20130462","CityId":"20130565","DistrictId":"20227066"}}}]}]}}