{"Response":{"MetaInfo":{"Timestamp":"2020-03-28T10:14:12.152+0000","NextPageInformation":"2"},"View":[{"_type":"SearchResultsViewType","ViewId":0,"Result":[{"Relevance":1.0,"Distance":0.0,"Direction":0.0,"MatchLevel":"district","MatchQuality":{"Country":1.0,"State":1.0,"County":1.0,"City":1.0,"District":1.0,"PostalCode":1.0},"Location":{"LocationId":"NT_cFI9tCY8bph7z31ChffIDD","LocationType":"point","DisplayPosition":{"Latitude":48.0855419,"Longitude":16.3226445},"MapView":{"TopLeft":{"Latitude":48.09567,"Longitude":16.30645},"BottomRight":{"Latitude":48.06887,"Longitude":16.33327}},"Address":{"Label":"Wiener Neudorf, Niederösterreich, Österreich","Country":"AUT","State":"Niederösterreich","County":"Mödling","City":"Wiener Neudorf","District":"Wiener Neudorf","PostalCode":"2351","AdditionalData":[{"value":"Österreich","key":"CountryName"},{"value":"Niederösterreich","key":"StateName"},{"value":"Mödling","key":"CountyName"}]},"MapReference":{"ReferenceId":"1221509446","SideOfStreet":"neither","CountryId":"20128885","StateId":"20130295","CountyId":"20131864","CityId":"20131922","DistrictId":"20131924"}}},{"Relevance":1.0,"Distance":12.9,"MatchLevel":"houseNumber","MatchQuality":{"Country":1.0,"State":1.0,"County":1.0,"City":1.0,"District":1.0,"Street":[1.0],"HouseNumber":1.0,"PostalCode":1.0},"MatchType":"interpolated","Location":{"LocationId":"NT_mlwjNvqQHFA8vvHBWkkM2D_0MD","LocationType":"point","DisplayPosition":{"Latitude":48.08529,"Longitude":16.32262},"MapView":{"TopLeft":{"Latitude":48.0864142,"Longitude":16.3209372},"BottomRight":{"Latitude":48.0841658,"Longitude":16.3243028}},"Address":{"Label":"Hauptstraße 43, 2351 Wiener Neudorf, Österreich","Country":"AUT","State":"Niederösterreich","County":"Mödling","City":"Wiener Neudorf","District":"Wiener Neudorf","Street":"Hauptstraße","HouseNumber":"43","PostalCode":"2351","AdditionalData":[{"value":"Österreich","key":"CountryName"},{"value":"Niederösterreich","key":"StateName"},{"value":"Mödling","key":"CountyName"}]},"MapReference":{"ReferenceId":"940956702","Spot":0.3,"SideOfStreet":"right","CountryId":"20128885","StateId":"20130295","CountyId":"20131864","CityId":"20131922","DistrictId":"20131924","AddressId":"214883443","RoadLinkId":"291004804"}}},{"Relevance":1.0,"Distance":46.7,"MatchLevel":"houseNumber","MatchQuality":{"Country":1.0,"State":1.0,"County":1.0,"City":1.0,"District":1.0,"Street":[1.0],"HouseNumber":1.0,"PostalCode":1.0},"MatchType":"interpolated","Location":{"LocationId":"NT_HvzQ14mwggenoEo6wZupHD_xAD","LocationType":"point","DisplayPosition":{"Latitude":48.08614,"Longitude":16.32278},"MapView":{"TopLeft":{"Latitude":48.0872642,"Longitude":16.3210972},"BottomRight":{"Latitude":48.0850158,"Longitude":16.3244628}},"Address":{"Label":"Mühlfeldgasse 10, 2351 Wiener Neudorf, Österreich","Country":"AUT","State":"Niederösterreich","County":"Mödling","City":"Wiener Neudorf","District":"Wiener Neudorf","Street":"Mühlfeldgasse","HouseNumber":"10","PostalCode":"2351","AdditionalData":[{"value":"Österreich","key":"CountryName"},{"value":"Niederösterreich","key":"StateName"},{"value":"Mödling","key":"CountyName"}]},"MapReference":{"ReferenceId":"65799874","Spot":0.06,"SideOfStreet":"left","CountryId":"20128885","StateId":"20130295","CountyId":"20131864","CityId":"20131922","DistrictId":"20131924","AddressId":"160690856","RoadLinkId":"28539348"}}},{"Relevance":1.0,"Distance":55.1,"MatchLevel":"houseNumber","MatchQuality":{"Country":1.0,"State":1.0,"County":1.0,"City":1.0,"District":1.0,"Street":[1.0],"HouseNumber":1.0,"PostalCode":1.0},"MatchType":"interpolated","Location":{"LocationId":"NT_HvzQ14mwggenoEo6wZupHD_xID","LocationType":"point","DisplayPosition":{"Latitude":48.08606,"Longitude":16.32305},"MapView":{"TopLeft":{"Latitude":48.0871842,"Longitude":16.3213672},"BottomRight":{"Latitude":48.0849358,"Longitude":16.3247328}},"Address":{"Label":"Mühlfeldgasse 12, 2351 Wiener Neudorf, Österreich","Country":"AUT","State":"Niederösterreich","County":"Mödling","City":"Wiener Neudorf","District":"Wiener Neudorf","Street":"Mühlfeldgasse","HouseNumber":"12","PostalCode":"2351","AdditionalData":[{"value":"Österreich","key":"CountryName"},{"value":"Niederösterreich","key":"StateName"},{"value":"Mödling","key":"CountyName"}]},"MapReference":{"ReferenceId":"65799903","Spot":0.9,"SideOfStreet":"left","CountryId":"20128885","StateId":"20130295","CountyId":"20131864","CityId":"20131922","DistrictId":"20131924","AddressId":"160690781","RoadLinkId":"29065205"}}},{"Relevance":1.0,"Distance":66.6,"MatchLevel":"street","MatchQuality":{"Country":1.0,"State":1.0,"County":1.0,"City":1.0,"District":1.0,"Street":[1.0],"PostalCode":1.0},"Location":{"LocationId":"NT_VIKi-OSLFk-1gkzIuHAKoA_l_65799873_R","LocationType":"point","DisplayPosition":{"Latitude":48.08612,"Longitude":16.32288},"MapView":{"TopLeft":{"Latitude":48.08658,"Longitude":16.32288},"BottomRight":{"Latitude":48.08612,"Longitude":16.32322}},"Address":{"Label":"Mitterfeldgasse, 2351 Wiener Neudorf, Österreich","Country":"AUT","State":"Niederösterreich","County":"Mödling","City":"Wiener Neudorf","District":"Wiener Neudorf","Street":"Mitterfeldgasse","PostalCode":"2351","AdditionalData":[{"value":"Österreich","key":"CountryName"},{"value":"Niederösterreich","key":"StateName"},{"value":"Mödling","key":"CountyName"}]},"MapReference":{"ReferenceId":"65799873","Spot":0.0,"SideOfStreet":"right","CountryId":"20128885","StateId":"20130295","CountyId":"20131864","CityId":"20131922","DistrictId":"20131924"}}},{"Relevance":1.0,"Distance":87.3,"MatchLevel":"houseNumber","MatchQuality":{"Country":1.0,"State":1.0,"County":1.0,"City":1.0,"District":1.0,"Street":[1.0],"HouseNumber":1.0,"PostalCode":1.0},"MatchType":"interpolated","Location":{"LocationId":"NT_mlwjNvqQHFA8vvHBWkkM2D_1ED","LocationType":"point","DisplayPosition":{"Latitude":48.08499,"Longitude":16.32348},"MapView":{"TopLeft":{"Latitude":48.0861142,"Longitude":16.3217972},"BottomRight":{"Latitude":48.0838658,"Longitude":16.3251628}},"Address":{"Label":"Hauptstraße 51, 2351 Wiener Neudorf, Österreich","Country":"AUT","State":"Niederösterreich","County":"Mödling","City":"Wiener Neudorf","District":"Wiener Neudorf","Street":"Hauptstraße","HouseNumber":"51","PostalCode":"2351","AdditionalData":[{"value":"Österreich","key":"CountryName"},{"value":"Niederösterreich","key":"StateName"},{"value":"Mödling","key":"CountyName"}]},"MapReference":{"ReferenceId":"940956704","Spot":0.62,"SideOfStreet":"right","CountryId":"20128885","StateId":"20130295","CountyId":"20131864","CityId":"20131922","DistrictId":"20131924","AddressId":"214883441","RoadLinkId":"291004806"}}},{"Relevance":1.0,"Distance":110.1,"MatchLevel":"houseNumber","MatchQuality":{"Country":1.0,"State":1.0,"County":1.0,"City":1.0,"District":1.0,"Street":[1.0],"HouseNumber":1.0,"PostalCode":1.0},"MatchType":"interpolated","Location":{"LocationId":"NT_mlwjNvqQHFA8vvHBWkkM2D_1MD","LocationType":"point","DisplayPosition":{"Latitude":48.08489,"Longitude":16.32376},"MapView":{"TopLeft":{"Latitude":48.0860142,"Longitude":16.3220772},"BottomRight":{"Latitude":48.0837658,"Longitude":16.3254428}},"Address":{"Label":"Hauptstraße 53, 2351 Wiener Neudorf, Österreich","Country":"AUT","State":"Niederösterreich","County":"Mödling","City":"Wiener Neudorf","District":"Wiener Neudorf","Street":"Hauptstraße","HouseNumber":"53","PostalCode":"2351","AdditionalData":[{"value":"Österreich","key":"CountryName"},{"value":"Niederösterreich","key":"StateName"},{"value":"Mödling","key":"CountyName"}]},"MapReference":{"ReferenceId":"1210754478","Spot":0.76,"SideOfStreet":"right","CountryId":"20128885","StateId":"20130295","CountyId":"20131864","CityId":"20131922","DistrictId":"20131924","AddressId":"214883446","RoadLinkId":"525760267"}}},{"Relevance":1.0,"Distance":112.2,"MatchLevel":"houseNumber","MatchQuality":{"Country":1.0,"State":1.0,"County":1.0,"City":1.0,"District":1.0,"Street":[1.0],"HouseNumber":1.0,"PostalCode":1.0},"MatchType":"interpolated","Location":{"LocationId":"NT_LUzDQFc2-vbtYfe3imPdSD_xA","LocationType":"point","DisplayPosition":{"Latitude":48.08427,"Longitude":16.32302},"MapView":{"TopLeft":{"Latitude":48.0853942,"Longitude":16.3213372},"BottomRight":{"Latitude":48.0831458,"Longitude":16.3247028}},"Address":{"Label":"Schlossmühlplatz 1, 2351 Wiener Neudorf, Österreich","Country":"AUT","State":"Niederösterreich","County":"Mödling","City":"Wiener Neudorf","District":"Wiener Neudorf","Street":"Schlossmühlplatz","HouseNumber":"1","PostalCode":"2351","AdditionalData":[{"value":"Österreich","key":"CountryName"},{"value":"Niederösterreich","key":"StateName"},{"value":"Mödling","key":"CountyName"}]},"MapReference":{"ReferenceId":"65830256","Spot":0.7,"SideOfStreet":"left","CountryId":"20128885","StateId":"20130295","CountyId":"20131864","CityId":"20131922","DistrictId":"20131924","AddressId":"214883432","RoadLinkId":"28705865"}}},{"Relevance":1.0,"Distance":113.3,"MatchLevel":"houseNumber","MatchQuality":{"Country":1.0,"State":1.0,"County":1.0,"City":1.0,"District":1.0,"Street":[1.0],"HouseNumber":1.0,"PostalCode":1.0},"MatchType":"interpolated","Location":{"LocationId":"NT_W7GyDF6ZkKX2h6xQGfHRAD_xMD","LocationType":"point","DisplayPosition":{"Latitude":48.08656,"Longitude":16.32271},"MapView":{"TopLeft":{"Latitude":48.0876842,"Longitude":16.3210272},"BottomRight":{"Latitude":48.0854358,"Longitude":16.3243928}},"Address":{"Label":"Friedhofstraße 13, 2351 Wiener Neudorf, Österreich","Country":"AUT","State":"Niederösterreich","County":"Mödling","City":"Wiener Neudorf","District":"Wiener Neudorf","Street":"Friedhofstraße","HouseNumber":"13","PostalCode":"2351","AdditionalData":[{"value":"Österreich","key":"CountryName"},{"value":"Niederösterreich","key":"StateName"},{"value":"Mödling","key":"CountyName"}]},"MapReference":{"ReferenceId":"65829870","Spot":0.54,"SideOfStreet":"left","CountryId":"20128885","StateId":"20130295","CountyId":"20131864","CityId":"20131922","DistrictId":"20131924","AddressId":"160692248","RoadLinkId":"28858190"}}},{"Relevance":1.0,"Distance":124.0,"MatchLevel":"houseNumber","MatchQuality":{"Country":1.0,"State":1.0,"County":1.0,"City":1.0,"District":1.0,"Street":[1.0],"HouseNumber":1.0,"PostalCode":1.0},"MatchType":"interpolated","Location":{"LocationId":"NT_W7GyDF6ZkKX2h6xQGfHRAD_4A","LocationType":"point","DisplayPosition":{"Latitude":48.08659,"Longitude":16.32356},"MapView":{"TopLeft":{"Latitude":48.0877142,"Longitude":16.3218772},"BottomRight":{"Latitude":48.0854658,"Longitude":16.3252428}},"Address":{"Label":"Friedhofstraße 8, 2351 Wiener Neudorf, Österreich","Country":"AUT","State":"Niederösterreich","County":"Mödling","City":"Wiener Neudorf","District":"Wiener Neudorf","Street":"Friedhofstraße","HouseNumber":"8","PostalCode":"2351","AdditionalData":[{"value":"Österreich","key":"CountryName"},{"value":"Niederösterreich","key":"StateName"},{"value":"Mödling","key":"CountyName"}]},"MapReference":{"ReferenceId":"65799843","Spot":0.27,"SideOfStreet":"right","CountryId":"20128885","StateId":"20130295","CountyId":"20131864","CityId":"20131922","DistrictId":"20131924","AddressId":"160692239","RoadLinkId":"28258877"}}}]}]}}