{"Response":{"MetaInfo":{"Timestamp":"2020-03-28T10:30:29.629+0000","NextPageInformation":"2"},"View":[{"_type":"SearchResultsViewType","ViewId":0,"Result":[{"Relevance":1.0,"Distance":0.0,"Direction":0.0,"MatchLevel":"district","MatchQuality":{"Country":1.0,"State":1.0,"County":1.0,"City":1.0,"District":1.0,"PostalCode":1.0},"Location":{"LocationId":"NT_9ApCDSDq63Hk3zjw.o71cC","LocationType":"point","DisplayPosition":{"Latitude":48.0466064,"Longitude":-1.3351069},"MapView":{"TopLeft":{"Latitude":48.05994,"Longitude":-1.35646},"BottomRight":{"Latitude":48.03296,"Longitude":-1.3161}},"Address":{"Label":"Le Clos Saint-Georges, Louvigné-de-Bais, Bretagne, France","Country":"FRA","State":"Bretagne","County":"Ille-et-Vilaine","City":"Louvigné-de-Bais","District":"Le Clos Saint-Georges","PostalCode":"35680","AdditionalData":[{"value":"France","key":"CountryName"},{"value":"Bretagne","key":"StateName"},{"value":"Ille-et-Vilaine","key":"CountyName"}]},"MapReference":{"ReferenceId":"851069877","SideOfStreet":"neither","CountryId":"20000001","StateId":"20060199","CountyId":"20065458","CityId":"20065924"}}},{"Relevance":1.0,"Distance":23.0,"MatchLevel":"houseNumber","MatchQuality":{"Country":1.0,"State":1.0,"County":1.0,"City":1.0,"Street":[1.0],"HouseNumber":1.0,"PostalCode":1.0},"MatchType":"interpolated","Location":{"LocationId":"NT_4PDGNnrOjPtZNwWRrnw5hB_yIjQ","LocationType":"point","DisplayPosition":{"Latitude":48.04679,"Longitude":-1.33525},"MapView":{"TopLeft":{"Latitude":48.0479142,"Longitude":-1.3369315},"BottomRight":{"Latitude":48.0456658,"Longitude":-1.3335685}},"Address":{"Label":"22B Rue des Frères Amyot d'Inville, 35680 Louvigné-de-Bais, France","Country":"FRA","State":"Bretagne","County":"Ille-et-Vilaine","City":"Louvigné-de-Bais","Street":"Rue des Frères Amyot d'Inville","HouseNumber":"22B","PostalCode":"35680","AdditionalData":[{"value":"France","key":"CountryName"},{"value":"Bretagne","key":"StateName"},{"value":"Ille-et-Vilaine","key":"CountyName"}]},"MapReference":{"ReferenceId":"1209524724","Spot":0.05,"SideOfStreet":"left","CountryId":"20000001","StateId":"20060199","CountyId":"20065458","CityId":"20065924","AddressId":"570399874","RoadLinkId":"524178084"}}},{"Relevance":1.0,"Distance":34.1,"MatchLevel":"street","MatchQuality":{"Country":1.0,"State":1.0,"County":1.0,"City":1.0,"Street":[1.0],"PostalCode":1.0},"Location":{"LocationId":"NT_yAFqRlVbr4oPAcJN5QJCyD_l_553016888_L","LocationType":"point","DisplayPosition":{"Latitude":48.0463463,"Longitude":-1.3348636},"MapView":{"TopLeft":{"Latitude":48.04723,"Longitude":-1.33645},"BottomRight":{"Latitude":48.04509,"Longitude":-1.33403}},"Address":{"Label":"Chemin des Diligences, 35680 Louvigné-de-Bais, France","Country":"FRA","State":"Bretagne","County":"Ille-et-Vilaine","City":"Louvigné-de-Bais","Street":"Chemin des Diligences","PostalCode":"35680","AdditionalData":[{"value":"France","key":"CountryName"},{"value":"Bretagne","key":"StateName"},{"value":"Ille-et-Vilaine","key":"CountyName"}]},"MapReference":{"ReferenceId":"553016888","Spot":0.62,"SideOfStreet":"left","CountryId":"20000001","StateId":"20060199","CountyId":"20065458","CityId":"20065924"}}},{"Relevance":1.0,"Distance":38.4,"MatchLevel":"houseNumber","MatchQuality":{"Country":1.0,"State":1.0,"County":1.0,"City":1.0,"Street":[1.0],"HouseNumber":1.0,"PostalCode":1.0},"MatchType":"interpolated","Location":{"LocationId":"NT_4PDGNnrOjPtZNwWRrnw5hB_yED","LocationType":"point","DisplayPosition":{"Latitude":48.04668,"Longitude":-1.33565},"MapView":{"TopLeft":{"Latitude":48.0478042,"Longitude":-1.3373315},"BottomRight":{"Latitude":48.0455558,"Longitude":-1.3339685}},"Address":{"Label":"21 Rue des Frères Amyot d'Inville, 35680 Louvigné-de-Bais, France","Country":"FRA","State":"Bretagne","County":"Ille-et-Vilaine","City":"Louvigné-de-Bais","Street":"Rue des Frères Amyot d'Inville","HouseNumber":"21","PostalCode":"35680","AdditionalData":[{"value":"France","key":"CountryName"},{"value":"Bretagne","key":"StateName"},{"value":"Ille-et-Vilaine","key":"CountyName"}]},"MapReference":{"ReferenceId":"851069878","Spot":0.49,"SideOfStreet":"right","CountryId":"20000001","StateId":"20060199","CountyId":"20065458","CityId":"20065924","AddressId":"375430209","RoadLinkId":"230288840"}}},{"Relevance":1.0,"Distance":66.7,"MatchLevel":"houseNumber","MatchQuality":{"Country":1.0,"State":1.0,"County":1.0,"City":1.0,"Street":[1.0],"HouseNumber":1.0,"PostalCode":1.0},"MatchType":"interpolated","Location":{"LocationId":"NT_4PDGNnrOjPtZNwWRrnw5hB_yMD","LocationType":"point","DisplayPosition":{"Latitude":48.04655,"Longitude":-1.336},"MapView":{"TopLeft":{"Latitude":48.0476742,"Longitude":-1.3376815},"BottomRight":{"Latitude":48.0454258,"Longitude":-1.3343185}},"Address":{"Label":"23 Rue des Frères Amyot d'Inville, 35680 Louvigné-de-Bais, France","Country":"FRA","State":"Bretagne","County":"Ille-et-Vilaine","City":"Louvigné-de-Bais","Street":"Rue des Frères Amyot d'Inville","HouseNumber":"23","PostalCode":"35680","AdditionalData":[{"value":"France","key":"CountryName"},{"value":"Bretagne","key":"StateName"},{"value":"Ille-et-Vilaine","key":"CountyName"}]},"MapReference":{"ReferenceId":"851069877","Spot":0.98,"SideOfStreet":"right","CountryId":"20000001","StateId":"20060199","CountyId":"20065458","CityId":"20065924","AddressId":"320306770","RoadLinkId":"230288839"}}},{"Relevance":1.0,"Distance":77.7,"MatchLevel":"houseNumber","MatchQuality":{"Country":1.0,"State":1.0,"County":1.0,"City":1.0,"Street":[1.0],"HouseNumber":1.0,"PostalCode":1.0},"MatchType":"interpolated","Location":{"LocationId":"NT_4PDGNnrOjPtZNwWRrnw5hB_xgD","LocationType":"point","DisplayPosition":{"Latitude":48.04707,"Longitude":-1.33441},"MapView":{"TopLeft":{"Latitude":48.0481942,"Longitude":-1.3360916},"BottomRight":{"Latitude":48.0459458,"Longitude":-1.3327284}},"Address":{"Label":"18 Rue des Frères Amyot d'Inville, 35680 Louvigné-de-Bais, France","Country":"FRA","State":"Bretagne","County":"Ille-et-Vilaine","City":"Louvigné-de-Bais","Street":"Rue des Frères Amyot d'Inville","HouseNumber":"18","PostalCode":"35680","AdditionalData":[{"value":"France","key":"CountryName"},{"value":"Bretagne","key":"StateName"},{"value":"Ille-et-Vilaine","key":"CountyName"}]},"MapReference":{"ReferenceId":"1209524725","Spot":0.45,"SideOfStreet":"left","CountryId":"20000001","StateId":"20060199","CountyId":"20065458","CityId":"20065924","AddressId":"320615933","RoadLinkId":"524178087"}}},{"Relevance":1.0,"Distance":84.7,"MatchLevel":"street","MatchQuality":{"Country":1.0,"State":1.0,"County":1.0,"City":1.0,"Street":[1.0],"PostalCode":1.0},"Location":{"LocationId":"NT_4PDGNnrOjPtZNwWRrnw5hB_l_1209524726_R","LocationType":"point","DisplayPosition":{"Latitude":48.04713,"Longitude":-1.33428},"MapView":{"TopLeft":{"Latitude":48.04723,"Longitude":-1.33428},"BottomRight":{"Latitude":48.04713,"Longitude":-1.33406}},"Address":{"Label":"Rue des Frères Amyot d'Inville, 35680 Louvigné-de-Bais, France","Country":"FRA","State":"Bretagne","County":"Ille-et-Vilaine","City":"Louvigné-de-Bais","Street":"Rue des Frères Amyot d'Inville","PostalCode":"35680","AdditionalData":[{"value":"France","key":"CountryName"},{"value":"Bretagne","key":"StateName"},{"value":"Ille-et-Vilaine","key":"CountyName"}]},"MapReference":{"ReferenceId":"1209524726","Spot":0.0,"SideOfStreet":"right","CountryId":"20000001","StateId":"20060199","CountyId":"20065458","CityId":"20065924"}}},{"Relevance":1.0,"Distance":104.2,"MatchLevel":"street","MatchQuality":{"Country":1.0,"State":1.0,"County":1.0,"City":1.0,"Street":[1.0],"PostalCode":1.0},"Location":{"LocationId":"NT_4PDGNnrOjPtZNwWRrnw5hB_l_553016870_R","LocationType":"point","DisplayPosition":{"Latitude":48.04723,"Longitude":-1.33406},"MapView":{"TopLeft":{"Latitude":48.04727,"Longitude":-1.33406},"BottomRight":{"Latitude":48.04723,"Longitude":-1.33399}},"Address":{"Label":"Rue des Frères Amyot d'Inville, 35680 Louvigné-de-Bais, France","Country":"FRA","State":"Bretagne","County":"Ille-et-Vilaine","City":"Louvigné-de-Bais","Street":"Rue des Frères Amyot d'Inville","PostalCode":"35680","AdditionalData":[{"value":"France","key":"CountryName"},{"value":"Bretagne","key":"StateName"},{"value":"Ille-et-Vilaine","key":"CountyName"}]},"MapReference":{"ReferenceId":"553016870","Spot":0.0,"SideOfStreet":"right","CountryId":"20000001","StateId":"20060199","CountyId":"20065458","CityId":"20065924"}}},{"Relevance":1.0,"Distance":109.3,"MatchLevel":"street","MatchQuality":{"Country":1.0,"State":1.0,"County":1.0,"City":1.0,"PostalCode":1.0},"Location":{"LocationId":"NT_pTr6oXiJj4b4D7dxSMV8yC_l_1257137983_R","LocationType":"point","DisplayPosition":{"Latitude":48.04755,"Longitude":-1.33552},"MapView":{"TopLeft":{"Latitude":48.04755,"Longitude":-1.33624},"BottomRight":{"Latitude":48.04751,"Longitude":-1.33552}},"Address":{"Label":"35680 Louvigné-de-Bais, France","Country":"FRA","State":"Bretagne","County":"Ille-et-Vilaine","City":"Louvigné-de-Bais","PostalCode":"35680","AdditionalData":[{"value":"France","key":"CountryName"},{"value":"Bretagne","key":"StateName"},{"value":"Ille-et-Vilaine","key":"CountyName"}]},"MapReference":{"ReferenceId":"1257137983","Spot":1.0,"SideOfStreet":"right","CountryId":"20000001","StateId":"20060199","CountyId":"20065458","CityId":"20065924"}}},{"Relevance":1.0,"Distance":110.7,"MatchLevel":"street","MatchQuality":{"Country":1.0,"State":1.0,"County":1.0,"City":1.0,"Street":[1.0],"PostalCode":1.0},"Location":{"LocationId":"NT_xdI297jOYUtjJRWa.eZ01B_l_553016875_R","LocationType":"point","DisplayPosition":{"Latitude":48.04759,"Longitude":-1.33534},"MapView":{"TopLeft":{"Latitude":48.04781,"Longitude":-1.33552},"BottomRight":{"Latitude":48.04755,"Longitude":-1.33413}},"Address":{"Label":"Lieu-dit Les Masures, 35680 Louvigné-de-Bais, France","Country":"FRA","State":"Bretagne","County":"Ille-et-Vilaine","City":"Louvigné-de-Bais","Street":"Lieu-dit Les Masures","PostalCode":"35680","AdditionalData":[{"value":"France","key":"CountryName"},{"value":"Bretagne","key":"StateName"},{"value":"Ille-et-Vilaine","key":"CountyName"}]},"MapReference":{"ReferenceId":"553016875","Spot":0.13,"SideOfStreet":"right","CountryId":"20000001","StateId":"20060199","CountyId":"20065458","CityId":"20065924"}}}]}]}}