{"Response":{"MetaInfo":{"Timestamp":"2020-03-28T11:37:26.588+0000","NextPageInformation":"2"},"View":[{"_type":"SearchResultsViewType","ViewId":0,"Result":[{"Relevance":1.0,"Distance":0.0,"Direction":0.0,"MatchLevel":"district","MatchQuality":{"Country":1.0,"State":1.0,"County":1.0,"City":1.0,"District":1.0,"PostalCode":1.0},"Location":{"LocationId":"NT_Cmyb1Tqo5CgHnrdwQRRQ5B","LocationType":"point","DisplayPosition":{"Latitude":48.0764688,"Longitude":14.8147058},"MapView":{"TopLeft":{"Latitude":48.0846,"Longitude":14.80853},"BottomRight":{"Latitude":48.06441,"Longitude":14.83311}},"Address":{"Label":"Ulmerfeld-Hausmening, Amstetten, Niederösterreich, Österreich","Country":"AUT","State":"Niederösterreich","County":"Amstetten","City":"Amstetten","District":"Ulmerfeld-Hausmening","PostalCode":"3363","AdditionalData":[{"value":"Österreich","key":"CountryName"},{"value":"Niederösterreich","key":"StateName"},{"value":"Amstetten","key":"CountyName"}]},"MapReference":{"ReferenceId":"762689573","SideOfStreet":"neither","CountryId":"20128885","StateId":"20130295","CountyId":"20130338","CityId":"20130343","DistrictId":"20315373"}}},{"Relevance":1.0,"Distance":10.5,"MatchLevel":"houseNumber","MatchQuality":{"Country":1.0,"State":1.0,"County":1.0,"City":1.0,"District":1.0,"Street":[1.0],"HouseNumber":1.0,"PostalCode":1.0},"MatchType":"interpolated","Location":{"LocationId":"NT_HB3Tk.TrS8r01wwYz7sxGB_zA","LocationType":"point","DisplayPosition":{"Latitude":48.07665,"Longitude":14.81461},"MapView":{"TopLeft":{"Latitude":48.0777742,"Longitude":14.8129275},"BottomRight":{"Latitude":48.0755258,"Longitude":14.8162925}},"Address":{"Label":"Theresienthalstraße 3, 3363 Amstetten, Österreich","Country":"AUT","State":"Niederösterreich","County":"Amstetten","City":"Amstetten","District":"Ulmerfeld-Hausmening","Street":"Theresienthalstraße","HouseNumber":"3","PostalCode":"3363","AdditionalData":[{"value":"Österreich","key":"CountryName"},{"value":"Niederösterreich","key":"StateName"},{"value":"Amstetten","key":"CountyName"}]},"MapReference":{"ReferenceId":"75469766","Spot":0.65,"SideOfStreet":"right","CountryId":"20128885","StateId":"20130295","CountyId":"20130338","CityId":"20130343","DistrictId":"20315373","AddressId":"162121796","RoadLinkId":"28062808"}}},{"Relevance":1.0,"Distance":50.8,"MatchLevel":"houseNumber","MatchQuality":{"Country":1.0,"State":1.0,"County":1.0,"City":1.0,"District":1.0,"Street":[1.0],"HouseNumber":1.0,"PostalCode":1.0},"MatchType":"interpolated","Location":{"LocationId":"NT_Bb0sW.9R0AP0Gv8KyuW80B_2A","LocationType":"point","DisplayPosition":{"Latitude":48.0761,"Longitude":14.81537},"MapView":{"TopLeft":{"Latitude":48.0772242,"Longitude":14.8136875},"BottomRight":{"Latitude":48.0749758,"Longitude":14.8170525}},"Address":{"Label":"Carl-Zeller-Straße 6, 3363 Amstetten, Österreich","Country":"AUT","State":"Niederösterreich","County":"Amstetten","City":"Amstetten","District":"Ulmerfeld-Hausmening","Street":"Carl-Zeller-Straße","HouseNumber":"6","PostalCode":"3363","AdditionalData":[{"value":"Österreich","key":"CountryName"},{"value":"Niederösterreich","key":"StateName"},{"value":"Amstetten","key":"CountyName"}]},"MapReference":{"ReferenceId":"75457100","Spot":0.7,"SideOfStreet":"left","CountryId":"20128885","StateId":"20130295","CountyId":"20130338","CityId":"20130343","DistrictId":"20315373","AddressId":"162112565","RoadLinkId":"28270699"}}},{"Relevance":1.0,"Distance":63.6,"MatchLevel":"houseNumber","MatchQuality":{"Country":1.0,"State":1.0,"County":1.0,"City":1.0,"District":1.0,"Street":[1.0],"HouseNumber":1.0,"PostalCode":1.0},"MatchType":"interpolated","Location":{"LocationId":"NT_3SG77y4HyxQ49geHcvR4zA_yA","LocationType":"point","DisplayPosition":{"Latitude":48.07699,"Longitude":14.81543},"MapView":{"TopLeft":{"Latitude":48.0781142,"Longitude":14.8137475},"BottomRight":{"Latitude":48.0758658,"Longitude":14.8171125}},"Address":{"Label":"Hauptstraße 2, 3363 Amstetten, Österreich","Country":"AUT","State":"Niederösterreich","County":"Amstetten","City":"Amstetten","District":"Ulmerfeld-Hausmening","Street":"Hauptstraße","HouseNumber":"2","PostalCode":"3363","AdditionalData":[{"value":"Österreich","key":"CountryName"},{"value":"Niederösterreich","key":"StateName"},{"value":"Amstetten","key":"CountyName"}]},"MapReference":{"ReferenceId":"833975347","Spot":0.2,"SideOfStreet":"left","CountryId":"20128885","StateId":"20130295","CountyId":"20130338","CityId":"20130343","DistrictId":"20315373","AddressId":"411874129","RoadLinkId":"299544076"}}},{"Relevance":1.0,"Distance":66.0,"MatchLevel":"street","MatchQuality":{"Country":1.0,"State":1.0,"County":1.0,"City":1.0,"District":1.0,"PostalCode":1.0},"Location":{"LocationId":"NT_DESG-tSovNGuCIm62zdEHC_l_75469763_R","LocationType":"point","DisplayPosition":{"Latitude":48.07699,"Longitude":14.81513},"MapView":{"TopLeft":{"Latitude":48.07703,"Longitude":14.81513},"BottomRight":{"Latitude":48.07698,"Longitude":14.81531}},"Address":{"Label":"3363 Amstetten, Österreich","Country":"AUT","State":"Niederösterreich","County":"Amstetten","City":"Amstetten","District":"Ulmerfeld-Hausmening","PostalCode":"3363","AdditionalData":[{"value":"Österreich","key":"CountryName"},{"value":"Niederösterreich","key":"StateName"},{"value":"Amstetten","key":"CountyName"}]},"MapReference":{"ReferenceId":"75469763","Spot":0.0,"SideOfStreet":"right","CountryId":"20128885","StateId":"20130295","CountyId":"20130338","CityId":"20130343","DistrictId":"20315373"}}},{"Relevance":1.0,"Distance":66.9,"MatchLevel":"street","MatchQuality":{"Country":1.0,"State":1.0,"County":1.0,"City":1.0,"District":1.0,"PostalCode":1.0},"Location":{"LocationId":"NT_DESG-tSovNGuCIm62zdEHC_l_75469762_L","LocationType":"point","DisplayPosition":{"Latitude":48.07701,"Longitude":14.8151},"MapView":{"TopLeft":{"Latitude":48.07712,"Longitude":14.81508},"BottomRight":{"Latitude":48.07699,"Longitude":14.81513}},"Address":{"Label":"3363 Amstetten, Österreich","Country":"AUT","State":"Niederösterreich","County":"Amstetten","City":"Amstetten","District":"Ulmerfeld-Hausmening","PostalCode":"3363","AdditionalData":[{"value":"Österreich","key":"CountryName"},{"value":"Niederösterreich","key":"StateName"},{"value":"Amstetten","key":"CountyName"}]},"MapReference":{"ReferenceId":"75469762","Spot":0.21,"SideOfStreet":"left","CountryId":"20128885","StateId":"20130295","CountyId":"20130338","CityId":"20130343","DistrictId":"20315373"}}},{"Relevance":1.0,"Distance":70.3,"MatchLevel":"houseNumber","MatchQuality":{"Country":1.0,"State":1.0,"County":1.0,"City":1.0,"District":1.0,"Street":[1.0],"HouseNumber":1.0,"PostalCode":1.0},"MatchType":"interpolated","Location":{"LocationId":"NT_b8kuD4fqr.fTMpK5GYZb.B_0A","LocationType":"point","DisplayPosition":{"Latitude":48.0761,"Longitude":14.81352},"MapView":{"TopLeft":{"Latitude":48.0772242,"Longitude":14.8118375},"BottomRight":{"Latitude":48.0749758,"Longitude":14.8152025}},"Address":{"Label":"Uferstraße 4, 3363 Amstetten, Österreich","Country":"AUT","State":"Niederösterreich","County":"Amstetten","City":"Amstetten","District":"Ulmerfeld-Hausmening","Street":"Uferstraße","HouseNumber":"4","PostalCode":"3363","AdditionalData":[{"value":"Österreich","key":"CountryName"},{"value":"Niederösterreich","key":"StateName"},{"value":"Amstetten","key":"CountyName"}]},"MapReference":{"ReferenceId":"75469761","Spot":0.12,"SideOfStreet":"right","CountryId":"20128885","StateId":"20130295","CountyId":"20130338","CityId":"20130343","DistrictId":"20315373","AddressId":"162119893","RoadLinkId":"28294742"}}},{"Relevance":1.0,"Distance":72.7,"MatchLevel":"houseNumber","MatchQuality":{"Country":1.0,"State":1.0,"County":1.0,"City":1.0,"District":1.0,"Street":[1.0],"HouseNumber":1.0,"PostalCode":1.0},"MatchType":"interpolated","Location":{"LocationId":"NT_3SG77y4HyxQ49geHcvR4zA_0A","LocationType":"point","DisplayPosition":{"Latitude":48.07693,"Longitude":14.81562},"MapView":{"TopLeft":{"Latitude":48.0780542,"Longitude":14.8139375},"BottomRight":{"Latitude":48.0758058,"Longitude":14.8173025}},"Address":{"Label":"Hauptstraße 4, 3363 Amstetten, Österreich","Country":"AUT","State":"Niederösterreich","County":"Amstetten","City":"Amstetten","District":"Ulmerfeld-Hausmening","Street":"Hauptstraße","HouseNumber":"4","PostalCode":"3363","AdditionalData":[{"value":"Österreich","key":"CountryName"},{"value":"Niederösterreich","key":"StateName"},{"value":"Amstetten","key":"CountyName"}]},"MapReference":{"ReferenceId":"833975346","Spot":0.38,"SideOfStreet":"left","CountryId":"20128885","StateId":"20130295","CountyId":"20130338","CityId":"20130343","DistrictId":"20315373","AddressId":"411888131","RoadLinkId":"299544069"}}},{"Relevance":1.0,"Distance":79.0,"MatchLevel":"street","MatchQuality":{"Country":1.0,"State":1.0,"County":1.0,"City":1.0,"District":1.0,"Street":[1.0],"PostalCode":1.0},"Location":{"LocationId":"NT_JHShPjtJeJ3Cf0seuCG0VB_l_833942731_L","LocationType":"point","DisplayPosition":{"Latitude":48.07712,"Longitude":14.81513},"MapView":{"TopLeft":{"Latitude":48.0772,"Longitude":14.81502},"BottomRight":{"Latitude":48.07712,"Longitude":14.81513}},"Address":{"Label":"Rauscherstraße, 3363 Amstetten, Österreich","Country":"AUT","State":"Niederösterreich","County":"Amstetten","City":"Amstetten","District":"Ulmerfeld-Hausmening","Street":"Rauscherstraße","PostalCode":"3363","AdditionalData":[{"value":"Österreich","key":"CountryName"},{"value":"Niederösterreich","key":"StateName"},{"value":"Amstetten","key":"CountyName"}]},"MapReference":{"ReferenceId":"833942731","Spot":0.0,"SideOfStreet":"left","CountryId":"20128885","StateId":"20130295","CountyId":"20130338","CityId":"20130343","DistrictId":"20315373"}}},{"Relevance":1.0,"Distance":79.0,"MatchLevel":"street","MatchQuality":{"Country":1.0,"State":1.0,"County":1.0,"City":1.0,"District":1.0,"PostalCode":1.0},"Location":{"LocationId":"NT_DESG-tSovNGuCIm62zdEHC_l_75469764_L","LocationType":"point","DisplayPosition":{"Latitude":48.07712,"Longitude":14.81513},"MapView":{"TopLeft":{"Latitude":48.07713,"Longitude":14.81513},"BottomRight":{"Latitude":48.07703,"Longitude":14.81531}},"Address":{"Label":"3363 Amstetten, Österreich","Country":"AUT","State":"Niederösterreich","County":"Amstetten","City":"Amstetten","District":"Ulmerfeld-Hausmening","PostalCode":"3363","AdditionalData":[{"value":"Österreich","key":"CountryName"},{"value":"Niederösterreich","key":"StateName"},{"value":"Amstetten","key":"CountyName"}]},"MapReference":{"ReferenceId":"75469764","Spot":1.0,"SideOfStreet":"left","CountryId":"20128885","StateId":"20130295","CountyId":"20130338","CityId":"20130343","DistrictId":"20315373"}}}]}]}}