{"Response":{"MetaInfo":{"Timestamp":"2020-03-28T11:40:53.120+0000","NextPageInformation":"2"},"View":[{"_type":"SearchResultsViewType","ViewId":0,"Result":[{"Relevance":1.0,"Distance":0.0,"Direction":0.0,"MatchLevel":"district","MatchQuality":{"Country":1.0,"State":1.0,"County":1.0,"City":1.0,"District":1.0,"PostalCode":1.0},"Location":{"LocationId":"NT_cAeqyv0-2tAn6fQll.CToA","LocationType":"point","DisplayPosition":{"Latitude":48.0035251,"Longitude":9.8255501},"MapView":{"TopLeft":{"Latitude":48.00729,"Longitude":9.81402},"BottomRight":{"Latitude":47.99593,"Longitude":9.83327}},"Address":{"Label":"Eberhardzell, Baden-Württemberg, Deutschland","Country":"DEU","State":"Baden-Württemberg","County":"Biberach","City":"Eberhardzell","District":"Eberhardzell","PostalCode":"88436","AdditionalData":[{"value":"Deutschland","key":"CountryName"},{"value":"Baden-Württemberg","key":"StateName"},{"value":"Biberach","key":"CountyName"}]},"MapReference":{"ReferenceId":"540818616","SideOfStreet":"neither","CountryId":"20147700","StateId":"20171489","CountyId":"20176513","CityId":"20176579","DistrictId":"20176582"}}},{"Relevance":1.0,"Distance":11.2,"MatchLevel":"houseNumber","MatchQuality":{"Country":1.0,"State":1.0,"County":1.0,"City":1.0,"District":1.0,"Street":[1.0],"HouseNumber":1.0,"PostalCode":1.0},"MatchType":"interpolated","Location":{"LocationId":"NT_CECMhKZNYnqtc37v1KfTAC_xkD","LocationType":"point","DisplayPosition":{"Latitude":48.00342,"Longitude":9.82586},"MapView":{"TopLeft":{"Latitude":48.0045442,"Longitude":9.8241799},"BottomRight":{"Latitude":48.0022958,"Longitude":9.8275401}},"Address":{"Label":"Fischbacher Straße 19, 88436 Eberhardzell, Deutschland","Country":"DEU","State":"Baden-Württemberg","County":"Biberach","City":"Eberhardzell","District":"Eberhardzell","Street":"Fischbacher Straße","HouseNumber":"19","PostalCode":"88436","AdditionalData":[{"value":"Deutschland","key":"CountryName"},{"value":"Baden-Württemberg","key":"StateName"},{"value":"Biberach","key":"CountyName"}]},"MapReference":{"ReferenceId":"540818605","Spot":0.14,"SideOfStreet":"left","CountryId":"20147700","StateId":"20171489","CountyId":"20176513","CityId":"20176579","DistrictId":"20176582","AddressId":"178759677","RoadLinkId":"38687085"}}},{"Relevance":1.0,"Distance":25.1,"MatchLevel":"houseNumber","MatchQuality":{"Country":1.0,"State":1.0,"County":1.0,"City":1.0,"District":1.0,"Street":[1.0],"HouseNumber":1.0,"PostalCode":1.0},"MatchType":"interpolated","Location":{"LocationId":"NT_CECMhKZNYnqtc37v1KfTAC_xYD","LocationType":"point","DisplayPosition":{"Latitude":48.00332,"Longitude":9.82569},"MapView":{"TopLeft":{"Latitude":48.0044442,"Longitude":9.8240099},"BottomRight":{"Latitude":48.0021958,"Longitude":9.8273701}},"Address":{"Label":"Fischbacher Straße 16, 88436 Eberhardzell, Deutschland","Country":"DEU","State":"Baden-Württemberg","County":"Biberach","City":"Eberhardzell","District":"Eberhardzell","Street":"Fischbacher Straße","HouseNumber":"16","PostalCode":"88436","AdditionalData":[{"value":"Deutschland","key":"CountryName"},{"value":"Baden-Württemberg","key":"StateName"},{"value":"Biberach","key":"CountyName"}]},"MapReference":{"ReferenceId":"718073468","Spot":0.82,"SideOfStreet":"right","CountryId":"20147700","StateId":"20171489","CountyId":"20176513","CityId":"20176579","DistrictId":"20176582","AddressId":"177533419","RoadLinkId":"122948975"}}},{"Relevance":1.0,"Distance":38.4,"MatchLevel":"houseNumber","MatchQuality":{"Country":1.0,"State":1.0,"County":1.0,"City":1.0,"District":1.0,"Street":[1.0],"HouseNumber":1.0,"PostalCode":1.0},"MatchType":"interpolated","Location":{"LocationId":"NT_CECMhKZNYnqtc37v1KfTAC_xED","LocationType":"point","DisplayPosition":{"Latitude":48.00357,"Longitude":9.82477},"MapView":{"TopLeft":{"Latitude":48.0046942,"Longitude":9.8230899},"BottomRight":{"Latitude":48.0024458,"Longitude":9.8264501}},"Address":{"Label":"Fischbacher Straße 11, 88436 Eberhardzell, Deutschland","Country":"DEU","State":"Baden-Württemberg","County":"Biberach","City":"Eberhardzell","District":"Eberhardzell","Street":"Fischbacher Straße","HouseNumber":"11","PostalCode":"88436","AdditionalData":[{"value":"Deutschland","key":"CountryName"},{"value":"Baden-Württemberg","key":"StateName"},{"value":"Biberach","key":"CountyName"}]},"MapReference":{"ReferenceId":"718073470","Spot":0.72,"SideOfStreet":"right","CountryId":"20147700","StateId":"20171489","CountyId":"20176513","CityId":"20176579","DistrictId":"20176582","AddressId":"177291412","RoadLinkId":"122948977"}}},{"Relevance":1.0,"Distance":68.3,"MatchLevel":"houseNumber","MatchQuality":{"Country":1.0,"State":1.0,"County":1.0,"City":1.0,"District":1.0,"Street":[1.0],"HouseNumber":1.0,"PostalCode":1.0},"MatchType":"interpolated","Location":{"LocationId":"NT_CECMhKZNYnqtc37v1KfTAC_5A","LocationType":"point","DisplayPosition":{"Latitude":48.00299,"Longitude":9.8251},"MapView":{"TopLeft":{"Latitude":48.0041142,"Longitude":9.8234199},"BottomRight":{"Latitude":48.0018658,"Longitude":9.8267801}},"Address":{"Label":"Fischbacher Straße 9, 88436 Eberhardzell, Deutschland","Country":"DEU","State":"Baden-Württemberg","County":"Biberach","City":"Eberhardzell","District":"Eberhardzell","Street":"Fischbacher Straße","HouseNumber":"9","PostalCode":"88436","AdditionalData":[{"value":"Deutschland","key":"CountryName"},{"value":"Baden-Württemberg","key":"StateName"},{"value":"Biberach","key":"CountyName"}]},"MapReference":{"ReferenceId":"718073467","Spot":0.39,"SideOfStreet":"left","CountryId":"20147700","StateId":"20171489","CountyId":"20176513","CityId":"20176579","DistrictId":"20176582","AddressId":"179607235","RoadLinkId":"122948974"}}},{"Relevance":1.0,"Distance":69.2,"MatchLevel":"houseNumber","MatchQuality":{"Country":1.0,"State":1.0,"County":1.0,"City":1.0,"District":1.0,"Street":[1.0],"HouseNumber":1.0,"PostalCode":1.0},"MatchType":"interpolated","Location":{"LocationId":"NT_CECMhKZNYnqtc37v1KfTAC_yMD","LocationType":"point","DisplayPosition":{"Latitude":48.00393,"Longitude":9.82634},"MapView":{"TopLeft":{"Latitude":48.0050542,"Longitude":9.8246599},"BottomRight":{"Latitude":48.0028058,"Longitude":9.8280201}},"Address":{"Label":"Fischbacher Straße 23, 88436 Eberhardzell, Deutschland","Country":"DEU","State":"Baden-Württemberg","County":"Biberach","City":"Eberhardzell","District":"Eberhardzell","Street":"Fischbacher Straße","HouseNumber":"23","PostalCode":"88436","AdditionalData":[{"value":"Deutschland","key":"CountryName"},{"value":"Baden-Württemberg","key":"StateName"},{"value":"Biberach","key":"CountyName"}]},"MapReference":{"ReferenceId":"540818606","Spot":0.09,"SideOfStreet":"left","CountryId":"20147700","StateId":"20171489","CountyId":"20176513","CityId":"20176579","DistrictId":"20176582","AddressId":"199174291","RoadLinkId":"38960838"}}},{"Relevance":1.0,"Distance":92.2,"MatchLevel":"houseNumber","MatchQuality":{"Country":1.0,"State":1.0,"County":1.0,"City":1.0,"District":1.0,"Street":[1.0],"HouseNumber":1.0,"PostalCode":1.0},"MatchType":"interpolated","Location":{"LocationId":"NT_CECMhKZNYnqtc37v1KfTAC_xAD","LocationType":"point","DisplayPosition":{"Latitude":48.00286,"Longitude":9.82481},"MapView":{"TopLeft":{"Latitude":48.0039842,"Longitude":9.8231299},"BottomRight":{"Latitude":48.0017358,"Longitude":9.8264901}},"Address":{"Label":"Fischbacher Straße 10, 88436 Eberhardzell, Deutschland","Country":"DEU","State":"Baden-Württemberg","County":"Biberach","City":"Eberhardzell","District":"Eberhardzell","Street":"Fischbacher Straße","HouseNumber":"10","PostalCode":"88436","AdditionalData":[{"value":"Deutschland","key":"CountryName"},{"value":"Baden-Württemberg","key":"StateName"},{"value":"Biberach","key":"CountyName"}]},"MapReference":{"ReferenceId":"540818607","Spot":0.51,"SideOfStreet":"right","CountryId":"20147700","StateId":"20171489","CountyId":"20176513","CityId":"20176579","DistrictId":"20176582","AddressId":"180478233","RoadLinkId":"38056387"}}},{"Relevance":1.0,"Distance":96.5,"MatchLevel":"houseNumber","MatchQuality":{"Country":1.0,"State":1.0,"County":1.0,"City":1.0,"District":1.0,"Street":[1.0],"HouseNumber":1.0,"PostalCode":1.0},"MatchType":"interpolated","Location":{"LocationId":"NT_CECMhKZNYnqtc37v1KfTAC_yYzL1A","LocationType":"point","DisplayPosition":{"Latitude":48.0038,"Longitude":9.82684},"MapView":{"TopLeft":{"Latitude":48.0049242,"Longitude":9.8251599},"BottomRight":{"Latitude":48.0026758,"Longitude":9.8285201}},"Address":{"Label":"Fischbacher Straße 26/5, 88436 Eberhardzell, Deutschland","Country":"DEU","State":"Baden-Württemberg","County":"Biberach","City":"Eberhardzell","District":"Eberhardzell","Street":"Fischbacher Straße","HouseNumber":"26/5","PostalCode":"88436","AdditionalData":[{"value":"Deutschland","key":"CountryName"},{"value":"Baden-Württemberg","key":"StateName"},{"value":"Biberach","key":"CountyName"}]},"MapReference":{"ReferenceId":"540891958","Spot":0.44,"SideOfStreet":"left","CountryId":"20147700","StateId":"20171489","CountyId":"20176513","CityId":"20176579","DistrictId":"20176582","AddressId":"382276421","RoadLinkId":"38790206"}}},{"Relevance":1.0,"Distance":97.6,"MatchLevel":"houseNumber","MatchQuality":{"Country":1.0,"State":1.0,"County":1.0,"City":1.0,"District":1.0,"Street":[1.0],"HouseNumber":1.0,"PostalCode":1.0},"MatchType":"interpolated","Location":{"LocationId":"NT_CECMhKZNYnqtc37v1KfTAC_3A","LocationType":"point","DisplayPosition":{"Latitude":48.00328,"Longitude":9.82429},"MapView":{"TopLeft":{"Latitude":48.0044042,"Longitude":9.8226099},"BottomRight":{"Latitude":48.0021558,"Longitude":9.8259701}},"Address":{"Label":"Fischbacher Straße 7, 88436 Eberhardzell, Deutschland","Country":"DEU","State":"Baden-Württemberg","County":"Biberach","City":"Eberhardzell","District":"Eberhardzell","Street":"Fischbacher Straße","HouseNumber":"7","PostalCode":"88436","AdditionalData":[{"value":"Deutschland","key":"CountryName"},{"value":"Baden-Württemberg","key":"StateName"},{"value":"Biberach","key":"CountyName"}]},"MapReference":{"ReferenceId":"718073469","Spot":0.59,"SideOfStreet":"left","CountryId":"20147700","StateId":"20171489","CountyId":"20176513","CityId":"20176579","DistrictId":"20176582","AddressId":"179666600","RoadLinkId":"122948976"}}},{"Relevance":1.0,"Distance":98.8,"MatchLevel":"houseNumber","MatchQuality":{"Country":1.0,"State":1.0,"County":1.0,"City":1.0,"District":1.0,"Street":[1.0],"HouseNumber":1.0,"PostalCode":1.0},"MatchType":"interpolated","Location":{"LocationId":"NT_PyTrFkTvBbktUz.vLzwVxD_zA","LocationType":"point","DisplayPosition":{"Latitude":48.00447,"Longitude":9.826},"MapView":{"TopLeft":{"Latitude":48.0055942,"Longitude":9.8243198},"BottomRight":{"Latitude":48.0033458,"Longitude":9.8276802}},"Address":{"Label":"Auenweg 3, 88436 Eberhardzell, Deutschland","Country":"DEU","State":"Baden-Württemberg","County":"Biberach","City":"Eberhardzell","District":"Eberhardzell","Street":"Auenweg","HouseNumber":"3","PostalCode":"88436","AdditionalData":[{"value":"Deutschland","key":"CountryName"},{"value":"Baden-Württemberg","key":"StateName"},{"value":"Biberach","key":"CountyName"}]},"MapReference":{"ReferenceId":"574362211","Spot":0.23,"SideOfStreet":"left","CountryId":"20147700","StateId":"20171489","CountyId":"20176513","CityId":"20176579","DistrictId":"20176582","AddressId":"180484272","RoadLinkId":"38176194"}}}]}]}}