{"Response":{"MetaInfo":{"Timestamp":"2020-03-28T11:37:34.723+0000","NextPageInformation":"2"},"View":[{"_type":"SearchResultsViewType","ViewId":0,"Result":[{"Relevance":1.0,"Distance":0.0,"Direction":0.0,"MatchLevel":"city","MatchQuality":{"Country":1.0,"State":1.0,"County":1.0,"City":1.0,"PostalCode":1.0},"Location":{"LocationId":"NT_OKPvrB9NHHd-tRN9YE5OkC","LocationType":"point","DisplayPosition":{"Latitude":48.0852092,"Longitude":16.3579465},"MapView":{"TopLeft":{"Latitude":48.10773,"Longitude":16.32892},"BottomRight":{"Latitude":48.06355,"Longitude":16.3746}},"Address":{"Label":"Biedermannsdorf, Niederösterreich, Österreich","Country":"AUT","State":"Niederösterreich","County":"Mödling","City":"Biedermannsdorf","PostalCode":"2362","AdditionalData":[{"value":"Österreich","key":"CountryName"},{"value":"Niederösterreich","key":"StateName"},{"value":"Mödling","key":"CountyName"}]},"MapReference":{"ReferenceId":"65830761","SideOfStreet":"neither","CountryId":"20128885","StateId":"20130295","CountyId":"20131864","CityId":"20131868"}}},{"Relevance":1.0,"Distance":47.1,"MatchLevel":"houseNumber","MatchQuality":{"Country":1.0,"State":1.0,"County":1.0,"City":1.0,"Street":[1.0],"HouseNumber":1.0,"PostalCode":1.0},"MatchType":"interpolated","Location":{"LocationId":"NT_DIuyNR7zqM1TuXCUB3K3.A_xYjY","LocationType":"point","DisplayPosition":{"Latitude":48.08572,"Longitude":16.35801},"MapView":{"TopLeft":{"Latitude":48.0868442,"Longitude":16.3563272},"BottomRight":{"Latitude":48.0845958,"Longitude":16.3596928}},"Address":{"Label":"Siegfried-Marcus-Straße 16b, 2362 Biedermannsdorf, Österreich","Country":"AUT","State":"Niederösterreich","County":"Mödling","City":"Biedermannsdorf","Street":"Siegfried-Marcus-Straße","HouseNumber":"16b","PostalCode":"2362","AdditionalData":[{"value":"Österreich","key":"CountryName"},{"value":"Niederösterreich","key":"StateName"},{"value":"Mödling","key":"CountyName"}]},"MapReference":{"ReferenceId":"940619403","Spot":0.09,"SideOfStreet":"left","CountryId":"20128885","StateId":"20130295","CountyId":"20131864","CityId":"20131868","AddressId":"411879247","RoadLinkId":"290637276"}}},{"Relevance":1.0,"Distance":52.0,"MatchLevel":"houseNumber","MatchQuality":{"Country":1.0,"State":1.0,"County":1.0,"City":1.0,"Street":[1.0],"HouseNumber":1.0,"PostalCode":1.0},"MatchType":"interpolated","Location":{"LocationId":"NT_DIuyNR7zqM1TuXCUB3K3.A_xgD","LocationType":"point","DisplayPosition":{"Latitude":48.08573,"Longitude":16.3582},"MapView":{"TopLeft":{"Latitude":48.0868542,"Longitude":16.3565172},"BottomRight":{"Latitude":48.0846058,"Longitude":16.3598828}},"Address":{"Label":"Siegfried-Marcus-Straße 18, 2362 Biedermannsdorf, Österreich","Country":"AUT","State":"Niederösterreich","County":"Mödling","City":"Biedermannsdorf","Street":"Siegfried-Marcus-Straße","HouseNumber":"18","PostalCode":"2362","AdditionalData":[{"value":"Österreich","key":"CountryName"},{"value":"Niederösterreich","key":"StateName"},{"value":"Mödling","key":"CountyName"}]},"MapReference":{"ReferenceId":"940619404","Spot":0.08,"SideOfStreet":"right","CountryId":"20128885","StateId":"20130295","CountyId":"20131864","CityId":"20131868","AddressId":"214880560","RoadLinkId":"290637277"}}},{"Relevance":1.0,"Distance":72.7,"MatchLevel":"houseNumber","MatchQuality":{"Country":1.0,"State":1.0,"County":1.0,"City":1.0,"District":1.0,"Street":[1.0],"HouseNumber":1.0,"PostalCode":1.0},"MatchType":"interpolated","Location":{"LocationId":"NT_OSW.zEhxZJbEPWl.NJb-9C_yED","LocationType":"point","DisplayPosition":{"Latitude":48.08545,"Longitude":16.35666},"MapView":{"TopLeft":{"Latitude":48.0865742,"Longitude":16.3549772},"BottomRight":{"Latitude":48.0843258,"Longitude":16.3583428}},"Address":{"Label":"Rheinpoldtstraße 21, 2362 Biedermannsdorf, Österreich","Country":"AUT","State":"Niederösterreich","County":"Mödling","City":"Biedermannsdorf","District":"Biedermannsdorf","Street":"Rheinpoldtstraße","HouseNumber":"21","PostalCode":"2362","AdditionalData":[{"value":"Österreich","key":"CountryName"},{"value":"Niederösterreich","key":"StateName"},{"value":"Mödling","key":"CountyName"}]},"MapReference":{"ReferenceId":"62768825","Spot":0.63,"SideOfStreet":"right","CountryId":"20128885","StateId":"20130295","CountyId":"20131864","CityId":"20131868","DistrictId":"20131870","AddressId":"214937239","RoadLinkId":"28243771"}}},{"Relevance":1.0,"Distance":92.2,"MatchLevel":"street","MatchQuality":{"Country":1.0,"State":1.0,"County":1.0,"City":1.0,"PostalCode":1.0},"Location":{"LocationId":"NT_S6fUvZL8RJkPOZUAm4wiSC_l_60512096_L","LocationType":"point","DisplayPosition":{"Latitude":48.08574,"Longitude":16.3589},"MapView":{"TopLeft":{"Latitude":48.08584,"Longitude":16.35886},"BottomRight":{"Latitude":48.08568,"Longitude":16.35913}},"Address":{"Label":"2362 Biedermannsdorf, Österreich","Country":"AUT","State":"Niederösterreich","County":"Mödling","City":"Biedermannsdorf","PostalCode":"2362","AdditionalData":[{"value":"Österreich","key":"CountryName"},{"value":"Niederösterreich","key":"StateName"},{"value":"Mödling","key":"CountyName"}]},"MapReference":{"ReferenceId":"60512096","Spot":0.69,"SideOfStreet":"left","CountryId":"20128885","StateId":"20130295","CountyId":"20131864","CityId":"20131868"}}},{"Relevance":1.0,"Distance":92.9,"MatchLevel":"street","MatchQuality":{"Country":1.0,"State":1.0,"County":1.0,"City":1.0,"Street":[1.0],"PostalCode":1.0},"Location":{"LocationId":"NT_V2g2zLSTAODvmAs4ElEd8C_l_833428496_L","LocationType":"point","DisplayPosition":{"Latitude":48.0853501,"Longitude":16.3591791},"MapView":{"TopLeft":{"Latitude":48.08568,"Longitude":16.35913},"BottomRight":{"Latitude":48.084,"Longitude":16.35924}},"Address":{"Label":"L154, 2362 Biedermannsdorf, Österreich","Country":"AUT","State":"Niederösterreich","County":"Mödling","City":"Biedermannsdorf","Street":"L154","PostalCode":"2362","AdditionalData":[{"value":"Österreich","key":"CountryName"},{"value":"Niederösterreich","key":"StateName"},{"value":"Mödling","key":"CountyName"}]},"MapReference":{"ReferenceId":"833428496","Spot":0.8,"SideOfStreet":"left","CountryId":"20128885","StateId":"20130295","CountyId":"20131864","CityId":"20131868"}}},{"Relevance":1.0,"Distance":97.6,"MatchLevel":"street","MatchQuality":{"Country":1.0,"State":1.0,"County":1.0,"City":1.0,"PostalCode":1.0},"Location":{"LocationId":"NT_S6fUvZL8RJkPOZUAm4wiSC_l_60512095_L","LocationType":"point","DisplayPosition":{"Latitude":48.08584,"Longitude":16.35886},"MapView":{"TopLeft":{"Latitude":48.08599,"Longitude":16.35886},"BottomRight":{"Latitude":48.08584,"Longitude":16.35906}},"Address":{"Label":"2362 Biedermannsdorf, Österreich","Country":"AUT","State":"Niederösterreich","County":"Mödling","City":"Biedermannsdorf","PostalCode":"2362","AdditionalData":[{"value":"Österreich","key":"CountryName"},{"value":"Niederösterreich","key":"StateName"},{"value":"Mödling","key":"CountyName"}]},"MapReference":{"ReferenceId":"60512095","Spot":0.0,"SideOfStreet":"left","CountryId":"20128885","StateId":"20130295","CountyId":"20131864","CityId":"20131868"}}},{"Relevance":1.0,"Distance":102.3,"MatchLevel":"street","MatchQuality":{"Country":1.0,"State":1.0,"County":1.0,"City":1.0,"PostalCode":1.0},"Location":{"LocationId":"NT_S6fUvZL8RJkPOZUAm4wiSC_l_825382270_L","LocationType":"point","DisplayPosition":{"Latitude":48.08568,"Longitude":16.35913},"MapView":{"TopLeft":{"Latitude":48.08586,"Longitude":16.35913},"BottomRight":{"Latitude":48.08568,"Longitude":16.35931}},"Address":{"Label":"2362 Biedermannsdorf, Österreich","Country":"AUT","State":"Niederösterreich","County":"Mödling","City":"Biedermannsdorf","PostalCode":"2362","AdditionalData":[{"value":"Österreich","key":"CountryName"},{"value":"Niederösterreich","key":"StateName"},{"value":"Mödling","key":"CountyName"}]},"MapReference":{"ReferenceId":"825382270","Spot":0.0,"SideOfStreet":"left","CountryId":"20128885","StateId":"20130295","CountyId":"20131864","CityId":"20131868"}}},{"Relevance":1.0,"Distance":119.9,"MatchLevel":"street","MatchQuality":{"Country":1.0,"State":1.0,"County":1.0,"City":1.0,"Street":[1.0],"PostalCode":1.0},"Location":{"LocationId":"NT_V2g2zLSTAODvmAs4ElEd8C_l_772364776_L","LocationType":"point","DisplayPosition":{"Latitude":48.08599,"Longitude":16.35906},"MapView":{"TopLeft":{"Latitude":48.08957,"Longitude":16.35865},"BottomRight":{"Latitude":48.08599,"Longitude":16.35906}},"Address":{"Label":"L154, 2362 Biedermannsdorf, Österreich","Country":"AUT","State":"Niederösterreich","County":"Mödling","City":"Biedermannsdorf","Street":"L154","PostalCode":"2362","AdditionalData":[{"value":"Österreich","key":"CountryName"},{"value":"Niederösterreich","key":"StateName"},{"value":"Mödling","key":"CountyName"}]},"MapReference":{"ReferenceId":"772364776","Spot":0.0,"SideOfStreet":"left","CountryId":"20128885","StateId":"20130295","CountyId":"20131864","CityId":"20131868"}}},{"Relevance":1.0,"Distance":119.9,"MatchLevel":"street","MatchQuality":{"Country":1.0,"State":1.0,"County":1.0,"City":1.0,"PostalCode":1.0},"Location":{"LocationId":"NT_S6fUvZL8RJkPOZUAm4wiSC_l_825382271_L","LocationType":"point","DisplayPosition":{"Latitude":48.08599,"Longitude":16.35906},"MapView":{"TopLeft":{"Latitude":48.08599,"Longitude":16.35906},"BottomRight":{"Latitude":48.08586,"Longitude":16.35931}},"Address":{"Label":"2362 Biedermannsdorf, Österreich","Country":"AUT","State":"Niederösterreich","County":"Mödling","City":"Biedermannsdorf","PostalCode":"2362","AdditionalData":[{"value":"Österreich","key":"CountryName"},{"value":"Niederösterreich","key":"StateName"},{"value":"Mödling","key":"CountyName"}]},"MapReference":{"ReferenceId":"825382271","Spot":1.0,"SideOfStreet":"left","CountryId":"20128885","StateId":"20130295","CountyId":"20131864","CityId":"20131868"}}}]}]}}