{"Response":{"MetaInfo":{"Timestamp":"2020-03-28T10:22:05.039+0000","NextPageInformation":"2"},"View":[{"_type":"SearchResultsViewType","ViewId":0,"Result":[{"Relevance":1.0,"Distance":0.0,"Direction":0.0,"MatchLevel":"district","MatchQuality":{"Country":1.0,"State":1.0,"County":1.0,"City":1.0,"District":1.0,"PostalCode":1.0},"Location":{"LocationId":"NT_dWmi-1WXOdMyVZ4GgHvxTD","LocationType":"point","DisplayPosition":{"Latitude":48.0763456,"Longitude":11.9593263},"MapView":{"TopLeft":{"Latitude":48.09027,"Longitude":11.95142},"BottomRight":{"Latitude":48.06895,"Longitude":11.98019}},"Address":{"Label":"Ebersberg, Bayern, Deutschland","Country":"DEU","State":"Bayern","County":"Ebersberg","City":"Ebersberg","District":"Ebersberg","PostalCode":"85560","AdditionalData":[{"value":"Deutschland","key":"CountryName"},{"value":"Bayern","key":"StateName"},{"value":"Ebersberg","key":"CountyName"}]},"MapReference":{"ReferenceId":"82012476","SideOfStreet":"neither","CountryId":"20147700","StateId":"20177250","CountyId":"20177648","CityId":"20177664","DistrictId":"20177666"}}},{"Relevance":1.0,"Distance":15.9,"MatchLevel":"houseNumber","MatchQuality":{"Country":1.0,"State":1.0,"County":1.0,"City":1.0,"District":1.0,"Street":[1.0],"HouseNumber":1.0,"PostalCode":1.0},"MatchType":"interpolated","Location":{"LocationId":"NT_byhpwF6ajrhcMt75y-YdbB_xA","LocationType":"point","DisplayPosition":{"Latitude":48.07648,"Longitude":11.9594},"MapView":{"TopLeft":{"Latitude":48.0776042,"Longitude":11.9577175},"BottomRight":{"Latitude":48.0753558,"Longitude":11.9610825}},"Address":{"Label":"Von-Scala-Straße 1, 85560 Ebersberg, Deutschland","Country":"DEU","State":"Bayern","County":"Ebersberg","City":"Ebersberg","District":"Ebersberg","Street":"Von-Scala-Straße","HouseNumber":"1","PostalCode":"85560","AdditionalData":[{"value":"Deutschland","key":"CountryName"},{"value":"Bayern","key":"StateName"},{"value":"Ebersberg","key":"CountyName"}]},"MapReference":{"ReferenceId":"82008848","Spot":0.89,"SideOfStreet":"right","CountryId":"20147700","StateId":"20177250","CountyId":"20177648","CityId":"20177664","DistrictId":"20177666","AddressId":"184892174","RoadLinkId":"33383626"}}},{"Relevance":1.0,"Distance":35.3,"MatchLevel":"houseNumber","MatchQuality":{"Country":1.0,"State":1.0,"County":1.0,"City":1.0,"District":1.0,"Street":[1.0],"HouseNumber":1.0,"PostalCode":1.0},"MatchType":"interpolated","Location":{"LocationId":"NT_byhpwF6ajrhcMt75y-YdbB_xEE","LocationType":"point","DisplayPosition":{"Latitude":48.07625,"Longitude":11.95978},"MapView":{"TopLeft":{"Latitude":48.0773742,"Longitude":11.9580975},"BottomRight":{"Latitude":48.0751258,"Longitude":11.9614625}},"Address":{"Label":"Von-Scala-Straße 1A, 85560 Ebersberg, Deutschland","Country":"DEU","State":"Bayern","County":"Ebersberg","City":"Ebersberg","District":"Ebersberg","Street":"Von-Scala-Straße","HouseNumber":"1A","PostalCode":"85560","AdditionalData":[{"value":"Deutschland","key":"CountryName"},{"value":"Bayern","key":"StateName"},{"value":"Ebersberg","key":"CountyName"}]},"MapReference":{"ReferenceId":"1201133951","Spot":0.4,"SideOfStreet":"right","CountryId":"20147700","StateId":"20177250","CountyId":"20177648","CityId":"20177664","DistrictId":"20177666","AddressId":"621698605","RoadLinkId":"514080135"}}},{"Relevance":1.0,"Distance":39.1,"MatchLevel":"houseNumber","MatchQuality":{"Country":1.0,"State":1.0,"County":1.0,"City":1.0,"District":1.0,"Street":[1.0],"HouseNumber":1.0,"PostalCode":1.0},"MatchType":"interpolated","Location":{"LocationId":"NT_byhpwF6ajrhcMt75y-YdbB_yA","LocationType":"point","DisplayPosition":{"Latitude":48.0767,"Longitude":11.9596},"MapView":{"TopLeft":{"Latitude":48.0778242,"Longitude":11.9579175},"BottomRight":{"Latitude":48.0755758,"Longitude":11.9612825}},"Address":{"Label":"Von-Scala-Straße 2, 85560 Ebersberg, Deutschland","Country":"DEU","State":"Bayern","County":"Ebersberg","City":"Ebersberg","District":"Ebersberg","Street":"Von-Scala-Straße","HouseNumber":"2","PostalCode":"85560","AdditionalData":[{"value":"Deutschland","key":"CountryName"},{"value":"Bayern","key":"StateName"},{"value":"Ebersberg","key":"CountyName"}]},"MapReference":{"ReferenceId":"82012354","Spot":0.64,"SideOfStreet":"left","CountryId":"20147700","StateId":"20177250","CountyId":"20177648","CityId":"20177664","DistrictId":"20177666","AddressId":"182318588","RoadLinkId":"33436139"}}},{"Relevance":1.0,"Distance":65.6,"MatchLevel":"houseNumber","MatchQuality":{"Country":1.0,"State":1.0,"County":1.0,"City":1.0,"District":1.0,"Street":[1.0],"HouseNumber":1.0,"PostalCode":1.0},"MatchType":"interpolated","Location":{"LocationId":"NT_2LGmcATCQshSBi7YsUcPJB_xID","LocationType":"point","DisplayPosition":{"Latitude":48.07683,"Longitude":11.95983},"MapView":{"TopLeft":{"Latitude":48.0779542,"Longitude":11.9581475},"BottomRight":{"Latitude":48.0757058,"Longitude":11.9615125}},"Address":{"Label":"Pfarrer-Guggetzer-Straße 12, 85560 Ebersberg, Deutschland","Country":"DEU","State":"Bayern","County":"Ebersberg","City":"Ebersberg","District":"Ebersberg","Street":"Pfarrer-Guggetzer-Straße","HouseNumber":"12","PostalCode":"85560","AdditionalData":[{"value":"Deutschland","key":"CountryName"},{"value":"Bayern","key":"StateName"},{"value":"Ebersberg","key":"CountyName"}]},"MapReference":{"ReferenceId":"586898073","Spot":0.22,"SideOfStreet":"left","CountryId":"20147700","StateId":"20177250","CountyId":"20177648","CityId":"20177664","DistrictId":"20177666","AddressId":"183837354","RoadLinkId":"33307495"}}},{"Relevance":1.0,"Distance":70.9,"MatchLevel":"houseNumber","MatchQuality":{"Country":1.0,"State":1.0,"County":1.0,"City":1.0,"District":1.0,"Street":[1.0],"HouseNumber":1.0,"PostalCode":1.0},"MatchType":"interpolated","Location":{"LocationId":"NT_BHOUYYuR52iCsvMYc2PabD_2A","LocationType":"point","DisplayPosition":{"Latitude":48.07698,"Longitude":11.95955},"MapView":{"TopLeft":{"Latitude":48.0781042,"Longitude":11.9578675},"BottomRight":{"Latitude":48.0758558,"Longitude":11.9612325}},"Address":{"Label":"Bürgermeister-Meyer-Straße 6, 85560 Ebersberg, Deutschland","Country":"DEU","State":"Bayern","County":"Ebersberg","City":"Ebersberg","District":"Ebersberg","Street":"Bürgermeister-Meyer-Straße","HouseNumber":"6","PostalCode":"85560","AdditionalData":[{"value":"Deutschland","key":"CountryName"},{"value":"Bayern","key":"StateName"},{"value":"Ebersberg","key":"CountyName"}]},"MapReference":{"ReferenceId":"82012353","Spot":0.34,"SideOfStreet":"left","CountryId":"20147700","StateId":"20177250","CountyId":"20177648","CityId":"20177664","DistrictId":"20177666","AddressId":"182902738","RoadLinkId":"33736922"}}},{"Relevance":1.0,"Distance":85.0,"MatchLevel":"houseNumber","MatchQuality":{"Country":1.0,"State":1.0,"County":1.0,"City":1.0,"District":1.0,"Street":[1.0],"HouseNumber":1.0,"PostalCode":1.0},"MatchType":"interpolated","Location":{"LocationId":"NT_APW53D3jLkeRLBvK-KRkED_zA","LocationType":"point","DisplayPosition":{"Latitude":48.07729,"Longitude":11.9593},"MapView":{"TopLeft":{"Latitude":48.0784142,"Longitude":11.9576175},"BottomRight":{"Latitude":48.0761658,"Longitude":11.9609825}},"Address":{"Label":"Kurt-Rohde-Platz 3, 85560 Ebersberg, Deutschland","Country":"DEU","State":"Bayern","County":"Ebersberg","City":"Ebersberg","District":"Ebersberg","Street":"Kurt-Rohde-Platz","HouseNumber":"3","PostalCode":"85560","AdditionalData":[{"value":"Deutschland","key":"CountryName"},{"value":"Bayern","key":"StateName"},{"value":"Ebersberg","key":"CountyName"}]},"MapReference":{"ReferenceId":"82008823","Spot":0.72,"SideOfStreet":"right","CountryId":"20147700","StateId":"20177250","CountyId":"20177648","CityId":"20177664","DistrictId":"20177666","AddressId":"185005300","RoadLinkId":"32839213"}}},{"Relevance":1.0,"Distance":109.6,"MatchLevel":"houseNumber","MatchQuality":{"Country":1.0,"State":1.0,"County":1.0,"City":1.0,"District":1.0,"Street":[1.0],"HouseNumber":1.0,"PostalCode":1.0},"MatchType":"interpolated","Location":{"LocationId":"NT_I6Wjp-aBIJqsyBi9X5RinA_zEE","LocationType":"point","DisplayPosition":{"Latitude":48.0773,"Longitude":11.95824},"MapView":{"TopLeft":{"Latitude":48.0784242,"Longitude":11.9565575},"BottomRight":{"Latitude":48.0761758,"Longitude":11.9599225}},"Address":{"Label":"Von-Feury-Straße 3A, 85560 Ebersberg, Deutschland","Country":"DEU","State":"Bayern","County":"Ebersberg","City":"Ebersberg","District":"Ebersberg","Street":"Von-Feury-Straße","HouseNumber":"3A","PostalCode":"85560","AdditionalData":[{"value":"Deutschland","key":"CountryName"},{"value":"Bayern","key":"StateName"},{"value":"Ebersberg","key":"CountyName"}]},"MapReference":{"ReferenceId":"82008808","Spot":0.28,"SideOfStreet":"left","CountryId":"20147700","StateId":"20177250","CountyId":"20177648","CityId":"20177664","DistrictId":"20177666","AddressId":"182176322","RoadLinkId":"33321139"}}},{"Relevance":1.0,"Distance":111.4,"MatchLevel":"street","MatchQuality":{"Country":1.0,"State":1.0,"County":1.0,"City":1.0,"District":1.0,"PostalCode":1.0},"Location":{"LocationId":"NT_vkK7cNXUdSO98szKtcfYPD_l_586898075_L","LocationType":"point","DisplayPosition":{"Latitude":48.07664,"Longitude":11.96076},"MapView":{"TopLeft":{"Latitude":48.07688,"Longitude":11.96074},"BottomRight":{"Latitude":48.07664,"Longitude":11.96076}},"Address":{"Label":"85560 Ebersberg, Deutschland","Country":"DEU","State":"Bayern","County":"Ebersberg","City":"Ebersberg","District":"Ebersberg","PostalCode":"85560","AdditionalData":[{"value":"Deutschland","key":"CountryName"},{"value":"Bayern","key":"StateName"},{"value":"Ebersberg","key":"CountyName"}]},"MapReference":{"ReferenceId":"586898075","Spot":0.0,"SideOfStreet":"left","CountryId":"20147700","StateId":"20177250","CountyId":"20177648","CityId":"20177664","DistrictId":"20177666"}}},{"Relevance":1.0,"Distance":119.3,"MatchLevel":"houseNumber","MatchQuality":{"Country":1.0,"State":1.0,"County":1.0,"City":1.0,"District":1.0,"Street":[1.0],"HouseNumber":1.0,"PostalCode":1.0},"MatchType":"interpolated","Location":{"LocationId":"NT_9uRY-kpQFZ.XEEFWVK6HGD_xYD","LocationType":"point","DisplayPosition":{"Latitude":48.07562,"Longitude":11.95787},"MapView":{"TopLeft":{"Latitude":48.0767442,"Longitude":11.9561875},"BottomRight":{"Latitude":48.0744958,"Longitude":11.9595525}},"Address":{"Label":"Münchener Straße 16, 85560 Ebersberg, Deutschland","Country":"DEU","State":"Bayern","County":"Ebersberg","City":"Ebersberg","District":"Ebersberg","Street":"Münchener Straße","HouseNumber":"16","PostalCode":"85560","AdditionalData":[{"value":"Deutschland","key":"CountryName"},{"value":"Bayern","key":"StateName"},{"value":"Ebersberg","key":"CountyName"}]},"MapReference":{"ReferenceId":"783968670","Spot":0.4,"SideOfStreet":"left","CountryId":"20147700","StateId":"20177250","CountyId":"20177648","CityId":"20177664","DistrictId":"20177666","AddressId":"732490857","RoadLinkId":"176845954"}}}]}]}}