{"Response":{"MetaInfo":{"Timestamp":"2020-03-28T10:51:16.118+0000","NextPageInformation":"2"},"View":[{"_type":"SearchResultsViewType","ViewId":0,"Result":[{"Relevance":1.0,"Distance":0.0,"Direction":0.0,"MatchLevel":"district","MatchQuality":{"Country":1.0,"State":1.0,"County":1.0,"City":1.0,"District":1.0,"PostalCode":1.0},"Location":{"LocationId":"NT_WB2lMMQL6vKCPv.Bx1uBqD","LocationType":"point","DisplayPosition":{"Latitude":48.0901654,"Longitude":16.2957719},"MapView":{"TopLeft":{"Latitude":48.09396,"Longitude":16.24688},"BottomRight":{"Latitude":48.06726,"Longitude":16.3093}},"Address":{"Label":"Mödling, Niederösterreich, Österreich","Country":"AUT","State":"Niederösterreich","County":"Mödling","City":"Mödling","District":"Mödling","PostalCode":"2340","AdditionalData":[{"value":"Österreich","key":"CountryName"},{"value":"Niederösterreich","key":"StateName"},{"value":"Mödling","key":"CountyName"}]},"MapReference":{"ReferenceId":"62722213","SideOfStreet":"neither","CountryId":"20128885","StateId":"20130295","CountyId":"20131864","CityId":"20131910","DistrictId":"20131912"}}},{"Relevance":1.0,"Distance":6.0,"MatchLevel":"houseNumber","MatchQuality":{"Country":1.0,"State":1.0,"County":1.0,"City":1.0,"District":1.0,"Street":[1.0],"HouseNumber":1.0,"PostalCode":1.0},"MatchType":"interpolated","Location":{"LocationId":"NT_gpNnecsKM.tSDI1mr2qaLC_yUD","LocationType":"point","DisplayPosition":{"Latitude":48.0902,"Longitude":16.29571},"MapView":{"TopLeft":{"Latitude":48.0913242,"Longitude":16.294027},"BottomRight":{"Latitude":48.0890758,"Longitude":16.297393}},"Address":{"Label":"Gabrieler Straße 25, 2340 Mödling, Österreich","Country":"AUT","State":"Niederösterreich","County":"Mödling","City":"Mödling","District":"Mödling","Street":"Gabrieler Straße","HouseNumber":"25","PostalCode":"2340","AdditionalData":[{"value":"Österreich","key":"CountryName"},{"value":"Niederösterreich","key":"StateName"},{"value":"Mödling","key":"CountyName"}]},"MapReference":{"ReferenceId":"62722049","Spot":1.0,"SideOfStreet":"left","CountryId":"20128885","StateId":"20130295","CountyId":"20131864","CityId":"20131910","DistrictId":"20131912","AddressId":"213827452","RoadLinkId":"28109013"}}},{"Relevance":1.0,"Distance":13.5,"MatchLevel":"houseNumber","MatchQuality":{"Country":1.0,"State":1.0,"County":1.0,"City":1.0,"District":1.0,"Street":[1.0],"HouseNumber":1.0,"PostalCode":1.0},"MatchType":"interpolated","Location":{"LocationId":"NT_Eov-A99SmPunpRIYXN85dB_zgD","LocationType":"point","DisplayPosition":{"Latitude":48.09019,"Longitude":16.29595},"MapView":{"TopLeft":{"Latitude":48.0913142,"Longitude":16.294267},"BottomRight":{"Latitude":48.0890658,"Longitude":16.297633}},"Address":{"Label":"Ferdinand-Buchberger-Gasse 38, 2340 Mödling, Österreich","Country":"AUT","State":"Niederösterreich","County":"Mödling","City":"Mödling","District":"Mödling","Street":"Ferdinand-Buchberger-Gasse","HouseNumber":"38","PostalCode":"2340","AdditionalData":[{"value":"Österreich","key":"CountryName"},{"value":"Niederösterreich","key":"StateName"},{"value":"Mödling","key":"CountyName"}]},"MapReference":{"ReferenceId":"62722029","Spot":0.85,"SideOfStreet":"right","CountryId":"20128885","StateId":"20130295","CountyId":"20131864","CityId":"20131910","DistrictId":"20131912","AddressId":"160708921","RoadLinkId":"28170630"}}},{"Relevance":1.0,"Distance":17.5,"MatchLevel":"houseNumber","MatchQuality":{"Country":1.0,"State":1.0,"County":1.0,"City":1.0,"District":1.0,"Street":[1.0],"HouseNumber":1.0,"PostalCode":1.0},"MatchType":"interpolated","Location":{"LocationId":"NT_gpNnecsKM.tSDI1mr2qaLC_ygD","LocationType":"point","DisplayPosition":{"Latitude":48.09032,"Longitude":16.29573},"MapView":{"TopLeft":{"Latitude":48.0914442,"Longitude":16.294047},"BottomRight":{"Latitude":48.0891958,"Longitude":16.297413}},"Address":{"Label":"Gabrieler Straße 28, 2340 Mödling, Österreich","Country":"AUT","State":"Niederösterreich","County":"Mödling","City":"Mödling","District":"Mödling","Street":"Gabrieler Straße","HouseNumber":"28","PostalCode":"2340","AdditionalData":[{"value":"Österreich","key":"CountryName"},{"value":"Niederösterreich","key":"StateName"},{"value":"Mödling","key":"CountyName"}]},"MapReference":{"ReferenceId":"62722021","Spot":0.08,"SideOfStreet":"right","CountryId":"20128885","StateId":"20130295","CountyId":"20131864","CityId":"20131910","DistrictId":"20131912","AddressId":"160706412","RoadLinkId":"28757351"}}},{"Relevance":1.0,"Distance":34.2,"MatchLevel":"houseNumber","MatchQuality":{"Country":1.0,"State":1.0,"County":1.0,"City":1.0,"District":1.0,"Street":[1.0],"HouseNumber":1.0,"PostalCode":1.0},"MatchType":"interpolated","Location":{"LocationId":"NT_KgtukrmejDQQw8aZ9UrBlB_yA","LocationType":"point","DisplayPosition":{"Latitude":48.08987,"Longitude":16.29542},"MapView":{"TopLeft":{"Latitude":48.0909942,"Longitude":16.293737},"BottomRight":{"Latitude":48.0887458,"Longitude":16.297103}},"Address":{"Label":"Dr.-Otto-Füster-Gasse 2, 2340 Mödling, Österreich","Country":"AUT","State":"Niederösterreich","County":"Mödling","City":"Mödling","District":"Mödling","Street":"Dr.-Otto-Füster-Gasse","HouseNumber":"2","PostalCode":"2340","AdditionalData":[{"value":"Österreich","key":"CountryName"},{"value":"Niederösterreich","key":"StateName"},{"value":"Mödling","key":"CountyName"}]},"MapReference":{"ReferenceId":"62722050","Spot":0.26,"SideOfStreet":"right","CountryId":"20128885","StateId":"20130295","CountyId":"20131864","CityId":"20131910","DistrictId":"20131912","AddressId":"729046859","RoadLinkId":"28639900"}}},{"Relevance":1.0,"Distance":43.1,"MatchLevel":"houseNumber","MatchQuality":{"Country":1.0,"State":1.0,"County":1.0,"City":1.0,"District":1.0,"Street":[1.0],"HouseNumber":1.0,"PostalCode":1.0},"MatchType":"interpolated","Location":{"LocationId":"NT_gpNnecsKM.tSDI1mr2qaLC_yYD","LocationType":"point","DisplayPosition":{"Latitude":48.08978,"Longitude":16.29571},"MapView":{"TopLeft":{"Latitude":48.0909042,"Longitude":16.2940271},"BottomRight":{"Latitude":48.0886558,"Longitude":16.2973929}},"Address":{"Label":"Gabrieler Straße 26, 2340 Mödling, Österreich","Country":"AUT","State":"Niederösterreich","County":"Mödling","City":"Mödling","District":"Mödling","Street":"Gabrieler Straße","HouseNumber":"26","PostalCode":"2340","AdditionalData":[{"value":"Österreich","key":"CountryName"},{"value":"Niederösterreich","key":"StateName"},{"value":"Mödling","key":"CountyName"}]},"MapReference":{"ReferenceId":"62722074","Spot":0.88,"SideOfStreet":"right","CountryId":"20128885","StateId":"20130295","CountyId":"20131864","CityId":"20131910","DistrictId":"20131912","AddressId":"728475672","RoadLinkId":"28770399"}}},{"Relevance":1.0,"Distance":70.0,"MatchLevel":"houseNumber","MatchQuality":{"Country":1.0,"State":1.0,"County":1.0,"City":1.0,"District":1.0,"Street":[1.0],"HouseNumber":1.0,"PostalCode":1.0},"MatchType":"interpolated","Location":{"LocationId":"NT_aO78.6HHGs.vjZUnfAWq0A_0A","LocationType":"point","DisplayPosition":{"Latitude":48.09043,"Longitude":16.29464},"MapView":{"TopLeft":{"Latitude":48.0915542,"Longitude":16.292957},"BottomRight":{"Latitude":48.0893058,"Longitude":16.296323}},"Address":{"Label":"Ferdinand-Fleischmann-Gasse 4, 2340 Mödling, Österreich","Country":"AUT","State":"Niederösterreich","County":"Mödling","City":"Mödling","District":"Mödling","Street":"Ferdinand-Fleischmann-Gasse","HouseNumber":"4","PostalCode":"2340","AdditionalData":[{"value":"Österreich","key":"CountryName"},{"value":"Niederösterreich","key":"StateName"},{"value":"Mödling","key":"CountyName"}]},"MapReference":{"ReferenceId":"986050954","Spot":0.68,"SideOfStreet":"right","CountryId":"20128885","StateId":"20130295","CountyId":"20131864","CityId":"20131910","DistrictId":"20131912","AddressId":"160706663","RoadLinkId":"316754184"}}},{"Relevance":1.0,"Distance":93.2,"MatchLevel":"houseNumber","MatchQuality":{"Country":1.0,"State":1.0,"County":1.0,"City":1.0,"District":1.0,"Street":[1.0],"HouseNumber":1.0,"PostalCode":1.0},"MatchType":"interpolated","Location":{"LocationId":"NT_aO78.6HHGs.vjZUnfAWq0A_2A","LocationType":"point","DisplayPosition":{"Latitude":48.09082,"Longitude":16.29469},"MapView":{"TopLeft":{"Latitude":48.0919442,"Longitude":16.293007},"BottomRight":{"Latitude":48.0896958,"Longitude":16.296373}},"Address":{"Label":"Ferdinand-Fleischmann-Gasse 6, 2340 Mödling, Österreich","Country":"AUT","State":"Niederösterreich","County":"Mödling","City":"Mödling","District":"Mödling","Street":"Ferdinand-Fleischmann-Gasse","HouseNumber":"6","PostalCode":"2340","AdditionalData":[{"value":"Österreich","key":"CountryName"},{"value":"Niederösterreich","key":"StateName"},{"value":"Mödling","key":"CountyName"}]},"MapReference":{"ReferenceId":"986050955","Spot":0.26,"SideOfStreet":"right","CountryId":"20128885","StateId":"20130295","CountyId":"20131864","CityId":"20131910","DistrictId":"20131912","AddressId":"160706664","RoadLinkId":"316754185"}}},{"Relevance":1.0,"Distance":97.2,"MatchLevel":"houseNumber","MatchQuality":{"Country":1.0,"State":1.0,"County":1.0,"City":1.0,"District":1.0,"Street":[1.0],"HouseNumber":1.0,"PostalCode":1.0},"MatchType":"interpolated","Location":{"LocationId":"NT_2.vk0XVIFV3vN9tHHP8GiD_yA","LocationType":"point","DisplayPosition":{"Latitude":48.08926,"Longitude":16.29544},"MapView":{"TopLeft":{"Latitude":48.0903842,"Longitude":16.2937571},"BottomRight":{"Latitude":48.0881358,"Longitude":16.2971229}},"Address":{"Label":"Elsa-Brändström-Gasse 2, 2340 Mödling, Österreich","Country":"AUT","State":"Niederösterreich","County":"Mödling","City":"Mödling","District":"Mödling","Street":"Elsa-Brändström-Gasse","HouseNumber":"2","PostalCode":"2340","AdditionalData":[{"value":"Österreich","key":"CountryName"},{"value":"Niederösterreich","key":"StateName"},{"value":"Mödling","key":"CountyName"}]},"MapReference":{"ReferenceId":"62722081","Spot":0.12,"SideOfStreet":"right","CountryId":"20128885","StateId":"20130295","CountyId":"20131864","CityId":"20131910","DistrictId":"20131912","AddressId":"729083991","RoadLinkId":"28444528"}}},{"Relevance":1.0,"Distance":103.2,"MatchLevel":"houseNumber","MatchQuality":{"Country":1.0,"State":1.0,"County":1.0,"City":1.0,"District":1.0,"Street":[1.0],"HouseNumber":1.0,"PostalCode":1.0},"MatchType":"interpolated","Location":{"LocationId":"NT_KgtukrmejDQQw8aZ9UrBlB_l_62722045_R_4A","LocationType":"point","DisplayPosition":{"Latitude":48.08994,"Longitude":16.2943799},"MapView":{"TopLeft":{"Latitude":48.0910642,"Longitude":16.292697},"BottomRight":{"Latitude":48.0888159,"Longitude":16.2960629}},"Address":{"Label":"Dr.-Otto-Füster-Gasse 8, 2340 Mödling, Österreich","Country":"AUT","State":"Niederösterreich","County":"Mödling","City":"Mödling","District":"Mödling","Street":"Dr.-Otto-Füster-Gasse","HouseNumber":"8","PostalCode":"2340","AdditionalData":[{"value":"Österreich","key":"CountryName"},{"value":"Niederösterreich","key":"StateName"},{"value":"Mödling","key":"CountyName"}]},"MapReference":{"ReferenceId":"62722045","Spot":0.22,"SideOfStreet":"right","CountryId":"20128885","StateId":"20130295","CountyId":"20131864","CityId":"20131910","DistrictId":"20131912"}}}]}]}}