{"Response":{"MetaInfo":{"Timestamp":"2020-03-28T10:14:08.207+0000","NextPageInformation":"2"},"View":[{"_type":"SearchResultsViewType","ViewId":0,"Result":[{"Relevance":1.0,"Distance":0.0,"Direction":0.0,"MatchLevel":"district","MatchQuality":{"Country":1.0,"State":1.0,"County":1.0,"City":1.0,"District":1.0,"PostalCode":1.0},"Location":{"LocationId":"NT_s2o.U5QVCAgCOuDCQVwihC","LocationType":"point","DisplayPosition":{"Latitude":48.0000227,"Longitude":13.9232296},"MapView":{"TopLeft":{"Latitude":48.00798,"Longitude":13.90893},"BottomRight":{"Latitude":47.99415,"Longitude":13.93009}},"Address":{"Label":"Vorchdorf, Oberösterreich, Österreich","Country":"AUT","State":"Oberösterreich","County":"Gmunden","City":"Vorchdorf","District":"Vorchdorf","PostalCode":"4655","AdditionalData":[{"value":"Österreich","key":"CountryName"},{"value":"Oberösterreich","key":"StateName"},{"value":"Gmunden","key":"CountyName"}]},"MapReference":{"ReferenceId":"568598551","SideOfStreet":"neither","CountryId":"20128885","StateId":"20132880","CountyId":"20133210","CityId":"20133279","DistrictId":"20133282"}}},{"Relevance":1.0,"Distance":13.6,"MatchLevel":"houseNumber","MatchQuality":{"Country":1.0,"State":1.0,"County":1.0,"City":1.0,"District":1.0,"Street":[1.0],"HouseNumber":1.0,"PostalCode":1.0},"MatchType":"interpolated","Location":{"LocationId":"NT_0tziEcbhe0AY5-YTHX1wMB_3A","LocationType":"point","DisplayPosition":{"Latitude":47.9999,"Longitude":13.92323},"MapView":{"TopLeft":{"Latitude":48.0010242,"Longitude":13.92155},"BottomRight":{"Latitude":47.9987758,"Longitude":13.92491}},"Address":{"Label":"Laudachweg 7, 4655 Vorchdorf, Österreich","Country":"AUT","State":"Oberösterreich","County":"Gmunden","City":"Vorchdorf","District":"Vorchdorf","Street":"Laudachweg","HouseNumber":"7","PostalCode":"4655","AdditionalData":[{"value":"Österreich","key":"CountryName"},{"value":"Oberösterreich","key":"StateName"},{"value":"Gmunden","key":"CountyName"}]},"MapReference":{"ReferenceId":"568626225","Spot":0.67,"SideOfStreet":"right","CountryId":"20128885","StateId":"20132880","CountyId":"20133210","CityId":"20133279","DistrictId":"20133282","AddressId":"213688871","RoadLinkId":"29169978"}}},{"Relevance":1.0,"Distance":51.9,"MatchLevel":"houseNumber","MatchQuality":{"Country":1.0,"State":1.0,"County":1.0,"City":1.0,"District":1.0,"Street":[1.0],"HouseNumber":1.0,"PostalCode":1.0},"MatchType":"interpolated","Location":{"LocationId":"NT_0tziEcbhe0AY5-YTHX1wMB_xcD","LocationType":"point","DisplayPosition":{"Latitude":47.99957,"Longitude":13.92247},"MapView":{"TopLeft":{"Latitude":48.0006942,"Longitude":13.92079},"BottomRight":{"Latitude":47.9984458,"Longitude":13.92415}},"Address":{"Label":"Laudachweg 17, 4655 Vorchdorf, Österreich","Country":"AUT","State":"Oberösterreich","County":"Gmunden","City":"Vorchdorf","District":"Vorchdorf","Street":"Laudachweg","HouseNumber":"17","PostalCode":"4655","AdditionalData":[{"value":"Österreich","key":"CountryName"},{"value":"Oberösterreich","key":"StateName"},{"value":"Gmunden","key":"CountyName"}]},"MapReference":{"ReferenceId":"568626224","Spot":0.87,"SideOfStreet":"left","CountryId":"20128885","StateId":"20132880","CountyId":"20133210","CityId":"20133279","DistrictId":"20133282","AddressId":"778553245","RoadLinkId":"28214532"}}},{"Relevance":1.0,"Distance":64.6,"MatchLevel":"houseNumber","MatchQuality":{"Country":1.0,"State":1.0,"County":1.0,"City":1.0,"District":1.0,"Street":[1.0],"HouseNumber":1.0,"PostalCode":1.0},"MatchType":"interpolated","Location":{"LocationId":"NT_0tziEcbhe0AY5-YTHX1wMB_xED","LocationType":"point","DisplayPosition":{"Latitude":47.99951,"Longitude":13.92263},"MapView":{"TopLeft":{"Latitude":48.0006342,"Longitude":13.92095},"BottomRight":{"Latitude":47.9983858,"Longitude":13.92431}},"Address":{"Label":"Laudachweg 11, 4655 Vorchdorf, Österreich","Country":"AUT","State":"Oberösterreich","County":"Gmunden","City":"Vorchdorf","District":"Vorchdorf","Street":"Laudachweg","HouseNumber":"11","PostalCode":"4655","AdditionalData":[{"value":"Österreich","key":"CountryName"},{"value":"Oberösterreich","key":"StateName"},{"value":"Gmunden","key":"CountyName"}]},"MapReference":{"ReferenceId":"568626223","Spot":0.94,"SideOfStreet":"right","CountryId":"20128885","StateId":"20132880","CountyId":"20133210","CityId":"20133279","DistrictId":"20133282","AddressId":"160837780","RoadLinkId":"28947373"}}},{"Relevance":1.0,"Distance":73.5,"MatchLevel":"houseNumber","MatchQuality":{"Country":1.0,"State":1.0,"County":1.0,"City":1.0,"District":1.0,"Street":[1.0],"HouseNumber":1.0,"PostalCode":1.0},"MatchType":"interpolated","Location":{"LocationId":"NT_JHJzLx4iOw83tvRCq3vYaA_xkD","LocationType":"point","DisplayPosition":{"Latitude":47.99989,"Longitude":13.92145},"MapView":{"TopLeft":{"Latitude":48.0010142,"Longitude":13.91977},"BottomRight":{"Latitude":47.9987658,"Longitude":13.92313}},"Address":{"Label":"Bahnhofstraße 19, 4655 Vorchdorf, Österreich","Country":"AUT","State":"Oberösterreich","County":"Gmunden","City":"Vorchdorf","District":"Vorchdorf","Street":"Bahnhofstraße","HouseNumber":"19","PostalCode":"4655","AdditionalData":[{"value":"Österreich","key":"CountryName"},{"value":"Oberösterreich","key":"StateName"},{"value":"Gmunden","key":"CountyName"}]},"MapReference":{"ReferenceId":"973237911","Spot":0.12,"SideOfStreet":"right","CountryId":"20128885","StateId":"20132880","CountyId":"20133210","CityId":"20133279","DistrictId":"20133282","AddressId":"160838078","RoadLinkId":"309651281"}}},{"Relevance":1.0,"Distance":98.5,"MatchLevel":"houseNumber","MatchQuality":{"Country":1.0,"State":1.0,"County":1.0,"City":1.0,"District":1.0,"Street":[1.0],"HouseNumber":1.0,"PostalCode":1.0},"MatchType":"interpolated","Location":{"LocationId":"NT_1NEr9e2P0y.-WRvcS3ijIC_0A","LocationType":"point","DisplayPosition":{"Latitude":48.00045,"Longitude":13.92448},"MapView":{"TopLeft":{"Latitude":48.0015742,"Longitude":13.9228},"BottomRight":{"Latitude":47.9993258,"Longitude":13.92616}},"Address":{"Label":"Krumphuberweg 4, 4655 Vorchdorf, Österreich","Country":"AUT","State":"Oberösterreich","County":"Gmunden","City":"Vorchdorf","District":"Vorchdorf","Street":"Krumphuberweg","HouseNumber":"4","PostalCode":"4655","AdditionalData":[{"value":"Österreich","key":"CountryName"},{"value":"Oberösterreich","key":"StateName"},{"value":"Gmunden","key":"CountyName"}]},"MapReference":{"ReferenceId":"568598801","Spot":0.72,"SideOfStreet":"left","CountryId":"20128885","StateId":"20132880","CountyId":"20133210","CityId":"20133279","DistrictId":"20133282","AddressId":"160837850","RoadLinkId":"29129774"}}},{"Relevance":1.0,"Distance":115.5,"MatchLevel":"houseNumber","MatchQuality":{"Country":1.0,"State":1.0,"County":1.0,"City":1.0,"District":1.0,"Street":[1.0],"HouseNumber":1.0,"PostalCode":1.0},"MatchType":"interpolated","Location":{"LocationId":"NT_JHJzLx4iOw83tvRCq3vYaA_yED","LocationType":"point","DisplayPosition":{"Latitude":47.99964,"Longitude":13.92149},"MapView":{"TopLeft":{"Latitude":48.0007642,"Longitude":13.91981},"BottomRight":{"Latitude":47.9985158,"Longitude":13.92317}},"Address":{"Label":"Bahnhofstraße 21, 4655 Vorchdorf, Österreich","Country":"AUT","State":"Oberösterreich","County":"Gmunden","City":"Vorchdorf","District":"Vorchdorf","Street":"Bahnhofstraße","HouseNumber":"21","PostalCode":"4655","AdditionalData":[{"value":"Österreich","key":"CountryName"},{"value":"Oberösterreich","key":"StateName"},{"value":"Gmunden","key":"CountyName"}]},"MapReference":{"ReferenceId":"766397674","Spot":0.35,"SideOfStreet":"right","CountryId":"20128885","StateId":"20132880","CountyId":"20133210","CityId":"20133279","DistrictId":"20133282","AddressId":"160838082","RoadLinkId":"160344112"}}},{"Relevance":1.0,"Distance":126.4,"MatchLevel":"houseNumber","MatchQuality":{"Country":1.0,"State":1.0,"County":1.0,"City":1.0,"District":1.0,"Street":[1.0],"HouseNumber":1.0,"PostalCode":1.0},"MatchType":"interpolated","Location":{"LocationId":"NT_nc0SrzEbn5MVMaKODB55sD_2A","LocationType":"point","DisplayPosition":{"Latitude":48.00089,"Longitude":13.92453},"MapView":{"TopLeft":{"Latitude":48.0020142,"Longitude":13.92285},"BottomRight":{"Latitude":47.9997658,"Longitude":13.92621}},"Address":{"Label":"Pettenbacherstraße 6, 4655 Vorchdorf, Österreich","Country":"AUT","State":"Oberösterreich","County":"Gmunden","City":"Vorchdorf","District":"Vorchdorf","Street":"Pettenbacherstraße","HouseNumber":"6","PostalCode":"4655","AdditionalData":[{"value":"Österreich","key":"CountryName"},{"value":"Oberösterreich","key":"StateName"},{"value":"Gmunden","key":"CountyName"}]},"MapReference":{"ReferenceId":"568626010","Spot":0.77,"SideOfStreet":"left","CountryId":"20128885","StateId":"20132880","CountyId":"20133210","CityId":"20133279","DistrictId":"20133282","AddressId":"160837460","RoadLinkId":"28254546"}}},{"Relevance":1.0,"Distance":130.4,"MatchLevel":"houseNumber","MatchQuality":{"Country":1.0,"State":1.0,"County":1.0,"City":1.0,"District":1.0,"Street":[1.0],"HouseNumber":1.0,"PostalCode":1.0},"MatchType":"interpolated","Location":{"LocationId":"NT_JHJzLx4iOw83tvRCq3vYaA_xMD","LocationType":"point","DisplayPosition":{"Latitude":48.00069,"Longitude":13.92134},"MapView":{"TopLeft":{"Latitude":48.0018142,"Longitude":13.91966},"BottomRight":{"Latitude":47.9995658,"Longitude":13.92302}},"Address":{"Label":"Bahnhofstraße 13, 4655 Vorchdorf, Österreich","Country":"AUT","State":"Oberösterreich","County":"Gmunden","City":"Vorchdorf","District":"Vorchdorf","Street":"Bahnhofstraße","HouseNumber":"13","PostalCode":"4655","AdditionalData":[{"value":"Österreich","key":"CountryName"},{"value":"Oberösterreich","key":"StateName"},{"value":"Gmunden","key":"CountyName"}]},"MapReference":{"ReferenceId":"973237912","Spot":0.31,"SideOfStreet":"right","CountryId":"20128885","StateId":"20132880","CountyId":"20133210","CityId":"20133279","DistrictId":"20133282","AddressId":"160838068","RoadLinkId":"309651282"}}},{"Relevance":1.0,"Distance":136.2,"MatchLevel":"houseNumber","MatchQuality":{"Country":1.0,"State":1.0,"County":1.0,"City":1.0,"District":1.0,"Street":[1.0],"HouseNumber":1.0,"PostalCode":1.0},"MatchType":"interpolated","Location":{"LocationId":"NT_JHJzLx4iOw83tvRCq3vYaA_yMD","LocationType":"point","DisplayPosition":{"Latitude":47.99934,"Longitude":13.92151},"MapView":{"TopLeft":{"Latitude":48.0004642,"Longitude":13.91983},"BottomRight":{"Latitude":47.9982158,"Longitude":13.92319}},"Address":{"Label":"Bahnhofstraße 23, 4655 Vorchdorf, Österreich","Country":"AUT","State":"Oberösterreich","County":"Gmunden","City":"Vorchdorf","District":"Vorchdorf","Street":"Bahnhofstraße","HouseNumber":"23","PostalCode":"4655","AdditionalData":[{"value":"Österreich","key":"CountryName"},{"value":"Oberösterreich","key":"StateName"},{"value":"Gmunden","key":"CountyName"}]},"MapReference":{"ReferenceId":"568622303","Spot":0.65,"SideOfStreet":"right","CountryId":"20128885","StateId":"20132880","CountyId":"20133210","CityId":"20133279","DistrictId":"20133282","AddressId":"160838064","RoadLinkId":"29045377"}}}]}]}}