{"Response":{"MetaInfo":{"Timestamp":"2020-03-28T11:52:35.649+0000","NextPageInformation":"2"},"View":[{"_type":"SearchResultsViewType","ViewId":0,"Result":[{"Relevance":1.0,"Distance":0.0,"Direction":0.0,"MatchLevel":"city","MatchQuality":{"Country":1.0,"State":1.0,"County":1.0,"City":1.0,"PostalCode":1.0},"Location":{"LocationId":"NT_FVh73YSdXW2rQESJoEOlEC","LocationType":"point","DisplayPosition":{"Latitude":48.063598,"Longitude":0.137081},"MapView":{"TopLeft":{"Latitude":48.0958,"Longitude":0.09618},"BottomRight":{"Latitude":48.03851,"Longitude":0.16263}},"Address":{"Label":"La Milesse, Pays de la Loire, France","Country":"FRA","State":"Pays de la Loire","County":"Sarthe","City":"La Milesse","PostalCode":"72650","AdditionalData":[{"value":"France","key":"CountryName"},{"value":"Pays de la Loire","key":"StateName"},{"value":"Sarthe","key":"CountyName"}]},"MapReference":{"ReferenceId":"927247560","SideOfStreet":"neither","CountryId":"20000001","StateId":"20068992","CountyId":"20076677","CityId":"20077250"}}},{"Relevance":1.0,"Distance":19.0,"MatchLevel":"houseNumber","MatchQuality":{"Country":1.0,"State":1.0,"County":1.0,"City":1.0,"Street":[1.0],"HouseNumber":1.0,"PostalCode":1.0},"MatchType":"interpolated","Location":{"LocationId":"NT_gE3ByckzGbkIO3zkCvIEUA_xA","LocationType":"point","DisplayPosition":{"Latitude":48.06343,"Longitude":0.13687},"MapView":{"TopLeft":{"Latitude":48.0645542,"Longitude":0.1351879},"BottomRight":{"Latitude":48.0623058,"Longitude":0.1385521}},"Address":{"Label":"1 Rue du Mans, 72650 La Milesse, France","Country":"FRA","State":"Pays de la Loire","County":"Sarthe","City":"La Milesse","Street":"Rue du Mans","HouseNumber":"1","PostalCode":"72650","AdditionalData":[{"value":"France","key":"CountryName"},{"value":"Pays de la Loire","key":"StateName"},{"value":"Sarthe","key":"CountyName"}]},"MapReference":{"ReferenceId":"557889617","Spot":0.3,"SideOfStreet":"right","CountryId":"20000001","StateId":"20068992","CountyId":"20076677","CityId":"20077250","AddressId":"381331494","RoadLinkId":"48019393"}}},{"Relevance":1.0,"Distance":29.6,"MatchLevel":"houseNumber","MatchQuality":{"Country":1.0,"State":1.0,"County":1.0,"City":1.0,"Street":[1.0],"HouseNumber":1.0,"PostalCode":1.0},"MatchType":"interpolated","Location":{"LocationId":"NT_gE3ByckzGbkIO3zkCvIEUA_zA","LocationType":"point","DisplayPosition":{"Latitude":48.06326,"Longitude":0.13707},"MapView":{"TopLeft":{"Latitude":48.0643842,"Longitude":0.1353879},"BottomRight":{"Latitude":48.0621358,"Longitude":0.1387521}},"Address":{"Label":"3 Rue du Mans, 72650 La Milesse, France","Country":"FRA","State":"Pays de la Loire","County":"Sarthe","City":"La Milesse","Street":"Rue du Mans","HouseNumber":"3","PostalCode":"72650","AdditionalData":[{"value":"France","key":"CountryName"},{"value":"Pays de la Loire","key":"StateName"},{"value":"Sarthe","key":"CountyName"}]},"MapReference":{"ReferenceId":"568050594","Spot":0.7,"SideOfStreet":"right","CountryId":"20000001","StateId":"20068992","CountyId":"20076677","CityId":"20077250","AddressId":"381375112","RoadLinkId":"47494557"}}},{"Relevance":1.0,"Distance":34.6,"MatchLevel":"houseNumber","MatchQuality":{"Country":1.0,"State":1.0,"County":1.0,"City":1.0,"Street":[1.0],"HouseNumber":1.0,"PostalCode":1.0},"MatchType":"interpolated","Location":{"LocationId":"NT_uTvGWHV2yiCpQgkoKBXqlA_xA","LocationType":"point","DisplayPosition":{"Latitude":48.06389,"Longitude":0.13692},"MapView":{"TopLeft":{"Latitude":48.0650142,"Longitude":0.1352379},"BottomRight":{"Latitude":48.0627658,"Longitude":0.1386021}},"Address":{"Label":"1 Rue des Jonquilles, 72650 La Milesse, France","Country":"FRA","State":"Pays de la Loire","County":"Sarthe","City":"La Milesse","Street":"Rue des Jonquilles","HouseNumber":"1","PostalCode":"72650","AdditionalData":[{"value":"France","key":"CountryName"},{"value":"Pays de la Loire","key":"StateName"},{"value":"Sarthe","key":"CountyName"}]},"MapReference":{"ReferenceId":"928132745","Spot":0.48,"SideOfStreet":"left","CountryId":"20000001","StateId":"20068992","CountyId":"20076677","CityId":"20077250","AddressId":"590760153","RoadLinkId":"283232362"}}},{"Relevance":1.0,"Distance":39.4,"MatchLevel":"houseNumber","MatchQuality":{"Country":1.0,"State":1.0,"County":1.0,"City":1.0,"Street":[1.0],"HouseNumber":1.0,"PostalCode":1.0},"MatchType":"interpolated","Location":{"LocationId":"NT_xqnKBVMcUyM5vkAwQCdOYB_0kD","LocationType":"point","DisplayPosition":{"Latitude":48.06354,"Longitude":0.13761},"MapView":{"TopLeft":{"Latitude":48.0646642,"Longitude":0.1359279},"BottomRight":{"Latitude":48.0624158,"Longitude":0.1392921}},"Address":{"Label":"49 Hameau du Verger, 72650 La Milesse, France","Country":"FRA","State":"Pays de la Loire","County":"Sarthe","City":"La Milesse","Street":"Hameau du Verger","HouseNumber":"49","PostalCode":"72650","AdditionalData":[{"value":"France","key":"CountryName"},{"value":"Pays de la Loire","key":"StateName"},{"value":"Sarthe","key":"CountyName"}]},"MapReference":{"ReferenceId":"568050654","Spot":0.74,"SideOfStreet":"left","CountryId":"20000001","StateId":"20068992","CountyId":"20076677","CityId":"20077250","AddressId":"323491391","RoadLinkId":"46247312"}}},{"Relevance":1.0,"Distance":45.0,"MatchLevel":"houseNumber","MatchQuality":{"Country":1.0,"State":1.0,"County":1.0,"City":1.0,"Street":[1.0],"HouseNumber":1.0,"PostalCode":1.0},"MatchType":"interpolated","Location":{"LocationId":"NT_yb6queS052-jMcuKVPwvJA_l_863486734_L_xA","LocationType":"point","DisplayPosition":{"Latitude":48.0637309,"Longitude":0.1365089},"MapView":{"TopLeft":{"Latitude":48.064855,"Longitude":0.1348268},"BottomRight":{"Latitude":48.0626067,"Longitude":0.138191}},"Address":{"Label":"1 Rue de Sillé, 72650 La Milesse, France","Country":"FRA","State":"Pays de la Loire","County":"Sarthe","City":"La Milesse","Street":"Rue de Sillé","HouseNumber":"1","PostalCode":"72650","AdditionalData":[{"value":"France","key":"CountryName"},{"value":"Pays de la Loire","key":"StateName"},{"value":"Sarthe","key":"CountyName"}]},"MapReference":{"ReferenceId":"863486734","Spot":0.51,"SideOfStreet":"left","CountryId":"20000001","StateId":"20068992","CountyId":"20076677","CityId":"20077250"}}},{"Relevance":1.0,"Distance":59.9,"MatchLevel":"houseNumber","MatchQuality":{"Country":1.0,"State":1.0,"County":1.0,"City":1.0,"Street":[1.0],"HouseNumber":1.0,"PostalCode":1.0},"MatchType":"interpolated","Location":{"LocationId":"NT_gE3ByckzGbkIO3zkCvIEUA_1A","LocationType":"point","DisplayPosition":{"Latitude":48.06304,"Longitude":0.13735},"MapView":{"TopLeft":{"Latitude":48.0641642,"Longitude":0.1356679},"BottomRight":{"Latitude":48.0619158,"Longitude":0.1390321}},"Address":{"Label":"5 Rue du Mans, 72650 La Milesse, France","Country":"FRA","State":"Pays de la Loire","County":"Sarthe","City":"La Milesse","Street":"Rue du Mans","HouseNumber":"5","PostalCode":"72650","AdditionalData":[{"value":"France","key":"CountryName"},{"value":"Pays de la Loire","key":"StateName"},{"value":"Sarthe","key":"CountyName"}]},"MapReference":{"ReferenceId":"568050593","Spot":0.81,"SideOfStreet":"right","CountryId":"20000001","StateId":"20068992","CountyId":"20076677","CityId":"20077250","AddressId":"381458334","RoadLinkId":"46831431"}}},{"Relevance":1.0,"Distance":71.5,"MatchLevel":"street","MatchQuality":{"Country":1.0,"State":1.0,"County":1.0,"City":1.0,"Street":[1.0],"PostalCode":1.0},"Location":{"LocationId":"NT_uTvGWHV2yiCpQgkoKBXqlA_l_928132746_L","LocationType":"point","DisplayPosition":{"Latitude":48.06424,"Longitude":0.13714},"MapView":{"TopLeft":{"Latitude":48.06454,"Longitude":0.13713},"BottomRight":{"Latitude":48.06424,"Longitude":0.13714}},"Address":{"Label":"Rue des Jonquilles, 72650 La Milesse, France","Country":"FRA","State":"Pays de la Loire","County":"Sarthe","City":"La Milesse","Street":"Rue des Jonquilles","PostalCode":"72650","AdditionalData":[{"value":"France","key":"CountryName"},{"value":"Pays de la Loire","key":"StateName"},{"value":"Sarthe","key":"CountyName"}]},"MapReference":{"ReferenceId":"928132746","Spot":0.0,"SideOfStreet":"left","CountryId":"20000001","StateId":"20068992","CountyId":"20076677","CityId":"20077250"}}},{"Relevance":1.0,"Distance":78.4,"MatchLevel":"houseNumber","MatchQuality":{"Country":1.0,"State":1.0,"County":1.0,"City":1.0,"Street":[1.0],"HouseNumber":1.0,"PostalCode":1.0},"MatchType":"interpolated","Location":{"LocationId":"NT_xqnKBVMcUyM5vkAwQCdOYB_zA","LocationType":"point","DisplayPosition":{"Latitude":48.06343,"Longitude":0.13811},"MapView":{"TopLeft":{"Latitude":48.0645542,"Longitude":0.1364279},"BottomRight":{"Latitude":48.0623058,"Longitude":0.1397921}},"Address":{"Label":"3 Hameau du Verger, 72650 La Milesse, France","Country":"FRA","State":"Pays de la Loire","County":"Sarthe","City":"La Milesse","Street":"Hameau du Verger","HouseNumber":"3","PostalCode":"72650","AdditionalData":[{"value":"France","key":"CountryName"},{"value":"Pays de la Loire","key":"StateName"},{"value":"Sarthe","key":"CountyName"}]},"MapReference":{"ReferenceId":"568050655","Spot":0.75,"SideOfStreet":"left","CountryId":"20000001","StateId":"20068992","CountyId":"20076677","CityId":"20077250","AddressId":"376405326","RoadLinkId":"47786939"}}},{"Relevance":1.0,"Distance":94.1,"MatchLevel":"houseNumber","MatchQuality":{"Country":1.0,"State":1.0,"County":1.0,"City":1.0,"Street":[1.0],"HouseNumber":1.0,"PostalCode":1.0},"MatchType":"interpolated","Location":{"LocationId":"NT_yb6queS052-jMcuKVPwvJA_xIE","LocationType":"point","DisplayPosition":{"Latitude":48.06408,"Longitude":0.13604},"MapView":{"TopLeft":{"Latitude":48.0652042,"Longitude":0.1343579},"BottomRight":{"Latitude":48.0629558,"Longitude":0.1377221}},"Address":{"Label":"1B Rue de Sillé, 72650 La Milesse, France","Country":"FRA","State":"Pays de la Loire","County":"Sarthe","City":"La Milesse","Street":"Rue de Sillé","HouseNumber":"1B","PostalCode":"72650","AdditionalData":[{"value":"France","key":"CountryName"},{"value":"Pays de la Loire","key":"StateName"},{"value":"Sarthe","key":"CountyName"}]},"MapReference":{"ReferenceId":"863486735","Spot":0.74,"SideOfStreet":"left","CountryId":"20000001","StateId":"20068992","CountyId":"20076677","CityId":"20077250","AddressId":"376413609","RoadLinkId":"237214832"}}}]}]}}