{"Response":{"MetaInfo":{"Timestamp":"2020-03-28T10:14:58.650+0000","NextPageInformation":"2"},"View":[{"_type":"SearchResultsViewType","ViewId":0,"Result":[{"Relevance":1.0,"Distance":0.0,"Direction":0.0,"MatchLevel":"district","MatchQuality":{"Country":1.0,"State":1.0,"County":1.0,"City":1.0,"District":1.0,"PostalCode":1.0},"Location":{"LocationId":"NT_Cmyb1Tqo5CgHnrdwQRRQ5B","LocationType":"point","DisplayPosition":{"Latitude":48.0781111,"Longitude":14.8254494},"MapView":{"TopLeft":{"Latitude":48.0846,"Longitude":14.80853},"BottomRight":{"Latitude":48.06441,"Longitude":14.83311}},"Address":{"Label":"Ulmerfeld-Hausmening, Amstetten, Niederösterreich, Österreich","Country":"AUT","State":"Niederösterreich","County":"Amstetten","City":"Amstetten","District":"Ulmerfeld-Hausmening","PostalCode":"3363","AdditionalData":[{"value":"Österreich","key":"CountryName"},{"value":"Niederösterreich","key":"StateName"},{"value":"Amstetten","key":"CountyName"}]},"MapReference":{"ReferenceId":"762689573","SideOfStreet":"neither","CountryId":"20128885","StateId":"20130295","CountyId":"20130338","CityId":"20130343","DistrictId":"20315373"}}},{"Relevance":1.0,"Distance":5.0,"MatchLevel":"street","MatchQuality":{"Country":1.0,"State":1.0,"County":1.0,"City":1.0,"District":1.0,"PostalCode":1.0},"Location":{"LocationId":"NT_DESG-tSovNGuCIm62zdEHC_l_75469663_R","LocationType":"point","DisplayPosition":{"Latitude":48.07809,"Longitude":14.82539},"MapView":{"TopLeft":{"Latitude":48.07813,"Longitude":14.82506},"BottomRight":{"Latitude":48.07809,"Longitude":14.82539}},"Address":{"Label":"3363 Amstetten, Österreich","Country":"AUT","State":"Niederösterreich","County":"Amstetten","City":"Amstetten","District":"Ulmerfeld-Hausmening","PostalCode":"3363","AdditionalData":[{"value":"Österreich","key":"CountryName"},{"value":"Niederösterreich","key":"StateName"},{"value":"Amstetten","key":"CountyName"}]},"MapReference":{"ReferenceId":"75469663","Spot":0.0,"SideOfStreet":"right","CountryId":"20128885","StateId":"20130295","CountyId":"20130338","CityId":"20130343","DistrictId":"20315373"}}},{"Relevance":1.0,"Distance":5.1,"MatchLevel":"street","MatchQuality":{"Country":1.0,"State":1.0,"County":1.0,"City":1.0,"District":1.0,"PostalCode":1.0},"Location":{"LocationId":"NT_DESG-tSovNGuCIm62zdEHC_l_75469662_R","LocationType":"point","DisplayPosition":{"Latitude":48.0780692,"Longitude":14.825423},"MapView":{"TopLeft":{"Latitude":48.07809,"Longitude":14.82539},"BottomRight":{"Latitude":48.0778,"Longitude":14.82585}},"Address":{"Label":"3363 Amstetten, Österreich","Country":"AUT","State":"Niederösterreich","County":"Amstetten","City":"Amstetten","District":"Ulmerfeld-Hausmening","PostalCode":"3363","AdditionalData":[{"value":"Österreich","key":"CountryName"},{"value":"Niederösterreich","key":"StateName"},{"value":"Amstetten","key":"CountyName"}]},"MapReference":{"ReferenceId":"75469662","Spot":0.93,"SideOfStreet":"right","CountryId":"20128885","StateId":"20130295","CountyId":"20130338","CityId":"20130343","DistrictId":"20315373"}}},{"Relevance":1.0,"Distance":17.5,"MatchLevel":"houseNumber","MatchQuality":{"Country":1.0,"State":1.0,"County":1.0,"City":1.0,"District":1.0,"Street":[1.0],"HouseNumber":1.0,"PostalCode":1.0},"MatchType":"interpolated","Location":{"LocationId":"NT_-CPjaqfIO.Snc33OuAgIeC_xID","LocationType":"point","DisplayPosition":{"Latitude":48.07825,"Longitude":14.82556},"MapView":{"TopLeft":{"Latitude":48.0793742,"Longitude":14.8238774},"BottomRight":{"Latitude":48.0771258,"Longitude":14.8272426}},"Address":{"Label":"Marktplatz 12, 3363 Amstetten, Österreich","Country":"AUT","State":"Niederösterreich","County":"Amstetten","City":"Amstetten","District":"Ulmerfeld-Hausmening","Street":"Marktplatz","HouseNumber":"12","PostalCode":"3363","AdditionalData":[{"value":"Österreich","key":"CountryName"},{"value":"Niederösterreich","key":"StateName"},{"value":"Amstetten","key":"CountyName"}]},"MapReference":{"ReferenceId":"75469664","Spot":0.18,"SideOfStreet":"right","CountryId":"20128885","StateId":"20130295","CountyId":"20130338","CityId":"20130343","DistrictId":"20315373","AddressId":"162093726","RoadLinkId":"28861600"}}},{"Relevance":1.0,"Distance":29.3,"MatchLevel":"houseNumber","MatchQuality":{"Country":1.0,"State":1.0,"County":1.0,"City":1.0,"District":1.0,"Street":[1.0],"HouseNumber":1.0,"PostalCode":1.0},"MatchType":"interpolated","Location":{"LocationId":"NT_-CPjaqfIO.Snc33OuAgIeC_5A","LocationType":"point","DisplayPosition":{"Latitude":48.07829,"Longitude":14.82516},"MapView":{"TopLeft":{"Latitude":48.0794142,"Longitude":14.8234774},"BottomRight":{"Latitude":48.0771658,"Longitude":14.8268426}},"Address":{"Label":"Marktplatz 9, 3363 Amstetten, Österreich","Country":"AUT","State":"Niederösterreich","County":"Amstetten","City":"Amstetten","District":"Ulmerfeld-Hausmening","Street":"Marktplatz","HouseNumber":"9","PostalCode":"3363","AdditionalData":[{"value":"Österreich","key":"CountryName"},{"value":"Niederösterreich","key":"StateName"},{"value":"Amstetten","key":"CountyName"}]},"MapReference":{"ReferenceId":"75469668","Spot":0.11,"SideOfStreet":"left","CountryId":"20128885","StateId":"20130295","CountyId":"20130338","CityId":"20130343","DistrictId":"20315373","AddressId":"162093710","RoadLinkId":"28542989"}}},{"Relevance":1.0,"Distance":29.8,"MatchLevel":"houseNumber","MatchQuality":{"Country":1.0,"State":1.0,"County":1.0,"City":1.0,"District":1.0,"Street":[1.0],"HouseNumber":1.0,"PostalCode":1.0},"MatchType":"interpolated","Location":{"LocationId":"NT_-CPjaqfIO.Snc33OuAgIeC_xAD","LocationType":"point","DisplayPosition":{"Latitude":48.07805,"Longitude":14.82502},"MapView":{"TopLeft":{"Latitude":48.0791742,"Longitude":14.8233374},"BottomRight":{"Latitude":48.0769258,"Longitude":14.8267026}},"Address":{"Label":"Marktplatz 10, 3363 Amstetten, Österreich","Country":"AUT","State":"Niederösterreich","County":"Amstetten","City":"Amstetten","District":"Ulmerfeld-Hausmening","Street":"Marktplatz","HouseNumber":"10","PostalCode":"3363","AdditionalData":[{"value":"Österreich","key":"CountryName"},{"value":"Niederösterreich","key":"StateName"},{"value":"Amstetten","key":"CountyName"}]},"MapReference":{"ReferenceId":"75469674","Spot":0.84,"SideOfStreet":"right","CountryId":"20128885","StateId":"20130295","CountyId":"20130338","CityId":"20130343","DistrictId":"20315373","AddressId":"162160579","RoadLinkId":"28028648"}}},{"Relevance":1.0,"Distance":58.6,"MatchLevel":"houseNumber","MatchQuality":{"Country":1.0,"State":1.0,"County":1.0,"City":1.0,"District":1.0,"Street":[1.0],"HouseNumber":1.0,"PostalCode":1.0},"MatchType":"interpolated","Location":{"LocationId":"NT_TlfdQPiPp45ma34wsunwRC_yA","LocationType":"point","DisplayPosition":{"Latitude":48.07759,"Longitude":14.82557},"MapView":{"TopLeft":{"Latitude":48.0787142,"Longitude":14.8238874},"BottomRight":{"Latitude":48.0764658,"Longitude":14.8272526}},"Address":{"Label":"Freisinger Straße 2, 3363 Amstetten, Österreich","Country":"AUT","State":"Niederösterreich","County":"Amstetten","City":"Amstetten","District":"Ulmerfeld-Hausmening","Street":"Freisinger Straße","HouseNumber":"2","PostalCode":"3363","AdditionalData":[{"value":"Österreich","key":"CountryName"},{"value":"Niederösterreich","key":"StateName"},{"value":"Amstetten","key":"CountyName"}]},"MapReference":{"ReferenceId":"75456907","Spot":0.47,"SideOfStreet":"right","CountryId":"20128885","StateId":"20130295","CountyId":"20130338","CityId":"20130343","DistrictId":"20315373","AddressId":"162125421","RoadLinkId":"28206157"}}},{"Relevance":1.0,"Distance":70.9,"MatchLevel":"houseNumber","MatchQuality":{"Country":1.0,"State":1.0,"County":1.0,"City":1.0,"District":1.0,"Street":[1.0],"HouseNumber":1.0,"PostalCode":1.0},"MatchType":"interpolated","Location":{"LocationId":"NT_-CPjaqfIO.Snc33OuAgIeC_zA","LocationType":"point","DisplayPosition":{"Latitude":48.07783,"Longitude":14.82451},"MapView":{"TopLeft":{"Latitude":48.0789542,"Longitude":14.8228274},"BottomRight":{"Latitude":48.0767058,"Longitude":14.8261926}},"Address":{"Label":"Marktplatz 3, 3363 Amstetten, Österreich","Country":"AUT","State":"Niederösterreich","County":"Amstetten","City":"Amstetten","District":"Ulmerfeld-Hausmening","Street":"Marktplatz","HouseNumber":"3","PostalCode":"3363","AdditionalData":[{"value":"Österreich","key":"CountryName"},{"value":"Niederösterreich","key":"StateName"},{"value":"Amstetten","key":"CountyName"}]},"MapReference":{"ReferenceId":"983198143","Spot":0.81,"SideOfStreet":"left","CountryId":"20128885","StateId":"20130295","CountyId":"20130338","CityId":"20130343","DistrictId":"20315373","AddressId":"214873223","RoadLinkId":"314550438"}}},{"Relevance":1.0,"Distance":77.5,"MatchLevel":"street","MatchQuality":{"Country":1.0,"State":1.0,"County":1.0,"City":1.0,"District":1.0,"Street":[1.0],"PostalCode":1.0},"Location":{"LocationId":"NT_TlfdQPiPp45ma34wsunwRC_l_75456931_R","LocationType":"point","DisplayPosition":{"Latitude":48.07742,"Longitude":14.82531},"MapView":{"TopLeft":{"Latitude":48.07742,"Longitude":14.82531},"BottomRight":{"Latitude":48.07685,"Longitude":14.826}},"Address":{"Label":"Freisinger Straße, 3363 Amstetten, Österreich","Country":"AUT","State":"Niederösterreich","County":"Amstetten","City":"Amstetten","District":"Ulmerfeld-Hausmening","Street":"Freisinger Straße","PostalCode":"3363","AdditionalData":[{"value":"Österreich","key":"CountryName"},{"value":"Niederösterreich","key":"StateName"},{"value":"Amstetten","key":"CountyName"}]},"MapReference":{"ReferenceId":"75456931","Spot":1.0,"SideOfStreet":"right","CountryId":"20128885","StateId":"20130295","CountyId":"20130338","CityId":"20130343","DistrictId":"20315373"}}},{"Relevance":1.0,"Distance":78.9,"MatchLevel":"houseNumber","MatchQuality":{"Country":1.0,"State":1.0,"County":1.0,"City":1.0,"District":1.0,"Street":[1.0],"HouseNumber":1.0,"PostalCode":1.0},"MatchType":"interpolated","Location":{"LocationId":"NT_-CPjaqfIO.Snc33OuAgIeC_0A","LocationType":"point","DisplayPosition":{"Latitude":48.0776,"Longitude":14.82467},"MapView":{"TopLeft":{"Latitude":48.0787242,"Longitude":14.8229874},"BottomRight":{"Latitude":48.0764758,"Longitude":14.8263526}},"Address":{"Label":"Marktplatz 4, 3363 Amstetten, Österreich","Country":"AUT","State":"Niederösterreich","County":"Amstetten","City":"Amstetten","District":"Ulmerfeld-Hausmening","Street":"Marktplatz","HouseNumber":"4","PostalCode":"3363","AdditionalData":[{"value":"Österreich","key":"CountryName"},{"value":"Niederösterreich","key":"StateName"},{"value":"Amstetten","key":"CountyName"}]},"MapReference":{"ReferenceId":"75469678","Spot":0.28,"SideOfStreet":"right","CountryId":"20128885","StateId":"20130295","CountyId":"20130338","CityId":"20130343","DistrictId":"20315373","AddressId":"213715614","RoadLinkId":"257896159"}}}]}]}}