{"Response":{"MetaInfo":{"Timestamp":"2020-03-28T11:41:09.270+0000","NextPageInformation":"2"},"View":[{"_type":"SearchResultsViewType","ViewId":0,"Result":[{"Relevance":1.0,"Distance":0.0,"Direction":0.0,"MatchLevel":"district","MatchQuality":{"Country":1.0,"State":1.0,"County":1.0,"City":1.0,"District":1.0,"PostalCode":1.0},"Location":{"LocationId":"NT_6t6ArY5bU7IkGJIRoXaxHA","LocationType":"point","DisplayPosition":{"Latitude":48.1615755,"Longitude":7.7946174},"MapView":{"TopLeft":{"Latitude":48.16657,"Longitude":7.76862},"BottomRight":{"Latitude":48.14769,"Longitude":7.80448}},"Address":{"Label":"Malterdingen, Baden-Württemberg, Deutschland","Country":"DEU","State":"Baden-Württemberg","County":"Emmendingen","City":"Malterdingen","District":"Malterdingen","PostalCode":"79364","AdditionalData":[{"value":"Deutschland","key":"CountryName"},{"value":"Baden-Württemberg","key":"StateName"},{"value":"Emmendingen","key":"CountyName"}]},"MapReference":{"ReferenceId":"73549299","SideOfStreet":"neither","CountryId":"20147700","StateId":"20171489","CountyId":"20174600","CityId":"20174643","DistrictId":"20174645"}}},{"Relevance":1.0,"Distance":5.8,"MatchLevel":"houseNumber","MatchQuality":{"Country":1.0,"State":1.0,"County":1.0,"City":1.0,"District":1.0,"Street":[1.0],"HouseNumber":1.0,"PostalCode":1.0},"MatchType":"interpolated","Location":{"LocationId":"NT_MU39NerNY7y.Bs6CyjCvcD_0QD","LocationType":"point","DisplayPosition":{"Latitude":48.16151,"Longitude":7.79456},"MapView":{"TopLeft":{"Latitude":48.1626342,"Longitude":7.7928747},"BottomRight":{"Latitude":48.1603858,"Longitude":7.7962453}},"Address":{"Label":"Hauptstraße 44, 79364 Malterdingen, Deutschland","Country":"DEU","State":"Baden-Württemberg","County":"Emmendingen","City":"Malterdingen","District":"Malterdingen","Street":"Hauptstraße","HouseNumber":"44","PostalCode":"79364","AdditionalData":[{"value":"Deutschland","key":"CountryName"},{"value":"Baden-Württemberg","key":"StateName"},{"value":"Emmendingen","key":"CountyName"}]},"MapReference":{"ReferenceId":"1067547464","Spot":0.62,"SideOfStreet":"left","CountryId":"20147700","StateId":"20171489","CountyId":"20174600","CityId":"20174643","DistrictId":"20174645","AddressId":"621679692","RoadLinkId":"389849300"}}},{"Relevance":1.0,"Distance":16.5,"MatchLevel":"houseNumber","MatchQuality":{"Country":1.0,"State":1.0,"County":1.0,"City":1.0,"District":1.0,"Street":[1.0],"HouseNumber":1.0,"PostalCode":1.0},"MatchType":"interpolated","Location":{"LocationId":"NT_MU39NerNY7y.Bs6CyjCvcD_zYD","LocationType":"point","DisplayPosition":{"Latitude":48.16158,"Longitude":7.79485},"MapView":{"TopLeft":{"Latitude":48.1627042,"Longitude":7.7931647},"BottomRight":{"Latitude":48.1604558,"Longitude":7.7965353}},"Address":{"Label":"Hauptstraße 36, 79364 Malterdingen, Deutschland","Country":"DEU","State":"Baden-Württemberg","County":"Emmendingen","City":"Malterdingen","District":"Malterdingen","Street":"Hauptstraße","HouseNumber":"36","PostalCode":"79364","AdditionalData":[{"value":"Deutschland","key":"CountryName"},{"value":"Baden-Württemberg","key":"StateName"},{"value":"Emmendingen","key":"CountyName"}]},"MapReference":{"ReferenceId":"1067547465","Spot":0.45,"SideOfStreet":"left","CountryId":"20147700","StateId":"20171489","CountyId":"20174600","CityId":"20174643","DistrictId":"20174645","AddressId":"178789050","RoadLinkId":"389849301"}}},{"Relevance":1.0,"Distance":19.3,"MatchLevel":"houseNumber","MatchQuality":{"Country":1.0,"State":1.0,"County":1.0,"City":1.0,"District":1.0,"Street":[1.0],"HouseNumber":1.0,"PostalCode":1.0},"MatchType":"interpolated","Location":{"LocationId":"NT_MU39NerNY7y.Bs6CyjCvcD_0YD","LocationType":"point","DisplayPosition":{"Latitude":48.16146,"Longitude":7.79431},"MapView":{"TopLeft":{"Latitude":48.1625842,"Longitude":7.7926247},"BottomRight":{"Latitude":48.1603358,"Longitude":7.7959953}},"Address":{"Label":"Hauptstraße 46, 79364 Malterdingen, Deutschland","Country":"DEU","State":"Baden-Württemberg","County":"Emmendingen","City":"Malterdingen","District":"Malterdingen","Street":"Hauptstraße","HouseNumber":"46","PostalCode":"79364","AdditionalData":[{"value":"Deutschland","key":"CountryName"},{"value":"Baden-Württemberg","key":"StateName"},{"value":"Emmendingen","key":"CountyName"}]},"MapReference":{"ReferenceId":"73549287","Spot":1.0,"SideOfStreet":"left","CountryId":"20147700","StateId":"20171489","CountyId":"20174600","CityId":"20174643","DistrictId":"20174645","AddressId":"179193778","RoadLinkId":"38948625"}}},{"Relevance":1.0,"Distance":25.8,"MatchLevel":"houseNumber","MatchQuality":{"Country":1.0,"State":1.0,"County":1.0,"City":1.0,"District":1.0,"Street":[1.0],"HouseNumber":1.0,"PostalCode":1.0},"MatchType":"interpolated","Location":{"LocationId":"NT_pdJrOHsucIZ7wrNYEJy.0A_xA","LocationType":"point","DisplayPosition":{"Latitude":48.16173,"Longitude":7.79495},"MapView":{"TopLeft":{"Latitude":48.1628542,"Longitude":7.7932647},"BottomRight":{"Latitude":48.1606058,"Longitude":7.7966353}},"Address":{"Label":"Langhof 1, 79364 Malterdingen, Deutschland","Country":"DEU","State":"Baden-Württemberg","County":"Emmendingen","City":"Malterdingen","District":"Malterdingen","Street":"Langhof","HouseNumber":"1","PostalCode":"79364","AdditionalData":[{"value":"Deutschland","key":"CountryName"},{"value":"Baden-Württemberg","key":"StateName"},{"value":"Emmendingen","key":"CountyName"}]},"MapReference":{"ReferenceId":"772962922","Spot":0.17,"SideOfStreet":"left","CountryId":"20147700","StateId":"20171489","CountyId":"20174600","CityId":"20174643","DistrictId":"20174645","AddressId":"178922979","RoadLinkId":"166606574"}}},{"Relevance":1.0,"Distance":36.4,"MatchLevel":"houseNumber","MatchQuality":{"Country":1.0,"State":1.0,"County":1.0,"City":1.0,"District":1.0,"Street":[1.0],"HouseNumber":1.0,"PostalCode":1.0},"MatchType":"interpolated","Location":{"LocationId":"NT_MU39NerNY7y.Bs6CyjCvcD_zQD","LocationType":"point","DisplayPosition":{"Latitude":48.16162,"Longitude":7.7951},"MapView":{"TopLeft":{"Latitude":48.1627442,"Longitude":7.7934147},"BottomRight":{"Latitude":48.1604958,"Longitude":7.7967853}},"Address":{"Label":"Hauptstraße 34, 79364 Malterdingen, Deutschland","Country":"DEU","State":"Baden-Württemberg","County":"Emmendingen","City":"Malterdingen","District":"Malterdingen","Street":"Hauptstraße","HouseNumber":"34","PostalCode":"79364","AdditionalData":[{"value":"Deutschland","key":"CountryName"},{"value":"Baden-Württemberg","key":"StateName"},{"value":"Emmendingen","key":"CountyName"}]},"MapReference":{"ReferenceId":"736469928","Spot":0.13,"SideOfStreet":"left","CountryId":"20147700","StateId":"20171489","CountyId":"20174600","CityId":"20174643","DistrictId":"20174645","AddressId":"177524553","RoadLinkId":"136126577"}}},{"Relevance":1.0,"Distance":39.2,"MatchLevel":"houseNumber","MatchQuality":{"Country":1.0,"State":1.0,"County":1.0,"City":1.0,"District":1.0,"Street":[1.0],"HouseNumber":1.0,"PostalCode":1.0},"MatchType":"interpolated","Location":{"LocationId":"NT_jlYolNRn12JpjMUxS4z08D_xA","LocationType":"point","DisplayPosition":{"Latitude":48.16118,"Longitude":7.79463},"MapView":{"TopLeft":{"Latitude":48.1623042,"Longitude":7.7929447},"BottomRight":{"Latitude":48.1600558,"Longitude":7.7963153}},"Address":{"Label":"Lehgasse 1, 79364 Malterdingen, Deutschland","Country":"DEU","State":"Baden-Württemberg","County":"Emmendingen","City":"Malterdingen","District":"Malterdingen","Street":"Lehgasse","HouseNumber":"1","PostalCode":"79364","AdditionalData":[{"value":"Deutschland","key":"CountryName"},{"value":"Baden-Württemberg","key":"StateName"},{"value":"Emmendingen","key":"CountyName"}]},"MapReference":{"ReferenceId":"73549355","Spot":0.7,"SideOfStreet":"right","CountryId":"20147700","StateId":"20171489","CountyId":"20174600","CityId":"20174643","DistrictId":"20174645","AddressId":"178660132","RoadLinkId":"38599562"}}},{"Relevance":1.0,"Distance":59.0,"MatchLevel":"houseNumber","MatchQuality":{"Country":1.0,"State":1.0,"County":1.0,"City":1.0,"District":1.0,"Street":[1.0],"HouseNumber":1.0,"PostalCode":1.0},"MatchType":"interpolated","Location":{"LocationId":"NT_hxvT7OmV5PiTB5mJoE7DYD_1A","LocationType":"point","DisplayPosition":{"Latitude":48.16208,"Longitude":7.79437},"MapView":{"TopLeft":{"Latitude":48.1632042,"Longitude":7.7926847},"BottomRight":{"Latitude":48.1609558,"Longitude":7.7960553}},"Address":{"Label":"Vogtweg 5, 79364 Malterdingen, Deutschland","Country":"DEU","State":"Baden-Württemberg","County":"Emmendingen","City":"Malterdingen","District":"Malterdingen","Street":"Vogtweg","HouseNumber":"5","PostalCode":"79364","AdditionalData":[{"value":"Deutschland","key":"CountryName"},{"value":"Baden-Württemberg","key":"StateName"},{"value":"Emmendingen","key":"CountyName"}]},"MapReference":{"ReferenceId":"1067547466","Spot":0.77,"SideOfStreet":"right","CountryId":"20147700","StateId":"20171489","CountyId":"20174600","CityId":"20174643","DistrictId":"20174645","AddressId":"621679689","RoadLinkId":"389849302"}}},{"Relevance":1.0,"Distance":80.1,"MatchLevel":"houseNumber","MatchQuality":{"Country":1.0,"State":1.0,"County":1.0,"City":1.0,"District":1.0,"Street":[1.0],"HouseNumber":1.0,"PostalCode":1.0},"MatchType":"interpolated","Location":{"LocationId":"NT_S8SwTGr2SlAwFA05dArkAC_1A","LocationType":"point","DisplayPosition":{"Latitude":48.1607,"Longitude":7.79388},"MapView":{"TopLeft":{"Latitude":48.1618242,"Longitude":7.7921947},"BottomRight":{"Latitude":48.1595758,"Longitude":7.7955653}},"Address":{"Label":"Kittelgasse 5, 79364 Malterdingen, Deutschland","Country":"DEU","State":"Baden-Württemberg","County":"Emmendingen","City":"Malterdingen","District":"Malterdingen","Street":"Kittelgasse","HouseNumber":"5","PostalCode":"79364","AdditionalData":[{"value":"Deutschland","key":"CountryName"},{"value":"Baden-Württemberg","key":"StateName"},{"value":"Emmendingen","key":"CountyName"}]},"MapReference":{"ReferenceId":"73549319","Spot":0.68,"SideOfStreet":"right","CountryId":"20147700","StateId":"20171489","CountyId":"20174600","CityId":"20174643","DistrictId":"20174645","AddressId":"621614453","RoadLinkId":"38227739"}}},{"Relevance":1.0,"Distance":80.6,"MatchLevel":"houseNumber","MatchQuality":{"Country":1.0,"State":1.0,"County":1.0,"City":1.0,"District":1.0,"Street":[1.0],"HouseNumber":1.0,"PostalCode":1.0},"MatchType":"interpolated","Location":{"LocationId":"NT_01SkW0kV7ED1Q9REmruMKA_zA","LocationType":"point","DisplayPosition":{"Latitude":48.1624,"Longitude":7.79476},"MapView":{"TopLeft":{"Latitude":48.1635242,"Longitude":7.7930747},"BottomRight":{"Latitude":48.1612758,"Longitude":7.7964453}},"Address":{"Label":"Schmiedstraße 3, 79364 Malterdingen, Deutschland","Country":"DEU","State":"Baden-Württemberg","County":"Emmendingen","City":"Malterdingen","District":"Malterdingen","Street":"Schmiedstraße","HouseNumber":"3","PostalCode":"79364","AdditionalData":[{"value":"Deutschland","key":"CountryName"},{"value":"Baden-Württemberg","key":"StateName"},{"value":"Emmendingen","key":"CountyName"}]},"MapReference":{"ReferenceId":"881216917","Spot":0.14,"SideOfStreet":"left","CountryId":"20147700","StateId":"20171489","CountyId":"20174600","CityId":"20174643","DistrictId":"20174645","AddressId":"177868605","RoadLinkId":"249865077"}}}]}]}}