{"Response":{"MetaInfo":{"Timestamp":"2020-03-28T10:01:45.032+0000","NextPageInformation":"2"},"View":[{"_type":"SearchResultsViewType","ViewId":0,"Result":[{"Relevance":1.0,"Distance":0.0,"Direction":0.0,"MatchLevel":"district","MatchQuality":{"Country":1.0,"State":1.0,"County":1.0,"City":1.0,"District":1.0,"PostalCode":1.0},"Location":{"LocationId":"NT_l2oYszq5DtUtwOcsgPNUYB","LocationType":"point","DisplayPosition":{"Latitude":48.1080322,"Longitude":14.8738645},"MapView":{"TopLeft":{"Latitude":48.11288,"Longitude":14.86296},"BottomRight":{"Latitude":48.10529,"Longitude":14.88718}},"Address":{"Label":"Allersdorf, Amstetten, Niederösterreich, Österreich","Country":"AUT","State":"Niederösterreich","County":"Amstetten","City":"Amstetten","District":"Allersdorf","PostalCode":"3300","AdditionalData":[{"value":"Österreich","key":"CountryName"},{"value":"Niederösterreich","key":"StateName"},{"value":"Amstetten","key":"CountyName"}]},"MapReference":{"ReferenceId":"75449318","SideOfStreet":"neither","CountryId":"20128885","StateId":"20130295","CountyId":"20130338","CityId":"20130343","DistrictId":"20704461"}}},{"Relevance":1.0,"Distance":8.0,"MatchLevel":"houseNumber","MatchQuality":{"Country":1.0,"State":1.0,"County":1.0,"City":1.0,"District":1.0,"Street":[1.0],"HouseNumber":1.0,"PostalCode":1.0},"MatchType":"interpolated","Location":{"LocationId":"NT_9J7Frpq58Co3zzp6SkFDfA_yAD","LocationType":"point","DisplayPosition":{"Latitude":48.1081,"Longitude":14.87383},"MapView":{"TopLeft":{"Latitude":48.1092242,"Longitude":14.8721465},"BottomRight":{"Latitude":48.1069758,"Longitude":14.8755135}},"Address":{"Label":"Allersdorfer Straße 20, 3300 Amstetten, Österreich","Country":"AUT","State":"Niederösterreich","County":"Amstetten","City":"Amstetten","District":"Allersdorf","Street":"Allersdorfer Straße","HouseNumber":"20","PostalCode":"3300","AdditionalData":[{"value":"Österreich","key":"CountryName"},{"value":"Niederösterreich","key":"StateName"},{"value":"Amstetten","key":"CountyName"}]},"MapReference":{"ReferenceId":"75449479","Spot":0.55,"SideOfStreet":"left","CountryId":"20128885","StateId":"20130295","CountyId":"20130338","CityId":"20130343","DistrictId":"20704461","AddressId":"162113804","RoadLinkId":"28723582"}}},{"Relevance":1.0,"Distance":43.7,"MatchLevel":"street","MatchQuality":{"Country":1.0,"State":1.0,"County":1.0,"City":1.0,"District":1.0,"Street":[1.0],"PostalCode":1.0},"Location":{"LocationId":"NT_9J7Frpq58Co3zzp6SkFDfA_l_75449496_L","LocationType":"point","DisplayPosition":{"Latitude":48.10787,"Longitude":14.8744},"MapView":{"TopLeft":{"Latitude":48.10787,"Longitude":14.8744},"BottomRight":{"Latitude":48.10747,"Longitude":14.87539}},"Address":{"Label":"Allersdorfer Straße, 3300 Amstetten, Österreich","Country":"AUT","State":"Niederösterreich","County":"Amstetten","City":"Amstetten","District":"Allersdorf","Street":"Allersdorfer Straße","PostalCode":"3300","AdditionalData":[{"value":"Österreich","key":"CountryName"},{"value":"Niederösterreich","key":"StateName"},{"value":"Amstetten","key":"CountyName"}]},"MapReference":{"ReferenceId":"75449496","Spot":1.0,"SideOfStreet":"left","CountryId":"20128885","StateId":"20130295","CountyId":"20130338","CityId":"20130343","DistrictId":"20704461"}}},{"Relevance":1.0,"Distance":48.8,"MatchLevel":"houseNumber","MatchQuality":{"Country":1.0,"State":1.0,"County":1.0,"City":1.0,"District":1.0,"Street":[1.0],"HouseNumber":1.0,"PostalCode":1.0},"MatchType":"interpolated","Location":{"LocationId":"NT_W4fbTE4gl71e6PPg9B6UUB_yMD","LocationType":"point","DisplayPosition":{"Latitude":48.10764,"Longitude":14.87335},"MapView":{"TopLeft":{"Latitude":48.1087642,"Longitude":14.8716665},"BottomRight":{"Latitude":48.1065158,"Longitude":14.8750335}},"Address":{"Label":"Franz-Pilz-Straße 23, 3300 Amstetten, Österreich","Country":"AUT","State":"Niederösterreich","County":"Amstetten","City":"Amstetten","District":"Allersdorf","Street":"Franz-Pilz-Straße","HouseNumber":"23","PostalCode":"3300","AdditionalData":[{"value":"Österreich","key":"CountryName"},{"value":"Niederösterreich","key":"StateName"},{"value":"Amstetten","key":"CountyName"}]},"MapReference":{"ReferenceId":"75449526","Spot":0.6,"SideOfStreet":"right","CountryId":"20128885","StateId":"20130295","CountyId":"20130338","CityId":"20130343","DistrictId":"20704461","AddressId":"162165105","RoadLinkId":"28850885"}}},{"Relevance":1.0,"Distance":55.9,"MatchLevel":"houseNumber","MatchQuality":{"Country":1.0,"State":1.0,"County":1.0,"City":1.0,"District":1.0,"Street":[1.0],"HouseNumber":1.0,"PostalCode":1.0},"MatchType":"interpolated","Location":{"LocationId":"NT_XE4RG6OeMuWVlloD501BNB_yID","LocationType":"point","DisplayPosition":{"Latitude":48.10766,"Longitude":14.87441},"MapView":{"TopLeft":{"Latitude":48.1087842,"Longitude":14.8727265},"BottomRight":{"Latitude":48.1065358,"Longitude":14.8760935}},"Address":{"Label":"Neugasse 22, 3300 Amstetten, Österreich","Country":"AUT","State":"Niederösterreich","County":"Amstetten","City":"Amstetten","District":"Allersdorf","Street":"Neugasse","HouseNumber":"22","PostalCode":"3300","AdditionalData":[{"value":"Österreich","key":"CountryName"},{"value":"Niederösterreich","key":"StateName"},{"value":"Amstetten","key":"CountyName"}]},"MapReference":{"ReferenceId":"75449521","Spot":0.8,"SideOfStreet":"left","CountryId":"20128885","StateId":"20130295","CountyId":"20130338","CityId":"20130343","DistrictId":"20704461","AddressId":"813009706","RoadLinkId":"299465325"}}},{"Relevance":1.0,"Distance":58.8,"MatchLevel":"houseNumber","MatchQuality":{"Country":1.0,"State":1.0,"County":1.0,"City":1.0,"District":1.0,"Street":[1.0],"HouseNumber":1.0,"PostalCode":1.0},"MatchType":"interpolated","Location":{"LocationId":"NT_XE4RG6OeMuWVlloD501BNB_xYD","LocationType":"point","DisplayPosition":{"Latitude":48.10849,"Longitude":14.87442},"MapView":{"TopLeft":{"Latitude":48.1096142,"Longitude":14.8727364},"BottomRight":{"Latitude":48.1073658,"Longitude":14.8761036}},"Address":{"Label":"Neugasse 16, 3300 Amstetten, Österreich","Country":"AUT","State":"Niederösterreich","County":"Amstetten","City":"Amstetten","District":"Allersdorf","Street":"Neugasse","HouseNumber":"16","PostalCode":"3300","AdditionalData":[{"value":"Österreich","key":"CountryName"},{"value":"Niederösterreich","key":"StateName"},{"value":"Amstetten","key":"CountyName"}]},"MapReference":{"ReferenceId":"75449478","Spot":0.25,"SideOfStreet":"left","CountryId":"20128885","StateId":"20130295","CountyId":"20130338","CityId":"20130343","DistrictId":"20704461","AddressId":"214873817","RoadLinkId":"27953432"}}},{"Relevance":1.0,"Distance":68.1,"MatchLevel":"houseNumber","MatchQuality":{"Country":1.0,"State":1.0,"County":1.0,"City":1.0,"District":1.0,"Street":[1.0],"HouseNumber":1.0,"PostalCode":1.0},"MatchType":"interpolated","Location":{"LocationId":"NT_9J7Frpq58Co3zzp6SkFDfA_xgD","LocationType":"point","DisplayPosition":{"Latitude":48.10839,"Longitude":14.87312},"MapView":{"TopLeft":{"Latitude":48.1095142,"Longitude":14.8714364},"BottomRight":{"Latitude":48.1072658,"Longitude":14.8748036}},"Address":{"Label":"Allersdorfer Straße 18, 3300 Amstetten, Österreich","Country":"AUT","State":"Niederösterreich","County":"Amstetten","City":"Amstetten","District":"Allersdorf","Street":"Allersdorfer Straße","HouseNumber":"18","PostalCode":"3300","AdditionalData":[{"value":"Österreich","key":"CountryName"},{"value":"Niederösterreich","key":"StateName"},{"value":"Amstetten","key":"CountyName"}]},"MapReference":{"ReferenceId":"75449458","Spot":0.27,"SideOfStreet":"left","CountryId":"20128885","StateId":"20130295","CountyId":"20130338","CityId":"20130343","DistrictId":"20704461","AddressId":"162166585","RoadLinkId":"28412141"}}},{"Relevance":1.0,"Distance":77.7,"MatchLevel":"houseNumber","MatchQuality":{"Country":1.0,"State":1.0,"County":1.0,"City":1.0,"District":1.0,"Street":[1.0],"HouseNumber":1.0,"PostalCode":1.0},"MatchType":"interpolated","Location":{"LocationId":"NT_W4fbTE4gl71e6PPg9B6UUB_yED","LocationType":"point","DisplayPosition":{"Latitude":48.10873,"Longitude":14.87339},"MapView":{"TopLeft":{"Latitude":48.1098542,"Longitude":14.8717064},"BottomRight":{"Latitude":48.1076058,"Longitude":14.8750736}},"Address":{"Label":"Franz-Pilz-Straße 21, 3300 Amstetten, Österreich","Country":"AUT","State":"Niederösterreich","County":"Amstetten","City":"Amstetten","District":"Allersdorf","Street":"Franz-Pilz-Straße","HouseNumber":"21","PostalCode":"3300","AdditionalData":[{"value":"Österreich","key":"CountryName"},{"value":"Niederösterreich","key":"StateName"},{"value":"Amstetten","key":"CountyName"}]},"MapReference":{"ReferenceId":"75449457","Spot":0.15,"SideOfStreet":"right","CountryId":"20128885","StateId":"20130295","CountyId":"20130338","CityId":"20130343","DistrictId":"20704461","AddressId":"162110893","RoadLinkId":"28009523"}}},{"Relevance":1.0,"Distance":93.5,"MatchLevel":"houseNumber","MatchQuality":{"Country":1.0,"State":1.0,"County":1.0,"City":1.0,"District":1.0,"Street":[1.0],"HouseNumber":1.0,"PostalCode":1.0},"MatchType":"interpolated","Location":{"LocationId":"NT_SG37ul4N-wFvo-n.T-4a1C_zcD","LocationType":"point","DisplayPosition":{"Latitude":48.10797,"Longitude":14.87236},"MapView":{"TopLeft":{"Latitude":48.1090942,"Longitude":14.8706765},"BottomRight":{"Latitude":48.1068458,"Longitude":14.8740435}},"Address":{"Label":"Haidhofstraße 37, 3300 Amstetten, Österreich","Country":"AUT","State":"Niederösterreich","County":"Amstetten","City":"Amstetten","District":"Allersdorf","Street":"Haidhofstraße","HouseNumber":"37","PostalCode":"3300","AdditionalData":[{"value":"Österreich","key":"CountryName"},{"value":"Niederösterreich","key":"StateName"},{"value":"Amstetten","key":"CountyName"}]},"MapReference":{"ReferenceId":"75449537","Spot":0.68,"SideOfStreet":"right","CountryId":"20128885","StateId":"20130295","CountyId":"20130338","CityId":"20130343","DistrictId":"20704461","AddressId":"162165578","RoadLinkId":"28175004"}}},{"Relevance":1.0,"Distance":94.5,"MatchLevel":"houseNumber","MatchQuality":{"Country":1.0,"State":1.0,"County":1.0,"City":1.0,"District":1.0,"Street":[1.0],"HouseNumber":1.0,"PostalCode":1.0},"MatchType":"interpolated","Location":{"LocationId":"NT_zeu-E2EbPdjBK4gwdxUARD_xYD","LocationType":"point","DisplayPosition":{"Latitude":48.10812,"Longitude":14.87536},"MapView":{"TopLeft":{"Latitude":48.1092442,"Longitude":14.8736764},"BottomRight":{"Latitude":48.1069958,"Longitude":14.8770436}},"Address":{"Label":"Schaffenfeldstraße 16, 3300 Amstetten, Österreich","Country":"AUT","State":"Niederösterreich","County":"Amstetten","City":"Amstetten","District":"Allersdorf","Street":"Schaffenfeldstraße","HouseNumber":"16","PostalCode":"3300","AdditionalData":[{"value":"Österreich","key":"CountryName"},{"value":"Niederösterreich","key":"StateName"},{"value":"Amstetten","key":"CountyName"}]},"MapReference":{"ReferenceId":"75449495","Spot":0.83,"SideOfStreet":"left","CountryId":"20128885","StateId":"20130295","CountyId":"20130338","CityId":"20130343","DistrictId":"20704461","AddressId":"161434679","RoadLinkId":"27828767"}}}]}]}}