{"Response":{"MetaInfo":{"Timestamp":"2020-03-28T10:54:46.109+0000","NextPageInformation":"2"},"View":[{"_type":"SearchResultsViewType","ViewId":0,"Result":[{"Relevance":1.0,"Distance":0.0,"Direction":0.0,"MatchLevel":"city","MatchQuality":{"Country":1.0,"State":1.0,"County":1.0,"City":1.0,"PostalCode":1.0},"Location":{"LocationId":"NT_xKo2Bx60iW2wDyr4sJFuRB","LocationType":"point","DisplayPosition":{"Latitude":48.187097,"Longitude":8.9982136},"MapView":{"TopLeft":{"Latitude":48.22257,"Longitude":8.84531},"BottomRight":{"Latitude":48.11944,"Longitude":9.01075}},"Address":{"Label":"Meßstetten, Baden-Württemberg, Deutschland","Country":"DEU","State":"Baden-Württemberg","County":"Zollernalbkreis","City":"Meßstetten","PostalCode":"72469","AdditionalData":[{"value":"Deutschland","key":"CountryName"},{"value":"Baden-Württemberg","key":"StateName"},{"value":"Zollernalbkreis","key":"CountyName"}]},"MapReference":{"ReferenceId":"792487830","SideOfStreet":"neither","CountryId":"20147700","StateId":"20171489","CountyId":"20176095","CityId":"20176174"}}},{"Relevance":1.0,"Distance":19.4,"MatchLevel":"houseNumber","MatchQuality":{"Country":1.0,"State":1.0,"County":1.0,"City":1.0,"Street":[1.0],"HouseNumber":1.0,"PostalCode":1.0},"MatchType":"interpolated","Location":{"LocationId":"NT_vYrYpZ.mTEGjrJiLoe13MD_1EzLxgD","LocationType":"point","DisplayPosition":{"Latitude":48.18697,"Longitude":8.99805},"MapView":{"TopLeft":{"Latitude":48.1880942,"Longitude":8.9963639},"BottomRight":{"Latitude":48.1858458,"Longitude":8.9997361}},"Address":{"Label":"Geißbühlstraße 51/18, 72469 Meßstetten, Deutschland","Country":"DEU","State":"Baden-Württemberg","County":"Zollernalbkreis","City":"Meßstetten","Street":"Geißbühlstraße","HouseNumber":"51/18","PostalCode":"72469","AdditionalData":[{"value":"Deutschland","key":"CountryName"},{"value":"Baden-Württemberg","key":"StateName"},{"value":"Zollernalbkreis","key":"CountyName"}]},"MapReference":{"ReferenceId":"1136661187","Spot":0.7,"SideOfStreet":"right","CountryId":"20147700","StateId":"20171489","CountyId":"20176095","CityId":"20176174","AddressId":"732475910","RoadLinkId":"445403528"}}},{"Relevance":1.0,"Distance":74.8,"MatchLevel":"street","MatchQuality":{"Country":1.0,"State":1.0,"County":1.0,"City":1.0,"PostalCode":1.0},"Location":{"LocationId":"NT_L0JUqb69IYrJQArZAjXKsA_l_773622995_L","LocationType":"point","DisplayPosition":{"Latitude":48.1876875,"Longitude":8.9986981},"MapView":{"TopLeft":{"Latitude":48.18817,"Longitude":8.99811},"BottomRight":{"Latitude":48.18707,"Longitude":8.99948}},"Address":{"Label":"72458 Albstadt, Deutschland","Country":"DEU","State":"Baden-Württemberg","County":"Zollernalbkreis","City":"Albstadt","PostalCode":"72458","AdditionalData":[{"value":"Deutschland","key":"CountryName"},{"value":"Baden-Württemberg","key":"StateName"},{"value":"Zollernalbkreis","key":"CountyName"}]},"MapReference":{"ReferenceId":"773622995","Spot":0.32,"SideOfStreet":"left","CountryId":"20147700","StateId":"20171489","CountyId":"20176095","CityId":"20176225"}}},{"Relevance":1.0,"Distance":93.2,"MatchLevel":"street","MatchQuality":{"Country":1.0,"State":1.0,"County":1.0,"City":1.0,"PostalCode":1.0},"Location":{"LocationId":"NT_L0JUqb69IYrJQArZAjXKsA_l_773622992_L","LocationType":"point","DisplayPosition":{"Latitude":48.18707,"Longitude":8.99947},"MapView":{"TopLeft":{"Latitude":48.18707,"Longitude":8.99947},"BottomRight":{"Latitude":48.18694,"Longitude":8.99964}},"Address":{"Label":"72458 Albstadt, Deutschland","Country":"DEU","State":"Baden-Württemberg","County":"Zollernalbkreis","City":"Albstadt","PostalCode":"72458","AdditionalData":[{"value":"Deutschland","key":"CountryName"},{"value":"Baden-Württemberg","key":"StateName"},{"value":"Zollernalbkreis","key":"CountyName"}]},"MapReference":{"ReferenceId":"773622992","Spot":1.0,"SideOfStreet":"left","CountryId":"20147700","StateId":"20171489","CountyId":"20176095","CityId":"20176225"}}},{"Relevance":1.0,"Distance":107.2,"MatchLevel":"street","MatchQuality":{"Country":1.0,"State":1.0,"County":1.0,"City":1.0,"PostalCode":1.0},"Location":{"LocationId":"NT_L0JUqb69IYrJQArZAjXKsA_l_773622990_L","LocationType":"point","DisplayPosition":{"Latitude":48.18694,"Longitude":8.99964},"MapView":{"TopLeft":{"Latitude":48.18694,"Longitude":8.99964},"BottomRight":{"Latitude":48.18413,"Longitude":9.00133}},"Address":{"Label":"72458 Albstadt, Deutschland","Country":"DEU","State":"Baden-Württemberg","County":"Zollernalbkreis","City":"Albstadt","PostalCode":"72458","AdditionalData":[{"value":"Deutschland","key":"CountryName"},{"value":"Baden-Württemberg","key":"StateName"},{"value":"Zollernalbkreis","key":"CountyName"}]},"MapReference":{"ReferenceId":"773622990","Spot":1.0,"SideOfStreet":"left","CountryId":"20147700","StateId":"20171489","CountyId":"20176095","CityId":"20176225"}}},{"Relevance":1.0,"Distance":109.5,"MatchLevel":"houseNumber","MatchQuality":{"Country":1.0,"State":1.0,"County":1.0,"City":1.0,"Street":[1.0],"HouseNumber":1.0,"PostalCode":1.0},"MatchType":"interpolated","Location":{"LocationId":"NT_vYrYpZ.mTEGjrJiLoe13MD_1EzL1ED","LocationType":"point","DisplayPosition":{"Latitude":48.18752,"Longitude":8.99688},"MapView":{"TopLeft":{"Latitude":48.1886442,"Longitude":8.9951938},"BottomRight":{"Latitude":48.1863958,"Longitude":8.9985662}},"Address":{"Label":"Geißbühlstraße 51/51, 72469 Meßstetten, Deutschland","Country":"DEU","State":"Baden-Württemberg","County":"Zollernalbkreis","City":"Meßstetten","Street":"Geißbühlstraße","HouseNumber":"51/51","PostalCode":"72469","AdditionalData":[{"value":"Deutschland","key":"CountryName"},{"value":"Baden-Württemberg","key":"StateName"},{"value":"Zollernalbkreis","key":"CountyName"}]},"MapReference":{"ReferenceId":"1136661184","Spot":0.56,"SideOfStreet":"left","CountryId":"20147700","StateId":"20171489","CountyId":"20176095","CityId":"20176174","AddressId":"732515581","RoadLinkId":"445403525"}}},{"Relevance":1.0,"Distance":137.7,"MatchLevel":"houseNumber","MatchQuality":{"Country":1.0,"State":1.0,"County":1.0,"City":1.0,"Street":[1.0],"HouseNumber":1.0,"PostalCode":1.0},"MatchType":"interpolated","Location":{"LocationId":"NT_vYrYpZ.mTEGjrJiLoe13MD_1EzLxkD","LocationType":"point","DisplayPosition":{"Latitude":48.1866,"Longitude":8.99613},"MapView":{"TopLeft":{"Latitude":48.1877242,"Longitude":8.9944439},"BottomRight":{"Latitude":48.1854758,"Longitude":8.9978161}},"Address":{"Label":"Geißbühlstraße 51/19, 72469 Meßstetten, Deutschland","Country":"DEU","State":"Baden-Württemberg","County":"Zollernalbkreis","City":"Meßstetten","Street":"Geißbühlstraße","HouseNumber":"51/19","PostalCode":"72469","AdditionalData":[{"value":"Deutschland","key":"CountryName"},{"value":"Baden-Württemberg","key":"StateName"},{"value":"Zollernalbkreis","key":"CountyName"}]},"MapReference":{"ReferenceId":"1136661185","Spot":0.57,"SideOfStreet":"right","CountryId":"20147700","StateId":"20171489","CountyId":"20176095","CityId":"20176174","AddressId":"732682639","RoadLinkId":"445403526"}}},{"Relevance":1.0,"Distance":141.9,"MatchLevel":"street","MatchQuality":{"Country":1.0,"State":1.0,"County":1.0,"City":1.0,"Street":[1.0],"PostalCode":1.0},"Location":{"LocationId":"NT_vYrYpZ.mTEGjrJiLoe13MD_l_1136661186_R","LocationType":"point","DisplayPosition":{"Latitude":48.1871678,"Longitude":8.9963029},"MapView":{"TopLeft":{"Latitude":48.18761,"Longitude":8.99628},"BottomRight":{"Latitude":48.18709,"Longitude":8.99631}},"Address":{"Label":"Geißbühlstraße, 72469 Meßstetten, Deutschland","Country":"DEU","State":"Baden-Württemberg","County":"Zollernalbkreis","City":"Meßstetten","Street":"Geißbühlstraße","PostalCode":"72469","AdditionalData":[{"value":"Deutschland","key":"CountryName"},{"value":"Baden-Württemberg","key":"StateName"},{"value":"Zollernalbkreis","key":"CountyName"}]},"MapReference":{"ReferenceId":"1136661186","Spot":0.15,"SideOfStreet":"right","CountryId":"20147700","StateId":"20171489","CountyId":"20176095","CityId":"20176174"}}},{"Relevance":1.0,"Distance":144.1,"MatchLevel":"houseNumber","MatchQuality":{"Country":1.0,"State":1.0,"County":1.0,"City":1.0,"Street":[1.0],"HouseNumber":1.0,"PostalCode":1.0},"MatchType":"interpolated","Location":{"LocationId":"NT_vYrYpZ.mTEGjrJiLoe13MD_1EzLxUD","LocationType":"point","DisplayPosition":{"Latitude":48.18783,"Longitude":8.9962},"MapView":{"TopLeft":{"Latitude":48.1889542,"Longitude":8.9945138},"BottomRight":{"Latitude":48.1867058,"Longitude":8.9978862}},"Address":{"Label":"Geißbühlstraße 51/15, 72469 Meßstetten, Deutschland","Country":"DEU","State":"Baden-Württemberg","County":"Zollernalbkreis","City":"Meßstetten","Street":"Geißbühlstraße","HouseNumber":"51/15","PostalCode":"72469","AdditionalData":[{"value":"Deutschland","key":"CountryName"},{"value":"Baden-Württemberg","key":"StateName"},{"value":"Zollernalbkreis","key":"CountyName"}]},"MapReference":{"ReferenceId":"1136661183","Spot":0.09,"SideOfStreet":"right","CountryId":"20147700","StateId":"20171489","CountyId":"20176095","CityId":"20176174","AddressId":"732633000","RoadLinkId":"445403524"}}},{"Relevance":1.0,"Distance":146.6,"MatchLevel":"street","MatchQuality":{"Country":1.0,"State":1.0,"County":1.0,"City":1.0,"PostalCode":1.0},"Location":{"LocationId":"NT_L0JUqb69IYrJQArZAjXKsA_l_773622997_R","LocationType":"point","DisplayPosition":{"Latitude":48.18811,"Longitude":8.99948},"MapView":{"TopLeft":{"Latitude":48.18811,"Longitude":8.99948},"BottomRight":{"Latitude":48.18805,"Longitude":9.00336}},"Address":{"Label":"72458 Albstadt, Deutschland","Country":"DEU","State":"Baden-Württemberg","County":"Zollernalbkreis","City":"Albstadt","PostalCode":"72458","AdditionalData":[{"value":"Deutschland","key":"CountryName"},{"value":"Baden-Württemberg","key":"StateName"},{"value":"Zollernalbkreis","key":"CountyName"}]},"MapReference":{"ReferenceId":"773622997","Spot":0.0,"SideOfStreet":"right","CountryId":"20147700","StateId":"20171489","CountyId":"20176095","CityId":"20176225"}}}]}]}}