{"Response":{"MetaInfo":{"Timestamp":"2020-03-28T10:56:56.377+0000","NextPageInformation":"2"},"View":[{"_type":"SearchResultsViewType","ViewId":0,"Result":[{"Relevance":1.0,"Distance":0.0,"Direction":0.0,"MatchLevel":"district","MatchQuality":{"Country":1.0,"State":1.0,"County":1.0,"City":1.0,"District":1.0,"PostalCode":1.0},"Location":{"LocationId":"NT_BR7cV9IS51MWw.H11qEpSB","LocationType":"point","DisplayPosition":{"Latitude":48.1029388,"Longitude":11.6295521},"MapView":{"TopLeft":{"Latitude":48.10592,"Longitude":11.59977},"BottomRight":{"Latitude":48.08035,"Longitude":11.65451}},"Address":{"Label":"Altperlach, München, Bayern, Deutschland","Country":"DEU","State":"Bayern","County":"München (Stadt)","City":"München","District":"Altperlach","PostalCode":"81737","AdditionalData":[{"value":"Deutschland","key":"CountryName"},{"value":"Bayern","key":"StateName"},{"value":"München (Stadt)","key":"CountyName"}]},"MapReference":{"ReferenceId":"586885094","SideOfStreet":"neither","CountryId":"20147700","StateId":"20177250","CountyId":"20177268","CityId":"20177269"}}},{"Relevance":1.0,"Distance":5.6,"MatchLevel":"street","MatchQuality":{"Country":1.0,"State":1.0,"County":1.0,"City":1.0,"District":1.0,"Street":[1.0],"PostalCode":1.0},"Location":{"LocationId":"NT_zLfJoVAe6VJF4NUVxZxheD_l_83533518_L","LocationType":"point","DisplayPosition":{"Latitude":48.10296,"Longitude":11.62962},"MapView":{"TopLeft":{"Latitude":48.10296,"Longitude":11.62962},"BottomRight":{"Latitude":48.1027,"Longitude":11.6301}},"Address":{"Label":"Schmidbauerstraße, 81737 München, Deutschland","Country":"DEU","State":"Bayern","County":"München (Stadt)","City":"München","District":"Altperlach","Street":"Schmidbauerstraße","PostalCode":"81737","AdditionalData":[{"value":"Deutschland","key":"CountryName"},{"value":"Bayern","key":"StateName"},{"value":"München (Stadt)","key":"CountyName"}]},"MapReference":{"ReferenceId":"83533518","Spot":1.0,"SideOfStreet":"left","CountryId":"20147700","StateId":"20177250","CountyId":"20177268","CityId":"20177269"}}},{"Relevance":1.0,"Distance":5.8,"MatchLevel":"street","MatchQuality":{"Country":1.0,"State":1.0,"County":1.0,"City":1.0,"District":1.0,"Street":[1.0],"PostalCode":1.0},"Location":{"LocationId":"NT_zLfJoVAe6VJF4NUVxZxheD_l_1219943139_L","LocationType":"point","DisplayPosition":{"Latitude":48.1029686,"Longitude":11.629616},"MapView":{"TopLeft":{"Latitude":48.10345,"Longitude":11.62931},"BottomRight":{"Latitude":48.10296,"Longitude":11.62962}},"Address":{"Label":"Schmidbauerstraße, 81737 München, Deutschland","Country":"DEU","State":"Bayern","County":"München (Stadt)","City":"München","District":"Altperlach","Street":"Schmidbauerstraße","PostalCode":"81737","AdditionalData":[{"value":"Deutschland","key":"CountryName"},{"value":"Bayern","key":"StateName"},{"value":"München (Stadt)","key":"CountyName"}]},"MapReference":{"ReferenceId":"1219943139","Spot":0.02,"SideOfStreet":"left","CountryId":"20147700","StateId":"20177250","CountyId":"20177268","CityId":"20177269"}}},{"Relevance":1.0,"Distance":41.9,"MatchLevel":"houseNumber","MatchQuality":{"Country":1.0,"State":1.0,"County":1.0,"City":1.0,"District":1.0,"Street":[1.0],"HouseNumber":1.0,"PostalCode":1.0},"MatchType":"interpolated","Location":{"LocationId":"NT_zLfJoVAe6VJF4NUVxZxheD_zID","LocationType":"point","DisplayPosition":{"Latitude":48.10286,"Longitude":11.629},"MapView":{"TopLeft":{"Latitude":48.1039842,"Longitude":11.6273166},"BottomRight":{"Latitude":48.1017358,"Longitude":11.6306834}},"Address":{"Label":"Schmidbauerstraße 32, 81737 München, Deutschland","Country":"DEU","State":"Bayern","County":"München (Stadt)","City":"München","District":"Altperlach","Street":"Schmidbauerstraße","HouseNumber":"32","PostalCode":"81737","AdditionalData":[{"value":"Deutschland","key":"CountryName"},{"value":"Bayern","key":"StateName"},{"value":"München (Stadt)","key":"CountyName"}]},"MapReference":{"ReferenceId":"586895953","Spot":0.21,"SideOfStreet":"left","CountryId":"20147700","StateId":"20177250","CountyId":"20177268","CityId":"20177269","AddressId":"621752631","RoadLinkId":"33241170"}}},{"Relevance":1.0,"Distance":44.0,"MatchLevel":"landmark","MatchQuality":{"Country":1.0,"State":1.0,"Name":1.0},"Location":{"LocationId":"NT_cIjdgJpWNKKjm415UPjagD","LocationType":"river","Name":"Hachinger Bach","DisplayPosition":{"Latitude":48.06686,"Longitude":11.62043},"MapView":{"TopLeft":{"Latitude":48.11962,"Longitude":11.59368},"BottomRight":{"Latitude":48.02137,"Longitude":11.63385}},"Address":{"Label":"Deutschland","Country":"DEU","State":"Bayern","AdditionalData":[{"value":"Deutschland","key":"CountryName"},{"value":"Bayern","key":"StateName"}]},"MapReference":{"CountryId":"20147700","StateId":"20177250","PlaceId":"777167130"}}},{"Relevance":1.0,"Distance":45.1,"MatchLevel":"houseNumber","MatchQuality":{"Country":1.0,"State":1.0,"County":1.0,"City":1.0,"District":1.0,"Street":[1.0],"HouseNumber":1.0,"PostalCode":1.0},"MatchType":"interpolated","Location":{"LocationId":"NT_EtF-XSS0Hh.r2Wxmx8fsFA_xAD","LocationType":"point","DisplayPosition":{"Latitude":48.10303,"Longitude":11.63037},"MapView":{"TopLeft":{"Latitude":48.1041542,"Longitude":11.6286866},"BottomRight":{"Latitude":48.1019058,"Longitude":11.6320534}},"Address":{"Label":"Hofmarkstraße 10, 81737 München, Deutschland","Country":"DEU","State":"Bayern","County":"München (Stadt)","City":"München","District":"Altperlach","Street":"Hofmarkstraße","HouseNumber":"10","PostalCode":"81737","AdditionalData":[{"value":"Deutschland","key":"CountryName"},{"value":"Bayern","key":"StateName"},{"value":"München (Stadt)","key":"CountyName"}]},"MapReference":{"ReferenceId":"52812520","Spot":0.51,"SideOfStreet":"left","CountryId":"20147700","StateId":"20177250","CountyId":"20177268","CityId":"20177269","AddressId":"170261866","RoadLinkId":"32945917"}}},{"Relevance":1.0,"Distance":47.4,"MatchLevel":"street","MatchQuality":{"Country":1.0,"State":1.0,"County":1.0,"City":1.0,"District":1.0,"Street":[1.0],"PostalCode":1.0},"Location":{"LocationId":"NT_zLfJoVAe6VJF4NUVxZxheD_l_1214024279_L","LocationType":"point","DisplayPosition":{"Latitude":48.10272,"Longitude":11.6301},"MapView":{"TopLeft":{"Latitude":48.10274,"Longitude":11.6301},"BottomRight":{"Latitude":48.10272,"Longitude":11.63019}},"Address":{"Label":"Schmidbauerstraße, 81737 München, Deutschland","Country":"DEU","State":"Bayern","County":"München (Stadt)","City":"München","District":"Altperlach","Street":"Schmidbauerstraße","PostalCode":"81737","AdditionalData":[{"value":"Deutschland","key":"CountryName"},{"value":"Bayern","key":"StateName"},{"value":"München (Stadt)","key":"CountyName"}]},"MapReference":{"ReferenceId":"1214024279","Spot":0.0,"SideOfStreet":"left","CountryId":"20147700","StateId":"20177250","CountyId":"20177268","CityId":"20177269"}}},{"Relevance":1.0,"Distance":52.3,"MatchLevel":"street","MatchQuality":{"Country":1.0,"State":1.0,"County":1.0,"City":1.0,"District":1.0,"Street":[1.0],"PostalCode":1.0},"Location":{"LocationId":"NT_zLfJoVAe6VJF4NUVxZxheD_l_1214024280_L","LocationType":"point","DisplayPosition":{"Latitude":48.10274,"Longitude":11.63019},"MapView":{"TopLeft":{"Latitude":48.1029,"Longitude":11.63019},"BottomRight":{"Latitude":48.10274,"Longitude":11.63036}},"Address":{"Label":"Schmidbauerstraße, 81737 München, Deutschland","Country":"DEU","State":"Bayern","County":"München (Stadt)","City":"München","District":"Altperlach","Street":"Schmidbauerstraße","PostalCode":"81737","AdditionalData":[{"value":"Deutschland","key":"CountryName"},{"value":"Bayern","key":"StateName"},{"value":"München (Stadt)","key":"CountyName"}]},"MapReference":{"ReferenceId":"1214024280","Spot":0.0,"SideOfStreet":"left","CountryId":"20147700","StateId":"20177250","CountyId":"20177268","CityId":"20177269"}}},{"Relevance":1.0,"Distance":55.6,"MatchLevel":"houseNumber","MatchQuality":{"Country":1.0,"State":1.0,"County":1.0,"City":1.0,"District":1.0,"Street":[1.0],"HouseNumber":1.0,"PostalCode":1.0},"MatchType":"interpolated","Location":{"LocationId":"NT_zLfJoVAe6VJF4NUVxZxheD_zAD","LocationType":"point","DisplayPosition":{"Latitude":48.10353,"Longitude":11.62904},"MapView":{"TopLeft":{"Latitude":48.1046542,"Longitude":11.6273566},"BottomRight":{"Latitude":48.1024058,"Longitude":11.6307234}},"Address":{"Label":"Schmidbauerstraße 30, 81737 München, Deutschland","Country":"DEU","State":"Bayern","County":"München (Stadt)","City":"München","District":"Altperlach","Street":"Schmidbauerstraße","HouseNumber":"30","PostalCode":"81737","AdditionalData":[{"value":"Deutschland","key":"CountryName"},{"value":"Bayern","key":"StateName"},{"value":"München (Stadt)","key":"CountyName"}]},"MapReference":{"ReferenceId":"1212634935","Spot":0.43,"SideOfStreet":"left","CountryId":"20147700","StateId":"20177250","CountyId":"20177268","CityId":"20177269","AddressId":"170101679","RoadLinkId":"528179205"}}},{"Relevance":1.0,"Distance":59.6,"MatchLevel":"street","MatchQuality":{"Country":1.0,"State":1.0,"County":1.0,"City":1.0,"District":1.0,"Street":[1.0],"PostalCode":1.0},"Location":{"LocationId":"NT_zLfJoVAe6VJF4NUVxZxheD_l_1219943140_L","LocationType":"point","DisplayPosition":{"Latitude":48.10345,"Longitude":11.62931},"MapView":{"TopLeft":{"Latitude":48.10353,"Longitude":11.62914},"BottomRight":{"Latitude":48.10345,"Longitude":11.62931}},"Address":{"Label":"Schmidbauerstraße, 81737 München, Deutschland","Country":"DEU","State":"Bayern","County":"München (Stadt)","City":"München","District":"Altperlach","Street":"Schmidbauerstraße","PostalCode":"81737","AdditionalData":[{"value":"Deutschland","key":"CountryName"},{"value":"Bayern","key":"StateName"},{"value":"München (Stadt)","key":"CountyName"}]},"MapReference":{"ReferenceId":"1219943140","Spot":0.0,"SideOfStreet":"left","CountryId":"20147700","StateId":"20177250","CountyId":"20177268","CityId":"20177269"}}}]}]}}