{"Response":{"MetaInfo":{"Timestamp":"2020-03-28T10:14:16.846+0000","NextPageInformation":"2"},"View":[{"_type":"SearchResultsViewType","ViewId":0,"Result":[{"Relevance":1.0,"Distance":0.0,"Direction":0.0,"MatchLevel":"district","MatchQuality":{"Country":1.0,"State":1.0,"County":1.0,"City":1.0,"District":1.0,"PostalCode":1.0},"Location":{"LocationId":"NT_T.E0-6KN.xRJnVIBqPYP-C","LocationType":"point","DisplayPosition":{"Latitude":48.1683064,"Longitude":15.979903},"MapView":{"TopLeft":{"Latitude":48.18082,"Longitude":15.96841},"BottomRight":{"Latitude":48.16779,"Longitude":16.00685}},"Address":{"Label":"Eichgraben, Niederösterreich, Österreich","Country":"AUT","State":"Niederösterreich","County":"Sankt Pölten-Land","City":"Eichgraben","District":"Eichgraben","PostalCode":"3032","AdditionalData":[{"value":"Österreich","key":"CountryName"},{"value":"Niederösterreich","key":"StateName"},{"value":"Sankt Pölten-Land","key":"CountyName"}]},"MapReference":{"ReferenceId":"65819103","SideOfStreet":"neither","CountryId":"20128885","StateId":"20130295","CountyId":"20132106","CityId":"20132127","DistrictId":"20132130"}}},{"Relevance":1.0,"Distance":10.9,"MatchLevel":"houseNumber","MatchQuality":{"Country":1.0,"State":1.0,"County":1.0,"City":1.0,"District":1.0,"Street":[1.0],"HouseNumber":1.0,"PostalCode":1.0},"MatchType":"interpolated","Location":{"LocationId":"NT_gTqWevqNjA2a.sH2eAE.oC_xATM","LocationType":"point","DisplayPosition":{"Latitude":48.16826,"Longitude":15.97975},"MapView":{"TopLeft":{"Latitude":48.1693842,"Longitude":15.9780645},"BottomRight":{"Latitude":48.1671358,"Longitude":15.9814355}},"Address":{"Label":"Hauptstraße 101, 3032 Eichgraben, Österreich","Country":"AUT","State":"Niederösterreich","County":"Sankt Pölten-Land","City":"Eichgraben","District":"Eichgraben","Street":"Hauptstraße","HouseNumber":"101","PostalCode":"3032","AdditionalData":[{"value":"Österreich","key":"CountryName"},{"value":"Niederösterreich","key":"StateName"},{"value":"Sankt Pölten-Land","key":"CountyName"}]},"MapReference":{"ReferenceId":"65819184","Spot":0.28,"SideOfStreet":"right","CountryId":"20128885","StateId":"20130295","CountyId":"20132106","CityId":"20132127","DistrictId":"20132130","AddressId":"161211941","RoadLinkId":"28786519"}}},{"Relevance":1.0,"Distance":26.6,"MatchLevel":"houseNumber","MatchQuality":{"Country":1.0,"State":1.0,"County":1.0,"City":1.0,"District":1.0,"Street":[1.0],"HouseNumber":1.0,"PostalCode":1.0},"MatchType":"interpolated","Location":{"LocationId":"NT_qCPtVEetSJ80kqSd9yTy8C_2A","LocationType":"point","DisplayPosition":{"Latitude":48.16815,"Longitude":15.97883},"MapView":{"TopLeft":{"Latitude":48.1692742,"Longitude":15.9771445},"BottomRight":{"Latitude":48.1670258,"Longitude":15.9805155}},"Address":{"Label":"Paukhofstraße 6, 3032 Eichgraben, Österreich","Country":"AUT","State":"Niederösterreich","County":"Sankt Pölten-Land","City":"Eichgraben","District":"Eichgraben","Street":"Paukhofstraße","HouseNumber":"6","PostalCode":"3032","AdditionalData":[{"value":"Österreich","key":"CountryName"},{"value":"Niederösterreich","key":"StateName"},{"value":"Sankt Pölten-Land","key":"CountyName"}]},"MapReference":{"ReferenceId":"65819187","Spot":0.09,"SideOfStreet":"right","CountryId":"20128885","StateId":"20130295","CountyId":"20132106","CityId":"20132127","DistrictId":"20132130","AddressId":"161307975","RoadLinkId":"28626735"}}},{"Relevance":1.0,"Distance":57.4,"MatchLevel":"houseNumber","MatchQuality":{"Country":1.0,"State":1.0,"County":1.0,"City":1.0,"District":1.0,"Street":[1.0],"HouseNumber":1.0,"PostalCode":1.0},"MatchType":"interpolated","Location":{"LocationId":"NT_hJanu1N.6RGLqMkwEJ2QdC_yA","LocationType":"point","DisplayPosition":{"Latitude":48.16785,"Longitude":15.97927},"MapView":{"TopLeft":{"Latitude":48.1689742,"Longitude":15.9775845},"BottomRight":{"Latitude":48.1667258,"Longitude":15.9809555}},"Address":{"Label":"Schweighofstraße 2, 3032 Eichgraben, Österreich","Country":"AUT","State":"Niederösterreich","County":"Sankt Pölten-Land","City":"Eichgraben","District":"Eichgraben","Street":"Schweighofstraße","HouseNumber":"2","PostalCode":"3032","AdditionalData":[{"value":"Österreich","key":"CountryName"},{"value":"Niederösterreich","key":"StateName"},{"value":"Sankt Pölten-Land","key":"CountyName"}]},"MapReference":{"ReferenceId":"65819186","Spot":0.64,"SideOfStreet":"left","CountryId":"20128885","StateId":"20130295","CountyId":"20132106","CityId":"20132127","DistrictId":"20132130","AddressId":"161327299","RoadLinkId":"28642074"}}},{"Relevance":1.0,"Distance":66.7,"MatchLevel":"houseNumber","MatchQuality":{"Country":1.0,"State":1.0,"County":1.0,"City":1.0,"District":1.0,"Street":[1.0],"HouseNumber":1.0,"PostalCode":1.0},"MatchType":"interpolated","Location":{"LocationId":"NT_q9rhhsabfswOc248laDMuB_xA","LocationType":"point","DisplayPosition":{"Latitude":48.16896,"Longitude":15.97971},"MapView":{"TopLeft":{"Latitude":48.1700842,"Longitude":15.9780245},"BottomRight":{"Latitude":48.1678358,"Longitude":15.9813955}},"Address":{"Label":"Wallnerstraße 1, 3032 Eichgraben, Österreich","Country":"AUT","State":"Niederösterreich","County":"Sankt Pölten-Land","City":"Eichgraben","District":"Eichgraben","Street":"Wallnerstraße","HouseNumber":"1","PostalCode":"3032","AdditionalData":[{"value":"Österreich","key":"CountryName"},{"value":"Niederösterreich","key":"StateName"},{"value":"Sankt Pölten-Land","key":"CountyName"}]},"MapReference":{"ReferenceId":"65819162","Spot":0.63,"SideOfStreet":"left","CountryId":"20128885","StateId":"20130295","CountyId":"20132106","CityId":"20132127","DistrictId":"20132130","AddressId":"161214267","RoadLinkId":"28287705"}}},{"Relevance":1.0,"Distance":74.2,"MatchLevel":"houseNumber","MatchQuality":{"Country":1.0,"State":1.0,"County":1.0,"City":1.0,"District":1.0,"Street":[1.0],"HouseNumber":1.0,"PostalCode":1.0},"MatchType":"interpolated","Location":{"LocationId":"NT_Y6jkQzLdaEQVdIBYJIFxRA_xATN","LocationType":"point","DisplayPosition":{"Latitude":48.16777,"Longitude":15.97942},"MapView":{"TopLeft":{"Latitude":48.1688942,"Longitude":15.9777345},"BottomRight":{"Latitude":48.1666458,"Longitude":15.9811055}},"Address":{"Label":"Hauptstraße 105, 3032 Eichgraben, Österreich","Country":"AUT","State":"Niederösterreich","County":"Sankt Pölten-Land","City":"Eichgraben","District":"Hinterleiten","Street":"Hauptstraße","HouseNumber":"105","PostalCode":"3032","AdditionalData":[{"value":"Österreich","key":"CountryName"},{"value":"Niederösterreich","key":"StateName"},{"value":"Sankt Pölten-Land","key":"CountyName"}]},"MapReference":{"ReferenceId":"65819215","Spot":0.92,"SideOfStreet":"right","CountryId":"20128885","StateId":"20130295","CountyId":"20132106","CityId":"20132127","DistrictId":"20132133","AddressId":"161172768","RoadLinkId":"28698799"}}},{"Relevance":1.0,"Distance":88.3,"MatchLevel":"street","MatchQuality":{"Country":1.0,"State":1.0,"County":1.0,"City":1.0,"District":1.0,"Street":[1.0],"PostalCode":1.0},"Location":{"LocationId":"NT_gTqWevqNjA2a.sH2eAE.oC_l_65819161_R","LocationType":"point","DisplayPosition":{"Latitude":48.16889,"Longitude":15.98071},"MapView":{"TopLeft":{"Latitude":48.16919,"Longitude":15.98071},"BottomRight":{"Latitude":48.16889,"Longitude":15.9812}},"Address":{"Label":"Hauptstraße, 3032 Eichgraben, Österreich","Country":"AUT","State":"Niederösterreich","County":"Sankt Pölten-Land","City":"Eichgraben","District":"Eichgraben","Street":"Hauptstraße","PostalCode":"3032","AdditionalData":[{"value":"Österreich","key":"CountryName"},{"value":"Niederösterreich","key":"StateName"},{"value":"Sankt Pölten-Land","key":"CountyName"}]},"MapReference":{"ReferenceId":"65819161","Spot":0.0,"SideOfStreet":"right","CountryId":"20128885","StateId":"20130295","CountyId":"20132106","CityId":"20132127","DistrictId":"20132130"}}},{"Relevance":1.0,"Distance":107.9,"MatchLevel":"houseNumber","MatchQuality":{"Country":1.0,"State":1.0,"County":1.0,"City":1.0,"District":1.0,"Street":[1.0],"HouseNumber":1.0,"PostalCode":1.0},"MatchType":"interpolated","Location":{"LocationId":"NT_exU4VXFNply6ylTMVRCQRA_2A","LocationType":"point","DisplayPosition":{"Latitude":48.16776,"Longitude":15.9787},"MapView":{"TopLeft":{"Latitude":48.1688842,"Longitude":15.9770145},"BottomRight":{"Latitude":48.1666358,"Longitude":15.9803855}},"Address":{"Label":"Schweighofstraße 6, 3032 Eichgraben, Österreich","Country":"AUT","State":"Niederösterreich","County":"Sankt Pölten-Land","City":"Eichgraben","District":"Hinterleiten","Street":"Schweighofstraße","HouseNumber":"6","PostalCode":"3032","AdditionalData":[{"value":"Österreich","key":"CountryName"},{"value":"Niederösterreich","key":"StateName"},{"value":"Sankt Pölten-Land","key":"CountyName"}]},"MapReference":{"ReferenceId":"65819195","Spot":0.8,"SideOfStreet":"left","CountryId":"20128885","StateId":"20130295","CountyId":"20132106","CityId":"20132127","DistrictId":"20132133","AddressId":"161327298","RoadLinkId":"29138823"}}},{"Relevance":1.0,"Distance":115.3,"MatchLevel":"houseNumber","MatchQuality":{"Country":1.0,"State":1.0,"County":1.0,"City":1.0,"District":1.0,"Street":[1.0],"HouseNumber":1.0,"PostalCode":1.0},"MatchType":"interpolated","Location":{"LocationId":"NT_YMPg5dasgnuAXZdSewXgpD_xA","LocationType":"point","DisplayPosition":{"Latitude":48.16927,"Longitude":15.97892},"MapView":{"TopLeft":{"Latitude":48.1703942,"Longitude":15.9772344},"BottomRight":{"Latitude":48.1681458,"Longitude":15.9806056}},"Address":{"Label":"Sonnwendstraße 1, 3032 Eichgraben, Österreich","Country":"AUT","State":"Niederösterreich","County":"Sankt Pölten-Land","City":"Eichgraben","District":"Eichgraben","Street":"Sonnwendstraße","HouseNumber":"1","PostalCode":"3032","AdditionalData":[{"value":"Österreich","key":"CountryName"},{"value":"Niederösterreich","key":"StateName"},{"value":"Sankt Pölten-Land","key":"CountyName"}]},"MapReference":{"ReferenceId":"65819153","Spot":0.07,"SideOfStreet":"left","CountryId":"20128885","StateId":"20130295","CountyId":"20132106","CityId":"20132127","DistrictId":"20132130","AddressId":"161213764","RoadLinkId":"28646775"}}},{"Relevance":1.0,"Distance":137.5,"MatchLevel":"street","MatchQuality":{"Country":1.0,"State":1.0,"County":1.0,"City":1.0,"District":1.0,"Street":[1.0],"PostalCode":1.0},"Location":{"LocationId":"NT_gTqWevqNjA2a.sH2eAE.oC_l_65819154_L","LocationType":"point","DisplayPosition":{"Latitude":48.16919,"Longitude":15.9812},"MapView":{"TopLeft":{"Latitude":48.16933,"Longitude":15.9812},"BottomRight":{"Latitude":48.16919,"Longitude":15.98134}},"Address":{"Label":"Hauptstraße, 3032 Eichgraben, Österreich","Country":"AUT","State":"Niederösterreich","County":"Sankt Pölten-Land","City":"Eichgraben","District":"Eichgraben","Street":"Hauptstraße","PostalCode":"3032","AdditionalData":[{"value":"Österreich","key":"CountryName"},{"value":"Niederösterreich","key":"StateName"},{"value":"Sankt Pölten-Land","key":"CountyName"}]},"MapReference":{"ReferenceId":"65819154","Spot":0.0,"SideOfStreet":"left","CountryId":"20128885","StateId":"20130295","CountyId":"20132106","CityId":"20132127","DistrictId":"20132130"}}}]}]}}