{"Response":{"MetaInfo":{"Timestamp":"2020-03-28T10:54:57.406+0000","NextPageInformation":"2"},"View":[{"_type":"SearchResultsViewType","ViewId":0,"Result":[{"Relevance":1.0,"Distance":0.0,"Direction":0.0,"MatchLevel":"district","MatchQuality":{"Country":1.0,"State":1.0,"County":1.0,"City":1.0,"District":1.0,"PostalCode":1.0},"Location":{"LocationId":"NT_.sj9Taq3iF0gjXrNg9BQ2A","LocationType":"point","DisplayPosition":{"Latitude":48.1483651,"Longitude":11.5503431},"MapView":{"TopLeft":{"Latitude":48.15766,"Longitude":11.54134},"BottomRight":{"Latitude":48.13974,"Longitude":11.58491}},"Address":{"Label":"Maxvorstadt, München, Bayern, Deutschland","Country":"DEU","State":"Bayern","County":"München (Stadt)","City":"München","District":"Maxvorstadt","PostalCode":"80333","AdditionalData":[{"value":"Deutschland","key":"CountryName"},{"value":"Bayern","key":"StateName"},{"value":"München (Stadt)","key":"CountyName"}]},"MapReference":{"ReferenceId":"799872227","SideOfStreet":"neither","CountryId":"20147700","StateId":"20177250","CountyId":"20177268","CityId":"20177269"}}},{"Relevance":1.0,"Distance":16.9,"MatchLevel":"houseNumber","MatchQuality":{"Country":1.0,"State":1.0,"County":1.0,"City":1.0,"District":1.0,"Street":[1.0],"HouseNumber":1.0,"PostalCode":1.0},"MatchType":"interpolated","Location":{"LocationId":"NT_wHJAOQ2rLTm1PMi9-KaMgC_0MD","LocationType":"point","DisplayPosition":{"Latitude":48.149,"Longitude":11.55086},"MapView":{"TopLeft":{"Latitude":48.1501242,"Longitude":11.5491751},"BottomRight":{"Latitude":48.1478758,"Longitude":11.5525449}},"Address":{"Label":"Nymphenburger Straße 43, 80335 München, Deutschland","Country":"DEU","State":"Bayern","County":"München (Stadt)","City":"München","District":"Maxvorstadt","Street":"Nymphenburger Straße","HouseNumber":"43","PostalCode":"80335","AdditionalData":[{"value":"Deutschland","key":"CountryName"},{"value":"Bayern","key":"StateName"},{"value":"München (Stadt)","key":"CountyName"}]},"MapReference":{"ReferenceId":"52820538","Spot":0.68,"SideOfStreet":"left","CountryId":"20147700","StateId":"20177250","CountyId":"20177268","CityId":"20177269","AddressId":"168317302","RoadLinkId":"33442524"}}},{"Relevance":1.0,"Distance":45.1,"MatchLevel":"houseNumber","MatchQuality":{"Country":1.0,"State":1.0,"County":1.0,"City":1.0,"District":1.0,"Street":[1.0],"HouseNumber":1.0,"PostalCode":1.0},"MatchType":"interpolated","Location":{"LocationId":"NT_Deh68z4eoWxNlFG1eRD0XA_xgD","LocationType":"point","DisplayPosition":{"Latitude":48.1478,"Longitude":11.55028},"MapView":{"TopLeft":{"Latitude":48.1489242,"Longitude":11.5485951},"BottomRight":{"Latitude":48.1466758,"Longitude":11.5519649}},"Address":{"Label":"Blutenburgstraße 18, 80636 München, Deutschland","Country":"DEU","State":"Bayern","County":"München (Stadt)","City":"München","District":"Maxvorstadt","Street":"Blutenburgstraße","HouseNumber":"18","PostalCode":"80636","AdditionalData":[{"value":"Deutschland","key":"CountryName"},{"value":"Bayern","key":"StateName"},{"value":"München (Stadt)","key":"CountyName"}]},"MapReference":{"ReferenceId":"1235538941","Spot":0.82,"SideOfStreet":"right","CountryId":"20147700","StateId":"20177250","CountyId":"20177268","CityId":"20177269","AddressId":"167973613","RoadLinkId":"556066658"}}},{"Relevance":1.0,"Distance":58.0,"MatchLevel":"houseNumber","MatchQuality":{"Country":1.0,"State":1.0,"County":1.0,"City":1.0,"District":1.0,"Street":[1.0],"HouseNumber":1.0,"PostalCode":1.0},"MatchType":"interpolated","Location":{"LocationId":"NT_Deh68z4eoWxNlFG1eRD0XA_yAD","LocationType":"point","DisplayPosition":{"Latitude":48.14795,"Longitude":11.5496},"MapView":{"TopLeft":{"Latitude":48.1490742,"Longitude":11.5479151},"BottomRight":{"Latitude":48.1468258,"Longitude":11.5512849}},"Address":{"Label":"Blutenburgstraße 20, 80636 München, Deutschland","Country":"DEU","State":"Bayern","County":"München (Stadt)","City":"München","District":"Maxvorstadt","Street":"Blutenburgstraße","HouseNumber":"20","PostalCode":"80636","AdditionalData":[{"value":"Deutschland","key":"CountryName"},{"value":"Bayern","key":"StateName"},{"value":"München (Stadt)","key":"CountyName"}]},"MapReference":{"ReferenceId":"1235443571","Spot":0.35,"SideOfStreet":"right","CountryId":"20147700","StateId":"20177250","CountyId":"20177268","CityId":"20177269","AddressId":"168296494","RoadLinkId":"555948524"}}},{"Relevance":1.0,"Distance":67.5,"MatchLevel":"houseNumber","MatchQuality":{"Country":1.0,"State":1.0,"County":1.0,"City":1.0,"District":1.0,"Street":[1.0],"HouseNumber":1.0,"PostalCode":1.0},"MatchType":"interpolated","Location":{"LocationId":"NT_wHJAOQ2rLTm1PMi9-KaMgC_0cD","LocationType":"point","DisplayPosition":{"Latitude":48.14918,"Longitude":11.54998},"MapView":{"TopLeft":{"Latitude":48.1503042,"Longitude":11.5482951},"BottomRight":{"Latitude":48.1480558,"Longitude":11.5516649}},"Address":{"Label":"Nymphenburger Straße 47, 80335 München, Deutschland","Country":"DEU","State":"Bayern","County":"München (Stadt)","City":"München","District":"Maxvorstadt","Street":"Nymphenburger Straße","HouseNumber":"47","PostalCode":"80335","AdditionalData":[{"value":"Deutschland","key":"CountryName"},{"value":"Bayern","key":"StateName"},{"value":"München (Stadt)","key":"CountyName"}]},"MapReference":{"ReferenceId":"52820537","Spot":0.12,"SideOfStreet":"left","CountryId":"20147700","StateId":"20177250","CountyId":"20177268","CityId":"20177269","AddressId":"169803903","RoadLinkId":"33392099"}}},{"Relevance":1.0,"Distance":88.8,"MatchLevel":"street","MatchQuality":{"Country":1.0,"State":1.0,"County":1.0,"City":1.0,"District":1.0,"Street":[1.0],"PostalCode":1.0},"Location":{"LocationId":"NT_kvTlVe8qnCoa8glY6M9CeC_l_1235545890_R","LocationType":"point","DisplayPosition":{"Latitude":48.14915,"Longitude":11.55012},"MapView":{"TopLeft":{"Latitude":48.14938,"Longitude":11.55012},"BottomRight":{"Latitude":48.14915,"Longitude":11.55021}},"Address":{"Label":"Loristraße, 80335 München, Deutschland","Country":"DEU","State":"Bayern","County":"München (Stadt)","City":"München","District":"Maxvorstadt","Street":"Loristraße","PostalCode":"80335","AdditionalData":[{"value":"Deutschland","key":"CountryName"},{"value":"Bayern","key":"StateName"},{"value":"München (Stadt)","key":"CountyName"}]},"MapReference":{"ReferenceId":"1235545890","Spot":0.0,"SideOfStreet":"right","CountryId":"20147700","StateId":"20177250","CountyId":"20177268","CityId":"20177269"}}},{"Relevance":1.0,"Distance":117.6,"MatchLevel":"houseNumber","MatchQuality":{"Country":1.0,"State":1.0,"County":1.0,"City":1.0,"District":1.0,"Street":[1.0],"HouseNumber":1.0,"PostalCode":1.0},"MatchType":"interpolated","Location":{"LocationId":"NT_kvTlVe8qnCoa8glY6M9CeC_yA","LocationType":"point","DisplayPosition":{"Latitude":48.14945,"Longitude":11.55024},"MapView":{"TopLeft":{"Latitude":48.1505742,"Longitude":11.5485551},"BottomRight":{"Latitude":48.1483258,"Longitude":11.5519249}},"Address":{"Label":"Loristraße 2, 80335 München, Deutschland","Country":"DEU","State":"Bayern","County":"München (Stadt)","City":"München","District":"Maxvorstadt","Street":"Loristraße","HouseNumber":"2","PostalCode":"80335","AdditionalData":[{"value":"Deutschland","key":"CountryName"},{"value":"Bayern","key":"StateName"},{"value":"München (Stadt)","key":"CountyName"}]},"MapReference":{"ReferenceId":"1235545891","Spot":0.07,"SideOfStreet":"right","CountryId":"20147700","StateId":"20177250","CountyId":"20177268","CityId":"20177269","AddressId":"169701365","RoadLinkId":"556074166"}}},{"Relevance":1.0,"Distance":123.1,"MatchLevel":"houseNumber","MatchQuality":{"Country":1.0,"State":1.0,"County":1.0,"City":1.0,"District":1.0,"Street":[1.0],"HouseNumber":1.0,"PostalCode":1.0},"MatchType":"interpolated","Location":{"LocationId":"NT_Deh68z4eoWxNlFG1eRD0XA_yYD","LocationType":"point","DisplayPosition":{"Latitude":48.14814,"Longitude":11.54862},"MapView":{"TopLeft":{"Latitude":48.1492642,"Longitude":11.5469351},"BottomRight":{"Latitude":48.1470158,"Longitude":11.5503049}},"Address":{"Label":"Blutenburgstraße 26, 80636 München, Deutschland","Country":"DEU","State":"Bayern","County":"München (Stadt)","City":"München","District":"Maxvorstadt","Street":"Blutenburgstraße","HouseNumber":"26","PostalCode":"80636","AdditionalData":[{"value":"Deutschland","key":"CountryName"},{"value":"Bayern","key":"StateName"},{"value":"München (Stadt)","key":"CountyName"}]},"MapReference":{"ReferenceId":"1235443572","Spot":0.32,"SideOfStreet":"right","CountryId":"20147700","StateId":"20177250","CountyId":"20177268","CityId":"20177269","AddressId":"167973610","RoadLinkId":"555948525"}}},{"Relevance":1.0,"Distance":124.1,"MatchLevel":"houseNumber","MatchQuality":{"Country":1.0,"State":1.0,"County":1.0,"City":1.0,"District":1.0,"Street":[1.0],"HouseNumber":1.0,"PostalCode":1.0},"MatchType":"interpolated","Location":{"LocationId":"NT_wCgsYTBbaHbgYHkCdQIMEA_xA","LocationType":"point","DisplayPosition":{"Latitude":48.14896,"Longitude":11.54875},"MapView":{"TopLeft":{"Latitude":48.1500842,"Longitude":11.5470651},"BottomRight":{"Latitude":48.1478358,"Longitude":11.5504349}},"Address":{"Label":"Adamstraße 1, 80636 München, Deutschland","Country":"DEU","State":"Bayern","County":"München (Stadt)","City":"München","District":"Maxvorstadt","Street":"Adamstraße","HouseNumber":"1","PostalCode":"80636","AdditionalData":[{"value":"Deutschland","key":"CountryName"},{"value":"Bayern","key":"StateName"},{"value":"München (Stadt)","key":"CountyName"}]},"MapReference":{"ReferenceId":"1235365191","Spot":0.81,"SideOfStreet":"right","CountryId":"20147700","StateId":"20177250","CountyId":"20177268","CityId":"20177269","AddressId":"168342814","RoadLinkId":"555852621"}}},{"Relevance":1.0,"Distance":131.9,"MatchLevel":"houseNumber","MatchQuality":{"Country":1.0,"State":1.0,"County":1.0,"City":1.0,"District":1.0,"Street":[1.0],"HouseNumber":1.0,"PostalCode":1.0},"MatchType":"interpolated","Location":{"LocationId":"NT_Deh68z4eoWxNlFG1eRD0XA_yA","LocationType":"point","DisplayPosition":{"Latitude":48.1475,"Longitude":11.55156},"MapView":{"TopLeft":{"Latitude":48.1486242,"Longitude":11.5498752},"BottomRight":{"Latitude":48.1463758,"Longitude":11.5532448}},"Address":{"Label":"Blutenburgstraße 2, 80636 München, Deutschland","Country":"DEU","State":"Bayern","County":"München (Stadt)","City":"München","District":"Maxvorstadt","Street":"Blutenburgstraße","HouseNumber":"2","PostalCode":"80636","AdditionalData":[{"value":"Deutschland","key":"CountryName"},{"value":"Bayern","key":"StateName"},{"value":"München (Stadt)","key":"CountyName"}]},"MapReference":{"ReferenceId":"1235538940","Spot":0.82,"SideOfStreet":"right","CountryId":"20147700","StateId":"20177250","CountyId":"20177268","CityId":"20177269","AddressId":"167973614","RoadLinkId":"556066657"}}}]}]}}