{"Response":{"MetaInfo":{"Timestamp":"2020-03-28T10:27:37.830+0000","NextPageInformation":"2"},"View":[{"_type":"SearchResultsViewType","ViewId":0,"Result":[{"Relevance":1.0,"Distance":0.0,"Direction":0.0,"MatchLevel":"city","MatchQuality":{"Country":1.0,"State":1.0,"County":1.0,"City":1.0,"PostalCode":1.0},"Location":{"LocationId":"NT_FxbXDZ7wVA75LNrPVvXCCD","LocationType":"point","DisplayPosition":{"Latitude":48.1017699,"Longitude":-4.0033737},"MapView":{"TopLeft":{"Latitude":48.16388,"Longitude":-4.07289},"BottomRight":{"Latitude":48.02891,"Longitude":-3.92918}},"Address":{"Label":"Briec, Bretagne, France","Country":"FRA","State":"Bretagne","County":"Finistère","City":"Briec","PostalCode":"29510","AdditionalData":[{"value":"France","key":"CountryName"},{"value":"Bretagne","key":"StateName"},{"value":"Finistère","key":"CountyName"}]},"MapReference":{"ReferenceId":"813427371","SideOfStreet":"neither","CountryId":"20000001","StateId":"20060199","CountyId":"20064592","CityId":"20064649"}}},{"Relevance":1.0,"Distance":22.7,"MatchLevel":"houseNumber","MatchQuality":{"Country":1.0,"State":1.0,"County":1.0,"City":1.0,"Street":[1.0],"HouseNumber":1.0,"PostalCode":1.0},"MatchType":"interpolated","Location":{"LocationId":"NT_9CCySvH0z3FUbGWBOBxexA_xQD","LocationType":"point","DisplayPosition":{"Latitude":48.10156,"Longitude":-4.00359},"MapView":{"TopLeft":{"Latitude":48.1026842,"Longitude":-4.0052733},"BottomRight":{"Latitude":48.1004358,"Longitude":-4.0019067}},"Address":{"Label":"14 Rue Michel de Cornouaille, 29510 Briec, France","Country":"FRA","State":"Bretagne","County":"Finistère","City":"Briec","Street":"Rue Michel de Cornouaille","HouseNumber":"14","PostalCode":"29510","AdditionalData":[{"value":"France","key":"CountryName"},{"value":"Bretagne","key":"StateName"},{"value":"Finistère","key":"CountyName"}]},"MapReference":{"ReferenceId":"553022468","Spot":0.27,"SideOfStreet":"left","CountryId":"20000001","StateId":"20060199","CountyId":"20064592","CityId":"20064649","AddressId":"320711575","RoadLinkId":"47903407"}}},{"Relevance":1.0,"Distance":43.2,"MatchLevel":"houseNumber","MatchQuality":{"Country":1.0,"State":1.0,"County":1.0,"City":1.0,"Street":[1.0],"HouseNumber":1.0,"PostalCode":1.0},"MatchType":"interpolated","Location":{"LocationId":"NT_J9TWZYRcQFmSW8DYNcXtFB_xA","LocationType":"point","DisplayPosition":{"Latitude":48.1019,"Longitude":-4.00276},"MapView":{"TopLeft":{"Latitude":48.1030242,"Longitude":-4.0044433},"BottomRight":{"Latitude":48.1007758,"Longitude":-4.0010767}},"Address":{"Label":"1 Rue Madeleine Lagadec, 29510 Briec, France","Country":"FRA","State":"Bretagne","County":"Finistère","City":"Briec","Street":"Rue Madeleine Lagadec","HouseNumber":"1","PostalCode":"29510","AdditionalData":[{"value":"France","key":"CountryName"},{"value":"Bretagne","key":"StateName"},{"value":"Finistère","key":"CountyName"}]},"MapReference":{"ReferenceId":"1130469348","Spot":0.11,"SideOfStreet":"left","CountryId":"20000001","StateId":"20060199","CountyId":"20064592","CityId":"20064649","AddressId":"786578966","RoadLinkId":"440488937"}}},{"Relevance":1.0,"Distance":55.8,"MatchLevel":"houseNumber","MatchQuality":{"Country":1.0,"State":1.0,"County":1.0,"City":1.0,"Street":[1.0],"HouseNumber":1.0,"PostalCode":1.0},"MatchType":"interpolated","Location":{"LocationId":"NT_j37VhmoEAlBW7UNEEzJQ.D_2A","LocationType":"point","DisplayPosition":{"Latitude":48.10188,"Longitude":-4.00412},"MapView":{"TopLeft":{"Latitude":48.1030042,"Longitude":-4.0058033},"BottomRight":{"Latitude":48.1007558,"Longitude":-4.0024367}},"Address":{"Label":"6 Résidence des Noisetiers, 29510 Briec, France","Country":"FRA","State":"Bretagne","County":"Finistère","City":"Briec","Street":"Résidence des Noisetiers","HouseNumber":"6","PostalCode":"29510","AdditionalData":[{"value":"France","key":"CountryName"},{"value":"Bretagne","key":"StateName"},{"value":"Finistère","key":"CountyName"}]},"MapReference":{"ReferenceId":"807401097","Spot":0.44,"SideOfStreet":"right","CountryId":"20000001","StateId":"20060199","CountyId":"20064592","CityId":"20064649","AddressId":"320508284","RoadLinkId":"195054275"}}},{"Relevance":1.0,"Distance":56.1,"MatchLevel":"houseNumber","MatchQuality":{"Country":1.0,"State":1.0,"County":1.0,"City":1.0,"Street":[1.0],"HouseNumber":1.0,"PostalCode":1.0},"MatchType":"interpolated","Location":{"LocationId":"NT_WEsS8CO27XvNI4OJN4hZmD_zUD","LocationType":"point","DisplayPosition":{"Latitude":48.10139,"Longitude":-4.00387},"MapView":{"TopLeft":{"Latitude":48.1025142,"Longitude":-4.0055533},"BottomRight":{"Latitude":48.1002658,"Longitude":-4.0021867}},"Address":{"Label":"35 Rue de Verdun, 29510 Briec, France","Country":"FRA","State":"Bretagne","County":"Finistère","City":"Briec","Street":"Rue de Verdun","HouseNumber":"35","PostalCode":"29510","AdditionalData":[{"value":"France","key":"CountryName"},{"value":"Bretagne","key":"StateName"},{"value":"Finistère","key":"CountyName"}]},"MapReference":{"ReferenceId":"553022450","Spot":0.79,"SideOfStreet":"left","CountryId":"20000001","StateId":"20060199","CountyId":"20064592","CityId":"20064649","AddressId":"399049190","RoadLinkId":"47646877"}}},{"Relevance":1.0,"Distance":79.4,"MatchLevel":"houseNumber","MatchQuality":{"Country":1.0,"State":1.0,"County":1.0,"City":1.0,"Street":[1.0],"HouseNumber":1.0,"PostalCode":1.0},"MatchType":"interpolated","Location":{"LocationId":"NT_9CCySvH0z3FUbGWBOBxexA_xgD","LocationType":"point","DisplayPosition":{"Latitude":48.10148,"Longitude":-4.0044},"MapView":{"TopLeft":{"Latitude":48.1026042,"Longitude":-4.0060833},"BottomRight":{"Latitude":48.1003558,"Longitude":-4.0027167}},"Address":{"Label":"18 Rue Michel de Cornouaille, 29510 Briec, France","Country":"FRA","State":"Bretagne","County":"Finistère","City":"Briec","Street":"Rue Michel de Cornouaille","HouseNumber":"18","PostalCode":"29510","AdditionalData":[{"value":"France","key":"CountryName"},{"value":"Bretagne","key":"StateName"},{"value":"Finistère","key":"CountyName"}]},"MapReference":{"ReferenceId":"551995906","Spot":0.32,"SideOfStreet":"right","CountryId":"20000001","StateId":"20060199","CountyId":"20064592","CityId":"20064649","AddressId":"320746312","RoadLinkId":"47357000"}}},{"Relevance":1.0,"Distance":88.5,"MatchLevel":"houseNumber","MatchQuality":{"Country":1.0,"State":1.0,"County":1.0,"City":1.0,"Street":[1.0],"HouseNumber":1.0,"PostalCode":1.0},"MatchType":"interpolated","Location":{"LocationId":"NT_9CCySvH0z3FUbGWBOBxexA_0A","LocationType":"point","DisplayPosition":{"Latitude":48.10187,"Longitude":-4.00218},"MapView":{"TopLeft":{"Latitude":48.1029942,"Longitude":-4.0038633},"BottomRight":{"Latitude":48.1007458,"Longitude":-4.0004967}},"Address":{"Label":"4 Rue Michel de Cornouaille, 29510 Briec, France","Country":"FRA","State":"Bretagne","County":"Finistère","City":"Briec","Street":"Rue Michel de Cornouaille","HouseNumber":"4","PostalCode":"29510","AdditionalData":[{"value":"France","key":"CountryName"},{"value":"Bretagne","key":"StateName"},{"value":"Finistère","key":"CountyName"}]},"MapReference":{"ReferenceId":"553022469","Spot":0.41,"SideOfStreet":"left","CountryId":"20000001","StateId":"20060199","CountyId":"20064592","CityId":"20064649","AddressId":"320753304","RoadLinkId":"46436211"}}},{"Relevance":1.0,"Distance":96.4,"MatchLevel":"houseNumber","MatchQuality":{"Country":1.0,"State":1.0,"County":1.0,"City":1.0,"Street":[1.0],"HouseNumber":1.0,"PostalCode":1.0},"MatchType":"interpolated","Location":{"LocationId":"NT_-Bq6VvS.SA80PDdL7mh2DD_zUD","LocationType":"point","DisplayPosition":{"Latitude":48.10101,"Longitude":-4.00414},"MapView":{"TopLeft":{"Latitude":48.1021342,"Longitude":-4.0058233},"BottomRight":{"Latitude":48.0998858,"Longitude":-4.0024567}},"Address":{"Label":"35 Rue de Kerguelen, 29510 Briec, France","Country":"FRA","State":"Bretagne","County":"Finistère","City":"Briec","Street":"Rue de Kerguelen","HouseNumber":"35","PostalCode":"29510","AdditionalData":[{"value":"France","key":"CountryName"},{"value":"Bretagne","key":"StateName"},{"value":"Finistère","key":"CountyName"}]},"MapReference":{"ReferenceId":"553022448","Spot":0.77,"SideOfStreet":"left","CountryId":"20000001","StateId":"20060199","CountyId":"20064592","CityId":"20064649","AddressId":"320645177","RoadLinkId":"46283823"}}},{"Relevance":1.0,"Distance":102.1,"MatchLevel":"houseNumber","MatchQuality":{"Country":1.0,"State":1.0,"County":1.0,"City":1.0,"Street":[1.0],"HouseNumber":1.0,"PostalCode":1.0},"MatchType":"interpolated","Location":{"LocationId":"NT_WEsS8CO27XvNI4OJN4hZmD_ygD","LocationType":"point","DisplayPosition":{"Latitude":48.10085,"Longitude":-4.0036},"MapView":{"TopLeft":{"Latitude":48.1019742,"Longitude":-4.0052833},"BottomRight":{"Latitude":48.0997258,"Longitude":-4.0019167}},"Address":{"Label":"28 Rue de Verdun, 29510 Briec, France","Country":"FRA","State":"Bretagne","County":"Finistère","City":"Briec","Street":"Rue de Verdun","HouseNumber":"28","PostalCode":"29510","AdditionalData":[{"value":"France","key":"CountryName"},{"value":"Bretagne","key":"StateName"},{"value":"Finistère","key":"CountyName"}]},"MapReference":{"ReferenceId":"553022449","Spot":0.61,"SideOfStreet":"right","CountryId":"20000001","StateId":"20060199","CountyId":"20064592","CityId":"20064649","AddressId":"320664456","RoadLinkId":"46428161"}}},{"Relevance":1.0,"Distance":106.3,"MatchLevel":"houseNumber","MatchQuality":{"Country":1.0,"State":1.0,"County":1.0,"City":1.0,"Street":[1.0],"HouseNumber":1.0,"PostalCode":1.0},"MatchType":"interpolated","Location":{"LocationId":"NT_j6hpDerltCvsL9qlJ8qNoC_2UjQ","LocationType":"point","DisplayPosition":{"Latitude":48.1011,"Longitude":-4.00224},"MapView":{"TopLeft":{"Latitude":48.1022242,"Longitude":-4.0039233},"BottomRight":{"Latitude":48.0999758,"Longitude":-4.0005567}},"Address":{"Label":"65B Rue du Général de Gaulle, 29510 Briec, France","Country":"FRA","State":"Bretagne","County":"Finistère","City":"Briec","Street":"Rue du Général de Gaulle","HouseNumber":"65B","PostalCode":"29510","AdditionalData":[{"value":"France","key":"CountryName"},{"value":"Bretagne","key":"StateName"},{"value":"Finistère","key":"CountyName"}]},"MapReference":{"ReferenceId":"967769603","Spot":0.0,"SideOfStreet":"left","CountryId":"20000001","StateId":"20060199","CountyId":"20064592","CityId":"20064649","AddressId":"375401581","RoadLinkId":"306061159"}}}]}]}}