{"Response":{"MetaInfo":{"Timestamp":"2020-03-28T11:44:32.049+0000","NextPageInformation":"2"},"View":[{"_type":"SearchResultsViewType","ViewId":0,"Result":[{"Relevance":1.0,"Distance":-85.6,"MatchLevel":"landmark","MatchQuality":{"Country":1.0,"State":1.0,"County":1.0,"City":1.0,"District":1.0,"Street":[1.0],"HouseNumber":1.0,"PostalCode":1.0,"Name":1.0},"Location":{"LocationId":"NT_2z426RrHSSvv7iOL-qpvjC_p_7C0ZqfNUf8W82i-ar1MPPB","LocationType":"shoppingCentre","Name":"Pasing Arcaden","DisplayPosition":{"Latitude":48.14876,"Longitude":11.46223},"MapView":{"TopLeft":{"Latitude":48.1498842,"Longitude":11.4605451},"BottomRight":{"Latitude":48.1476358,"Longitude":11.4639149}},"Address":{"Label":"Pasinger Bahnhofsplatz 5, 81241 München, Deutschland","Country":"DEU","State":"Bayern","County":"München (Stadt)","City":"München","District":"Pasing","Street":"Pasinger Bahnhofsplatz","HouseNumber":"5","PostalCode":"81241","AdditionalData":[{"value":"Deutschland","key":"CountryName"},{"value":"Bayern","key":"StateName"},{"value":"München (Stadt)","key":"CountyName"}]},"MapReference":{"CountryId":"20147700","StateId":"20177250","CountyId":"20177268","CityId":"20177269","PlaceId":"1039521762"}}},{"Relevance":1.0,"Distance":0.0,"Direction":0.0,"MatchLevel":"district","MatchQuality":{"Country":1.0,"State":1.0,"County":1.0,"City":1.0,"District":1.0,"PostalCode":1.0},"Location":{"LocationId":"NT_ORXT7cRkvZAZu43wkgwd2A","LocationType":"point","DisplayPosition":{"Latitude":48.1478271,"Longitude":11.4640702},"MapView":{"TopLeft":{"Latitude":48.15213,"Longitude":11.4389},"BottomRight":{"Latitude":48.13228,"Longitude":11.48987}},"Address":{"Label":"Pasing, München, Bayern, Deutschland","Country":"DEU","State":"Bayern","County":"München (Stadt)","City":"München","District":"Pasing","PostalCode":"81241","AdditionalData":[{"value":"Deutschland","key":"CountryName"},{"value":"Bayern","key":"StateName"},{"value":"München (Stadt)","key":"CountyName"}]},"MapReference":{"ReferenceId":"52803164","SideOfStreet":"neither","CountryId":"20147700","StateId":"20177250","CountyId":"20177268","CityId":"20177269"}}},{"Relevance":1.0,"Distance":22.5,"MatchLevel":"street","MatchQuality":{"Country":1.0,"State":1.0,"County":1.0,"City":1.0,"District":1.0,"Street":[1.0],"PostalCode":1.0},"Location":{"LocationId":"NT_8.iYg2EEVQQFysq87oe2fD_l_981320081_L","LocationType":"point","DisplayPosition":{"Latitude":48.1480255,"Longitude":11.4641302},"MapView":{"TopLeft":{"Latitude":48.14831,"Longitude":11.46319},"BottomRight":{"Latitude":48.14762,"Longitude":11.46567}},"Address":{"Label":"Pasinger Promenade, 81241 München, Deutschland","Country":"DEU","State":"Bayern","County":"München (Stadt)","City":"München","District":"Pasing","Street":"Pasinger Promenade","PostalCode":"81241","AdditionalData":[{"value":"Deutschland","key":"CountryName"},{"value":"Bayern","key":"StateName"},{"value":"München (Stadt)","key":"CountyName"}]},"MapReference":{"ReferenceId":"981320081","Spot":0.67,"SideOfStreet":"left","CountryId":"20147700","StateId":"20177250","CountyId":"20177268","CityId":"20177269"}}},{"Relevance":1.0,"Distance":39.1,"MatchLevel":"houseNumber","MatchQuality":{"Country":1.0,"State":1.0,"County":1.0,"City":1.0,"District":1.0,"Street":[1.0],"HouseNumber":1.0,"PostalCode":1.0},"MatchType":"interpolated","Location":{"LocationId":"NT_oKLTFjSXnFXJncKOufUn1B_yAD","LocationType":"point","DisplayPosition":{"Latitude":48.14762,"Longitude":11.46299},"MapView":{"TopLeft":{"Latitude":48.1487442,"Longitude":11.4613052},"BottomRight":{"Latitude":48.1464958,"Longitude":11.4646748}},"Address":{"Label":"Rathausgasse 20, 81241 München, Deutschland","Country":"DEU","State":"Bayern","County":"München (Stadt)","City":"München","District":"Pasing","Street":"Rathausgasse","HouseNumber":"20","PostalCode":"81241","AdditionalData":[{"value":"Deutschland","key":"CountryName"},{"value":"Bayern","key":"StateName"},{"value":"München (Stadt)","key":"CountyName"}]},"MapReference":{"ReferenceId":"586896632","Spot":0.83,"SideOfStreet":"right","CountryId":"20147700","StateId":"20177250","CountyId":"20177268","CityId":"20177269","AddressId":"737045917","RoadLinkId":"32584218"}}},{"Relevance":1.0,"Distance":69.4,"MatchLevel":"houseNumber","MatchQuality":{"Country":1.0,"State":1.0,"County":1.0,"City":1.0,"District":1.0,"Street":[1.0],"HouseNumber":1.0,"PostalCode":1.0},"MatchType":"interpolated","Location":{"LocationId":"NT_UeAyi7RtTMOPe9vu4pr6iD_1UD","LocationType":"point","DisplayPosition":{"Latitude":48.1486,"Longitude":11.46422},"MapView":{"TopLeft":{"Latitude":48.1497242,"Longitude":11.4625351},"BottomRight":{"Latitude":48.1474758,"Longitude":11.4659049}},"Address":{"Label":"Josef-Felder-Straße 55, 81241 München, Deutschland","Country":"DEU","State":"Bayern","County":"München (Stadt)","City":"München","District":"Pasing","Street":"Josef-Felder-Straße","HouseNumber":"55","PostalCode":"81241","AdditionalData":[{"value":"Deutschland","key":"CountryName"},{"value":"Bayern","key":"StateName"},{"value":"München (Stadt)","key":"CountyName"}]},"MapReference":{"ReferenceId":"1071254484","Spot":0.98,"SideOfStreet":"left","CountryId":"20147700","StateId":"20177250","CountyId":"20177268","CityId":"20177269","AddressId":"621796222","RoadLinkId":"393303528"}}},{"Relevance":1.0,"Distance":79.5,"MatchLevel":"street","MatchQuality":{"Country":1.0,"State":1.0,"County":1.0,"City":1.0,"District":1.0,"PostalCode":1.0},"Location":{"LocationId":"NT_qJFRHhgj84Ok52guv0RxBC_l_981320083_R","LocationType":"point","DisplayPosition":{"Latitude":48.1481828,"Longitude":11.4631413},"MapView":{"TopLeft":{"Latitude":48.14831,"Longitude":11.46301},"BottomRight":{"Latitude":48.14784,"Longitude":11.46319}},"Address":{"Label":"81241 München, Deutschland","Country":"DEU","State":"Bayern","County":"München (Stadt)","City":"München","District":"Pasing","PostalCode":"81241","AdditionalData":[{"value":"Deutschland","key":"CountryName"},{"value":"Bayern","key":"StateName"},{"value":"München (Stadt)","key":"CountyName"}]},"MapReference":{"ReferenceId":"981320083","Spot":0.73,"SideOfStreet":"right","CountryId":"20147700","StateId":"20177250","CountyId":"20177268","CityId":"20177269"}}},{"Relevance":1.0,"Distance":84.5,"MatchLevel":"street","MatchQuality":{"Country":1.0,"State":1.0,"County":1.0,"City":1.0,"District":1.0,"Street":[1.0],"PostalCode":1.0},"Location":{"LocationId":"NT_8.iYg2EEVQQFysq87oe2fD_l_981320082_L","LocationType":"point","DisplayPosition":{"Latitude":48.14831,"Longitude":11.46319},"MapView":{"TopLeft":{"Latitude":48.14863,"Longitude":11.46214},"BottomRight":{"Latitude":48.14831,"Longitude":11.46319}},"Address":{"Label":"Pasinger Promenade, 81241 München, Deutschland","Country":"DEU","State":"Bayern","County":"München (Stadt)","City":"München","District":"Pasing","Street":"Pasinger Promenade","PostalCode":"81241","AdditionalData":[{"value":"Deutschland","key":"CountryName"},{"value":"Bayern","key":"StateName"},{"value":"München (Stadt)","key":"CountyName"}]},"MapReference":{"ReferenceId":"981320082","Spot":0.0,"SideOfStreet":"left","CountryId":"20147700","StateId":"20177250","CountyId":"20177268","CityId":"20177269"}}},{"Relevance":1.0,"Distance":93.5,"MatchLevel":"houseNumber","MatchQuality":{"Country":1.0,"State":1.0,"County":1.0,"City":1.0,"District":1.0,"Street":[1.0],"HouseNumber":1.0,"PostalCode":1.0},"MatchType":"interpolated","Location":{"LocationId":"NT_HIa4V3NvENEHP72--8En4C_xA","LocationType":"point","DisplayPosition":{"Latitude":48.14784,"Longitude":11.46281},"MapView":{"TopLeft":{"Latitude":48.1489642,"Longitude":11.4611251},"BottomRight":{"Latitude":48.1467158,"Longitude":11.4644949}},"Address":{"Label":"Am Schützeneck 1, 81241 München, Deutschland","Country":"DEU","State":"Bayern","County":"München (Stadt)","City":"München","District":"Pasing","Street":"Am Schützeneck","HouseNumber":"1","PostalCode":"81241","AdditionalData":[{"value":"Deutschland","key":"CountryName"},{"value":"Bayern","key":"StateName"},{"value":"München (Stadt)","key":"CountyName"}]},"MapReference":{"ReferenceId":"52803089","Spot":0.12,"SideOfStreet":"left","CountryId":"20147700","StateId":"20177250","CountyId":"20177268","CityId":"20177269","AddressId":"169815142","RoadLinkId":"33319450"}}},{"Relevance":1.0,"Distance":93.9,"MatchLevel":"street","MatchQuality":{"Country":1.0,"State":1.0,"County":1.0,"City":1.0,"District":1.0,"Street":[1.0],"PostalCode":1.0},"Location":{"LocationId":"NT_UeAyi7RtTMOPe9vu4pr6iD_l_858902662_L","LocationType":"point","DisplayPosition":{"Latitude":48.1486569,"Longitude":11.4643021},"MapView":{"TopLeft":{"Latitude":48.15026,"Longitude":11.45914},"BottomRight":{"Latitude":48.1483,"Longitude":11.46552}},"Address":{"Label":"Josef-Felder-Straße, 81241 München, Deutschland","Country":"DEU","State":"Bayern","County":"München (Stadt)","City":"München","District":"Pasing","Street":"Josef-Felder-Straße","PostalCode":"81241","AdditionalData":[{"value":"Deutschland","key":"CountryName"},{"value":"Bayern","key":"StateName"},{"value":"München (Stadt)","key":"CountyName"}]},"MapReference":{"ReferenceId":"858902662","Spot":0.19,"SideOfStreet":"left","CountryId":"20147700","StateId":"20177250","CountyId":"20177268","CityId":"20177269"}}},{"Relevance":1.0,"Distance":101.6,"MatchLevel":"street","MatchQuality":{"Country":1.0,"State":1.0,"County":1.0,"City":1.0,"District":1.0,"Street":[1.0],"PostalCode":1.0},"Location":{"LocationId":"NT_UeAyi7RtTMOPe9vu4pr6iD_l_836184060_L","LocationType":"point","DisplayPosition":{"Latitude":48.14807,"Longitude":11.46539},"MapView":{"TopLeft":{"Latitude":48.1482,"Longitude":11.46539},"BottomRight":{"Latitude":48.14807,"Longitude":11.46548}},"Address":{"Label":"Josef-Felder-Straße, 81241 München, Deutschland","Country":"DEU","State":"Bayern","County":"München (Stadt)","City":"München","District":"Pasing","Street":"Josef-Felder-Straße","PostalCode":"81241","AdditionalData":[{"value":"Deutschland","key":"CountryName"},{"value":"Bayern","key":"StateName"},{"value":"München (Stadt)","key":"CountyName"}]},"MapReference":{"ReferenceId":"836184060","Spot":0.0,"SideOfStreet":"left","CountryId":"20147700","StateId":"20177250","CountyId":"20177268","CityId":"20177269"}}}]}]}}