{"Response":{"MetaInfo":{"Timestamp":"2020-03-28T10:01:13.021+0000","NextPageInformation":"2"},"View":[{"_type":"SearchResultsViewType","ViewId":0,"Result":[{"Relevance":1.0,"Distance":-69.8,"MatchLevel":"landmark","MatchQuality":{"Country":1.0,"State":1.0,"County":1.0,"City":1.0,"District":1.0,"Street":[1.0],"HouseNumber":1.0,"PostalCode":1.0,"Name":1.0},"Location":{"LocationId":"NT_iC3VsidPzQP.VqA1a7TutB_p_bSIjjXEkKhDHJPYbJ8m0NC","LocationType":"hospital","Name":"Nemocnica sv. Cyrila a Metoda","DisplayPosition":{"Latitude":48.10104,"Longitude":17.11751},"MapView":{"TopLeft":{"Latitude":48.1021642,"Longitude":17.1158267},"BottomRight":{"Latitude":48.0999158,"Longitude":17.1191933}},"Address":{"Label":"Antolská 11, 851 07 Bratislava, Slovenská Republika","Country":"SVK","State":"Bratislavský kraj","County":"Bratislava","City":"Bratislava","District":"Bratislava V","Street":"Antolská","HouseNumber":"11","PostalCode":"851 07","AdditionalData":[{"value":"Slovenská Republika","key":"CountryName"},{"value":"Bratislavský kraj","key":"StateName"},{"value":"Bratislava","key":"CountyName"}]},"MapReference":{"CountryId":"20428682","StateId":"20488475","CountyId":"20488476","CityId":"20488477","DistrictId":"20488482","PlaceId":"1048932518"}}},{"Relevance":1.0,"Distance":0.0,"Direction":0.0,"MatchLevel":"district","MatchQuality":{"Country":1.0,"State":1.0,"County":1.0,"City":1.0,"District":1.0,"PostalCode":1.0},"Location":{"LocationId":"NT_Kpq8o2Ix8gkGlTS.EbTqcA","LocationType":"point","DisplayPosition":{"Latitude":48.101068,"Longitude":17.1183648},"MapView":{"TopLeft":{"Latitude":48.14376,"Longitude":17.05968},"BottomRight":{"Latitude":48.00693,"Longitude":17.23052}},"Address":{"Label":"Bratislava V, Bratislava, Bratislavský kraj, Slovenská Republika","Country":"SVK","State":"Bratislavský kraj","County":"Bratislava","City":"Bratislava","District":"Bratislava V","PostalCode":"851 02","AdditionalData":[{"value":"Slovenská Republika","key":"CountryName"},{"value":"Bratislavský kraj","key":"StateName"},{"value":"Bratislava","key":"CountyName"}]},"MapReference":{"ReferenceId":"851455596","SideOfStreet":"neither","CountryId":"20428682","StateId":"20488475","CountyId":"20488476","CityId":"20488477","DistrictId":"20488482"}}},{"Relevance":1.0,"Distance":9.5,"MatchLevel":"houseNumber","MatchQuality":{"Country":1.0,"State":1.0,"County":1.0,"City":1.0,"District":1.0,"Street":[1.0],"HouseNumber":1.0,"PostalCode":1.0},"MatchType":"interpolated","Location":{"LocationId":"NT_hdlqjen3VQFjSqFErtLPFA_zMjNx8SMxA","LocationType":"point","DisplayPosition":{"Latitude":48.10102,"Longitude":17.11847},"MapView":{"TopLeft":{"Latitude":48.1021442,"Longitude":17.1167867},"BottomRight":{"Latitude":48.0998958,"Longitude":17.1201533}},"Address":{"Label":"Antolská 3361/11, 851 07 Bratislava, Slovenská Republika","Country":"SVK","State":"Bratislavský kraj","County":"Bratislava","City":"Bratislava","District":"Bratislava V","Street":"Antolská","HouseNumber":"3361/11","PostalCode":"851 07","AdditionalData":[{"value":"Slovenská Republika","key":"CountryName"},{"value":"Bratislavský kraj","key":"StateName"},{"value":"Bratislava","key":"CountyName"}]},"MapReference":{"ReferenceId":"1102675602","Spot":0.28,"SideOfStreet":"right","CountryId":"20428682","StateId":"20488475","CountyId":"20488476","CityId":"20488477","DistrictId":"20488482","AddressId":"300190678","RoadLinkId":"414911941"}}},{"Relevance":1.0,"Distance":16.5,"MatchLevel":"street","MatchQuality":{"Country":1.0,"State":1.0,"County":1.0,"City":1.0,"District":1.0,"Street":[1.0],"PostalCode":1.0},"Location":{"LocationId":"NT_hdlqjen3VQFjSqFErtLPFA_l_1102675603_R","LocationType":"point","DisplayPosition":{"Latitude":48.1009195,"Longitude":17.1183584},"MapView":{"TopLeft":{"Latitude":48.10097,"Longitude":17.11705},"BottomRight":{"Latitude":48.10042,"Longitude":17.11881}},"Address":{"Label":"Antolská, 851 07 Bratislava, Slovenská Republika","Country":"SVK","State":"Bratislavský kraj","County":"Bratislava","City":"Bratislava","District":"Bratislava V","Street":"Antolská","PostalCode":"851 07","AdditionalData":[{"value":"Slovenská Republika","key":"CountryName"},{"value":"Bratislavský kraj","key":"StateName"},{"value":"Bratislava","key":"CountyName"}]},"MapReference":{"ReferenceId":"1102675603","Spot":0.42,"SideOfStreet":"right","CountryId":"20428682","StateId":"20488475","CountyId":"20488476","CityId":"20488477","DistrictId":"20488482"}}},{"Relevance":1.0,"Distance":38.0,"MatchLevel":"street","MatchQuality":{"Country":1.0,"State":1.0,"County":1.0,"City":1.0,"District":1.0,"PostalCode":1.0},"Location":{"LocationId":"NT_8ZePHRqixTXjEl05BRM40A_l_778313311_R","LocationType":"point","DisplayPosition":{"Latitude":48.1007261,"Longitude":17.1183536},"MapView":{"TopLeft":{"Latitude":48.10074,"Longitude":17.11793},"BottomRight":{"Latitude":48.10056,"Longitude":17.11854}},"Address":{"Label":"851 07 Bratislava, Slovenská Republika","Country":"SVK","State":"Bratislavský kraj","County":"Bratislava","City":"Bratislava","District":"Bratislava V","PostalCode":"851 07","AdditionalData":[{"value":"Slovenská Republika","key":"CountryName"},{"value":"Bratislavský kraj","key":"StateName"},{"value":"Bratislava","key":"CountyName"}]},"MapReference":{"ReferenceId":"778313311","Spot":0.45,"SideOfStreet":"right","CountryId":"20428682","StateId":"20488475","CountyId":"20488476","CityId":"20488477","DistrictId":"20488482"}}},{"Relevance":1.0,"Distance":48.7,"MatchLevel":"street","MatchQuality":{"Country":1.0,"State":1.0,"County":1.0,"City":1.0,"District":1.0,"PostalCode":1.0},"Location":{"LocationId":"NT_8ZePHRqixTXjEl05BRM40A_l_778313312_R","LocationType":"point","DisplayPosition":{"Latitude":48.10074,"Longitude":17.11793},"MapView":{"TopLeft":{"Latitude":48.10074,"Longitude":17.11793},"BottomRight":{"Latitude":48.10059,"Longitude":17.11793}},"Address":{"Label":"851 07 Bratislava, Slovenská Republika","Country":"SVK","State":"Bratislavský kraj","County":"Bratislava","City":"Bratislava","District":"Bratislava V","PostalCode":"851 07","AdditionalData":[{"value":"Slovenská Republika","key":"CountryName"},{"value":"Bratislavský kraj","key":"StateName"},{"value":"Bratislava","key":"CountyName"}]},"MapReference":{"ReferenceId":"778313312","Spot":1.0,"SideOfStreet":"right","CountryId":"20428682","StateId":"20488475","CountyId":"20488476","CityId":"20488477","DistrictId":"20488482"}}},{"Relevance":1.0,"Distance":55.4,"MatchLevel":"street","MatchQuality":{"Country":1.0,"State":1.0,"County":1.0,"City":1.0,"District":1.0,"PostalCode":1.0},"Location":{"LocationId":"NT_8ZePHRqixTXjEl05BRM40A_l_778313310_R","LocationType":"point","DisplayPosition":{"Latitude":48.1005698,"Longitude":17.1183403},"MapView":{"TopLeft":{"Latitude":48.10059,"Longitude":17.11793},"BottomRight":{"Latitude":48.10056,"Longitude":17.11854}},"Address":{"Label":"851 07 Bratislava, Slovenská Republika","Country":"SVK","State":"Bratislavský kraj","County":"Bratislava","City":"Bratislava","District":"Bratislava V","PostalCode":"851 07","AdditionalData":[{"value":"Slovenská Republika","key":"CountryName"},{"value":"Bratislavský kraj","key":"StateName"},{"value":"Bratislava","key":"CountyName"}]},"MapReference":{"ReferenceId":"778313310","Spot":0.33,"SideOfStreet":"right","CountryId":"20428682","StateId":"20488475","CountyId":"20488476","CityId":"20488477","DistrictId":"20488482"}}},{"Relevance":1.0,"Distance":58.0,"MatchLevel":"street","MatchQuality":{"Country":1.0,"State":1.0,"County":1.0,"City":1.0,"District":1.0,"PostalCode":1.0},"Location":{"LocationId":"NT_8ZePHRqixTXjEl05BRM40A_l_778313308_L","LocationType":"point","DisplayPosition":{"Latitude":48.10056,"Longitude":17.11854},"MapView":{"TopLeft":{"Latitude":48.10056,"Longitude":17.11853},"BottomRight":{"Latitude":48.10043,"Longitude":17.11854}},"Address":{"Label":"851 07 Bratislava, Slovenská Republika","Country":"SVK","State":"Bratislavský kraj","County":"Bratislava","City":"Bratislava","District":"Bratislava V","PostalCode":"851 07","AdditionalData":[{"value":"Slovenská Republika","key":"CountryName"},{"value":"Bratislavský kraj","key":"StateName"},{"value":"Bratislava","key":"CountyName"}]},"MapReference":{"ReferenceId":"778313308","Spot":1.0,"SideOfStreet":"left","CountryId":"20428682","StateId":"20488475","CountyId":"20488476","CityId":"20488477","DistrictId":"20488482"}}},{"Relevance":1.0,"Distance":62.2,"MatchLevel":"street","MatchQuality":{"Country":1.0,"State":1.0,"County":1.0,"City":1.0,"District":1.0,"PostalCode":1.0},"Location":{"LocationId":"NT_8ZePHRqixTXjEl05BRM40A_l_778313309_R","LocationType":"point","DisplayPosition":{"Latitude":48.10059,"Longitude":17.11793},"MapView":{"TopLeft":{"Latitude":48.10059,"Longitude":17.11792},"BottomRight":{"Latitude":48.10046,"Longitude":17.11793}},"Address":{"Label":"851 07 Bratislava, Slovenská Republika","Country":"SVK","State":"Bratislavský kraj","County":"Bratislava","City":"Bratislava","District":"Bratislava V","PostalCode":"851 07","AdditionalData":[{"value":"Slovenská Republika","key":"CountryName"},{"value":"Bratislavský kraj","key":"StateName"},{"value":"Bratislava","key":"CountyName"}]},"MapReference":{"ReferenceId":"778313309","Spot":1.0,"SideOfStreet":"right","CountryId":"20428682","StateId":"20488475","CountyId":"20488476","CityId":"20488477","DistrictId":"20488482"}}},{"Relevance":1.0,"Distance":69.9,"MatchLevel":"street","MatchQuality":{"Country":1.0,"State":1.0,"County":1.0,"City":1.0,"District":1.0,"Street":[1.0],"PostalCode":1.0},"Location":{"LocationId":"NT_hdlqjen3VQFjSqFErtLPFA_l_778313297_R","LocationType":"point","DisplayPosition":{"Latitude":48.1004396,"Longitude":17.1183339},"MapView":{"TopLeft":{"Latitude":48.10046,"Longitude":17.11792},"BottomRight":{"Latitude":48.10043,"Longitude":17.11853}},"Address":{"Label":"Antolská, 851 07 Bratislava, Slovenská Republika","Country":"SVK","State":"Bratislavský kraj","County":"Bratislava","City":"Bratislava","District":"Bratislava V","Street":"Antolská","PostalCode":"851 07","AdditionalData":[{"value":"Slovenská Republika","key":"CountryName"},{"value":"Bratislavský kraj","key":"StateName"},{"value":"Bratislava","key":"CountyName"}]},"MapReference":{"ReferenceId":"778313297","Spot":0.32,"SideOfStreet":"right","CountryId":"20428682","StateId":"20488475","CountyId":"20488476","CityId":"20488477","DistrictId":"20488482"}}}]}]}}