{"Response":{"MetaInfo":{"Timestamp":"2020-03-28T11:47:31.838+0000","NextPageInformation":"2"},"View":[{"_type":"SearchResultsViewType","ViewId":0,"Result":[{"Relevance":1.0,"Distance":0.0,"Direction":0.0,"MatchLevel":"city","MatchQuality":{"Country":1.0,"State":1.0,"County":1.0,"City":1.0,"PostalCode":1.0},"Location":{"LocationId":"NT_EuW.ftP5w0jYy8jhhyHxhD","LocationType":"point","DisplayPosition":{"Latitude":48.1050801,"Longitude":3.9179651},"MapView":{"TopLeft":{"Latitude":48.14549,"Longitude":3.87825},"BottomRight":{"Latitude":48.06057,"Longitude":3.97423}},"Address":{"Label":"Auxon, Grand Est, France","Country":"FRA","State":"Grand Est","County":"Aube","City":"Auxon","PostalCode":"10130","AdditionalData":[{"value":"France","key":"CountryName"},{"value":"Grand Est","key":"StateName"},{"value":"Aube","key":"CountyName"}]},"MapReference":{"ReferenceId":"932496291","SideOfStreet":"neither","CountryId":"20000001","StateId":"20002047","CountyId":"20002105","CityId":"20009917"}}},{"Relevance":1.0,"Distance":8.8,"MatchLevel":"houseNumber","MatchQuality":{"Country":1.0,"State":1.0,"County":1.0,"City":1.0,"Street":[1.0],"HouseNumber":1.0,"PostalCode":1.0},"MatchType":"interpolated","Location":{"LocationId":"NT_U8.7BR35vpABug7G4-lLCA_yATN","LocationType":"point","DisplayPosition":{"Latitude":48.10509,"Longitude":3.91818},"MapView":{"TopLeft":{"Latitude":48.1062142,"Longitude":3.9164965},"BottomRight":{"Latitude":48.1039658,"Longitude":3.9198635}},"Address":{"Label":"205 Rue de la Mairie, 10130 Auxon, France","Country":"FRA","State":"Grand Est","County":"Aube","City":"Auxon","Street":"Rue de la Mairie","HouseNumber":"205","PostalCode":"10130","AdditionalData":[{"value":"France","key":"CountryName"},{"value":"Grand Est","key":"StateName"},{"value":"Aube","key":"CountyName"}]},"MapReference":{"ReferenceId":"773395988","Spot":0.43,"SideOfStreet":"left","CountryId":"20000001","StateId":"20002047","CountyId":"20002105","CityId":"20009917","AddressId":"605571522","RoadLinkId":"167219161"}}},{"Relevance":1.0,"Distance":24.0,"MatchLevel":"houseNumber","MatchQuality":{"Country":1.0,"State":1.0,"County":1.0,"City":1.0,"Street":[1.0],"HouseNumber":1.0,"PostalCode":1.0},"MatchType":"interpolated","Location":{"LocationId":"NT_YeMaQBLs0I7WjTGmKz6M0C_l_773395990_R_4ED","LocationType":"point","DisplayPosition":{"Latitude":48.10529,"Longitude":3.9178899},"MapView":{"TopLeft":{"Latitude":48.1064141,"Longitude":3.9162065},"BottomRight":{"Latitude":48.1041658,"Longitude":3.9195734}},"Address":{"Label":"81 Rue des Bouquilliers, 10130 Auxon, France","Country":"FRA","State":"Grand Est","County":"Aube","City":"Auxon","Street":"Rue des Bouquilliers","HouseNumber":"81","PostalCode":"10130","AdditionalData":[{"value":"France","key":"CountryName"},{"value":"Grand Est","key":"StateName"},{"value":"Aube","key":"CountyName"}]},"MapReference":{"ReferenceId":"773395990","Spot":0.13,"SideOfStreet":"right","CountryId":"20000001","StateId":"20002047","CountyId":"20002105","CityId":"20009917"}}},{"Relevance":1.0,"Distance":27.1,"MatchLevel":"houseNumber","MatchQuality":{"Country":1.0,"State":1.0,"County":1.0,"City":1.0,"Street":[1.0],"HouseNumber":1.0,"PostalCode":1.0},"MatchType":"interpolated","Location":{"LocationId":"NT_U8.7BR35vpABug7G4-lLCA_xkTM","LocationType":"point","DisplayPosition":{"Latitude":48.10492,"Longitude":3.91829},"MapView":{"TopLeft":{"Latitude":48.1060442,"Longitude":3.9166066},"BottomRight":{"Latitude":48.1037958,"Longitude":3.9199734}},"Address":{"Label":"191 Rue de la Mairie, 10130 Auxon, France","Country":"FRA","State":"Grand Est","County":"Aube","City":"Auxon","Street":"Rue de la Mairie","HouseNumber":"191","PostalCode":"10130","AdditionalData":[{"value":"France","key":"CountryName"},{"value":"Grand Est","key":"StateName"},{"value":"Aube","key":"CountyName"}]},"MapReference":{"ReferenceId":"1051915611","Spot":0.98,"SideOfStreet":"left","CountryId":"20000001","StateId":"20002047","CountyId":"20002105","CityId":"20009917","AddressId":"370989494","RoadLinkId":"371551129"}}},{"Relevance":1.0,"Distance":27.2,"MatchLevel":"houseNumber","MatchQuality":{"Country":1.0,"State":1.0,"County":1.0,"City":1.0,"Street":[1.0],"HouseNumber":1.0,"PostalCode":1.0},"MatchType":"interpolated","Location":{"LocationId":"NT_HQLGTyrE9HWu-BiddpmqDC_zA","LocationType":"point","DisplayPosition":{"Latitude":48.10493,"Longitude":3.91831},"MapView":{"TopLeft":{"Latitude":48.1060542,"Longitude":3.9166266},"BottomRight":{"Latitude":48.1038058,"Longitude":3.9199934}},"Address":{"Label":"3 Rue de la Fontaine, 10130 Auxon, France","Country":"FRA","State":"Grand Est","County":"Aube","City":"Auxon","Street":"Rue de la Fontaine","HouseNumber":"3","PostalCode":"10130","AdditionalData":[{"value":"France","key":"CountryName"},{"value":"Grand Est","key":"StateName"},{"value":"Aube","key":"CountyName"}]},"MapReference":{"ReferenceId":"773412647","Spot":0.99,"SideOfStreet":"right","CountryId":"20000001","StateId":"20002047","CountyId":"20002105","CityId":"20009917","AddressId":"370977261","RoadLinkId":"167239703"}}},{"Relevance":1.0,"Distance":33.3,"MatchLevel":"houseNumber","MatchQuality":{"Country":1.0,"State":1.0,"County":1.0,"City":1.0,"Street":[1.0],"HouseNumber":1.0,"PostalCode":1.0},"MatchType":"interpolated","Location":{"LocationId":"NT_U8.7BR35vpABug7G4-lLCA_yQjN","LocationType":"point","DisplayPosition":{"Latitude":48.10537,"Longitude":3.91808},"MapView":{"TopLeft":{"Latitude":48.1064942,"Longitude":3.9163965},"BottomRight":{"Latitude":48.1042458,"Longitude":3.9197635}},"Address":{"Label":"246 Rue de la Mairie, 10130 Auxon, France","Country":"FRA","State":"Grand Est","County":"Aube","City":"Auxon","Street":"Rue de la Mairie","HouseNumber":"246","PostalCode":"10130","AdditionalData":[{"value":"France","key":"CountryName"},{"value":"Grand Est","key":"StateName"},{"value":"Aube","key":"CountyName"}]},"MapReference":{"ReferenceId":"1051915613","Spot":0.84,"SideOfStreet":"right","CountryId":"20000001","StateId":"20002047","CountyId":"20002105","CityId":"20009917","AddressId":"370984256","RoadLinkId":"371551134"}}},{"Relevance":1.0,"Distance":37.9,"MatchLevel":"houseNumber","MatchQuality":{"Country":1.0,"State":1.0,"County":1.0,"City":1.0,"Street":[1.0],"HouseNumber":1.0,"PostalCode":1.0},"MatchType":"interpolated","Location":{"LocationId":"NT_U8.7BR35vpABug7G4-lLCA_yUzM","LocationType":"point","DisplayPosition":{"Latitude":48.10542,"Longitude":3.91808},"MapView":{"TopLeft":{"Latitude":48.1065442,"Longitude":3.9163965},"BottomRight":{"Latitude":48.1042958,"Longitude":3.9197635}},"Address":{"Label":"253 Rue de la Mairie, 10130 Auxon, France","Country":"FRA","State":"Grand Est","County":"Aube","City":"Auxon","Street":"Rue de la Mairie","HouseNumber":"253","PostalCode":"10130","AdditionalData":[{"value":"France","key":"CountryName"},{"value":"Grand Est","key":"StateName"},{"value":"Aube","key":"CountyName"}]},"MapReference":{"ReferenceId":"1051915614","Spot":0.25,"SideOfStreet":"left","CountryId":"20000001","StateId":"20002047","CountyId":"20002105","CityId":"20009917","AddressId":"370984255","RoadLinkId":"371551135"}}},{"Relevance":1.0,"Distance":65.6,"MatchLevel":"houseNumber","MatchQuality":{"Country":1.0,"State":1.0,"County":1.0,"City":1.0,"Street":[1.0],"HouseNumber":1.0,"PostalCode":1.0},"MatchType":"interpolated","Location":{"LocationId":"NT_U8.7BR35vpABug7G4-lLCA_yczM","LocationType":"point","DisplayPosition":{"Latitude":48.10567,"Longitude":3.91808},"MapView":{"TopLeft":{"Latitude":48.1067942,"Longitude":3.9163965},"BottomRight":{"Latitude":48.1045458,"Longitude":3.9197635}},"Address":{"Label":"273 Rue de la Mairie, 10130 Auxon, France","Country":"FRA","State":"Grand Est","County":"Aube","City":"Auxon","Street":"Rue de la Mairie","HouseNumber":"273","PostalCode":"10130","AdditionalData":[{"value":"France","key":"CountryName"},{"value":"Grand Est","key":"StateName"},{"value":"Aube","key":"CountyName"}]},"MapReference":{"ReferenceId":"1051915615","Spot":0.32,"SideOfStreet":"left","CountryId":"20000001","StateId":"20002047","CountyId":"20002105","CityId":"20009917","AddressId":"370984254","RoadLinkId":"371551138"}}},{"Relevance":1.0,"Distance":85.1,"MatchLevel":"houseNumber","MatchQuality":{"Country":1.0,"State":1.0,"County":1.0,"City":1.0,"Street":[1.0],"HouseNumber":1.0,"PostalCode":1.0},"MatchType":"interpolated","Location":{"LocationId":"NT_U8.7BR35vpABug7G4-lLCA_xITM","LocationType":"point","DisplayPosition":{"Latitude":48.10435,"Longitude":3.91843},"MapView":{"TopLeft":{"Latitude":48.1054742,"Longitude":3.9167466},"BottomRight":{"Latitude":48.1032258,"Longitude":3.9201134}},"Address":{"Label":"121 Rue de la Mairie, 10130 Auxon, France","Country":"FRA","State":"Grand Est","County":"Aube","City":"Auxon","Street":"Rue de la Mairie","HouseNumber":"121","PostalCode":"10130","AdditionalData":[{"value":"France","key":"CountryName"},{"value":"Grand Est","key":"StateName"},{"value":"Aube","key":"CountyName"}]},"MapReference":{"ReferenceId":"1051915612","Spot":0.63,"SideOfStreet":"left","CountryId":"20000001","StateId":"20002047","CountyId":"20002105","CityId":"20009917","AddressId":"370989500","RoadLinkId":"371551131"}}},{"Relevance":1.0,"Distance":101.9,"MatchLevel":"houseNumber","MatchQuality":{"Country":1.0,"State":1.0,"County":1.0,"City":1.0,"Street":[1.0],"HouseNumber":1.0,"PostalCode":1.0},"MatchType":"interpolated","Location":{"LocationId":"NT_YeMaQBLs0I7WjTGmKz6M0C_0ED","LocationType":"point","DisplayPosition":{"Latitude":48.106,"Longitude":3.91756},"MapView":{"TopLeft":{"Latitude":48.1071242,"Longitude":3.9158765},"BottomRight":{"Latitude":48.1048758,"Longitude":3.9192435}},"Address":{"Label":"41 Rue des Bouquilliers, 10130 Auxon, France","Country":"FRA","State":"Grand Est","County":"Aube","City":"Auxon","Street":"Rue des Bouquilliers","HouseNumber":"41","PostalCode":"10130","AdditionalData":[{"value":"France","key":"CountryName"},{"value":"Grand Est","key":"StateName"},{"value":"Aube","key":"CountyName"}]},"MapReference":{"ReferenceId":"548754393","Spot":0.56,"SideOfStreet":"right","CountryId":"20000001","StateId":"20002047","CountyId":"20002105","CityId":"20009917","AddressId":"370984336","RoadLinkId":"44717917"}}}]}]}}