{"Response":{"MetaInfo":{"Timestamp":"2020-03-28T10:59:11.762+0000","NextPageInformation":"2"},"View":[{"_type":"SearchResultsViewType","ViewId":0,"Result":[{"Relevance":1.0,"Distance":0.0,"Direction":0.0,"MatchLevel":"district","MatchQuality":{"Country":1.0,"State":1.0,"County":1.0,"City":1.0,"District":1.0,"PostalCode":1.0},"Location":{"LocationId":"NT_ZFadQqMiYVVVComMioQKIB","LocationType":"point","DisplayPosition":{"Latitude":48.1556896,"Longitude":11.5107219},"MapView":{"TopLeft":{"Latitude":48.16917,"Longitude":11.48101},"BottomRight":{"Latitude":48.14413,"Longitude":11.5115}},"Address":{"Label":"Nymphenburg, München, Bayern, Deutschland","Country":"DEU","State":"Bayern","County":"München (Stadt)","City":"München","District":"Nymphenburg","PostalCode":"80638","AdditionalData":[{"value":"Deutschland","key":"CountryName"},{"value":"Bayern","key":"StateName"},{"value":"München (Stadt)","key":"CountyName"}]},"MapReference":{"ReferenceId":"923296724","SideOfStreet":"neither","CountryId":"20147700","StateId":"20177250","CountyId":"20177268","CityId":"20177269"}}},{"Relevance":1.0,"Distance":14.9,"MatchLevel":"houseNumber","MatchQuality":{"Country":1.0,"State":1.0,"County":1.0,"City":1.0,"District":1.0,"Street":[1.0],"HouseNumber":1.0,"PostalCode":1.0},"MatchType":"interpolated","Location":{"LocationId":"NT_3-49OtwMfSbyZQKPKRgkqD_3gD","LocationType":"point","DisplayPosition":{"Latitude":48.15561,"Longitude":11.51056},"MapView":{"TopLeft":{"Latitude":48.1567342,"Longitude":11.5088749},"BottomRight":{"Latitude":48.1544858,"Longitude":11.5122451}},"Address":{"Label":"Romanstraße 78, 80639 München, Deutschland","Country":"DEU","State":"Bayern","County":"München (Stadt)","City":"München","District":"Nymphenburg","Street":"Romanstraße","HouseNumber":"78","PostalCode":"80639","AdditionalData":[{"value":"Deutschland","key":"CountryName"},{"value":"Bayern","key":"StateName"},{"value":"München (Stadt)","key":"CountyName"}]},"MapReference":{"ReferenceId":"52804503","Spot":0.0,"SideOfStreet":"right","CountryId":"20147700","StateId":"20177250","CountyId":"20177268","CityId":"20177269","AddressId":"169401398","RoadLinkId":"32570017"}}},{"Relevance":1.0,"Distance":27.9,"MatchLevel":"houseNumber","MatchQuality":{"Country":1.0,"State":1.0,"County":1.0,"City":1.0,"District":1.0,"Street":[1.0],"HouseNumber":1.0,"PostalCode":1.0},"MatchType":"interpolated","Location":{"LocationId":"NT_.XUIxFdefqDZeGu9HtwLzA_1A","LocationType":"point","DisplayPosition":{"Latitude":48.15571,"Longitude":11.51128},"MapView":{"TopLeft":{"Latitude":48.1568342,"Longitude":11.5095949},"BottomRight":{"Latitude":48.1545858,"Longitude":11.5129651}},"Address":{"Label":"Romanplatz 5, 80639 München, Deutschland","Country":"DEU","State":"Bayern","County":"München (Stadt)","City":"München","District":"Neuhausen","Street":"Romanplatz","HouseNumber":"5","PostalCode":"80639","AdditionalData":[{"value":"Deutschland","key":"CountryName"},{"value":"Bayern","key":"StateName"},{"value":"München (Stadt)","key":"CountyName"}]},"MapReference":{"ReferenceId":"52804523","Spot":0.59,"SideOfStreet":"left","CountryId":"20147700","StateId":"20177250","CountyId":"20177268","CityId":"20177269","AddressId":"249243993","RoadLinkId":"33687124"}}},{"Relevance":1.0,"Distance":31.8,"MatchLevel":"houseNumber","MatchQuality":{"Country":1.0,"State":1.0,"County":1.0,"City":1.0,"District":1.0,"Street":[1.0],"HouseNumber":1.0,"PostalCode":1.0},"MatchType":"interpolated","Location":{"LocationId":"NT_.XUIxFdefqDZeGu9HtwLzA_0A","LocationType":"point","DisplayPosition":{"Latitude":48.15541,"Longitude":11.51125},"MapView":{"TopLeft":{"Latitude":48.1565342,"Longitude":11.5095649},"BottomRight":{"Latitude":48.1542858,"Longitude":11.5129351}},"Address":{"Label":"Romanplatz 4, 80639 München, Deutschland","Country":"DEU","State":"Bayern","County":"München (Stadt)","City":"München","District":"Neuhausen","Street":"Romanplatz","HouseNumber":"4","PostalCode":"80639","AdditionalData":[{"value":"Deutschland","key":"CountryName"},{"value":"Bayern","key":"StateName"},{"value":"München (Stadt)","key":"CountyName"}]},"MapReference":{"ReferenceId":"754812117","Spot":0.44,"SideOfStreet":"left","CountryId":"20147700","StateId":"20177250","CountyId":"20177268","CityId":"20177269","AddressId":"170203287","RoadLinkId":"150242850"}}},{"Relevance":1.0,"Distance":40.2,"MatchLevel":"street","MatchQuality":{"Country":1.0,"State":1.0,"County":1.0,"City":1.0,"District":1.0,"Street":[1.0],"PostalCode":1.0},"Location":{"LocationId":"NT_.XUIxFdefqDZeGu9HtwLzA_l_52804525_L","LocationType":"point","DisplayPosition":{"Latitude":48.15561,"Longitude":11.51125},"MapView":{"TopLeft":{"Latitude":48.15567,"Longitude":11.51125},"BottomRight":{"Latitude":48.15555,"Longitude":11.51126}},"Address":{"Label":"Romanplatz, 80639 München, Deutschland","Country":"DEU","State":"Bayern","County":"München (Stadt)","City":"München","District":"Neuhausen","Street":"Romanplatz","PostalCode":"80639","AdditionalData":[{"value":"Deutschland","key":"CountryName"},{"value":"Bayern","key":"StateName"},{"value":"München (Stadt)","key":"CountyName"}]},"MapReference":{"ReferenceId":"52804525","Spot":0.5,"SideOfStreet":"left","CountryId":"20147700","StateId":"20177250","CountyId":"20177268","CityId":"20177269"}}},{"Relevance":1.0,"Distance":42.1,"MatchLevel":"street","MatchQuality":{"Country":1.0,"State":1.0,"County":1.0,"City":1.0,"District":1.0,"Street":[1.0],"PostalCode":1.0},"Location":{"LocationId":"NT_dS.BgwZVpDtAcX1SOJpu-C_l_53193336_L","LocationType":"point","DisplayPosition":{"Latitude":48.15555,"Longitude":11.51125},"MapView":{"TopLeft":{"Latitude":48.15555,"Longitude":11.51125},"BottomRight":{"Latitude":48.15547,"Longitude":11.5115}},"Address":{"Label":"Romanplatz, 80639 München, Deutschland","Country":"DEU","State":"Bayern","County":"München (Stadt)","City":"München","District":"Neuhausen","Street":"Romanplatz","PostalCode":"80639","AdditionalData":[{"value":"Deutschland","key":"CountryName"},{"value":"Bayern","key":"StateName"},{"value":"München (Stadt)","key":"CountyName"}]},"MapReference":{"ReferenceId":"53193336","Spot":1.0,"SideOfStreet":"left","CountryId":"20147700","StateId":"20177250","CountyId":"20177268","CityId":"20177269"}}},{"Relevance":1.0,"Distance":42.5,"MatchLevel":"street","MatchQuality":{"Country":1.0,"State":1.0,"County":1.0,"City":1.0,"District":1.0,"Street":[1.0],"PostalCode":1.0},"Location":{"LocationId":"NT_dS.BgwZVpDtAcX1SOJpu-C_l_52804524_L","LocationType":"point","DisplayPosition":{"Latitude":48.15574,"Longitude":11.51129},"MapView":{"TopLeft":{"Latitude":48.1558,"Longitude":11.51129},"BottomRight":{"Latitude":48.15574,"Longitude":11.51173}},"Address":{"Label":"Romanplatz, 80639 München, Deutschland","Country":"DEU","State":"Bayern","County":"München (Stadt)","City":"München","District":"Neuhausen","Street":"Romanplatz","PostalCode":"80639","AdditionalData":[{"value":"Deutschland","key":"CountryName"},{"value":"Bayern","key":"StateName"},{"value":"München (Stadt)","key":"CountyName"}]},"MapReference":{"ReferenceId":"52804524","Spot":0.0,"SideOfStreet":"left","CountryId":"20147700","StateId":"20177250","CountyId":"20177268","CityId":"20177269"}}},{"Relevance":1.0,"Distance":42.5,"MatchLevel":"street","MatchQuality":{"Country":1.0,"State":1.0,"County":1.0,"City":1.0,"District":1.0,"Street":[1.0],"PostalCode":1.0},"Location":{"LocationId":"NT_ISvQgqAgluhPUyscv3hzrD_l_855622257_L","LocationType":"point","DisplayPosition":{"Latitude":48.15574,"Longitude":11.51129},"MapView":{"TopLeft":{"Latitude":48.15622,"Longitude":11.51129},"BottomRight":{"Latitude":48.15574,"Longitude":11.5115}},"Address":{"Label":"Notburgastraße, 80639 München, Deutschland","Country":"DEU","State":"Bayern","County":"München (Stadt)","City":"München","District":"Neuhausen","Street":"Notburgastraße","PostalCode":"80639","AdditionalData":[{"value":"Deutschland","key":"CountryName"},{"value":"Bayern","key":"StateName"},{"value":"München (Stadt)","key":"CountyName"}]},"MapReference":{"ReferenceId":"855622257","Spot":0.0,"SideOfStreet":"left","CountryId":"20147700","StateId":"20177250","CountyId":"20177268","CityId":"20177269"}}},{"Relevance":1.0,"Distance":53.6,"MatchLevel":"houseNumber","MatchQuality":{"Country":1.0,"State":1.0,"County":1.0,"City":1.0,"District":1.0,"Street":[1.0],"HouseNumber":1.0,"PostalCode":1.0},"MatchType":"interpolated","Location":{"LocationId":"NT_.XUIxFdefqDZeGu9HtwLzA_zA","LocationType":"point","DisplayPosition":{"Latitude":48.1552,"Longitude":11.51125},"MapView":{"TopLeft":{"Latitude":48.1563242,"Longitude":11.5095649},"BottomRight":{"Latitude":48.1540758,"Longitude":11.5129351}},"Address":{"Label":"Romanplatz 3, 80639 München, Deutschland","Country":"DEU","State":"Bayern","County":"München (Stadt)","City":"München","District":"Neuhausen","Street":"Romanplatz","HouseNumber":"3","PostalCode":"80639","AdditionalData":[{"value":"Deutschland","key":"CountryName"},{"value":"Bayern","key":"StateName"},{"value":"München (Stadt)","key":"CountyName"}]},"MapReference":{"ReferenceId":"754812116","Spot":0.83,"SideOfStreet":"left","CountryId":"20147700","StateId":"20177250","CountyId":"20177268","CityId":"20177269","AddressId":"167815826","RoadLinkId":"150242849"}}},{"Relevance":1.0,"Distance":62.7,"MatchLevel":"street","MatchQuality":{"Country":1.0,"State":1.0,"County":1.0,"City":1.0,"District":1.0,"Street":[1.0],"PostalCode":1.0},"Location":{"LocationId":"NT_dS.BgwZVpDtAcX1SOJpu-C_l_52804530_R","LocationType":"point","DisplayPosition":{"Latitude":48.15547,"Longitude":11.5115},"MapView":{"TopLeft":{"Latitude":48.15547,"Longitude":11.5115},"BottomRight":{"Latitude":48.15546,"Longitude":11.51167}},"Address":{"Label":"Romanplatz, 80639 München, Deutschland","Country":"DEU","State":"Bayern","County":"München (Stadt)","City":"München","District":"Neuhausen","Street":"Romanplatz","PostalCode":"80639","AdditionalData":[{"value":"Deutschland","key":"CountryName"},{"value":"Bayern","key":"StateName"},{"value":"München (Stadt)","key":"CountyName"}]},"MapReference":{"ReferenceId":"52804530","Spot":1.0,"SideOfStreet":"right","CountryId":"20147700","StateId":"20177250","CountyId":"20177268","CityId":"20177269"}}}]}]}}