{"Response":{"MetaInfo":{"Timestamp":"2020-03-28T10:25:41.804+0000","NextPageInformation":"2"},"View":[{"_type":"SearchResultsViewType","ViewId":0,"Result":[{"Relevance":1.0,"Distance":0.0,"Direction":0.0,"MatchLevel":"district","MatchQuality":{"Country":1.0,"State":1.0,"County":1.0,"City":1.0,"District":1.0,"PostalCode":1.0},"Location":{"LocationId":"NT_kSdkebpKPilpKpaxwF3jSC","LocationType":"point","DisplayPosition":{"Latitude":48.1082693,"Longitude":11.4523057},"MapView":{"TopLeft":{"Latitude":48.11455,"Longitude":11.44422},"BottomRight":{"Latitude":48.10268,"Longitude":11.46277}},"Address":{"Label":"Martinsried, Planegg, Bayern, Deutschland","Country":"DEU","State":"Bayern","County":"München (Landkreis)","City":"Planegg","District":"Martinsried","PostalCode":"82152","AdditionalData":[{"value":"Deutschland","key":"CountryName"},{"value":"Bayern","key":"StateName"},{"value":"München (Landkreis)","key":"CountyName"}]},"MapReference":{"ReferenceId":"1189928046","SideOfStreet":"neither","CountryId":"20147700","StateId":"20177250","CountyId":"20178646","CityId":"20178719","DistrictId":"20178722"}}},{"Relevance":1.0,"Distance":35.0,"MatchLevel":"houseNumber","MatchQuality":{"Country":1.0,"State":1.0,"County":1.0,"City":1.0,"District":1.0,"Street":[1.0],"HouseNumber":1.0,"PostalCode":1.0},"MatchType":"interpolated","Location":{"LocationId":"NT_LEcZ0D-5dXUVE39-LUiEJB_1A","LocationType":"point","DisplayPosition":{"Latitude":48.10796,"Longitude":11.45202},"MapView":{"TopLeft":{"Latitude":48.1090842,"Longitude":11.4503365},"BottomRight":{"Latitude":48.1068358,"Longitude":11.4537035}},"Address":{"Label":"Planegger Straße 5, 82152 Planegg, Deutschland","Country":"DEU","State":"Bayern","County":"München (Landkreis)","City":"Planegg","District":"Martinsried","Street":"Planegger Straße","HouseNumber":"5","PostalCode":"82152","AdditionalData":[{"value":"Deutschland","key":"CountryName"},{"value":"Bayern","key":"StateName"},{"value":"München (Landkreis)","key":"CountyName"}]},"MapReference":{"ReferenceId":"52810180","Spot":0.11,"SideOfStreet":"right","CountryId":"20147700","StateId":"20177250","CountyId":"20178646","CityId":"20178719","DistrictId":"20178722","AddressId":"185001231","RoadLinkId":"33352165"}}},{"Relevance":1.0,"Distance":44.9,"MatchLevel":"houseNumber","MatchQuality":{"Country":1.0,"State":1.0,"County":1.0,"City":1.0,"District":1.0,"Street":[1.0],"HouseNumber":1.0,"PostalCode":1.0},"MatchType":"interpolated","Location":{"LocationId":"NT_.QyQhi7u1HvYBJrJSUsz5B_yA","LocationType":"point","DisplayPosition":{"Latitude":48.10881,"Longitude":11.45268},"MapView":{"TopLeft":{"Latitude":48.1099342,"Longitude":11.4509964},"BottomRight":{"Latitude":48.1076858,"Longitude":11.4543636}},"Address":{"Label":"Lena-Christ-Straße 2, 82152 Planegg, Deutschland","Country":"DEU","State":"Bayern","County":"München (Landkreis)","City":"Planegg","District":"Martinsried","Street":"Lena-Christ-Straße","HouseNumber":"2","PostalCode":"82152","AdditionalData":[{"value":"Deutschland","key":"CountryName"},{"value":"Bayern","key":"StateName"},{"value":"München (Landkreis)","key":"CountyName"}]},"MapReference":{"ReferenceId":"941513113","Spot":0.4,"SideOfStreet":"left","CountryId":"20147700","StateId":"20177250","CountyId":"20178646","CityId":"20178719","DistrictId":"20178722","AddressId":"186092505","RoadLinkId":"291534580"}}},{"Relevance":1.0,"Distance":63.3,"MatchLevel":"street","MatchQuality":{"Country":1.0,"State":1.0,"County":1.0,"City":1.0,"District":1.0,"PostalCode":1.0},"Location":{"LocationId":"NT_uD4iq2GrDo.YxmlsxVd0yA_l_1197723299_R","LocationType":"point","DisplayPosition":{"Latitude":48.10882,"Longitude":11.45209},"MapView":{"TopLeft":{"Latitude":48.10885,"Longitude":11.45203},"BottomRight":{"Latitude":48.10881,"Longitude":11.45213}},"Address":{"Label":"82152 Planegg, Deutschland","Country":"DEU","State":"Bayern","County":"München (Landkreis)","City":"Planegg","District":"Martinsried","PostalCode":"82152","AdditionalData":[{"value":"Deutschland","key":"CountryName"},{"value":"Bayern","key":"StateName"},{"value":"München (Landkreis)","key":"CountyName"}]},"MapReference":{"ReferenceId":"1197723299","Spot":0.55,"SideOfStreet":"right","CountryId":"20147700","StateId":"20177250","CountyId":"20178646","CityId":"20178719","DistrictId":"20178722"}}},{"Relevance":1.0,"Distance":63.5,"MatchLevel":"street","MatchQuality":{"Country":1.0,"State":1.0,"County":1.0,"City":1.0,"District":1.0,"PostalCode":1.0},"Location":{"LocationId":"NT_uD4iq2GrDo.YxmlsxVd0yA_l_1197723300_L","LocationType":"point","DisplayPosition":{"Latitude":48.10881,"Longitude":11.45203},"MapView":{"TopLeft":{"Latitude":48.10889,"Longitude":11.45191},"BottomRight":{"Latitude":48.10881,"Longitude":11.45203}},"Address":{"Label":"82152 Planegg, Deutschland","Country":"DEU","State":"Bayern","County":"München (Landkreis)","City":"Planegg","District":"Martinsried","PostalCode":"82152","AdditionalData":[{"value":"Deutschland","key":"CountryName"},{"value":"Bayern","key":"StateName"},{"value":"München (Landkreis)","key":"CountyName"}]},"MapReference":{"ReferenceId":"1197723300","Spot":0.0,"SideOfStreet":"left","CountryId":"20147700","StateId":"20177250","CountyId":"20178646","CityId":"20178719","DistrictId":"20178722"}}},{"Relevance":1.0,"Distance":65.7,"MatchLevel":"street","MatchQuality":{"Country":1.0,"State":1.0,"County":1.0,"City":1.0,"District":1.0,"Street":[1.0],"PostalCode":1.0},"Location":{"LocationId":"NT_.QyQhi7u1HvYBJrJSUsz5B_l_941513114_L","LocationType":"point","DisplayPosition":{"Latitude":48.10886,"Longitude":11.4523},"MapView":{"TopLeft":{"Latitude":48.10889,"Longitude":11.45215},"BottomRight":{"Latitude":48.10886,"Longitude":11.4523}},"Address":{"Label":"Lena-Christ-Straße, 82152 Planegg, Deutschland","Country":"DEU","State":"Bayern","County":"München (Landkreis)","City":"Planegg","District":"Martinsried","Street":"Lena-Christ-Straße","PostalCode":"82152","AdditionalData":[{"value":"Deutschland","key":"CountryName"},{"value":"Bayern","key":"StateName"},{"value":"München (Landkreis)","key":"CountyName"}]},"MapReference":{"ReferenceId":"941513114","Spot":0.0,"SideOfStreet":"left","CountryId":"20147700","StateId":"20177250","CountyId":"20178646","CityId":"20178719","DistrictId":"20178722"}}},{"Relevance":1.0,"Distance":65.9,"MatchLevel":"street","MatchQuality":{"Country":1.0,"State":1.0,"County":1.0,"City":1.0,"District":1.0,"PostalCode":1.0},"Location":{"LocationId":"NT_uD4iq2GrDo.YxmlsxVd0yA_l_1197723296_R","LocationType":"point","DisplayPosition":{"Latitude":48.10885,"Longitude":11.45213},"MapView":{"TopLeft":{"Latitude":48.10889,"Longitude":11.45213},"BottomRight":{"Latitude":48.10885,"Longitude":11.45215}},"Address":{"Label":"82152 Planegg, Deutschland","Country":"DEU","State":"Bayern","County":"München (Landkreis)","City":"Planegg","District":"Martinsried","PostalCode":"82152","AdditionalData":[{"value":"Deutschland","key":"CountryName"},{"value":"Bayern","key":"StateName"},{"value":"München (Landkreis)","key":"CountyName"}]},"MapReference":{"ReferenceId":"1197723296","Spot":0.0,"SideOfStreet":"right","CountryId":"20147700","StateId":"20177250","CountyId":"20178646","CityId":"20178719","DistrictId":"20178722"}}},{"Relevance":1.0,"Distance":70.0,"MatchLevel":"street","MatchQuality":{"Country":1.0,"State":1.0,"County":1.0,"City":1.0,"District":1.0,"PostalCode":1.0},"Location":{"LocationId":"NT_uD4iq2GrDo.YxmlsxVd0yA_l_1197723298_L","LocationType":"point","DisplayPosition":{"Latitude":48.10889,"Longitude":11.45215},"MapView":{"TopLeft":{"Latitude":48.10897,"Longitude":11.45203},"BottomRight":{"Latitude":48.10889,"Longitude":11.45215}},"Address":{"Label":"82152 Planegg, Deutschland","Country":"DEU","State":"Bayern","County":"München (Landkreis)","City":"Planegg","District":"Martinsried","PostalCode":"82152","AdditionalData":[{"value":"Deutschland","key":"CountryName"},{"value":"Bayern","key":"StateName"},{"value":"München (Landkreis)","key":"CountyName"}]},"MapReference":{"ReferenceId":"1197723298","Spot":0.0,"SideOfStreet":"left","CountryId":"20147700","StateId":"20177250","CountyId":"20178646","CityId":"20178719","DistrictId":"20178722"}}},{"Relevance":1.0,"Distance":75.0,"MatchLevel":"street","MatchQuality":{"Country":1.0,"State":1.0,"County":1.0,"City":1.0,"District":1.0,"Street":[1.0],"PostalCode":1.0},"Location":{"LocationId":"NT_ypTOEqRh.va46QVvdUWcCC_l_1197723301_L","LocationType":"point","DisplayPosition":{"Latitude":48.10889,"Longitude":11.45191},"MapView":{"TopLeft":{"Latitude":48.10891,"Longitude":11.45175},"BottomRight":{"Latitude":48.10889,"Longitude":11.45191}},"Address":{"Label":"Röntgenstraße, 82152 Planegg, Deutschland","Country":"DEU","State":"Bayern","County":"München (Landkreis)","City":"Planegg","District":"Martinsried","Street":"Röntgenstraße","PostalCode":"82152","AdditionalData":[{"value":"Deutschland","key":"CountryName"},{"value":"Bayern","key":"StateName"},{"value":"München (Landkreis)","key":"CountyName"}]},"MapReference":{"ReferenceId":"1197723301","Spot":0.0,"SideOfStreet":"left","CountryId":"20147700","StateId":"20177250","CountyId":"20178646","CityId":"20178719","DistrictId":"20178722"}}},{"Relevance":1.0,"Distance":75.0,"MatchLevel":"street","MatchQuality":{"Country":1.0,"State":1.0,"County":1.0,"City":1.0,"District":1.0,"PostalCode":1.0},"Location":{"LocationId":"NT_uD4iq2GrDo.YxmlsxVd0yA_l_1197723297_R","LocationType":"point","DisplayPosition":{"Latitude":48.10889,"Longitude":11.45191},"MapView":{"TopLeft":{"Latitude":48.10897,"Longitude":11.45191},"BottomRight":{"Latitude":48.10889,"Longitude":11.45203}},"Address":{"Label":"82152 Planegg, Deutschland","Country":"DEU","State":"Bayern","County":"München (Landkreis)","City":"Planegg","District":"Martinsried","PostalCode":"82152","AdditionalData":[{"value":"Deutschland","key":"CountryName"},{"value":"Bayern","key":"StateName"},{"value":"München (Landkreis)","key":"CountyName"}]},"MapReference":{"ReferenceId":"1197723297","Spot":0.0,"SideOfStreet":"right","CountryId":"20147700","StateId":"20177250","CountyId":"20178646","CityId":"20178719","DistrictId":"20178722"}}}]}]}}