{"Response":{"MetaInfo":{"Timestamp":"2020-03-28T11:07:49.183+0000","NextPageInformation":"2"},"View":[{"_type":"SearchResultsViewType","ViewId":0,"Result":[{"Relevance":1.0,"Distance":0.0,"Direction":0.0,"MatchLevel":"district","MatchQuality":{"Country":1.0,"State":1.0,"County":1.0,"City":1.0,"District":1.0,"PostalCode":1.0},"Location":{"LocationId":"NT_Ghns4W9pnkQPuPqlqH3M3A","LocationType":"point","DisplayPosition":{"Latitude":48.1144846,"Longitude":-1.6502022},"MapView":{"TopLeft":{"Latitude":48.13269,"Longitude":-1.66273},"BottomRight":{"Latitude":48.10602,"Longitude":-1.62795}},"Address":{"Label":"Jeanne d'Arc-Longs Champs-Beaulieu, Rennes, Bretagne, France","Country":"FRA","State":"Bretagne","County":"Ille-et-Vilaine","City":"Rennes","District":"Jeanne d'Arc-Longs Champs-Beaulieu","PostalCode":"35700","AdditionalData":[{"value":"France","key":"CountryName"},{"value":"Bretagne","key":"StateName"},{"value":"Ille-et-Vilaine","key":"CountyName"}]},"MapReference":{"ReferenceId":"1105340809","SideOfStreet":"neither","CountryId":"20000001","StateId":"20060199","CountyId":"20065458","CityId":"20066147"}}},{"Relevance":1.0,"Distance":10.8,"MatchLevel":"houseNumber","MatchQuality":{"Country":1.0,"State":1.0,"County":1.0,"City":1.0,"District":1.0,"Street":[1.0],"HouseNumber":1.0,"PostalCode":1.0},"MatchType":"interpolated","Location":{"LocationId":"NT_TpywdkADs5Us3dnRogbbIB_xgTOBB","LocationType":"point","DisplayPosition":{"Latitude":48.11458,"Longitude":-1.65023},"MapView":{"TopLeft":{"Latitude":48.1157042,"Longitude":-1.6519138},"BottomRight":{"Latitude":48.1134558,"Longitude":-1.6485462}},"Address":{"Label":"189A Avenue du Général Leclerc, 35700 Rennes, France","Country":"FRA","State":"Bretagne","County":"Ille-et-Vilaine","City":"Rennes","District":"Jeanne d'Arc-Longs Champs-Beaulieu","Street":"Avenue du Général Leclerc","HouseNumber":"189A","PostalCode":"35700","AdditionalData":[{"value":"France","key":"CountryName"},{"value":"Bretagne","key":"StateName"},{"value":"Ille-et-Vilaine","key":"CountyName"}]},"MapReference":{"ReferenceId":"841617354","Spot":0.16,"SideOfStreet":"right","CountryId":"20000001","StateId":"20060199","CountyId":"20065458","CityId":"20066147","AddressId":"674077766","RoadLinkId":"223462505"}}},{"Relevance":1.0,"Distance":11.0,"MatchLevel":"street","MatchQuality":{"Country":1.0,"State":1.0,"County":1.0,"City":1.0,"District":1.0,"PostalCode":1.0},"Location":{"LocationId":"NT_VXKCbtv-a2GIEzc9HkvIgB_l_955465623_R","LocationType":"point","DisplayPosition":{"Latitude":48.1143864,"Longitude":-1.65022},"MapView":{"TopLeft":{"Latitude":48.11439,"Longitude":-1.65024},"BottomRight":{"Latitude":48.11353,"Longitude":-1.64833}},"Address":{"Label":"35700 Rennes, France","Country":"FRA","State":"Bretagne","County":"Ille-et-Vilaine","City":"Rennes","District":"Jeanne d'Arc-Longs Champs-Beaulieu","PostalCode":"35700","AdditionalData":[{"value":"France","key":"CountryName"},{"value":"Bretagne","key":"StateName"},{"value":"Ille-et-Vilaine","key":"CountyName"}]},"MapReference":{"ReferenceId":"955465623","Spot":0.99,"SideOfStreet":"right","CountryId":"20000001","StateId":"20060199","CountyId":"20065458","CityId":"20066147"}}},{"Relevance":1.0,"Distance":13.4,"MatchLevel":"houseNumber","MatchQuality":{"Country":1.0,"State":1.0,"County":1.0,"City":1.0,"District":1.0,"Street":[1.0],"HouseNumber":1.0,"PostalCode":1.0},"MatchType":"interpolated","Location":{"LocationId":"NT_TpywdkADs5Us3dnRogbbIB_xgTOCB","LocationType":"point","DisplayPosition":{"Latitude":48.11455,"Longitude":-1.65005},"MapView":{"TopLeft":{"Latitude":48.1156742,"Longitude":-1.6517338},"BottomRight":{"Latitude":48.1134258,"Longitude":-1.6483662}},"Address":{"Label":"189B Avenue du Général Leclerc, 35700 Rennes, France","Country":"FRA","State":"Bretagne","County":"Ille-et-Vilaine","City":"Rennes","District":"Jeanne d'Arc-Longs Champs-Beaulieu","Street":"Avenue du Général Leclerc","HouseNumber":"189B","PostalCode":"35700","AdditionalData":[{"value":"France","key":"CountryName"},{"value":"Bretagne","key":"StateName"},{"value":"Ille-et-Vilaine","key":"CountyName"}]},"MapReference":{"ReferenceId":"1209753735","Spot":0.93,"SideOfStreet":"right","CountryId":"20000001","StateId":"20060199","CountyId":"20065458","CityId":"20066147","AddressId":"674077767","RoadLinkId":"524469828"}}},{"Relevance":1.0,"Distance":35.1,"MatchLevel":"houseNumber","MatchQuality":{"Country":1.0,"State":1.0,"County":1.0,"City":1.0,"District":1.0,"Street":[1.0],"HouseNumber":1.0,"PostalCode":1.0},"MatchType":"interpolated","Location":{"LocationId":"NT_TpywdkADs5Us3dnRogbbIB_xkzNCB","LocationType":"point","DisplayPosition":{"Latitude":48.11448,"Longitude":-1.64973},"MapView":{"TopLeft":{"Latitude":48.1156042,"Longitude":-1.6514138},"BottomRight":{"Latitude":48.1133558,"Longitude":-1.6480462}},"Address":{"Label":"197B Avenue du Général Leclerc, 35700 Rennes, France","Country":"FRA","State":"Bretagne","County":"Ille-et-Vilaine","City":"Rennes","District":"Jeanne d'Arc-Longs Champs-Beaulieu","Street":"Avenue du Général Leclerc","HouseNumber":"197B","PostalCode":"35700","AdditionalData":[{"value":"France","key":"CountryName"},{"value":"Bretagne","key":"StateName"},{"value":"Ille-et-Vilaine","key":"CountyName"}]},"MapReference":{"ReferenceId":"1209753734","Spot":0.8,"SideOfStreet":"right","CountryId":"20000001","StateId":"20060199","CountyId":"20065458","CityId":"20066147","AddressId":"320546076","RoadLinkId":"524469827"}}},{"Relevance":1.0,"Distance":64.1,"MatchLevel":"houseNumber","MatchQuality":{"Country":1.0,"State":1.0,"County":1.0,"City":1.0,"District":1.0,"Street":[1.0],"HouseNumber":1.0,"PostalCode":1.0},"MatchType":"interpolated","Location":{"LocationId":"NT_n74pvPeFayfhDD6vWTkB.A_xgTOFB","LocationType":"point","DisplayPosition":{"Latitude":48.11545,"Longitude":-1.6503},"MapView":{"TopLeft":{"Latitude":48.1165742,"Longitude":-1.6519838},"BottomRight":{"Latitude":48.1143258,"Longitude":-1.6486162}},"Address":{"Label":"189E Rue Jeanne Jugan, 35700 Rennes, France","Country":"FRA","State":"Bretagne","County":"Ille-et-Vilaine","City":"Rennes","District":"Jeanne d'Arc-Longs Champs-Beaulieu","Street":"Rue Jeanne Jugan","HouseNumber":"189E","PostalCode":"35700","AdditionalData":[{"value":"France","key":"CountryName"},{"value":"Bretagne","key":"StateName"},{"value":"Ille-et-Vilaine","key":"CountyName"}]},"MapReference":{"ReferenceId":"1060778572","Spot":0.0,"SideOfStreet":"right","CountryId":"20000001","StateId":"20060199","CountyId":"20065458","CityId":"20066147","AddressId":"777066750","RoadLinkId":"382845954"}}},{"Relevance":1.0,"Distance":79.5,"MatchLevel":"houseNumber","MatchQuality":{"Country":1.0,"State":1.0,"County":1.0,"City":1.0,"District":1.0,"Street":[1.0],"HouseNumber":1.0,"PostalCode":1.0},"MatchType":"interpolated","Location":{"LocationId":"NT_TpywdkADs5Us3dnRogbbIB_yATM","LocationType":"point","DisplayPosition":{"Latitude":48.11435,"Longitude":-1.64915},"MapView":{"TopLeft":{"Latitude":48.1154742,"Longitude":-1.6508338},"BottomRight":{"Latitude":48.1132258,"Longitude":-1.6474662}},"Address":{"Label":"201 Avenue du Général Leclerc, 35700 Rennes, France","Country":"FRA","State":"Bretagne","County":"Ille-et-Vilaine","City":"Rennes","District":"Jeanne d'Arc-Longs Champs-Beaulieu","Street":"Avenue du Général Leclerc","HouseNumber":"201","PostalCode":"35700","AdditionalData":[{"value":"France","key":"CountryName"},{"value":"Bretagne","key":"StateName"},{"value":"Ille-et-Vilaine","key":"CountyName"}]},"MapReference":{"ReferenceId":"1209597289","Spot":0.49,"SideOfStreet":"right","CountryId":"20000001","StateId":"20060199","CountyId":"20065458","CityId":"20066147","AddressId":"320546074","RoadLinkId":"524269132"}}},{"Relevance":1.0,"Distance":102.3,"MatchLevel":"houseNumber","MatchQuality":{"Country":1.0,"State":1.0,"County":1.0,"City":1.0,"District":1.0,"Street":[1.0],"HouseNumber":1.0,"PostalCode":1.0},"MatchType":"interpolated","Location":{"LocationId":"NT_n74pvPeFayfhDD6vWTkB.A_xYD","LocationType":"point","DisplayPosition":{"Latitude":48.11542,"Longitude":-1.65046},"MapView":{"TopLeft":{"Latitude":48.1165442,"Longitude":-1.6521438},"BottomRight":{"Latitude":48.1142958,"Longitude":-1.6487762}},"Address":{"Label":"16 Rue Jeanne Jugan, 35700 Rennes, France","Country":"FRA","State":"Bretagne","County":"Ille-et-Vilaine","City":"Rennes","District":"Jeanne d'Arc-Longs Champs-Beaulieu","Street":"Rue Jeanne Jugan","HouseNumber":"16","PostalCode":"35700","AdditionalData":[{"value":"France","key":"CountryName"},{"value":"Bretagne","key":"StateName"},{"value":"Ille-et-Vilaine","key":"CountyName"}]},"MapReference":{"ReferenceId":"1060778571","Spot":0.93,"SideOfStreet":"right","CountryId":"20000001","StateId":"20060199","CountyId":"20065458","CityId":"20066147","AddressId":"320717179","RoadLinkId":"382845953"}}},{"Relevance":1.0,"Distance":107.6,"MatchLevel":"street","MatchQuality":{"Country":1.0,"State":1.0,"County":1.0,"City":1.0,"District":1.0,"PostalCode":1.0},"Location":{"LocationId":"NT_VXKCbtv-a2GIEzc9HkvIgB_l_1105354678_L","LocationType":"point","DisplayPosition":{"Latitude":48.11545,"Longitude":-1.6503},"MapView":{"TopLeft":{"Latitude":48.11623,"Longitude":-1.65049},"BottomRight":{"Latitude":48.11545,"Longitude":-1.6503}},"Address":{"Label":"35700 Rennes, France","Country":"FRA","State":"Bretagne","County":"Ille-et-Vilaine","City":"Rennes","District":"Jeanne d'Arc-Longs Champs-Beaulieu","PostalCode":"35700","AdditionalData":[{"value":"France","key":"CountryName"},{"value":"Bretagne","key":"StateName"},{"value":"Ille-et-Vilaine","key":"CountyName"}]},"MapReference":{"ReferenceId":"1105354678","Spot":0.0,"SideOfStreet":"left","CountryId":"20000001","StateId":"20060199","CountyId":"20065458","CityId":"20066147"}}},{"Relevance":1.0,"Distance":111.9,"MatchLevel":"houseNumber","MatchQuality":{"Country":1.0,"State":1.0,"County":1.0,"City":1.0,"District":1.0,"Street":[1.0],"HouseNumber":1.0,"PostalCode":1.0},"MatchType":"interpolated","Location":{"LocationId":"NT_TpywdkADs5Us3dnRogbbIB_xADO","LocationType":"point","DisplayPosition":{"Latitude":48.1147,"Longitude":-1.65169},"MapView":{"TopLeft":{"Latitude":48.1158242,"Longitude":-1.6533738},"BottomRight":{"Latitude":48.1135758,"Longitude":-1.6500062}},"Address":{"Label":"108 Avenue du Général Leclerc, 35700 Rennes, France","Country":"FRA","State":"Bretagne","County":"Ille-et-Vilaine","City":"Rennes","District":"Jeanne d'Arc-Longs Champs-Beaulieu","Street":"Avenue du Général Leclerc","HouseNumber":"108","PostalCode":"35700","AdditionalData":[{"value":"France","key":"CountryName"},{"value":"Bretagne","key":"StateName"},{"value":"Ille-et-Vilaine","key":"CountyName"}]},"MapReference":{"ReferenceId":"1209597277","Spot":0.55,"SideOfStreet":"left","CountryId":"20000001","StateId":"20060199","CountyId":"20065458","CityId":"20066147","AddressId":"591058099","RoadLinkId":"524269118"}}}]}]}}