{"Response":{"MetaInfo":{"Timestamp":"2020-03-28T11:37:12.442+0000","NextPageInformation":"2"},"View":[{"_type":"SearchResultsViewType","ViewId":0,"Result":[{"Relevance":1.0,"Distance":0.0,"Direction":0.0,"MatchLevel":"district","MatchQuality":{"Country":1.0,"State":1.0,"County":1.0,"City":1.0,"District":1.0,"PostalCode":1.0},"Location":{"LocationId":"NT_razcUHhOOSxf4qzRqDfbCA","LocationType":"point","DisplayPosition":{"Latitude":48.157916,"Longitude":17.1246318},"MapView":{"TopLeft":{"Latitude":48.24701,"Longitude":17.06409},"BottomRight":{"Latitude":48.15574,"Longitude":17.23153}},"Address":{"Label":"Bratislava III, Bratislava, Bratislavský kraj, Slovenská Republika","Country":"SVK","State":"Bratislavský kraj","County":"Bratislava","City":"Bratislava","District":"Bratislava III","PostalCode":"831 03","AdditionalData":[{"value":"Slovenská Republika","key":"CountryName"},{"value":"Bratislavský kraj","key":"StateName"},{"value":"Bratislava","key":"CountyName"}]},"MapReference":{"ReferenceId":"1159596099","SideOfStreet":"neither","CountryId":"20428682","StateId":"20488475","CountyId":"20488476","CityId":"20488477","DistrictId":"20488480"}}},{"Relevance":1.0,"Distance":2.9,"MatchLevel":"landmark","MatchQuality":{"Country":1.0,"State":1.0,"County":1.0,"City":1.0,"District":1.0,"PostalCode":1.0,"Name":1.0},"Location":{"LocationId":"NT_3EI7rMVSCWHZedkPV.DuRA","LocationType":"hospital","Name":"Železničná nemocnica a Poliklinika","DisplayPosition":{"Latitude":48.15733,"Longitude":17.12492},"MapView":{"TopLeft":{"Latitude":48.15806,"Longitude":17.12464},"BottomRight":{"Latitude":48.15659,"Longitude":17.12523}},"Address":{"Label":"831 03 Bratislava, Slovenská Republika","Country":"SVK","State":"Bratislavský kraj","County":"Bratislava","City":"Bratislava","District":"Bratislava III","PostalCode":"831 03","AdditionalData":[{"value":"Slovenská Republika","key":"CountryName"},{"value":"Bratislavský kraj","key":"StateName"},{"value":"Bratislava","key":"CountyName"}]},"MapReference":{"CountryId":"20428682","StateId":"20488475","CountyId":"20488476","CityId":"20488477","DistrictId":"20488480","PlaceId":"1464098127"}}},{"Relevance":1.0,"Distance":11.6,"MatchLevel":"street","MatchQuality":{"Country":1.0,"State":1.0,"County":1.0,"City":1.0,"District":1.0,"Street":[1.0],"PostalCode":1.0},"Location":{"LocationId":"NT_pRrPHu86OdaWKokzfvtpjA_l_971141050_R","LocationType":"point","DisplayPosition":{"Latitude":48.15802,"Longitude":17.12464},"MapView":{"TopLeft":{"Latitude":48.15805,"Longitude":17.12464},"BottomRight":{"Latitude":48.15802,"Longitude":17.12507}},"Address":{"Label":"Šancová, 831 04 Bratislava, Slovenská Republika","Country":"SVK","State":"Bratislavský kraj","County":"Bratislava","City":"Bratislava","District":"Bratislava III","Street":"Šancová","PostalCode":"831 04","AdditionalData":[{"value":"Slovenská Republika","key":"CountryName"},{"value":"Bratislavský kraj","key":"StateName"},{"value":"Bratislava","key":"CountyName"}]},"MapReference":{"ReferenceId":"971141050","Spot":0.0,"SideOfStreet":"right","CountryId":"20428682","StateId":"20488475","CountyId":"20488476","CityId":"20488477","DistrictId":"20488480"}}},{"Relevance":1.0,"Distance":12.9,"MatchLevel":"houseNumber","MatchQuality":{"Country":1.0,"State":1.0,"County":1.0,"City":1.0,"District":1.0,"Street":[1.0],"HouseNumber":1.0,"PostalCode":1.0},"MatchType":"interpolated","Location":{"LocationId":"NT_pRrPHu86OdaWKokzfvtpjA_zUTN48SMwgD","LocationType":"point","DisplayPosition":{"Latitude":48.158,"Longitude":17.12444},"MapView":{"TopLeft":{"Latitude":48.1591242,"Longitude":17.1227548},"BottomRight":{"Latitude":48.1568758,"Longitude":17.1261252}},"Address":{"Label":"Šancová 3558/108, 831 04 Bratislava, Slovenská Republika","Country":"SVK","State":"Bratislavský kraj","County":"Bratislava","City":"Bratislava","District":"Bratislava III","Street":"Šancová","HouseNumber":"3558/108","PostalCode":"831 04","AdditionalData":[{"value":"Slovenská Republika","key":"CountryName"},{"value":"Bratislavský kraj","key":"StateName"},{"value":"Bratislava","key":"CountyName"}]},"MapReference":{"ReferenceId":"1082712027","Spot":0.47,"SideOfStreet":"right","CountryId":"20428682","StateId":"20488475","CountyId":"20488476","CityId":"20488477","DistrictId":"20488480","AddressId":"299402207","RoadLinkId":"399369290"}}},{"Relevance":1.0,"Distance":19.2,"MatchLevel":"houseNumber","MatchQuality":{"Country":1.0,"State":1.0,"County":1.0,"City":1.0,"District":1.0,"Street":[1.0],"HouseNumber":1.0,"PostalCode":1.0},"MatchType":"interpolated","Location":{"LocationId":"NT_pRrPHu86OdaWKokzfvtpjA_zETNw8SMxAD","LocationType":"point","DisplayPosition":{"Latitude":48.15793,"Longitude":17.12522},"MapView":{"TopLeft":{"Latitude":48.1590542,"Longitude":17.1235348},"BottomRight":{"Latitude":48.1568058,"Longitude":17.1269052}},"Address":{"Label":"Šancová 3150/110, 831 04 Bratislava, Slovenská Republika","Country":"SVK","State":"Bratislavský kraj","County":"Bratislava","City":"Bratislava","District":"Bratislava III","Street":"Šancová","HouseNumber":"3150/110","PostalCode":"831 04","AdditionalData":[{"value":"Slovenská Republika","key":"CountryName"},{"value":"Bratislavský kraj","key":"StateName"},{"value":"Bratislava","key":"CountyName"}]},"MapReference":{"ReferenceId":"1021189810","Spot":0.83,"SideOfStreet":"left","CountryId":"20428682","StateId":"20488475","CountyId":"20488476","CityId":"20488477","DistrictId":"20488480","AddressId":"299402208","RoadLinkId":"345660194"}}},{"Relevance":1.0,"Distance":24.9,"MatchLevel":"houseNumber","MatchQuality":{"Country":1.0,"State":1.0,"County":1.0,"City":1.0,"District":1.0,"Street":[1.0],"HouseNumber":1.0,"PostalCode":1.0},"MatchType":"interpolated","Location":{"LocationId":"NT_pRrPHu86OdaWKokzfvtpjA_zUjN48SN5A","LocationType":"point","DisplayPosition":{"Latitude":48.15814,"Longitude":17.12462},"MapView":{"TopLeft":{"Latitude":48.1592642,"Longitude":17.1229348},"BottomRight":{"Latitude":48.1570158,"Longitude":17.1263052}},"Address":{"Label":"Šancová 3568/59, 831 04 Bratislava, Slovenská Republika","Country":"SVK","State":"Bratislavský kraj","County":"Bratislava","City":"Bratislava","District":"Bratislava III","Street":"Šancová","HouseNumber":"3568/59","PostalCode":"831 04","AdditionalData":[{"value":"Slovenská Republika","key":"CountryName"},{"value":"Bratislavský kraj","key":"StateName"},{"value":"Bratislava","key":"CountyName"}]},"MapReference":{"ReferenceId":"1159315160","Spot":0.18,"SideOfStreet":"left","CountryId":"20428682","StateId":"20488475","CountyId":"20488476","CityId":"20488477","DistrictId":"20488480","AddressId":"299402205","RoadLinkId":"465951723"}}},{"Relevance":1.0,"Distance":34.6,"MatchLevel":"houseNumber","MatchQuality":{"Country":1.0,"State":1.0,"County":1.0,"City":1.0,"District":1.0,"Street":[1.0],"HouseNumber":1.0,"PostalCode":1.0},"MatchType":"interpolated","Location":{"LocationId":"NT_pRrPHu86OdaWKokzfvtpjA_zUjNw8SMwYD","LocationType":"point","DisplayPosition":{"Latitude":48.15798,"Longitude":17.12415},"MapView":{"TopLeft":{"Latitude":48.1591042,"Longitude":17.1224648},"BottomRight":{"Latitude":48.1568558,"Longitude":17.1258352}},"Address":{"Label":"Šancová 3560/106, 831 04 Bratislava, Slovenská Republika","Country":"SVK","State":"Bratislavský kraj","County":"Bratislava","City":"Bratislava","District":"Bratislava III","Street":"Šancová","HouseNumber":"3560/106","PostalCode":"831 04","AdditionalData":[{"value":"Slovenská Republika","key":"CountryName"},{"value":"Bratislavský kraj","key":"StateName"},{"value":"Bratislava","key":"CountyName"}]},"MapReference":{"ReferenceId":"1159315164","Spot":0.66,"SideOfStreet":"right","CountryId":"20428682","StateId":"20488475","CountyId":"20488476","CityId":"20488477","DistrictId":"20488480","AddressId":"299402209","RoadLinkId":"465951729"}}},{"Relevance":1.0,"Distance":35.8,"MatchLevel":"street","MatchQuality":{"Country":1.0,"State":1.0,"County":1.0,"City":1.0,"District":1.0,"Street":[1.0],"PostalCode":1.0},"Location":{"LocationId":"NT_1ULmdB8omDpZzYGIGkTyWB_l_837749354_R","LocationType":"point","DisplayPosition":{"Latitude":48.15805,"Longitude":17.12507},"MapView":{"TopLeft":{"Latitude":48.15806,"Longitude":17.12507},"BottomRight":{"Latitude":48.15805,"Longitude":17.12523}},"Address":{"Label":"Šancová, 831 04 Bratislava, Slovenská Republika","Country":"SVK","State":"Bratislavský kraj","County":"Bratislava","City":"Bratislava","District":"Bratislava III","Street":"Šancová","PostalCode":"831 04","AdditionalData":[{"value":"Slovenská Republika","key":"CountryName"},{"value":"Bratislavský kraj","key":"StateName"},{"value":"Bratislava","key":"CountyName"}]},"MapReference":{"ReferenceId":"837749354","Spot":0.0,"SideOfStreet":"right","CountryId":"20428682","StateId":"20488475","CountyId":"20488476","CityId":"20488477","DistrictId":"20488480"}}},{"Relevance":1.0,"Distance":35.8,"MatchLevel":"street","MatchQuality":{"Country":1.0,"State":1.0,"County":1.0,"City":1.0,"District":1.0,"Street":[1.0],"PostalCode":1.0},"Location":{"LocationId":"NT_fxf2E.JTctrEfGDfwHMXHA_l_773086038_L","LocationType":"point","DisplayPosition":{"Latitude":48.15805,"Longitude":17.12507},"MapView":{"TopLeft":{"Latitude":48.15888,"Longitude":17.12507},"BottomRight":{"Latitude":48.15805,"Longitude":17.12525}},"Address":{"Label":"Filiálne nádražie, 831 04 Bratislava, Slovenská Republika","Country":"SVK","State":"Bratislavský kraj","County":"Bratislava","City":"Bratislava","District":"Bratislava III","Street":"Filiálne nádražie","PostalCode":"831 04","AdditionalData":[{"value":"Slovenská Republika","key":"CountryName"},{"value":"Bratislavský kraj","key":"StateName"},{"value":"Bratislava","key":"CountyName"}]},"MapReference":{"ReferenceId":"773086038","Spot":0.0,"SideOfStreet":"left","CountryId":"20428682","StateId":"20488475","CountyId":"20488476","CityId":"20488477","DistrictId":"20488480"}}},{"Relevance":1.0,"Distance":36.2,"MatchLevel":"houseNumber","MatchQuality":{"Country":1.0,"State":1.0,"County":1.0,"City":1.0,"District":1.0,"Street":[1.0],"HouseNumber":1.0,"PostalCode":1.0},"MatchType":"interpolated","Location":{"LocationId":"NT_pRrPHu86OdaWKokzfvtpjA_zUjN58SNzA","LocationType":"point","DisplayPosition":{"Latitude":48.15811,"Longitude":17.12424},"MapView":{"TopLeft":{"Latitude":48.1592342,"Longitude":17.1225548},"BottomRight":{"Latitude":48.1569858,"Longitude":17.1259252}},"Address":{"Label":"Šancová 3569/53, 831 04 Bratislava, Slovenská Republika","Country":"SVK","State":"Bratislavský kraj","County":"Bratislava","City":"Bratislava","District":"Bratislava III","Street":"Šancová","HouseNumber":"3569/53","PostalCode":"831 04","AdditionalData":[{"value":"Slovenská Republika","key":"CountryName"},{"value":"Bratislavský kraj","key":"StateName"},{"value":"Bratislava","key":"CountyName"}]},"MapReference":{"ReferenceId":"1159315162","Spot":0.18,"SideOfStreet":"left","CountryId":"20428682","StateId":"20488475","CountyId":"20488476","CityId":"20488477","DistrictId":"20488480","AddressId":"299402204","RoadLinkId":"465951725"}}}]}]}}