{"Response":{"MetaInfo":{"Timestamp":"2020-03-28T10:01:16.041+0000","NextPageInformation":"2"},"View":[{"_type":"SearchResultsViewType","ViewId":0,"Result":[{"Relevance":1.0,"Distance":0.0,"Direction":0.0,"MatchLevel":"district","MatchQuality":{"Country":1.0,"State":1.0,"County":1.0,"City":1.0,"District":1.0,"PostalCode":1.0},"Location":{"LocationId":"NT_Ju74MjKaWtwyWkamJp4hXB","LocationType":"point","DisplayPosition":{"Latitude":48.1584696,"Longitude":17.0681771},"MapView":{"TopLeft":{"Latitude":48.17853,"Longitude":17.01243},"BottomRight":{"Latitude":48.1399,"Longitude":17.07818}},"Address":{"Label":"Karlova Ves, Bratislava, Bratislavský kraj, Slovenská Republika","Country":"SVK","State":"Bratislavský kraj","County":"Bratislava","City":"Bratislava","District":"Karlova Ves","PostalCode":"841 04","AdditionalData":[{"value":"Slovenská Republika","key":"CountryName"},{"value":"Bratislavský kraj","key":"StateName"},{"value":"Bratislava","key":"CountyName"}]},"MapReference":{"ReferenceId":"776671144","SideOfStreet":"neither","CountryId":"20428682","StateId":"20488475","CountyId":"20488476","CityId":"20488477"}}},{"Relevance":1.0,"Distance":9.7,"MatchLevel":"street","MatchQuality":{"Country":1.0,"State":1.0,"County":1.0,"City":1.0,"District":1.0,"PostalCode":1.0},"Location":{"LocationId":"NT_ffRj-Aa72-ikmbdSwUjoFB_l_1234776592_L","LocationType":"point","DisplayPosition":{"Latitude":48.1585469,"Longitude":17.0682389},"MapView":{"TopLeft":{"Latitude":48.15866,"Longitude":17.06793},"BottomRight":{"Latitude":48.15837,"Longitude":17.06833}},"Address":{"Label":"841 04 Bratislava, Slovenská Republika","Country":"SVK","State":"Bratislavský kraj","County":"Bratislava","City":"Bratislava","District":"Bratislava IV","PostalCode":"841 04","AdditionalData":[{"value":"Slovenská Republika","key":"CountryName"},{"value":"Bratislavský kraj","key":"StateName"},{"value":"Bratislava","key":"CountyName"}]},"MapReference":{"ReferenceId":"1234776592","Spot":0.37,"SideOfStreet":"left","CountryId":"20428682","StateId":"20488475","CountyId":"20488476","CityId":"20488477","DistrictId":"20488481"}}},{"Relevance":1.0,"Distance":15.1,"MatchLevel":"landmark","MatchQuality":{"Country":1.0,"State":1.0,"County":1.0,"City":1.0,"District":1.0,"Street":[1.0],"PostalCode":1.0,"Name":1.0},"Location":{"LocationId":"NT_5uci1fPz7-DV8MkDh53FqD_p_JPD8qVC2UYlzOOxCPpqIpB","LocationType":"shoppingCentre","Name":"Cubicon galéria","DisplayPosition":{"Latitude":48.15795,"Longitude":17.06938},"MapView":{"TopLeft":{"Latitude":48.15934,"Longitude":17.06833},"BottomRight":{"Latitude":48.15726,"Longitude":17.07116}},"Address":{"Label":"Staré Grunty, 841 04 Bratislava, Slovenská Republika","Country":"SVK","State":"Bratislavský kraj","County":"Bratislava","City":"Bratislava","District":"Bratislava IV","Street":"Staré Grunty","PostalCode":"841 04","AdditionalData":[{"value":"Slovenská Republika","key":"CountryName"},{"value":"Bratislavský kraj","key":"StateName"},{"value":"Bratislava","key":"CountyName"}]},"MapReference":{"CountryId":"20428682","StateId":"20488475","CountyId":"20488476","CityId":"20488477","DistrictId":"20488481","PlaceId":"1031222303"}}},{"Relevance":1.0,"Distance":15.9,"MatchLevel":"street","MatchQuality":{"Country":1.0,"State":1.0,"County":1.0,"City":1.0,"District":1.0,"Street":[1.0],"PostalCode":1.0},"Location":{"LocationId":"NT_I3yv1YlCw7FVRlKIghWimC_l_776343215_L","LocationType":"point","DisplayPosition":{"Latitude":48.15837,"Longitude":17.06833},"MapView":{"TopLeft":{"Latitude":48.15837,"Longitude":17.06833},"BottomRight":{"Latitude":48.15798,"Longitude":17.06844}},"Address":{"Label":"Staré Grunty, 841 04 Bratislava, Slovenská Republika","Country":"SVK","State":"Bratislavský kraj","County":"Bratislava","City":"Bratislava","District":"Bratislava IV","Street":"Staré Grunty","PostalCode":"841 04","AdditionalData":[{"value":"Slovenská Republika","key":"CountryName"},{"value":"Bratislavský kraj","key":"StateName"},{"value":"Bratislava","key":"CountyName"}]},"MapReference":{"ReferenceId":"776343215","Spot":1.0,"SideOfStreet":"left","CountryId":"20428682","StateId":"20488475","CountyId":"20488476","CityId":"20488477","DistrictId":"20488481"}}},{"Relevance":1.0,"Distance":19.8,"MatchLevel":"houseNumber","MatchQuality":{"Country":1.0,"State":1.0,"County":1.0,"City":1.0,"District":1.0,"Street":[1.0],"HouseNumber":1.0,"PostalCode":1.0},"MatchType":"interpolated","Location":{"LocationId":"NT_I3yv1YlCw7FVRlKIghWimC_2AzNz8SN2A","LocationType":"point","DisplayPosition":{"Latitude":48.15833,"Longitude":17.06775},"MapView":{"TopLeft":{"Latitude":48.1594542,"Longitude":17.0660648},"BottomRight":{"Latitude":48.1572058,"Longitude":17.0694352}},"Address":{"Label":"Staré Grunty 6073/56, 841 04 Bratislava, Slovenská Republika","Country":"SVK","State":"Bratislavský kraj","County":"Bratislava","City":"Bratislava","District":"Bratislava IV","Street":"Staré Grunty","HouseNumber":"6073/56","PostalCode":"841 04","AdditionalData":[{"value":"Slovenská Republika","key":"CountryName"},{"value":"Bratislavský kraj","key":"StateName"},{"value":"Bratislava","key":"CountyName"}]},"MapReference":{"ReferenceId":"1234586902","Spot":0.32,"SideOfStreet":"right","CountryId":"20428682","StateId":"20488475","CountyId":"20488476","CityId":"20488477","DistrictId":"20488481","AddressId":"299368995","RoadLinkId":"554979372"}}},{"Relevance":1.0,"Distance":28.0,"MatchLevel":"street","MatchQuality":{"Country":1.0,"State":1.0,"County":1.0,"City":1.0,"District":1.0,"PostalCode":1.0},"Location":{"LocationId":"NT_ffRj-Aa72-ikmbdSwUjoFB_l_1234711274_R","LocationType":"point","DisplayPosition":{"Latitude":48.15866,"Longitude":17.06793},"MapView":{"TopLeft":{"Latitude":48.15866,"Longitude":17.06775},"BottomRight":{"Latitude":48.15832,"Longitude":17.06793}},"Address":{"Label":"841 04 Bratislava, Slovenská Republika","Country":"SVK","State":"Bratislavský kraj","County":"Bratislava","City":"Bratislava","District":"Bratislava IV","PostalCode":"841 04","AdditionalData":[{"value":"Slovenská Republika","key":"CountryName"},{"value":"Bratislavský kraj","key":"StateName"},{"value":"Bratislava","key":"CountyName"}]},"MapReference":{"ReferenceId":"1234711274","Spot":1.0,"SideOfStreet":"right","CountryId":"20428682","StateId":"20488475","CountyId":"20488476","CityId":"20488477","DistrictId":"20488481"}}},{"Relevance":1.0,"Distance":28.0,"MatchLevel":"street","MatchQuality":{"Country":1.0,"State":1.0,"County":1.0,"City":1.0,"District":1.0,"PostalCode":1.0},"Location":{"LocationId":"NT_ffRj-Aa72-ikmbdSwUjoFB_l_1185508424_R","LocationType":"point","DisplayPosition":{"Latitude":48.15866,"Longitude":17.06793},"MapView":{"TopLeft":{"Latitude":48.15957,"Longitude":17.06785},"BottomRight":{"Latitude":48.15866,"Longitude":17.06802}},"Address":{"Label":"841 04 Bratislava, Slovenská Republika","Country":"SVK","State":"Bratislavský kraj","County":"Bratislava","City":"Bratislava","District":"Bratislava IV","PostalCode":"841 04","AdditionalData":[{"value":"Slovenská Republika","key":"CountryName"},{"value":"Bratislavský kraj","key":"StateName"},{"value":"Bratislava","key":"CountyName"}]},"MapReference":{"ReferenceId":"1185508424","Spot":0.0,"SideOfStreet":"right","CountryId":"20428682","StateId":"20488475","CountyId":"20488476","CityId":"20488477","DistrictId":"20488481"}}},{"Relevance":1.0,"Distance":30.6,"MatchLevel":"houseNumber","MatchQuality":{"Country":1.0,"State":1.0,"County":1.0,"City":1.0,"District":1.0,"Street":[1.0],"HouseNumber":1.0,"PostalCode":1.0},"MatchType":"interpolated","Location":{"LocationId":"NT_I3yv1YlCw7FVRlKIghWimC_yMjMvQzN","LocationType":"point","DisplayPosition":{"Latitude":48.15824,"Longitude":17.06795},"MapView":{"TopLeft":{"Latitude":48.1593642,"Longitude":17.0662648},"BottomRight":{"Latitude":48.1571158,"Longitude":17.0696352}},"Address":{"Label":"Staré Grunty 232/47, 841 04 Bratislava, Slovenská Republika","Country":"SVK","State":"Bratislavský kraj","County":"Bratislava","City":"Bratislava","District":"Bratislava IV","Street":"Staré Grunty","HouseNumber":"232/47","PostalCode":"841 04","AdditionalData":[{"value":"Slovenská Republika","key":"CountryName"},{"value":"Bratislavský kraj","key":"StateName"},{"value":"Bratislava","key":"CountyName"}]},"MapReference":{"ReferenceId":"776343217","Spot":0.81,"SideOfStreet":"left","CountryId":"20428682","StateId":"20488475","CountyId":"20488476","CityId":"20488477","DistrictId":"20488481","AddressId":"342384361","RoadLinkId":"169977846"}}},{"Relevance":1.0,"Distance":30.8,"MatchLevel":"street","MatchQuality":{"Country":1.0,"State":1.0,"County":1.0,"City":1.0,"District":1.0,"Street":[1.0],"PostalCode":1.0},"Location":{"LocationId":"NT_I3yv1YlCw7FVRlKIghWimC_l_1234586901_R","LocationType":"point","DisplayPosition":{"Latitude":48.15827,"Longitude":17.06789},"MapView":{"TopLeft":{"Latitude":48.15832,"Longitude":17.06778},"BottomRight":{"Latitude":48.15827,"Longitude":17.06789}},"Address":{"Label":"Staré Grunty, 841 04 Bratislava, Slovenská Republika","Country":"SVK","State":"Bratislavský kraj","County":"Bratislava","City":"Bratislava","District":"Bratislava IV","Street":"Staré Grunty","PostalCode":"841 04","AdditionalData":[{"value":"Slovenská Republika","key":"CountryName"},{"value":"Bratislavský kraj","key":"StateName"},{"value":"Bratislava","key":"CountyName"}]},"MapReference":{"ReferenceId":"1234586901","Spot":0.0,"SideOfStreet":"right","CountryId":"20428682","StateId":"20488475","CountyId":"20488476","CityId":"20488477","DistrictId":"20488481"}}},{"Relevance":1.0,"Distance":32.2,"MatchLevel":"landmark","MatchQuality":{"Country":1.0,"State":1.0,"County":1.0,"City":1.0,"District":1.0,"PostalCode":1.0,"Name":1.0},"Location":{"LocationId":"NT_MytyJt0EkvmyFbt5.pNP9A","LocationType":"cemetery","Name":"Cintorín Slávičie Údolie","DisplayPosition":{"Latitude":48.15626,"Longitude":17.06769},"MapView":{"TopLeft":{"Latitude":48.15846,"Longitude":17.06442},"BottomRight":{"Latitude":48.15406,"Longitude":17.07181}},"Address":{"Label":"841 07 Bratislava, Slovenská Republika","Country":"SVK","State":"Bratislavský kraj","County":"Bratislava","City":"Bratislava","District":"Bratislava IV","PostalCode":"841 07","AdditionalData":[{"value":"Slovenská Republika","key":"CountryName"},{"value":"Bratislavský kraj","key":"StateName"},{"value":"Bratislava","key":"CountyName"}]},"MapReference":{"CountryId":"20428682","StateId":"20488475","CountyId":"20488476","CityId":"20488477","DistrictId":"20488481","PlaceId":"552733440"}}}]}]}}