{"Response":{"MetaInfo":{"Timestamp":"2020-03-28T11:13:38.604+0000","NextPageInformation":"2"},"View":[{"_type":"SearchResultsViewType","ViewId":0,"Result":[{"Relevance":1.0,"Distance":0.0,"Direction":0.0,"MatchLevel":"district","MatchQuality":{"Country":1.0,"State":1.0,"County":1.0,"City":1.0,"District":1.0,"PostalCode":1.0},"Location":{"LocationId":"NT_WVDDZKHOPTfnWuZSIHrY.B","LocationType":"point","DisplayPosition":{"Latitude":48.1382451,"Longitude":-1.6591284},"MapView":{"TopLeft":{"Latitude":48.15511,"Longitude":-1.68038},"BottomRight":{"Latitude":48.1218,"Longitude":-1.62433}},"Address":{"Label":"Maurepas-Bellangerais, Rennes, Bretagne, France","Country":"FRA","State":"Bretagne","County":"Ille-et-Vilaine","City":"Rennes","District":"Maurepas-Bellangerais","PostalCode":"35700","AdditionalData":[{"value":"France","key":"CountryName"},{"value":"Bretagne","key":"StateName"},{"value":"Ille-et-Vilaine","key":"CountyName"}]},"MapReference":{"ReferenceId":"1062189325","SideOfStreet":"neither","CountryId":"20000001","StateId":"20060199","CountyId":"20065458","CityId":"20066147"}}},{"Relevance":1.0,"Distance":10.4,"MatchLevel":"houseNumber","MatchQuality":{"Country":1.0,"State":1.0,"County":1.0,"City":1.0,"District":1.0,"Street":[1.0],"HouseNumber":1.0,"PostalCode":1.0},"MatchType":"interpolated","Location":{"LocationId":"NT_ei-6WsQl.ewrgVXHAfaLQC_xA","LocationType":"point","DisplayPosition":{"Latitude":48.13825,"Longitude":-1.65898},"MapView":{"TopLeft":{"Latitude":48.1393742,"Longitude":-1.6606645},"BottomRight":{"Latitude":48.1371258,"Longitude":-1.6572955}},"Address":{"Label":"1 Rue de la Tauvrais, 35700 Rennes, France","Country":"FRA","State":"Bretagne","County":"Ille-et-Vilaine","City":"Rennes","District":"Maurepas-Bellangerais","Street":"Rue de la Tauvrais","HouseNumber":"1","PostalCode":"35700","AdditionalData":[{"value":"France","key":"CountryName"},{"value":"Bretagne","key":"StateName"},{"value":"Ille-et-Vilaine","key":"CountyName"}]},"MapReference":{"ReferenceId":"76723963","Spot":0.31,"SideOfStreet":"left","CountryId":"20000001","StateId":"20060199","CountyId":"20065458","CityId":"20066147","AddressId":"570417173","RoadLinkId":"47944978"}}},{"Relevance":1.0,"Distance":18.6,"MatchLevel":"street","MatchQuality":{"Country":1.0,"State":1.0,"County":1.0,"City":1.0,"District":1.0,"Street":[1.0],"PostalCode":1.0},"Location":{"LocationId":"NT_qim2ssHQfh.vYtqu90eTlA_l_1105316493_R","LocationType":"point","DisplayPosition":{"Latitude":48.1384124,"Longitude":-1.6591433},"MapView":{"TopLeft":{"Latitude":48.13846,"Longitude":-1.65929},"BottomRight":{"Latitude":48.13841,"Longitude":-1.65861}},"Address":{"Label":"Rue de la Croix Herpin, 35700 Rennes, France","Country":"FRA","State":"Bretagne","County":"Ille-et-Vilaine","City":"Rennes","District":"Maurepas-Bellangerais","Street":"Rue de la Croix Herpin","PostalCode":"35700","AdditionalData":[{"value":"France","key":"CountryName"},{"value":"Bretagne","key":"StateName"},{"value":"Ille-et-Vilaine","key":"CountyName"}]},"MapReference":{"ReferenceId":"1105316493","Spot":0.22,"SideOfStreet":"right","CountryId":"20000001","StateId":"20060199","CountyId":"20065458","CityId":"20066147"}}},{"Relevance":1.0,"Distance":21.9,"MatchLevel":"street","MatchQuality":{"Country":1.0,"State":1.0,"County":1.0,"City":1.0,"District":1.0,"Street":[1.0],"PostalCode":1.0},"Location":{"LocationId":"NT_qim2ssHQfh.vYtqu90eTlA_l_1105316492_L","LocationType":"point","DisplayPosition":{"Latitude":48.13841,"Longitude":-1.65929},"MapView":{"TopLeft":{"Latitude":48.13842,"Longitude":-1.65942},"BottomRight":{"Latitude":48.13841,"Longitude":-1.65929}},"Address":{"Label":"Rue de la Croix Herpin, 35700 Rennes, France","Country":"FRA","State":"Bretagne","County":"Ille-et-Vilaine","City":"Rennes","District":"Maurepas-Bellangerais","Street":"Rue de la Croix Herpin","PostalCode":"35700","AdditionalData":[{"value":"France","key":"CountryName"},{"value":"Bretagne","key":"StateName"},{"value":"Ille-et-Vilaine","key":"CountyName"}]},"MapReference":{"ReferenceId":"1105316492","Spot":0.0,"SideOfStreet":"left","CountryId":"20000001","StateId":"20060199","CountyId":"20065458","CityId":"20066147"}}},{"Relevance":1.0,"Distance":21.9,"MatchLevel":"street","MatchQuality":{"Country":1.0,"State":1.0,"County":1.0,"City":1.0,"District":1.0,"PostalCode":1.0},"Location":{"LocationId":"NT_mO-VSLtpOwUD2oaVZTdGbB_l_1105316494_R","LocationType":"point","DisplayPosition":{"Latitude":48.13841,"Longitude":-1.65929},"MapView":{"TopLeft":{"Latitude":48.13856,"Longitude":-1.65933},"BottomRight":{"Latitude":48.13841,"Longitude":-1.65929}},"Address":{"Label":"35700 Rennes, France","Country":"FRA","State":"Bretagne","County":"Ille-et-Vilaine","City":"Rennes","District":"Maurepas-Bellangerais","PostalCode":"35700","AdditionalData":[{"value":"France","key":"CountryName"},{"value":"Bretagne","key":"StateName"},{"value":"Ille-et-Vilaine","key":"CountyName"}]},"MapReference":{"ReferenceId":"1105316494","Spot":0.0,"SideOfStreet":"right","CountryId":"20000001","StateId":"20060199","CountyId":"20065458","CityId":"20066147"}}},{"Relevance":1.0,"Distance":24.4,"MatchLevel":"street","MatchQuality":{"Country":1.0,"State":1.0,"County":1.0,"City":1.0,"District":1.0,"Street":[1.0],"PostalCode":1.0},"Location":{"LocationId":"NT_ey-NW4svCITX.ZuZARBE.B_l_1117443186_L","LocationType":"point","DisplayPosition":{"Latitude":48.13829,"Longitude":-1.65945},"MapView":{"TopLeft":{"Latitude":48.13925,"Longitude":-1.66267},"BottomRight":{"Latitude":48.13829,"Longitude":-1.65945}},"Address":{"Label":"Promenade de la Tauvrais, 35700 Rennes, France","Country":"FRA","State":"Bretagne","County":"Ille-et-Vilaine","City":"Rennes","District":"Maurepas-Bellangerais","Street":"Promenade de la Tauvrais","PostalCode":"35700","AdditionalData":[{"value":"France","key":"CountryName"},{"value":"Bretagne","key":"StateName"},{"value":"Ille-et-Vilaine","key":"CountyName"}]},"MapReference":{"ReferenceId":"1117443186","Spot":0.0,"SideOfStreet":"left","CountryId":"20000001","StateId":"20060199","CountyId":"20065458","CityId":"20066147"}}},{"Relevance":1.0,"Distance":24.4,"MatchLevel":"street","MatchQuality":{"Country":1.0,"State":1.0,"County":1.0,"City":1.0,"District":1.0,"PostalCode":1.0},"Location":{"LocationId":"NT_mO-VSLtpOwUD2oaVZTdGbB_l_955414062_R","LocationType":"point","DisplayPosition":{"Latitude":48.13829,"Longitude":-1.65945},"MapView":{"TopLeft":{"Latitude":48.13829,"Longitude":-1.65957},"BottomRight":{"Latitude":48.13763,"Longitude":-1.65945}},"Address":{"Label":"35700 Rennes, France","Country":"FRA","State":"Bretagne","County":"Ille-et-Vilaine","City":"Rennes","District":"Maurepas-Bellangerais","PostalCode":"35700","AdditionalData":[{"value":"France","key":"CountryName"},{"value":"Bretagne","key":"StateName"},{"value":"Ille-et-Vilaine","key":"CountyName"}]},"MapReference":{"ReferenceId":"955414062","Spot":1.0,"SideOfStreet":"right","CountryId":"20000001","StateId":"20060199","CountyId":"20065458","CityId":"20066147"}}},{"Relevance":1.0,"Distance":24.4,"MatchLevel":"street","MatchQuality":{"Country":1.0,"State":1.0,"County":1.0,"City":1.0,"District":1.0,"PostalCode":1.0},"Location":{"LocationId":"NT_mO-VSLtpOwUD2oaVZTdGbB_l_955414061_L","LocationType":"point","DisplayPosition":{"Latitude":48.13829,"Longitude":-1.65945},"MapView":{"TopLeft":{"Latitude":48.13838,"Longitude":-1.66107},"BottomRight":{"Latitude":48.13804,"Longitude":-1.65945}},"Address":{"Label":"35700 Rennes, France","Country":"FRA","State":"Bretagne","County":"Ille-et-Vilaine","City":"Rennes","District":"Maurepas-Bellangerais","PostalCode":"35700","AdditionalData":[{"value":"France","key":"CountryName"},{"value":"Bretagne","key":"StateName"},{"value":"Ille-et-Vilaine","key":"CountyName"}]},"MapReference":{"ReferenceId":"955414061","Spot":0.0,"SideOfStreet":"left","CountryId":"20000001","StateId":"20060199","CountyId":"20065458","CityId":"20066147"}}},{"Relevance":1.0,"Distance":24.7,"MatchLevel":"street","MatchQuality":{"Country":1.0,"State":1.0,"County":1.0,"City":1.0,"District":1.0,"Street":[1.0],"PostalCode":1.0},"Location":{"LocationId":"NT_ei-6WsQl.ewrgVXHAfaLQC_l_57458400_R","LocationType":"point","DisplayPosition":{"Latitude":48.1383178,"Longitude":-1.6594436},"MapView":{"TopLeft":{"Latitude":48.13842,"Longitude":-1.65945},"BottomRight":{"Latitude":48.13829,"Longitude":-1.65942}},"Address":{"Label":"Rue de la Tauvrais, 35700 Rennes, France","Country":"FRA","State":"Bretagne","County":"Ille-et-Vilaine","City":"Rennes","District":"Maurepas-Bellangerais","Street":"Rue de la Tauvrais","PostalCode":"35700","AdditionalData":[{"value":"France","key":"CountryName"},{"value":"Bretagne","key":"StateName"},{"value":"Ille-et-Vilaine","key":"CountyName"}]},"MapReference":{"ReferenceId":"57458400","Spot":0.21,"SideOfStreet":"right","CountryId":"20000001","StateId":"20060199","CountyId":"20065458","CityId":"20066147"}}},{"Relevance":1.0,"Distance":38.1,"MatchLevel":"street","MatchQuality":{"Country":1.0,"State":1.0,"County":1.0,"City":1.0,"District":1.0,"PostalCode":1.0},"Location":{"LocationId":"NT_mO-VSLtpOwUD2oaVZTdGbB_l_1105316495_R","LocationType":"point","DisplayPosition":{"Latitude":48.13856,"Longitude":-1.65933},"MapView":{"TopLeft":{"Latitude":48.13883,"Longitude":-1.65933},"BottomRight":{"Latitude":48.13856,"Longitude":-1.65927}},"Address":{"Label":"35700 Rennes, France","Country":"FRA","State":"Bretagne","County":"Ille-et-Vilaine","City":"Rennes","District":"Maurepas-Bellangerais","PostalCode":"35700","AdditionalData":[{"value":"France","key":"CountryName"},{"value":"Bretagne","key":"StateName"},{"value":"Ille-et-Vilaine","key":"CountyName"}]},"MapReference":{"ReferenceId":"1105316495","Spot":0.0,"SideOfStreet":"right","CountryId":"20000001","StateId":"20060199","CountyId":"20065458","CityId":"20066147"}}}]}]}}