{"Response":{"MetaInfo":{"Timestamp":"2020-03-28T11:11:54.487+0000","NextPageInformation":"2"},"View":[{"_type":"SearchResultsViewType","ViewId":0,"Result":[{"Relevance":1.0,"Distance":0.0,"Direction":0.0,"MatchLevel":"district","MatchQuality":{"Country":1.0,"State":1.0,"County":1.0,"City":1.0,"District":1.0,"PostalCode":1.0},"Location":{"LocationId":"NT_NfpVYUlRWBRyd.Un5vKfWB","LocationType":"point","DisplayPosition":{"Latitude":48.1015989,"Longitude":-1.7120914},"MapView":{"TopLeft":{"Latitude":48.10989,"Longitude":-1.75277},"BottomRight":{"Latitude":48.08,"Longitude":-1.68427}},"Address":{"Label":"Cleunay-Arsenal-Redon, Rennes, Bretagne, France","Country":"FRA","State":"Bretagne","County":"Ille-et-Vilaine","City":"Rennes","District":"Cleunay-Arsenal-Redon","PostalCode":"35000","AdditionalData":[{"value":"France","key":"CountryName"},{"value":"Bretagne","key":"StateName"},{"value":"Ille-et-Vilaine","key":"CountyName"}]},"MapReference":{"ReferenceId":"1110148735","SideOfStreet":"neither","CountryId":"20000001","StateId":"20060199","CountyId":"20065458","CityId":"20066147"}}},{"Relevance":1.0,"Distance":5.8,"MatchLevel":"houseNumber","MatchQuality":{"Country":1.0,"State":1.0,"County":1.0,"City":1.0,"District":1.0,"Street":[1.0],"HouseNumber":1.0,"PostalCode":1.0},"MatchType":"interpolated","Location":{"LocationId":"NT_iE.-PYdvxQUAEi9YJRs7mB_xYDM","LocationType":"point","DisplayPosition":{"Latitude":48.10165,"Longitude":-1.71211},"MapView":{"TopLeft":{"Latitude":48.1027742,"Longitude":-1.7137933},"BottomRight":{"Latitude":48.1005258,"Longitude":-1.7104267}},"Address":{"Label":"160 Rue Eugène Pottier, 35000 Rennes, France","Country":"FRA","State":"Bretagne","County":"Ille-et-Vilaine","City":"Rennes","District":"Cleunay-Arsenal-Redon","Street":"Rue Eugène Pottier","HouseNumber":"160","PostalCode":"35000","AdditionalData":[{"value":"France","key":"CountryName"},{"value":"Bretagne","key":"StateName"},{"value":"Ille-et-Vilaine","key":"CountyName"}]},"MapReference":{"ReferenceId":"76726944","Spot":0.86,"SideOfStreet":"left","CountryId":"20000001","StateId":"20060199","CountyId":"20065458","CityId":"20066147","AddressId":"677373194","RoadLinkId":"172681078"}}},{"Relevance":1.0,"Distance":14.7,"MatchLevel":"houseNumber","MatchQuality":{"Country":1.0,"State":1.0,"County":1.0,"City":1.0,"District":1.0,"Street":[1.0],"HouseNumber":1.0,"PostalCode":1.0},"MatchType":"interpolated","Location":{"LocationId":"NT_iE.-PYdvxQUAEi9YJRs7mB_xczM","LocationType":"point","DisplayPosition":{"Latitude":48.1015,"Longitude":-1.71196},"MapView":{"TopLeft":{"Latitude":48.1026242,"Longitude":-1.7136433},"BottomRight":{"Latitude":48.1003758,"Longitude":-1.7102767}},"Address":{"Label":"173 Rue Eugène Pottier, 35000 Rennes, France","Country":"FRA","State":"Bretagne","County":"Ille-et-Vilaine","City":"Rennes","District":"Cleunay-Arsenal-Redon","Street":"Rue Eugène Pottier","HouseNumber":"173","PostalCode":"35000","AdditionalData":[{"value":"France","key":"CountryName"},{"value":"Bretagne","key":"StateName"},{"value":"Ille-et-Vilaine","key":"CountyName"}]},"MapReference":{"ReferenceId":"57461456","Spot":0.48,"SideOfStreet":"right","CountryId":"20000001","StateId":"20060199","CountyId":"20065458","CityId":"20066147","AddressId":"570382441","RoadLinkId":"47492376"}}},{"Relevance":1.0,"Distance":27.5,"MatchLevel":"houseNumber","MatchQuality":{"Country":1.0,"State":1.0,"County":1.0,"City":1.0,"District":1.0,"Street":[1.0],"HouseNumber":1.0,"PostalCode":1.0},"MatchType":"interpolated","Location":{"LocationId":"NT_OftEtcLQbf1rHcIB3XBLFA_yMD","LocationType":"point","DisplayPosition":{"Latitude":48.10176,"Longitude":-1.71181},"MapView":{"TopLeft":{"Latitude":48.1028842,"Longitude":-1.7134933},"BottomRight":{"Latitude":48.1006358,"Longitude":-1.7101267}},"Address":{"Label":"23 Allée Pierre Proudhon, 35000 Rennes, France","Country":"FRA","State":"Bretagne","County":"Ille-et-Vilaine","City":"Rennes","District":"Cleunay-Arsenal-Redon","Street":"Allée Pierre Proudhon","HouseNumber":"23","PostalCode":"35000","AdditionalData":[{"value":"France","key":"CountryName"},{"value":"Bretagne","key":"StateName"},{"value":"Ille-et-Vilaine","key":"CountyName"}]},"MapReference":{"ReferenceId":"57461447","Spot":0.36,"SideOfStreet":"right","CountryId":"20000001","StateId":"20060199","CountyId":"20065458","CityId":"20066147","AddressId":"570459161","RoadLinkId":"46305490"}}},{"Relevance":1.0,"Distance":29.8,"MatchLevel":"houseNumber","MatchQuality":{"Country":1.0,"State":1.0,"County":1.0,"City":1.0,"District":1.0,"Street":[1.0],"HouseNumber":1.0,"PostalCode":1.0},"MatchType":"interpolated","Location":{"LocationId":"NT_iE.-PYdvxQUAEi9YJRs7mB_xUDO","LocationType":"point","DisplayPosition":{"Latitude":48.10187,"Longitude":-1.71198},"MapView":{"TopLeft":{"Latitude":48.1029942,"Longitude":-1.7136633},"BottomRight":{"Latitude":48.1007458,"Longitude":-1.7102967}},"Address":{"Label":"158 Rue Eugène Pottier, 35000 Rennes, France","Country":"FRA","State":"Bretagne","County":"Ille-et-Vilaine","City":"Rennes","District":"Cleunay-Arsenal-Redon","Street":"Rue Eugène Pottier","HouseNumber":"158","PostalCode":"35000","AdditionalData":[{"value":"France","key":"CountryName"},{"value":"Bretagne","key":"StateName"},{"value":"Ille-et-Vilaine","key":"CountyName"}]},"MapReference":{"ReferenceId":"76726942","Spot":0.28,"SideOfStreet":"left","CountryId":"20000001","StateId":"20060199","CountyId":"20065458","CityId":"20066147","AddressId":"677373195","RoadLinkId":"47719281"}}},{"Relevance":1.0,"Distance":54.5,"MatchLevel":"houseNumber","MatchQuality":{"Country":1.0,"State":1.0,"County":1.0,"City":1.0,"District":1.0,"Street":[1.0],"HouseNumber":1.0,"PostalCode":1.0},"MatchType":"interpolated","Location":{"LocationId":"NT_OftEtcLQbf1rHcIB3XBLFA_xUD","LocationType":"point","DisplayPosition":{"Latitude":48.10188,"Longitude":-1.71149},"MapView":{"TopLeft":{"Latitude":48.1030042,"Longitude":-1.7131733},"BottomRight":{"Latitude":48.1007558,"Longitude":-1.7098067}},"Address":{"Label":"15 Allée Pierre Proudhon, 35000 Rennes, France","Country":"FRA","State":"Bretagne","County":"Ille-et-Vilaine","City":"Rennes","District":"Cleunay-Arsenal-Redon","Street":"Allée Pierre Proudhon","HouseNumber":"15","PostalCode":"35000","AdditionalData":[{"value":"France","key":"CountryName"},{"value":"Bretagne","key":"StateName"},{"value":"Ille-et-Vilaine","key":"CountyName"}]},"MapReference":{"ReferenceId":"57461426","Spot":0.15,"SideOfStreet":"right","CountryId":"20000001","StateId":"20060199","CountyId":"20065458","CityId":"20066147","AddressId":"320492718","RoadLinkId":"47217224"}}},{"Relevance":1.0,"Distance":65.0,"MatchLevel":"houseNumber","MatchQuality":{"Country":1.0,"State":1.0,"County":1.0,"City":1.0,"District":1.0,"Street":[1.0],"HouseNumber":1.0,"PostalCode":1.0},"MatchType":"interpolated","Location":{"LocationId":"NT_OftEtcLQbf1rHcIB3XBLFA_l_57461422_R_1A","LocationType":"point","DisplayPosition":{"Latitude":48.10194,"Longitude":-1.71138},"MapView":{"TopLeft":{"Latitude":48.1030642,"Longitude":-1.7130633},"BottomRight":{"Latitude":48.1008159,"Longitude":-1.7096967}},"Address":{"Label":"5 Allée Pierre Proudhon, 35000 Rennes, France","Country":"FRA","State":"Bretagne","County":"Ille-et-Vilaine","City":"Rennes","District":"Cleunay-Arsenal-Redon","Street":"Allée Pierre Proudhon","HouseNumber":"5","PostalCode":"35000","AdditionalData":[{"value":"France","key":"CountryName"},{"value":"Bretagne","key":"StateName"},{"value":"Ille-et-Vilaine","key":"CountyName"}]},"MapReference":{"ReferenceId":"57461422","Spot":0.0,"SideOfStreet":"right","CountryId":"20000001","StateId":"20060199","CountyId":"20065458","CityId":"20066147"}}},{"Relevance":1.0,"Distance":67.1,"MatchLevel":"houseNumber","MatchQuality":{"Country":1.0,"State":1.0,"County":1.0,"City":1.0,"District":1.0,"Street":[1.0],"HouseNumber":1.0,"PostalCode":1.0},"MatchType":"interpolated","Location":{"LocationId":"NT_OftEtcLQbf1rHcIB3XBLFA_xMD","LocationType":"point","DisplayPosition":{"Latitude":48.10195,"Longitude":-1.71129},"MapView":{"TopLeft":{"Latitude":48.1030742,"Longitude":-1.7129733},"BottomRight":{"Latitude":48.1008258,"Longitude":-1.7096067}},"Address":{"Label":"13 Allée Pierre Proudhon, 35000 Rennes, France","Country":"FRA","State":"Bretagne","County":"Ille-et-Vilaine","City":"Rennes","District":"Cleunay-Arsenal-Redon","Street":"Allée Pierre Proudhon","HouseNumber":"13","PostalCode":"35000","AdditionalData":[{"value":"France","key":"CountryName"},{"value":"Bretagne","key":"StateName"},{"value":"Ille-et-Vilaine","key":"CountyName"}]},"MapReference":{"ReferenceId":"76725265","Spot":0.32,"SideOfStreet":"right","CountryId":"20000001","StateId":"20060199","CountyId":"20065458","CityId":"20066147","AddressId":"320579383","RoadLinkId":"172681080"}}},{"Relevance":1.0,"Distance":67.6,"MatchLevel":"houseNumber","MatchQuality":{"Country":1.0,"State":1.0,"County":1.0,"City":1.0,"District":1.0,"Street":[1.0],"HouseNumber":1.0,"PostalCode":1.0},"MatchType":"interpolated","Location":{"LocationId":"NT_ow.YXFel6XeY4XPL847S5C_xA","LocationType":"point","DisplayPosition":{"Latitude":48.10105,"Longitude":-1.7117},"MapView":{"TopLeft":{"Latitude":48.1021742,"Longitude":-1.7133833},"BottomRight":{"Latitude":48.0999258,"Longitude":-1.7100167}},"Address":{"Label":"1 Place Saint-Guénolé, 35000 Rennes, France","Country":"FRA","State":"Bretagne","County":"Ille-et-Vilaine","City":"Rennes","District":"Cleunay-Arsenal-Redon","Street":"Place Saint-Guénolé","HouseNumber":"1","PostalCode":"35000","AdditionalData":[{"value":"France","key":"CountryName"},{"value":"Bretagne","key":"StateName"},{"value":"Ille-et-Vilaine","key":"CountyName"}]},"MapReference":{"ReferenceId":"57461514","Spot":0.38,"SideOfStreet":"right","CountryId":"20000001","StateId":"20060199","CountyId":"20065458","CityId":"20066147","AddressId":"570522448","RoadLinkId":"46973382"}}},{"Relevance":1.0,"Distance":67.7,"MatchLevel":"houseNumber","MatchQuality":{"Country":1.0,"State":1.0,"County":1.0,"City":1.0,"District":1.0,"Street":[1.0],"HouseNumber":1.0,"PostalCode":1.0},"MatchType":"interpolated","Location":{"LocationId":"NT_xK3dLS1qrhewPj-QkM-btB_3QD","LocationType":"point","DisplayPosition":{"Latitude":48.10146,"Longitude":-1.7112},"MapView":{"TopLeft":{"Latitude":48.1025842,"Longitude":-1.7128833},"BottomRight":{"Latitude":48.1003358,"Longitude":-1.7095167}},"Address":{"Label":"74 Rue Champion de Cicé, 35000 Rennes, France","Country":"FRA","State":"Bretagne","County":"Ille-et-Vilaine","City":"Rennes","District":"Cleunay-Arsenal-Redon","Street":"Rue Champion de Cicé","HouseNumber":"74","PostalCode":"35000","AdditionalData":[{"value":"France","key":"CountryName"},{"value":"Bretagne","key":"StateName"},{"value":"Ille-et-Vilaine","key":"CountyName"}]},"MapReference":{"ReferenceId":"76725271","Spot":0.89,"SideOfStreet":"left","CountryId":"20000001","StateId":"20060199","CountyId":"20065458","CityId":"20066147","AddressId":"320330420","RoadLinkId":"47220828"}}}]}]}}