{"Response":{"MetaInfo":{"Timestamp":"2020-03-28T10:01:16.279+0000","NextPageInformation":"2"},"View":[{"_type":"SearchResultsViewType","ViewId":0,"Result":[{"Relevance":1.0,"Distance":0.0,"Direction":0.0,"MatchLevel":"district","MatchQuality":{"Country":1.0,"State":1.0,"County":1.0,"City":1.0,"District":1.0,"PostalCode":1.0},"Location":{"LocationId":"NT_VO74BD4g0gBEBfYStYQilB","LocationType":"point","DisplayPosition":{"Latitude":48.1545407,"Longitude":17.1155205},"MapView":{"TopLeft":{"Latitude":48.18353,"Longitude":17.07268},"BottomRight":{"Latitude":48.13826,"Longitude":17.13227}},"Address":{"Label":"Bratislava I, Bratislava, Bratislavský kraj, Slovenská Republika","Country":"SVK","State":"Bratislavský kraj","County":"Bratislava","City":"Bratislava","District":"Bratislava I","PostalCode":"811 06","AdditionalData":[{"value":"Slovenská Republika","key":"CountryName"},{"value":"Bratislavský kraj","key":"StateName"},{"value":"Bratislava","key":"CountyName"}]},"MapReference":{"ReferenceId":"766687997","SideOfStreet":"neither","CountryId":"20428682","StateId":"20488475","CountyId":"20488476","CityId":"20488477","DistrictId":"20488478"}}},{"Relevance":1.0,"Distance":5.5,"MatchLevel":"houseNumber","MatchQuality":{"Country":1.0,"State":1.0,"County":1.0,"City":1.0,"District":1.0,"Street":[1.0],"HouseNumber":1.0,"PostalCode":1.0},"MatchType":"interpolated","Location":{"LocationId":"NT_aezBhOm7WG9Uh6epc72xTD_zATN08SM","LocationType":"point","DisplayPosition":{"Latitude":48.15459,"Longitude":17.11552},"MapView":{"TopLeft":{"Latitude":48.1557142,"Longitude":17.1138349},"BottomRight":{"Latitude":48.1534658,"Longitude":17.1172051}},"Address":{"Label":"Benediktiho 3054/1, 811 05 Bratislava, Slovenská Republika","Country":"SVK","State":"Bratislavský kraj","County":"Bratislava","City":"Bratislava","District":"Bratislava I","Street":"Benediktiho","HouseNumber":"3054/1","PostalCode":"811 05","AdditionalData":[{"value":"Slovenská Republika","key":"CountryName"},{"value":"Bratislavský kraj","key":"StateName"},{"value":"Bratislava","key":"CountyName"}]},"MapReference":{"ReferenceId":"1230216507","Spot":0.48,"SideOfStreet":"left","CountryId":"20428682","StateId":"20488475","CountyId":"20488476","CityId":"20488477","DistrictId":"20488478","AddressId":"676354630","RoadLinkId":"549566230"}}},{"Relevance":1.0,"Distance":18.3,"MatchLevel":"street","MatchQuality":{"Country":1.0,"State":1.0,"County":1.0,"City":1.0,"District":1.0,"Street":[1.0],"PostalCode":1.0},"Location":{"LocationId":"NT_aezBhOm7WG9Uh6epc72xTD_l_1230216506_L","LocationType":"point","DisplayPosition":{"Latitude":48.15448,"Longitude":17.11575},"MapView":{"TopLeft":{"Latitude":48.15448,"Longitude":17.11575},"BottomRight":{"Latitude":48.15445,"Longitude":17.11581}},"Address":{"Label":"Benediktiho, 811 05 Bratislava, Slovenská Republika","Country":"SVK","State":"Bratislavský kraj","County":"Bratislava","City":"Bratislava","District":"Bratislava I","Street":"Benediktiho","PostalCode":"811 05","AdditionalData":[{"value":"Slovenská Republika","key":"CountryName"},{"value":"Bratislavský kraj","key":"StateName"},{"value":"Bratislava","key":"CountyName"}]},"MapReference":{"ReferenceId":"1230216506","Spot":1.0,"SideOfStreet":"left","CountryId":"20428682","StateId":"20488475","CountyId":"20488476","CityId":"20488477","DistrictId":"20488478"}}},{"Relevance":1.0,"Distance":23.1,"MatchLevel":"street","MatchQuality":{"Country":1.0,"State":1.0,"County":1.0,"City":1.0,"District":1.0,"Street":[1.0],"PostalCode":1.0},"Location":{"LocationId":"NT_A2qD1KxqN-m3AaTRnmH4cB_l_915297146_L","LocationType":"point","DisplayPosition":{"Latitude":48.1544,"Longitude":17.11575},"MapView":{"TopLeft":{"Latitude":48.15445,"Longitude":17.11575},"BottomRight":{"Latitude":48.1544,"Longitude":17.11581}},"Address":{"Label":"Mýtna, 811 05 Bratislava, Slovenská Republika","Country":"SVK","State":"Bratislavský kraj","County":"Bratislava","City":"Bratislava","District":"Bratislava I","Street":"Mýtna","PostalCode":"811 05","AdditionalData":[{"value":"Slovenská Republika","key":"CountryName"},{"value":"Bratislavský kraj","key":"StateName"},{"value":"Bratislava","key":"CountyName"}]},"MapReference":{"ReferenceId":"915297146","Spot":0.0,"SideOfStreet":"left","CountryId":"20428682","StateId":"20488475","CountyId":"20488476","CityId":"20488477","DistrictId":"20488478"}}},{"Relevance":1.0,"Distance":23.5,"MatchLevel":"houseNumber","MatchQuality":{"Country":1.0,"State":1.0,"County":1.0,"City":1.0,"District":1.0,"Street":[1.0],"HouseNumber":1.0,"PostalCode":1.0},"MatchType":"interpolated","Location":{"LocationId":"NT_r5fNpJB4tCgNSNKII25T-C_ygDO28iM","LocationType":"point","DisplayPosition":{"Latitude":48.15482,"Longitude":17.11539},"MapView":{"TopLeft":{"Latitude":48.1559442,"Longitude":17.1137049},"BottomRight":{"Latitude":48.1536958,"Longitude":17.1170751}},"Address":{"Label":"Anenská 2886/2, 811 05 Bratislava, Slovenská Republika","Country":"SVK","State":"Bratislavský kraj","County":"Bratislava","City":"Bratislava","District":"Bratislava I","Street":"Anenská","HouseNumber":"2886/2","PostalCode":"811 05","AdditionalData":[{"value":"Slovenská Republika","key":"CountryName"},{"value":"Bratislavský kraj","key":"StateName"},{"value":"Bratislava","key":"CountyName"}]},"MapReference":{"ReferenceId":"576007638","Spot":0.17,"SideOfStreet":"right","CountryId":"20428682","StateId":"20488475","CountyId":"20488476","CityId":"20488477","DistrictId":"20488478","AddressId":"342423022","RoadLinkId":"30214207"}}},{"Relevance":1.0,"Distance":29.0,"MatchLevel":"street","MatchQuality":{"Country":1.0,"State":1.0,"County":1.0,"City":1.0,"District":1.0,"Street":[1.0],"PostalCode":1.0},"Location":{"LocationId":"NT_RZIJDJ9wZ1hUAym..znzNB_l_1230306188_R","LocationType":"point","DisplayPosition":{"Latitude":48.1542913,"Longitude":17.1154063},"MapView":{"TopLeft":{"Latitude":48.15483,"Longitude":17.11423},"BottomRight":{"Latitude":48.15423,"Longitude":17.11554}},"Address":{"Label":"Belopotockého, 811 05 Bratislava, Slovenská Republika","Country":"SVK","State":"Bratislavský kraj","County":"Bratislava","City":"Bratislava","District":"Bratislava I","Street":"Belopotockého","PostalCode":"811 05","AdditionalData":[{"value":"Slovenská Republika","key":"CountryName"},{"value":"Bratislavský kraj","key":"StateName"},{"value":"Bratislava","key":"CountyName"}]},"MapReference":{"ReferenceId":"1230306188","Spot":0.1,"SideOfStreet":"right","CountryId":"20428682","StateId":"20488475","CountyId":"20488476","CityId":"20488477","DistrictId":"20488478"}}},{"Relevance":1.0,"Distance":30.5,"MatchLevel":"houseNumber","MatchQuality":{"Country":1.0,"State":1.0,"County":1.0,"City":1.0,"District":1.0,"Street":[1.0],"HouseNumber":1.0,"PostalCode":1.0},"MatchType":"interpolated","Location":{"LocationId":"NT_A2qD1KxqN-m3AaTRnmH4cB_ygzNz8iM2A","LocationType":"point","DisplayPosition":{"Latitude":48.15427,"Longitude":17.11559},"MapView":{"TopLeft":{"Latitude":48.1553942,"Longitude":17.1139049},"BottomRight":{"Latitude":48.1531458,"Longitude":17.1172751}},"Address":{"Label":"Mýtna 2873/26, 811 05 Bratislava, Slovenská Republika","Country":"SVK","State":"Bratislavský kraj","County":"Bratislava","City":"Bratislava","District":"Bratislava I","Street":"Mýtna","HouseNumber":"2873/26","PostalCode":"811 05","AdditionalData":[{"value":"Slovenská Republika","key":"CountryName"},{"value":"Bratislavský kraj","key":"StateName"},{"value":"Bratislava","key":"CountyName"}]},"MapReference":{"ReferenceId":"915297145","Spot":0.24,"SideOfStreet":"right","CountryId":"20428682","StateId":"20488475","CountyId":"20488476","CityId":"20488477","DistrictId":"20488478","AddressId":"342402179","RoadLinkId":"273106499"}}},{"Relevance":1.0,"Distance":34.6,"MatchLevel":"street","MatchQuality":{"Country":1.0,"State":1.0,"County":1.0,"City":1.0,"District":1.0,"Street":[1.0],"PostalCode":1.0},"Location":{"LocationId":"NT_A2qD1KxqN-m3AaTRnmH4cB_l_864549937_L","LocationType":"point","DisplayPosition":{"Latitude":48.15423,"Longitude":17.11554},"MapView":{"TopLeft":{"Latitude":48.15423,"Longitude":17.11528},"BottomRight":{"Latitude":48.15402,"Longitude":17.11554}},"Address":{"Label":"Mýtna, 811 05 Bratislava, Slovenská Republika","Country":"SVK","State":"Bratislavský kraj","County":"Bratislava","City":"Bratislava","District":"Bratislava I","Street":"Mýtna","PostalCode":"811 05","AdditionalData":[{"value":"Slovenská Republika","key":"CountryName"},{"value":"Bratislavský kraj","key":"StateName"},{"value":"Bratislava","key":"CountyName"}]},"MapReference":{"ReferenceId":"864549937","Spot":1.0,"SideOfStreet":"left","CountryId":"20428682","StateId":"20488475","CountyId":"20488476","CityId":"20488477","DistrictId":"20488478"}}},{"Relevance":1.0,"Distance":36.5,"MatchLevel":"houseNumber","MatchQuality":{"Country":1.0,"State":1.0,"County":1.0,"City":1.0,"District":1.0,"Street":[1.0],"HouseNumber":1.0,"PostalCode":1.0},"MatchType":"interpolated","Location":{"LocationId":"NT_HjR33vvDNefKVD3DwQLbMB_ygDO28SN","LocationType":"point","DisplayPosition":{"Latitude":48.15464,"Longitude":17.11604},"MapView":{"TopLeft":{"Latitude":48.1557642,"Longitude":17.1143549},"BottomRight":{"Latitude":48.1535158,"Longitude":17.1177251}},"Address":{"Label":"Mýtna 2886/5, 811 07 Bratislava, Slovenská Republika","Country":"SVK","State":"Bratislavský kraj","County":"Bratislava","City":"Bratislava","District":"Bratislava I","Street":"Mýtna","HouseNumber":"2886/5","PostalCode":"811 07","AdditionalData":[{"value":"Slovenská Republika","key":"CountryName"},{"value":"Bratislavský kraj","key":"StateName"},{"value":"Bratislava","key":"CountyName"}]},"MapReference":{"ReferenceId":"864549938","Spot":0.86,"SideOfStreet":"left","CountryId":"20428682","StateId":"20488475","CountyId":"20488476","CityId":"20488477","DistrictId":"20488478","AddressId":"299562395","RoadLinkId":"237870912"}}},{"Relevance":1.0,"Distance":41.0,"MatchLevel":"houseNumber","MatchQuality":{"Country":1.0,"State":1.0,"County":1.0,"City":1.0,"District":1.0,"Street":[1.0],"HouseNumber":1.0,"PostalCode":1.0},"MatchType":"interpolated","Location":{"LocationId":"NT_HjR33vvDNefKVD3DwQLbMB_ygzN18iM4A","LocationType":"point","DisplayPosition":{"Latitude":48.15458,"Longitude":17.11607},"MapView":{"TopLeft":{"Latitude":48.1557042,"Longitude":17.1143849},"BottomRight":{"Latitude":48.1534558,"Longitude":17.1177551}},"Address":{"Label":"Mýtna 2875/28, 811 07 Bratislava, Slovenská Republika","Country":"SVK","State":"Bratislavský kraj","County":"Bratislava","City":"Bratislava","District":"Bratislava I","Street":"Mýtna","HouseNumber":"2875/28","PostalCode":"811 07","AdditionalData":[{"value":"Slovenská Republika","key":"CountryName"},{"value":"Bratislavský kraj","key":"StateName"},{"value":"Bratislava","key":"CountyName"}]},"MapReference":{"ReferenceId":"1230270231","Spot":0.72,"SideOfStreet":"right","CountryId":"20428682","StateId":"20488475","CountyId":"20488476","CityId":"20488477","DistrictId":"20488478","AddressId":"299562394","RoadLinkId":"549627801"}}}]}]}}