{"Response":{"MetaInfo":{"Timestamp":"2020-03-28T10:50:50.118+0000","NextPageInformation":"2"},"View":[{"_type":"SearchResultsViewType","ViewId":0,"Result":[{"Relevance":1.0,"Distance":0.0,"Direction":0.0,"MatchLevel":"district","MatchQuality":{"Country":1.0,"State":1.0,"County":1.0,"City":1.0,"District":1.0,"PostalCode":1.0},"Location":{"LocationId":"NT_0bM-oVnVBfEcum020DnM.B","LocationType":"point","DisplayPosition":{"Latitude":48.1868332,"Longitude":17.7225026},"MapView":{"TopLeft":{"Latitude":48.20404,"Longitude":17.71138},"BottomRight":{"Latitude":48.17844,"Longitude":17.74962}},"Address":{"Label":"Galanta, Trnavský kraj, Slovenská Republika","Country":"SVK","State":"Trnavský kraj","County":"Galanta","City":"Galanta","District":"Galanta","PostalCode":"924 01","AdditionalData":[{"value":"Slovenská Republika","key":"CountryName"},{"value":"Trnavský kraj","key":"StateName"},{"value":"Galanta","key":"CountyName"}]},"MapReference":{"ReferenceId":"1168652987","SideOfStreet":"neither","CountryId":"20428682","StateId":"20492134","CountyId":"20492268","CityId":"20492281","DistrictId":"22186474"}}},{"Relevance":1.0,"Distance":7.8,"MatchLevel":"houseNumber","MatchQuality":{"Country":1.0,"State":1.0,"County":1.0,"City":1.0,"District":1.0,"Street":[1.0],"HouseNumber":1.0,"PostalCode":1.0},"MatchType":"interpolated","Location":{"LocationId":"NT_gut5RtWA8.qBVlwmDDs49C_58SO","LocationType":"point","DisplayPosition":{"Latitude":48.18699,"Longitude":17.72243},"MapView":{"TopLeft":{"Latitude":48.1881142,"Longitude":17.7207439},"BottomRight":{"Latitude":48.1858658,"Longitude":17.7241161}},"Address":{"Label":"29. augusta 9/9, 924 01 Galanta, Slovenská Republika","Country":"SVK","State":"Trnavský kraj","County":"Galanta","City":"Galanta","District":"Galanta","Street":"29. augusta","HouseNumber":"9/9","PostalCode":"924 01","AdditionalData":[{"value":"Slovenská Republika","key":"CountryName"},{"value":"Trnavský kraj","key":"StateName"},{"value":"Galanta","key":"CountyName"}]},"MapReference":{"ReferenceId":"1200090055","Spot":0.76,"SideOfStreet":"right","CountryId":"20428682","StateId":"20492134","CountyId":"20492268","CityId":"20492281","DistrictId":"22186474","AddressId":"382322089","RoadLinkId":"512322787"}}},{"Relevance":1.0,"Distance":13.1,"MatchLevel":"houseNumber","MatchQuality":{"Country":1.0,"State":1.0,"County":1.0,"City":1.0,"District":1.0,"Street":[1.0],"HouseNumber":1.0,"PostalCode":1.0},"MatchType":"interpolated","Location":{"LocationId":"NT_gut5RtWA8.qBVlwmDDs49C_48yN","LocationType":"point","DisplayPosition":{"Latitude":48.18675,"Longitude":17.72274},"MapView":{"TopLeft":{"Latitude":48.1878742,"Longitude":17.7210539},"BottomRight":{"Latitude":48.1856258,"Longitude":17.7244261}},"Address":{"Label":"29. augusta 8/7, 924 01 Galanta, Slovenská Republika","Country":"SVK","State":"Trnavský kraj","County":"Galanta","City":"Galanta","District":"Galanta","Street":"29. augusta","HouseNumber":"8/7","PostalCode":"924 01","AdditionalData":[{"value":"Slovenská Republika","key":"CountryName"},{"value":"Trnavský kraj","key":"StateName"},{"value":"Galanta","key":"CountyName"}]},"MapReference":{"ReferenceId":"708696321","Spot":0.53,"SideOfStreet":"left","CountryId":"20428682","StateId":"20492134","CountyId":"20492268","CityId":"20492281","DistrictId":"22186474","AddressId":"342428322","RoadLinkId":"113975889"}}},{"Relevance":1.0,"Distance":21.1,"MatchLevel":"street","MatchQuality":{"Country":1.0,"State":1.0,"County":1.0,"City":1.0,"District":1.0,"Street":[1.0],"PostalCode":1.0},"Location":{"LocationId":"NT_gut5RtWA8.qBVlwmDDs49C_l_1200090056_R","LocationType":"point","DisplayPosition":{"Latitude":48.18702,"Longitude":17.72255},"MapView":{"TopLeft":{"Latitude":48.18703,"Longitude":17.72255},"BottomRight":{"Latitude":48.18702,"Longitude":17.72263}},"Address":{"Label":"29. augusta, 924 01 Galanta, Slovenská Republika","Country":"SVK","State":"Trnavský kraj","County":"Galanta","City":"Galanta","District":"Galanta","Street":"29. augusta","PostalCode":"924 01","AdditionalData":[{"value":"Slovenská Republika","key":"CountryName"},{"value":"Trnavský kraj","key":"StateName"},{"value":"Galanta","key":"CountyName"}]},"MapReference":{"ReferenceId":"1200090056","Spot":0.0,"SideOfStreet":"right","CountryId":"20428682","StateId":"20492134","CountyId":"20492268","CityId":"20492281","DistrictId":"22186474"}}},{"Relevance":1.0,"Distance":21.1,"MatchLevel":"street","MatchQuality":{"Country":1.0,"State":1.0,"County":1.0,"City":1.0,"District":1.0,"PostalCode":1.0},"Location":{"LocationId":"NT_xldbL4u2gqf-a3wQ0uPFnA_l_1200095941_L","LocationType":"point","DisplayPosition":{"Latitude":48.18702,"Longitude":17.72255},"MapView":{"TopLeft":{"Latitude":48.1874,"Longitude":17.72241},"BottomRight":{"Latitude":48.18702,"Longitude":17.72255}},"Address":{"Label":"924 01 Galanta, Slovenská Republika","Country":"SVK","State":"Trnavský kraj","County":"Galanta","City":"Galanta","District":"Galanta","PostalCode":"924 01","AdditionalData":[{"value":"Slovenská Republika","key":"CountryName"},{"value":"Trnavský kraj","key":"StateName"},{"value":"Galanta","key":"CountyName"}]},"MapReference":{"ReferenceId":"1200095941","Spot":0.0,"SideOfStreet":"left","CountryId":"20428682","StateId":"20492134","CountyId":"20492268","CityId":"20492281","DistrictId":"22186474"}}},{"Relevance":1.0,"Distance":23.8,"MatchLevel":"street","MatchQuality":{"Country":1.0,"State":1.0,"County":1.0,"City":1.0,"District":1.0,"Street":[1.0],"PostalCode":1.0},"Location":{"LocationId":"NT_gut5RtWA8.qBVlwmDDs49C_l_708696288_R","LocationType":"point","DisplayPosition":{"Latitude":48.18703,"Longitude":17.72263},"MapView":{"TopLeft":{"Latitude":48.18725,"Longitude":17.72263},"BottomRight":{"Latitude":48.18703,"Longitude":17.7229}},"Address":{"Label":"29. augusta, 924 01 Galanta, Slovenská Republika","Country":"SVK","State":"Trnavský kraj","County":"Galanta","City":"Galanta","District":"Galanta","Street":"29. augusta","PostalCode":"924 01","AdditionalData":[{"value":"Slovenská Republika","key":"CountryName"},{"value":"Trnavský kraj","key":"StateName"},{"value":"Galanta","key":"CountyName"}]},"MapReference":{"ReferenceId":"708696288","Spot":0.0,"SideOfStreet":"right","CountryId":"20428682","StateId":"20492134","CountyId":"20492268","CityId":"20492281","DistrictId":"22186474"}}},{"Relevance":1.0,"Distance":35.2,"MatchLevel":"street","MatchQuality":{"Country":1.0,"State":1.0,"County":1.0,"City":1.0,"District":1.0,"Street":[1.0],"PostalCode":1.0},"Location":{"LocationId":"NT_gut5RtWA8.qBVlwmDDs49C_l_920810094_R","LocationType":"point","DisplayPosition":{"Latitude":48.18693,"Longitude":17.72205},"MapView":{"TopLeft":{"Latitude":48.18693,"Longitude":17.71944},"BottomRight":{"Latitude":48.18647,"Longitude":17.72205}},"Address":{"Label":"29. augusta, 924 01 Galanta, Slovenská Republika","Country":"SVK","State":"Trnavský kraj","County":"Galanta","City":"Galanta","District":"Galanta","Street":"29. augusta","PostalCode":"924 01","AdditionalData":[{"value":"Slovenská Republika","key":"CountryName"},{"value":"Trnavský kraj","key":"StateName"},{"value":"Galanta","key":"CountyName"}]},"MapReference":{"ReferenceId":"920810094","Spot":1.0,"SideOfStreet":"right","CountryId":"20428682","StateId":"20492134","CountyId":"20492268","CityId":"20492281","DistrictId":"22186474"}}},{"Relevance":1.0,"Distance":51.9,"MatchLevel":"houseNumber","MatchQuality":{"Country":1.0,"State":1.0,"County":1.0,"City":1.0,"District":1.0,"Street":[1.0],"HouseNumber":1.0,"PostalCode":1.0},"MatchType":"interpolated","Location":{"LocationId":"NT_gut5RtWA8.qBVlwmDDs49C_xAzLxED","LocationType":"point","DisplayPosition":{"Latitude":48.1873,"Longitude":17.72252},"MapView":{"TopLeft":{"Latitude":48.1884242,"Longitude":17.7208339},"BottomRight":{"Latitude":48.1861758,"Longitude":17.7242061}},"Address":{"Label":"29. augusta 10/11, 924 01 Galanta, Slovenská Republika","Country":"SVK","State":"Trnavský kraj","County":"Galanta","City":"Galanta","District":"Galanta","Street":"29. augusta","HouseNumber":"10/11","PostalCode":"924 01","AdditionalData":[{"value":"Slovenská Republika","key":"CountryName"},{"value":"Trnavský kraj","key":"StateName"},{"value":"Galanta","key":"CountyName"}]},"MapReference":{"ReferenceId":"920810089","Spot":0.71,"SideOfStreet":"left","CountryId":"20428682","StateId":"20492134","CountyId":"20492268","CityId":"20492281","DistrictId":"22186474","AddressId":"299374166","RoadLinkId":"277754594"}}},{"Relevance":1.0,"Distance":52.1,"MatchLevel":"street","MatchQuality":{"Country":1.0,"State":1.0,"County":1.0,"City":1.0,"District":1.0,"Street":[1.0],"PostalCode":1.0},"Location":{"LocationId":"NT_gut5RtWA8.qBVlwmDDs49C_l_708696320_L","LocationType":"point","DisplayPosition":{"Latitude":48.18643,"Longitude":17.72286},"MapView":{"TopLeft":{"Latitude":48.18665,"Longitude":17.72286},"BottomRight":{"Latitude":48.18643,"Longitude":17.72397}},"Address":{"Label":"29. augusta, 924 01 Galanta, Slovenská Republika","Country":"SVK","State":"Trnavský kraj","County":"Galanta","City":"Galanta","District":"Galanta","Street":"29. augusta","PostalCode":"924 01","AdditionalData":[{"value":"Slovenská Republika","key":"CountryName"},{"value":"Trnavský kraj","key":"StateName"},{"value":"Galanta","key":"CountyName"}]},"MapReference":{"ReferenceId":"708696320","Spot":0.0,"SideOfStreet":"left","CountryId":"20428682","StateId":"20492134","CountyId":"20492268","CityId":"20492281","DistrictId":"22186474"}}},{"Relevance":1.0,"Distance":63.4,"MatchLevel":"street","MatchQuality":{"Country":1.0,"State":1.0,"County":1.0,"City":1.0,"District":1.0,"PostalCode":1.0},"Location":{"LocationId":"NT_xldbL4u2gqf-a3wQ0uPFnA_l_1200096657_L","LocationType":"point","DisplayPosition":{"Latitude":48.1874,"Longitude":17.72241},"MapView":{"TopLeft":{"Latitude":48.18755,"Longitude":17.72235},"BottomRight":{"Latitude":48.1874,"Longitude":17.72241}},"Address":{"Label":"924 01 Galanta, Slovenská Republika","Country":"SVK","State":"Trnavský kraj","County":"Galanta","City":"Galanta","District":"Galanta","PostalCode":"924 01","AdditionalData":[{"value":"Slovenská Republika","key":"CountryName"},{"value":"Trnavský kraj","key":"StateName"},{"value":"Galanta","key":"CountyName"}]},"MapReference":{"ReferenceId":"1200096657","Spot":0.0,"SideOfStreet":"left","CountryId":"20428682","StateId":"20492134","CountyId":"20492268","CityId":"20492281","DistrictId":"22186474"}}}]}]}}