{"Response":{"MetaInfo":{"Timestamp":"2020-03-28T09:36:58.236+0000","NextPageInformation":"2"},"View":[{"_type":"SearchResultsViewType","ViewId":0,"Result":[{"Relevance":1.0,"Distance":0.0,"Direction":0.0,"MatchLevel":"district","MatchQuality":{"Country":1.0,"State":1.0,"County":1.0,"City":1.0,"District":1.0,"PostalCode":1.0},"Location":{"LocationId":"NT_ORXT7cRkvZAZu43wkgwd2A","LocationType":"point","DisplayPosition":{"Latitude":48.1485808,"Longitude":11.4611608},"MapView":{"TopLeft":{"Latitude":48.15213,"Longitude":11.4389},"BottomRight":{"Latitude":48.13228,"Longitude":11.48987}},"Address":{"Label":"Pasing, München, Bayern, Deutschland","Country":"DEU","State":"Bayern","County":"München (Stadt)","City":"München","District":"Pasing","PostalCode":"81241","AdditionalData":[{"value":"Deutschland","key":"CountryName"},{"value":"Bayern","key":"StateName"},{"value":"München (Stadt)","key":"CountyName"}]},"MapReference":{"ReferenceId":"52803164","SideOfStreet":"neither","CountryId":"20147700","StateId":"20177250","CountyId":"20177268","CityId":"20177269"}}},{"Relevance":1.0,"Distance":7.7,"MatchLevel":"houseNumber","MatchQuality":{"Country":1.0,"State":1.0,"County":1.0,"City":1.0,"District":1.0,"Street":[1.0],"HouseNumber":1.0,"PostalCode":1.0},"MatchType":"interpolated","Location":{"LocationId":"NT_Z1RFzbOG.tIPsFblZ4wOCB_0A","LocationType":"point","DisplayPosition":{"Latitude":48.1487,"Longitude":11.46118},"MapView":{"TopLeft":{"Latitude":48.1498242,"Longitude":11.4594951},"BottomRight":{"Latitude":48.1475758,"Longitude":11.4628649}},"Address":{"Label":"Pasinger Bahnhofsplatz 4, 81241 München, Deutschland","Country":"DEU","State":"Bayern","County":"München (Stadt)","City":"München","District":"Pasing","Street":"Pasinger Bahnhofsplatz","HouseNumber":"4","PostalCode":"81241","AdditionalData":[{"value":"Deutschland","key":"CountryName"},{"value":"Bayern","key":"StateName"},{"value":"München (Stadt)","key":"CountyName"}]},"MapReference":{"ReferenceId":"52906774","Spot":0.23,"SideOfStreet":"left","CountryId":"20147700","StateId":"20177250","CountyId":"20177268","CityId":"20177269","AddressId":"168807670","RoadLinkId":"33525514"}}},{"Relevance":1.0,"Distance":13.8,"MatchLevel":"street","MatchQuality":{"Country":1.0,"State":1.0,"County":1.0,"City":1.0,"District":1.0,"Street":[1.0],"PostalCode":1.0},"Location":{"LocationId":"NT_Z1RFzbOG.tIPsFblZ4wOCB_l_52803505_L","LocationType":"point","DisplayPosition":{"Latitude":48.14867,"Longitude":11.46129},"MapView":{"TopLeft":{"Latitude":48.14867,"Longitude":11.46129},"BottomRight":{"Latitude":48.14861,"Longitude":11.46152}},"Address":{"Label":"Pasinger Bahnhofsplatz, 81241 München, Deutschland","Country":"DEU","State":"Bayern","County":"München (Stadt)","City":"München","District":"Pasing","Street":"Pasinger Bahnhofsplatz","PostalCode":"81241","AdditionalData":[{"value":"Deutschland","key":"CountryName"},{"value":"Bayern","key":"StateName"},{"value":"München (Stadt)","key":"CountyName"}]},"MapReference":{"ReferenceId":"52803505","Spot":1.0,"SideOfStreet":"left","CountryId":"20147700","StateId":"20177250","CountyId":"20177268","CityId":"20177269"}}},{"Relevance":1.0,"Distance":21.2,"MatchLevel":"houseNumber","MatchQuality":{"Country":1.0,"State":1.0,"County":1.0,"City":1.0,"District":1.0,"Street":[1.0],"HouseNumber":1.0,"PostalCode":1.0},"MatchType":"interpolated","Location":{"LocationId":"NT_0sz-iuYQoRNma.9cWCanoB_yA","LocationType":"point","DisplayPosition":{"Latitude":48.14838,"Longitude":11.46148},"MapView":{"TopLeft":{"Latitude":48.1495042,"Longitude":11.4597951},"BottomRight":{"Latitude":48.1472558,"Longitude":11.4631649}},"Address":{"Label":"Bäckerstraße 2, 81241 München, Deutschland","Country":"DEU","State":"Bayern","County":"München (Stadt)","City":"München","District":"Pasing","Street":"Bäckerstraße","HouseNumber":"2","PostalCode":"81241","AdditionalData":[{"value":"Deutschland","key":"CountryName"},{"value":"Bayern","key":"StateName"},{"value":"München (Stadt)","key":"CountyName"}]},"MapReference":{"ReferenceId":"52803137","Spot":0.68,"SideOfStreet":"left","CountryId":"20147700","StateId":"20177250","CountyId":"20177268","CityId":"20177269","AddressId":"168972742","RoadLinkId":"32898906"}}},{"Relevance":1.0,"Distance":26.8,"MatchLevel":"street","MatchQuality":{"Country":1.0,"State":1.0,"County":1.0,"City":1.0,"District":1.0,"Street":[1.0],"PostalCode":1.0},"Location":{"LocationId":"NT_Z1RFzbOG.tIPsFblZ4wOCB_l_52803503_L","LocationType":"point","DisplayPosition":{"Latitude":48.14861,"Longitude":11.46152},"MapView":{"TopLeft":{"Latitude":48.14882,"Longitude":11.46152},"BottomRight":{"Latitude":48.14861,"Longitude":11.46152}},"Address":{"Label":"Pasinger Bahnhofsplatz, 81241 München, Deutschland","Country":"DEU","State":"Bayern","County":"München (Stadt)","City":"München","District":"Pasing","Street":"Pasinger Bahnhofsplatz","PostalCode":"81241","AdditionalData":[{"value":"Deutschland","key":"CountryName"},{"value":"Bayern","key":"StateName"},{"value":"München (Stadt)","key":"CountyName"}]},"MapReference":{"ReferenceId":"52803503","Spot":0.0,"SideOfStreet":"left","CountryId":"20147700","StateId":"20177250","CountyId":"20177268","CityId":"20177269"}}},{"Relevance":1.0,"Distance":26.8,"MatchLevel":"street","MatchQuality":{"Country":1.0,"State":1.0,"County":1.0,"City":1.0,"District":1.0,"PostalCode":1.0},"Location":{"LocationId":"NT_qJFRHhgj84Ok52guv0RxBC_l_981320080_R","LocationType":"point","DisplayPosition":{"Latitude":48.14861,"Longitude":11.46152},"MapView":{"TopLeft":{"Latitude":48.14863,"Longitude":11.46152},"BottomRight":{"Latitude":48.14861,"Longitude":11.46214}},"Address":{"Label":"81241 München, Deutschland","Country":"DEU","State":"Bayern","County":"München (Stadt)","City":"München","District":"Pasing","PostalCode":"81241","AdditionalData":[{"value":"Deutschland","key":"CountryName"},{"value":"Bayern","key":"StateName"},{"value":"München (Stadt)","key":"CountyName"}]},"MapReference":{"ReferenceId":"981320080","Spot":0.0,"SideOfStreet":"right","CountryId":"20147700","StateId":"20177250","CountyId":"20177268","CityId":"20177269"}}},{"Relevance":1.0,"Distance":34.9,"MatchLevel":"street","MatchQuality":{"Country":1.0,"State":1.0,"County":1.0,"City":1.0,"District":1.0,"Street":[1.0],"PostalCode":1.0},"Location":{"LocationId":"NT_Z1RFzbOG.tIPsFblZ4wOCB_l_1243332847_L","LocationType":"point","DisplayPosition":{"Latitude":48.14879,"Longitude":11.46081},"MapView":{"TopLeft":{"Latitude":48.14882,"Longitude":11.46069},"BottomRight":{"Latitude":48.14879,"Longitude":11.46081}},"Address":{"Label":"Pasinger Bahnhofsplatz, 81241 München, Deutschland","Country":"DEU","State":"Bayern","County":"München (Stadt)","City":"München","District":"Pasing","Street":"Pasinger Bahnhofsplatz","PostalCode":"81241","AdditionalData":[{"value":"Deutschland","key":"CountryName"},{"value":"Bayern","key":"StateName"},{"value":"München (Stadt)","key":"CountyName"}]},"MapReference":{"ReferenceId":"1243332847","Spot":0.0,"SideOfStreet":"left","CountryId":"20147700","StateId":"20177250","CountyId":"20177268","CityId":"20177269"}}},{"Relevance":1.0,"Distance":35.1,"MatchLevel":"houseNumber","MatchQuality":{"Country":1.0,"State":1.0,"County":1.0,"City":1.0,"District":1.0,"Street":[1.0],"HouseNumber":1.0,"PostalCode":1.0},"MatchType":"interpolated","Location":{"LocationId":"NT_Z1RFzbOG.tIPsFblZ4wOCB_3A","LocationType":"point","DisplayPosition":{"Latitude":48.14887,"Longitude":11.46135},"MapView":{"TopLeft":{"Latitude":48.1499942,"Longitude":11.4596651},"BottomRight":{"Latitude":48.1477458,"Longitude":11.4630349}},"Address":{"Label":"Pasinger Bahnhofsplatz 7, 81241 München, Deutschland","Country":"DEU","State":"Bayern","County":"München (Stadt)","City":"München","District":"Pasing","Street":"Pasinger Bahnhofsplatz","HouseNumber":"7","PostalCode":"81241","AdditionalData":[{"value":"Deutschland","key":"CountryName"},{"value":"Bayern","key":"StateName"},{"value":"München (Stadt)","key":"CountyName"}]},"MapReference":{"ReferenceId":"1243327079","Spot":0.25,"SideOfStreet":"right","CountryId":"20147700","StateId":"20177250","CountyId":"20177268","CityId":"20177269","AddressId":"169378833","RoadLinkId":"564620238"}}},{"Relevance":1.0,"Distance":35.9,"MatchLevel":"landmark","MatchQuality":{"Country":1.0,"State":1.0,"County":1.0,"City":1.0,"District":1.0,"Street":[1.0],"HouseNumber":1.0,"PostalCode":1.0,"Name":1.0},"Location":{"LocationId":"NT_2z426RrHSSvv7iOL-qpvjC_p_7C0ZqfNUf8W82i-ar1MPPB","LocationType":"shoppingCentre","Name":"Pasing Arcaden","DisplayPosition":{"Latitude":48.14876,"Longitude":11.46223},"MapView":{"TopLeft":{"Latitude":48.1498842,"Longitude":11.4605451},"BottomRight":{"Latitude":48.1476358,"Longitude":11.4639149}},"Address":{"Label":"Pasinger Bahnhofsplatz 5, 81241 München, Deutschland","Country":"DEU","State":"Bayern","County":"München (Stadt)","City":"München","District":"Pasing","Street":"Pasinger Bahnhofsplatz","HouseNumber":"5","PostalCode":"81241","AdditionalData":[{"value":"Deutschland","key":"CountryName"},{"value":"Bayern","key":"StateName"},{"value":"München (Stadt)","key":"CountyName"}]},"MapReference":{"CountryId":"20147700","StateId":"20177250","CountyId":"20177268","CityId":"20177269","PlaceId":"1039521762"}}},{"Relevance":1.0,"Distance":37.7,"MatchLevel":"street","MatchQuality":{"Country":1.0,"State":1.0,"County":1.0,"City":1.0,"District":1.0,"Street":[1.0],"PostalCode":1.0},"Location":{"LocationId":"NT_8.iYg2EEVQQFysq87oe2fD_l_1243328700_L","LocationType":"point","DisplayPosition":{"Latitude":48.14882,"Longitude":11.46152},"MapView":{"TopLeft":{"Latitude":48.14882,"Longitude":11.46152},"BottomRight":{"Latitude":48.1488,"Longitude":11.46159}},"Address":{"Label":"Pasinger Promenade, 81241 München, Deutschland","Country":"DEU","State":"Bayern","County":"München (Stadt)","City":"München","District":"Pasing","Street":"Pasinger Promenade","PostalCode":"81241","AdditionalData":[{"value":"Deutschland","key":"CountryName"},{"value":"Bayern","key":"StateName"},{"value":"München (Stadt)","key":"CountyName"}]},"MapReference":{"ReferenceId":"1243328700","Spot":1.0,"SideOfStreet":"left","CountryId":"20147700","StateId":"20177250","CountyId":"20177268","CityId":"20177269"}}}]}]}}