{"Response":{"MetaInfo":{"Timestamp":"2020-03-28T10:25:47.352+0000","NextPageInformation":"2"},"View":[{"_type":"SearchResultsViewType","ViewId":0,"Result":[{"Relevance":1.0,"Distance":0.0,"Direction":0.0,"MatchLevel":"district","MatchQuality":{"Country":1.0,"State":1.0,"County":1.0,"City":1.0,"District":1.0,"PostalCode":1.0},"Location":{"LocationId":"NT_yVkkOurhbrebLfbXhqiehB","LocationType":"point","DisplayPosition":{"Latitude":48.1192872,"Longitude":11.4831844},"MapView":{"TopLeft":{"Latitude":48.13258,"Longitude":11.46669},"BottomRight":{"Latitude":48.10249,"Longitude":11.5026}},"Address":{"Label":"Hadern, München, Bayern, Deutschland","Country":"DEU","State":"Bayern","County":"München (Stadt)","City":"München","District":"Hadern","PostalCode":"81375","AdditionalData":[{"value":"Deutschland","key":"CountryName"},{"value":"Bayern","key":"StateName"},{"value":"München (Stadt)","key":"CountyName"}]},"MapReference":{"ReferenceId":"1189854699","SideOfStreet":"neither","CountryId":"20147700","StateId":"20177250","CountyId":"20177268","CityId":"20177269"}}},{"Relevance":1.0,"Distance":20.3,"MatchLevel":"houseNumber","MatchQuality":{"Country":1.0,"State":1.0,"County":1.0,"City":1.0,"District":1.0,"Street":[1.0],"HouseNumber":1.0,"PostalCode":1.0},"MatchType":"interpolated","Location":{"LocationId":"NT_ZoEwleiCnL054slTPIvtQA_xgjN","LocationType":"point","DisplayPosition":{"Latitude":48.11911,"Longitude":11.48325},"MapView":{"TopLeft":{"Latitude":48.1202342,"Longitude":11.4815661},"BottomRight":{"Latitude":48.1179858,"Longitude":11.4849339}},"Address":{"Label":"Guardinistraße 186, 81375 München, Deutschland","Country":"DEU","State":"Bayern","County":"München (Stadt)","City":"München","District":"Hadern","Street":"Guardinistraße","HouseNumber":"186","PostalCode":"81375","AdditionalData":[{"value":"Deutschland","key":"CountryName"},{"value":"Bayern","key":"StateName"},{"value":"München (Stadt)","key":"CountyName"}]},"MapReference":{"ReferenceId":"989831630","Spot":0.51,"SideOfStreet":"right","CountryId":"20147700","StateId":"20177250","CountyId":"20177268","CityId":"20177269","AddressId":"168326295","RoadLinkId":"318496412"}}},{"Relevance":1.0,"Distance":55.0,"MatchLevel":"houseNumber","MatchQuality":{"Country":1.0,"State":1.0,"County":1.0,"City":1.0,"District":1.0,"Street":[1.0],"HouseNumber":1.0,"PostalCode":1.0},"MatchType":"interpolated","Location":{"LocationId":"NT_wkxK1w7aT7Sx.pTwctxuPA_xYjN","LocationType":"point","DisplayPosition":{"Latitude":48.11921,"Longitude":11.48451},"MapView":{"TopLeft":{"Latitude":48.1203342,"Longitude":11.4828261},"BottomRight":{"Latitude":48.1180858,"Longitude":11.4861939}},"Address":{"Label":"Stiftsbogen 166, 81375 München, Deutschland","Country":"DEU","State":"Bayern","County":"München (Stadt)","City":"München","District":"Hadern","Street":"Stiftsbogen","HouseNumber":"166","PostalCode":"81375","AdditionalData":[{"value":"Deutschland","key":"CountryName"},{"value":"Bayern","key":"StateName"},{"value":"München (Stadt)","key":"CountyName"}]},"MapReference":{"ReferenceId":"1234477122","Spot":0.72,"SideOfStreet":"left","CountryId":"20147700","StateId":"20177250","CountyId":"20177268","CityId":"20177269","AddressId":"170215141","RoadLinkId":"554854901"}}},{"Relevance":1.0,"Distance":69.5,"MatchLevel":"street","MatchQuality":{"Country":1.0,"State":1.0,"County":1.0,"City":1.0,"District":1.0,"PostalCode":1.0},"Location":{"LocationId":"NT_l81uo9CCsjjvczw0V4ByqD_l_989831632_R","LocationType":"point","DisplayPosition":{"Latitude":48.11933,"Longitude":11.48225},"MapView":{"TopLeft":{"Latitude":48.11977,"Longitude":11.48224},"BottomRight":{"Latitude":48.11933,"Longitude":11.48225}},"Address":{"Label":"81375 München, Deutschland","Country":"DEU","State":"Bayern","County":"München (Stadt)","City":"München","District":"Hadern","PostalCode":"81375","AdditionalData":[{"value":"Deutschland","key":"CountryName"},{"value":"Bayern","key":"StateName"},{"value":"München (Stadt)","key":"CountyName"}]},"MapReference":{"ReferenceId":"989831632","Spot":0.0,"SideOfStreet":"right","CountryId":"20147700","StateId":"20177250","CountyId":"20177268","CityId":"20177269"}}},{"Relevance":1.0,"Distance":78.3,"MatchLevel":"houseNumber","MatchQuality":{"Country":1.0,"State":1.0,"County":1.0,"City":1.0,"District":1.0,"Street":[1.0],"HouseNumber":1.0,"PostalCode":1.0},"MatchType":"interpolated","Location":{"LocationId":"NT_wkxK1w7aT7Sx.pTwctxuPA_xYDN","LocationType":"point","DisplayPosition":{"Latitude":48.11939,"Longitude":11.48461},"MapView":{"TopLeft":{"Latitude":48.1205142,"Longitude":11.4829261},"BottomRight":{"Latitude":48.1182658,"Longitude":11.4862939}},"Address":{"Label":"Stiftsbogen 164, 81375 München, Deutschland","Country":"DEU","State":"Bayern","County":"München (Stadt)","City":"München","District":"Hadern","Street":"Stiftsbogen","HouseNumber":"164","PostalCode":"81375","AdditionalData":[{"value":"Deutschland","key":"CountryName"},{"value":"Bayern","key":"StateName"},{"value":"München (Stadt)","key":"CountyName"}]},"MapReference":{"ReferenceId":"1234477123","Spot":0.07,"SideOfStreet":"left","CountryId":"20147700","StateId":"20177250","CountyId":"20177268","CityId":"20177269","AddressId":"170215138","RoadLinkId":"554854902"}}},{"Relevance":1.0,"Distance":88.3,"MatchLevel":"street","MatchQuality":{"Country":1.0,"State":1.0,"County":1.0,"City":1.0,"District":1.0,"PostalCode":1.0},"Location":{"LocationId":"NT_l81uo9CCsjjvczw0V4ByqD_l_1105201779_R","LocationType":"point","DisplayPosition":{"Latitude":48.11977,"Longitude":11.48224},"MapView":{"TopLeft":{"Latitude":48.11977,"Longitude":11.4819},"BottomRight":{"Latitude":48.11973,"Longitude":11.48224}},"Address":{"Label":"81375 München, Deutschland","Country":"DEU","State":"Bayern","County":"München (Stadt)","City":"München","District":"Hadern","PostalCode":"81375","AdditionalData":[{"value":"Deutschland","key":"CountryName"},{"value":"Bayern","key":"StateName"},{"value":"München (Stadt)","key":"CountyName"}]},"MapReference":{"ReferenceId":"1105201779","Spot":1.0,"SideOfStreet":"right","CountryId":"20147700","StateId":"20177250","CountyId":"20177268","CityId":"20177269"}}},{"Relevance":1.0,"Distance":88.6,"MatchLevel":"houseNumber","MatchQuality":{"Country":1.0,"State":1.0,"County":1.0,"City":1.0,"District":1.0,"Street":[1.0],"HouseNumber":1.0,"PostalCode":1.0},"MatchType":"interpolated","Location":{"LocationId":"NT_ZoEwleiCnL054slTPIvtQA_xkDO","LocationType":"point","DisplayPosition":{"Latitude":48.11937,"Longitude":11.482},"MapView":{"TopLeft":{"Latitude":48.1204942,"Longitude":11.4803161},"BottomRight":{"Latitude":48.1182458,"Longitude":11.4836839}},"Address":{"Label":"Guardinistraße 198, 81375 München, Deutschland","Country":"DEU","State":"Bayern","County":"München (Stadt)","City":"München","District":"Hadern","Street":"Guardinistraße","HouseNumber":"198","PostalCode":"81375","AdditionalData":[{"value":"Deutschland","key":"CountryName"},{"value":"Bayern","key":"StateName"},{"value":"München (Stadt)","key":"CountyName"}]},"MapReference":{"ReferenceId":"989838524","Spot":0.46,"SideOfStreet":"right","CountryId":"20147700","StateId":"20177250","CountyId":"20177268","CityId":"20177269","AddressId":"168326298","RoadLinkId":"318502968"}}},{"Relevance":1.0,"Distance":95.5,"MatchLevel":"street","MatchQuality":{"Country":1.0,"State":1.0,"County":1.0,"City":1.0,"District":1.0,"Street":[1.0],"PostalCode":1.0},"Location":{"LocationId":"NT_ZoEwleiCnL054slTPIvtQA_l_989839598_R","LocationType":"point","DisplayPosition":{"Latitude":48.11886,"Longitude":11.4843},"MapView":{"TopLeft":{"Latitude":48.11886,"Longitude":11.4843},"BottomRight":{"Latitude":48.11879,"Longitude":11.48471}},"Address":{"Label":"Guardinistraße, 81375 München, Deutschland","Country":"DEU","State":"Bayern","County":"München (Stadt)","City":"München","District":"Hadern","Street":"Guardinistraße","PostalCode":"81375","AdditionalData":[{"value":"Deutschland","key":"CountryName"},{"value":"Bayern","key":"StateName"},{"value":"München (Stadt)","key":"CountyName"}]},"MapReference":{"ReferenceId":"989839598","Spot":1.0,"SideOfStreet":"right","CountryId":"20147700","StateId":"20177250","CountyId":"20177268","CityId":"20177269"}}},{"Relevance":1.0,"Distance":95.5,"MatchLevel":"street","MatchQuality":{"Country":1.0,"State":1.0,"County":1.0,"City":1.0,"District":1.0,"Street":[1.0],"PostalCode":1.0},"Location":{"LocationId":"NT_rAddPZkdxoKrJ1qCs5xPcD_l_989838526_L","LocationType":"point","DisplayPosition":{"Latitude":48.11886,"Longitude":11.4843},"MapView":{"TopLeft":{"Latitude":48.11886,"Longitude":11.48425},"BottomRight":{"Latitude":48.11859,"Longitude":11.4843}},"Address":{"Label":"Karl-Witthalm-Straße, 81375 München, Deutschland","Country":"DEU","State":"Bayern","County":"München (Stadt)","City":"München","District":"Hadern","Street":"Karl-Witthalm-Straße","PostalCode":"81375","AdditionalData":[{"value":"Deutschland","key":"CountryName"},{"value":"Bayern","key":"StateName"},{"value":"München (Stadt)","key":"CountyName"}]},"MapReference":{"ReferenceId":"989838526","Spot":1.0,"SideOfStreet":"left","CountryId":"20147700","StateId":"20177250","CountyId":"20177268","CityId":"20177269"}}},{"Relevance":1.0,"Distance":96.3,"MatchLevel":"houseNumber","MatchQuality":{"Country":1.0,"State":1.0,"County":1.0,"City":1.0,"District":1.0,"Street":[1.0],"HouseNumber":1.0,"PostalCode":1.0},"MatchType":"interpolated","Location":{"LocationId":"NT_UB.5WoGoP290Slz2RIsUgB_0QTQ","LocationType":"point","DisplayPosition":{"Latitude":48.12011,"Longitude":11.48278},"MapView":{"TopLeft":{"Latitude":48.1212342,"Longitude":11.4810961},"BottomRight":{"Latitude":48.1189858,"Longitude":11.4844639}},"Address":{"Label":"Großhaderner Straße 44A, 81375 München, Deutschland","Country":"DEU","State":"Bayern","County":"München (Stadt)","City":"München","District":"Hadern","Street":"Großhaderner Straße","HouseNumber":"44A","PostalCode":"81375","AdditionalData":[{"value":"Deutschland","key":"CountryName"},{"value":"Bayern","key":"StateName"},{"value":"München (Stadt)","key":"CountyName"}]},"MapReference":{"ReferenceId":"989831629","Spot":0.47,"SideOfStreet":"right","CountryId":"20147700","StateId":"20177250","CountyId":"20177268","CityId":"20177269","AddressId":"761994266","RoadLinkId":"536528131"}}}]}]}}