{"Response":{"MetaInfo":{"Timestamp":"2020-03-28T11:37:55.516+0000","NextPageInformation":"2"},"View":[{"_type":"SearchResultsViewType","ViewId":0,"Result":[{"Relevance":1.0,"Distance":0.0,"Direction":0.0,"MatchLevel":"district","MatchQuality":{"Country":1.0,"State":1.0,"County":1.0,"City":1.0,"District":1.0,"PostalCode":1.0},"Location":{"LocationId":"NT_EheEor8IG9me.74Cl-BcoA","LocationType":"point","DisplayPosition":{"Latitude":48.1674373,"Longitude":14.0414008},"MapView":{"TopLeft":{"Latitude":48.18608,"Longitude":13.98025},"BottomRight":{"Latitude":48.14845,"Longitude":14.07166}},"Address":{"Label":"Wels, Oberösterreich, Österreich","Country":"AUT","State":"Oberösterreich","County":"Wels","City":"Wels","District":"Wels","PostalCode":"4600","AdditionalData":[{"value":"Österreich","key":"CountryName"},{"value":"Oberösterreich","key":"StateName"},{"value":"Wels","key":"CountyName"}]},"MapReference":{"ReferenceId":"727316586","SideOfStreet":"neither","CountryId":"20128885","StateId":"20132880","CountyId":"20132891","CityId":"20132892","DistrictId":"20132894"}}},{"Relevance":1.0,"Distance":13.7,"MatchLevel":"houseNumber","MatchQuality":{"Country":1.0,"State":1.0,"County":1.0,"City":1.0,"District":1.0,"Street":[1.0],"HouseNumber":1.0,"PostalCode":1.0},"MatchType":"interpolated","Location":{"LocationId":"NT_qZ9.COInLuzMGW-2skzmzD_4AD","LocationType":"point","DisplayPosition":{"Latitude":48.16745,"Longitude":14.04117},"MapView":{"TopLeft":{"Latitude":48.1685742,"Longitude":14.0394845},"BottomRight":{"Latitude":48.1663258,"Longitude":14.0428555}},"Address":{"Label":"Hans-Sachs-Straße 80, 4600 Wels, Österreich","Country":"AUT","State":"Oberösterreich","County":"Wels","City":"Wels","District":"Wels","Street":"Hans-Sachs-Straße","HouseNumber":"80","PostalCode":"4600","AdditionalData":[{"value":"Österreich","key":"CountryName"},{"value":"Oberösterreich","key":"StateName"},{"value":"Wels","key":"CountyName"}]},"MapReference":{"ReferenceId":"62850290","Spot":0.08,"SideOfStreet":"right","CountryId":"20128885","StateId":"20132880","CountyId":"20132891","CityId":"20132892","DistrictId":"20132894","AddressId":"160854942","RoadLinkId":"28155089"}}},{"Relevance":1.0,"Distance":35.4,"MatchLevel":"houseNumber","MatchQuality":{"Country":1.0,"State":1.0,"County":1.0,"City":1.0,"District":1.0,"Street":[1.0],"HouseNumber":1.0,"PostalCode":1.0},"MatchType":"interpolated","Location":{"LocationId":"NT_D2Ii-S0uBcu-rFZIIbcKDC_xgD","LocationType":"point","DisplayPosition":{"Latitude":48.16702,"Longitude":14.04134},"MapView":{"TopLeft":{"Latitude":48.1681442,"Longitude":14.0396545},"BottomRight":{"Latitude":48.1658958,"Longitude":14.0430255}},"Address":{"Label":"Steiningerweg 18, 4600 Wels, Österreich","Country":"AUT","State":"Oberösterreich","County":"Wels","City":"Wels","District":"Wels","Street":"Steiningerweg","HouseNumber":"18","PostalCode":"4600","AdditionalData":[{"value":"Österreich","key":"CountryName"},{"value":"Oberösterreich","key":"StateName"},{"value":"Wels","key":"CountyName"}]},"MapReference":{"ReferenceId":"62850300","Spot":0.03,"SideOfStreet":"right","CountryId":"20128885","StateId":"20132880","CountyId":"20132891","CityId":"20132892","DistrictId":"20132894","AddressId":"160805519","RoadLinkId":"28330870"}}},{"Relevance":1.0,"Distance":51.8,"MatchLevel":"houseNumber","MatchQuality":{"Country":1.0,"State":1.0,"County":1.0,"City":1.0,"District":1.0,"Street":[1.0],"HouseNumber":1.0,"PostalCode":1.0},"MatchType":"interpolated","Location":{"LocationId":"NT_D2Ii-S0uBcu-rFZIIbcKDC_xYD","LocationType":"point","DisplayPosition":{"Latitude":48.16691,"Longitude":14.04149},"MapView":{"TopLeft":{"Latitude":48.1680342,"Longitude":14.0398045},"BottomRight":{"Latitude":48.1657858,"Longitude":14.0431755}},"Address":{"Label":"Steiningerweg 16, 4600 Wels, Österreich","Country":"AUT","State":"Oberösterreich","County":"Wels","City":"Wels","District":"Wels","Street":"Steiningerweg","HouseNumber":"16","PostalCode":"4600","AdditionalData":[{"value":"Österreich","key":"CountryName"},{"value":"Oberösterreich","key":"StateName"},{"value":"Wels","key":"CountyName"}]},"MapReference":{"ReferenceId":"62850315","Spot":0.68,"SideOfStreet":"right","CountryId":"20128885","StateId":"20132880","CountyId":"20132891","CityId":"20132892","DistrictId":"20132894","AddressId":"160805515","RoadLinkId":"28060281"}}},{"Relevance":1.0,"Distance":65.0,"MatchLevel":"houseNumber","MatchQuality":{"Country":1.0,"State":1.0,"County":1.0,"City":1.0,"District":1.0,"Street":[1.0],"HouseNumber":1.0,"PostalCode":1.0},"MatchType":"interpolated","Location":{"LocationId":"NT_H8mF34CU1-75JnkSLVTsHD_xkD","LocationType":"point","DisplayPosition":{"Latitude":48.16715,"Longitude":14.0425},"MapView":{"TopLeft":{"Latitude":48.1682742,"Longitude":14.0408145},"BottomRight":{"Latitude":48.1660258,"Longitude":14.0441855}},"Address":{"Label":"Thomas-Mann-Straße 19, 4600 Wels, Österreich","Country":"AUT","State":"Oberösterreich","County":"Wels","City":"Wels","District":"Wels","Street":"Thomas-Mann-Straße","HouseNumber":"19","PostalCode":"4600","AdditionalData":[{"value":"Österreich","key":"CountryName"},{"value":"Oberösterreich","key":"StateName"},{"value":"Wels","key":"CountyName"}]},"MapReference":{"ReferenceId":"62850314","Spot":0.33,"SideOfStreet":"left","CountryId":"20128885","StateId":"20132880","CountyId":"20132891","CityId":"20132892","DistrictId":"20132894","AddressId":"160813532","RoadLinkId":"28862647"}}},{"Relevance":1.0,"Distance":68.3,"MatchLevel":"houseNumber","MatchQuality":{"Country":1.0,"State":1.0,"County":1.0,"City":1.0,"District":1.0,"Street":[1.0],"HouseNumber":1.0,"PostalCode":1.0},"MatchType":"interpolated","Location":{"LocationId":"NT_D2Ii-S0uBcu-rFZIIbcKDC_yQD","LocationType":"point","DisplayPosition":{"Latitude":48.16775,"Longitude":14.0405},"MapView":{"TopLeft":{"Latitude":48.1688742,"Longitude":14.0388145},"BottomRight":{"Latitude":48.1666258,"Longitude":14.0421855}},"Address":{"Label":"Steiningerweg 24, 4600 Wels, Österreich","Country":"AUT","State":"Oberösterreich","County":"Wels","City":"Wels","District":"Wels","Street":"Steiningerweg","HouseNumber":"24","PostalCode":"4600","AdditionalData":[{"value":"Österreich","key":"CountryName"},{"value":"Oberösterreich","key":"StateName"},{"value":"Wels","key":"CountyName"}]},"MapReference":{"ReferenceId":"62850291","Spot":0.71,"SideOfStreet":"right","CountryId":"20128885","StateId":"20132880","CountyId":"20132891","CityId":"20132892","DistrictId":"20132894","AddressId":"160805516","RoadLinkId":"28608978"}}},{"Relevance":1.0,"Distance":75.4,"MatchLevel":"houseNumber","MatchQuality":{"Country":1.0,"State":1.0,"County":1.0,"City":1.0,"District":1.0,"Street":[1.0],"HouseNumber":1.0,"PostalCode":1.0},"MatchType":"interpolated","Location":{"LocationId":"NT_qZ9.COInLuzMGW-2skzmzD_3YD","LocationType":"point","DisplayPosition":{"Latitude":48.16713,"Longitude":14.04048},"MapView":{"TopLeft":{"Latitude":48.1682542,"Longitude":14.0387945},"BottomRight":{"Latitude":48.1660058,"Longitude":14.0421655}},"Address":{"Label":"Hans-Sachs-Straße 76, 4600 Wels, Österreich","Country":"AUT","State":"Oberösterreich","County":"Wels","City":"Wels","District":"Wels","Street":"Hans-Sachs-Straße","HouseNumber":"76","PostalCode":"4600","AdditionalData":[{"value":"Österreich","key":"CountryName"},{"value":"Oberösterreich","key":"StateName"},{"value":"Wels","key":"CountyName"}]},"MapReference":{"ReferenceId":"1128631825","Spot":0.49,"SideOfStreet":"right","CountryId":"20128885","StateId":"20132880","CountyId":"20132891","CityId":"20132892","DistrictId":"20132894","AddressId":"160854930","RoadLinkId":"438546125"}}},{"Relevance":1.0,"Distance":89.7,"MatchLevel":"houseNumber","MatchQuality":{"Country":1.0,"State":1.0,"County":1.0,"City":1.0,"District":1.0,"Street":[1.0],"HouseNumber":1.0,"PostalCode":1.0},"MatchType":"interpolated","Location":{"LocationId":"NT_QKUMvyFXGproJDS24ibMQB_yAD","LocationType":"point","DisplayPosition":{"Latitude":48.16784,"Longitude":14.04017},"MapView":{"TopLeft":{"Latitude":48.1689642,"Longitude":14.0384845},"BottomRight":{"Latitude":48.1667158,"Longitude":14.0418555}},"Address":{"Label":"Lenaustraße 20, 4600 Wels, Österreich","Country":"AUT","State":"Oberösterreich","County":"Wels","City":"Wels","District":"Wels","Street":"Lenaustraße","HouseNumber":"20","PostalCode":"4600","AdditionalData":[{"value":"Österreich","key":"CountryName"},{"value":"Oberösterreich","key":"StateName"},{"value":"Wels","key":"CountyName"}]},"MapReference":{"ReferenceId":"62850303","Spot":0.93,"SideOfStreet":"right","CountryId":"20128885","StateId":"20132880","CountyId":"20132891","CityId":"20132892","DistrictId":"20132894","AddressId":"160811638","RoadLinkId":"28652523"}}},{"Relevance":1.0,"Distance":108.9,"MatchLevel":"houseNumber","MatchQuality":{"Country":1.0,"State":1.0,"County":1.0,"City":1.0,"District":1.0,"Street":[1.0],"HouseNumber":1.0,"PostalCode":1.0},"MatchType":"interpolated","Location":{"LocationId":"NT_D2Ii-S0uBcu-rFZIIbcKDC_xkD","LocationType":"point","DisplayPosition":{"Latitude":48.16801,"Longitude":14.04021},"MapView":{"TopLeft":{"Latitude":48.1691342,"Longitude":14.0385245},"BottomRight":{"Latitude":48.1668858,"Longitude":14.0418955}},"Address":{"Label":"Steiningerweg 19, 4600 Wels, Österreich","Country":"AUT","State":"Oberösterreich","County":"Wels","City":"Wels","District":"Wels","Street":"Steiningerweg","HouseNumber":"19","PostalCode":"4600","AdditionalData":[{"value":"Österreich","key":"CountryName"},{"value":"Oberösterreich","key":"StateName"},{"value":"Wels","key":"CountyName"}]},"MapReference":{"ReferenceId":"62850272","Spot":0.18,"SideOfStreet":"left","CountryId":"20128885","StateId":"20132880","CountyId":"20132891","CityId":"20132892","DistrictId":"20132894","AddressId":"160805872","RoadLinkId":"29139111"}}},{"Relevance":1.0,"Distance":112.2,"MatchLevel":"houseNumber","MatchQuality":{"Country":1.0,"State":1.0,"County":1.0,"City":1.0,"District":1.0,"Street":[1.0],"HouseNumber":1.0,"PostalCode":1.0},"MatchType":"interpolated","Location":{"LocationId":"NT_H8mF34CU1-75JnkSLVTsHD_xED","LocationType":"point","DisplayPosition":{"Latitude":48.16635,"Longitude":14.04132},"MapView":{"TopLeft":{"Latitude":48.1674742,"Longitude":14.0396345},"BottomRight":{"Latitude":48.1652258,"Longitude":14.0430055}},"Address":{"Label":"Thomas-Mann-Straße 11, 4600 Wels, Österreich","Country":"AUT","State":"Oberösterreich","County":"Wels","City":"Wels","District":"Wels","Street":"Thomas-Mann-Straße","HouseNumber":"11","PostalCode":"4600","AdditionalData":[{"value":"Österreich","key":"CountryName"},{"value":"Oberösterreich","key":"StateName"},{"value":"Wels","key":"CountyName"}]},"MapReference":{"ReferenceId":"711651667","Spot":0.73,"SideOfStreet":"left","CountryId":"20128885","StateId":"20132880","CountyId":"20132891","CityId":"20132892","DistrictId":"20132894","AddressId":"160813520","RoadLinkId":"116584074"}}}]}]}}