{"Response":{"MetaInfo":{"Timestamp":"2020-03-28T10:22:21.077+0000","NextPageInformation":"2"},"View":[{"_type":"SearchResultsViewType","ViewId":0,"Result":[{"Relevance":1.0,"Distance":0.0,"Direction":0.0,"MatchLevel":"district","MatchQuality":{"Country":1.0,"State":1.0,"County":1.0,"City":1.0,"District":1.0,"PostalCode":1.0},"Location":{"LocationId":"NT_rur1eSecjtr9s4igHD3f5A","LocationType":"point","DisplayPosition":{"Latitude":48.1881214,"Longitude":11.7772419},"MapView":{"TopLeft":{"Latitude":48.19181,"Longitude":11.76829},"BottomRight":{"Latitude":48.17779,"Longitude":11.78094}},"Address":{"Label":"Landsham, Pliening, Bayern, Deutschland","Country":"DEU","State":"Bayern","County":"Ebersberg","City":"Pliening","District":"Landsham","PostalCode":"85652","AdditionalData":[{"value":"Deutschland","key":"CountryName"},{"value":"Bayern","key":"StateName"},{"value":"Ebersberg","key":"CountyName"}]},"MapReference":{"ReferenceId":"780591635","SideOfStreet":"neither","CountryId":"20147700","StateId":"20177250","CountyId":"20177648","CityId":"20177712","DistrictId":"20177716"}}},{"Relevance":1.0,"Distance":12.3,"MatchLevel":"houseNumber","MatchQuality":{"Country":1.0,"State":1.0,"County":1.0,"City":1.0,"District":1.0,"Street":[1.0],"HouseNumber":1.0,"PostalCode":1.0},"MatchType":"interpolated","Location":{"LocationId":"NT_JM8CgFu6i7FrnmbJj5nKWA_xAD","LocationType":"point","DisplayPosition":{"Latitude":48.18824,"Longitude":11.77706},"MapView":{"TopLeft":{"Latitude":48.1893642,"Longitude":11.7753738},"BottomRight":{"Latitude":48.1871158,"Longitude":11.7787462}},"Address":{"Label":"Erdinger Straße 10, 85652 Pliening, Deutschland","Country":"DEU","State":"Bayern","County":"Ebersberg","City":"Pliening","District":"Landsham","Street":"Erdinger Straße","HouseNumber":"10","PostalCode":"85652","AdditionalData":[{"value":"Deutschland","key":"CountryName"},{"value":"Bayern","key":"StateName"},{"value":"Ebersberg","key":"CountyName"}]},"MapReference":{"ReferenceId":"82007180","Spot":0.28,"SideOfStreet":"right","CountryId":"20147700","StateId":"20177250","CountyId":"20177648","CityId":"20177712","DistrictId":"20177716","AddressId":"184945705","RoadLinkId":"32602590"}}},{"Relevance":1.0,"Distance":32.4,"MatchLevel":"houseNumber","MatchQuality":{"Country":1.0,"State":1.0,"County":1.0,"City":1.0,"District":1.0,"Street":[1.0],"HouseNumber":1.0,"PostalCode":1.0},"MatchType":"interpolated","Location":{"LocationId":"NT_90G4VJJ-rq-arxfO3KlV0B_xA","LocationType":"point","DisplayPosition":{"Latitude":48.1878,"Longitude":11.77696},"MapView":{"TopLeft":{"Latitude":48.1889242,"Longitude":11.7752738},"BottomRight":{"Latitude":48.1866758,"Longitude":11.7786462}},"Address":{"Label":"Gartenweg 1, 85652 Pliening, Deutschland","Country":"DEU","State":"Bayern","County":"Ebersberg","City":"Pliening","District":"Landsham","Street":"Gartenweg","HouseNumber":"1","PostalCode":"85652","AdditionalData":[{"value":"Deutschland","key":"CountryName"},{"value":"Bayern","key":"StateName"},{"value":"Ebersberg","key":"CountyName"}]},"MapReference":{"ReferenceId":"82005950","Spot":0.4,"SideOfStreet":"right","CountryId":"20147700","StateId":"20177250","CountyId":"20177648","CityId":"20177712","DistrictId":"20177716","AddressId":"183856160","RoadLinkId":"32984441"}}},{"Relevance":1.0,"Distance":40.0,"MatchLevel":"houseNumber","MatchQuality":{"Country":1.0,"State":1.0,"County":1.0,"City":1.0,"District":1.0,"Street":[1.0],"HouseNumber":1.0,"PostalCode":1.0},"MatchType":"interpolated","Location":{"LocationId":"NT_JM8CgFu6i7FrnmbJj5nKWA_5A","LocationType":"point","DisplayPosition":{"Latitude":48.18818,"Longitude":11.77671},"MapView":{"TopLeft":{"Latitude":48.1893042,"Longitude":11.7750238},"BottomRight":{"Latitude":48.1870558,"Longitude":11.7783962}},"Address":{"Label":"Erdinger Straße 9, 85652 Pliening, Deutschland","Country":"DEU","State":"Bayern","County":"Ebersberg","City":"Pliening","District":"Landsham","Street":"Erdinger Straße","HouseNumber":"9","PostalCode":"85652","AdditionalData":[{"value":"Deutschland","key":"CountryName"},{"value":"Bayern","key":"StateName"},{"value":"Ebersberg","key":"CountyName"}]},"MapReference":{"ReferenceId":"812332015","Spot":0.81,"SideOfStreet":"left","CountryId":"20147700","StateId":"20177250","CountyId":"20177648","CityId":"20177712","DistrictId":"20177716","AddressId":"184935037","RoadLinkId":"199685699"}}},{"Relevance":1.0,"Distance":55.7,"MatchLevel":"houseNumber","MatchQuality":{"Country":1.0,"State":1.0,"County":1.0,"City":1.0,"District":1.0,"Street":[1.0],"HouseNumber":1.0,"PostalCode":1.0},"MatchType":"interpolated","Location":{"LocationId":"NT_JM8CgFu6i7FrnmbJj5nKWA_4A","LocationType":"point","DisplayPosition":{"Latitude":48.18815,"Longitude":11.77647},"MapView":{"TopLeft":{"Latitude":48.1892742,"Longitude":11.7747838},"BottomRight":{"Latitude":48.1870258,"Longitude":11.7781562}},"Address":{"Label":"Erdinger Straße 8, 85652 Pliening, Deutschland","Country":"DEU","State":"Bayern","County":"Ebersberg","City":"Pliening","District":"Landsham","Street":"Erdinger Straße","HouseNumber":"8","PostalCode":"85652","AdditionalData":[{"value":"Deutschland","key":"CountryName"},{"value":"Bayern","key":"StateName"},{"value":"Ebersberg","key":"CountyName"}]},"MapReference":{"ReferenceId":"812332017","Spot":0.95,"SideOfStreet":"right","CountryId":"20147700","StateId":"20177250","CountyId":"20177648","CityId":"20177712","DistrictId":"20177716","AddressId":"183150660","RoadLinkId":"199685702"}}},{"Relevance":1.0,"Distance":57.5,"MatchLevel":"houseNumber","MatchQuality":{"Country":1.0,"State":1.0,"County":1.0,"City":1.0,"District":1.0,"Street":[1.0],"HouseNumber":1.0,"PostalCode":1.0},"MatchType":"interpolated","Location":{"LocationId":"NT_JM8CgFu6i7FrnmbJj5nKWA_xQD","LocationType":"point","DisplayPosition":{"Latitude":48.18836,"Longitude":11.77793},"MapView":{"TopLeft":{"Latitude":48.1894842,"Longitude":11.7762438},"BottomRight":{"Latitude":48.1872358,"Longitude":11.7796162}},"Address":{"Label":"Erdinger Straße 14, 85652 Pliening, Deutschland","Country":"DEU","State":"Bayern","County":"Ebersberg","City":"Pliening","District":"Landsham","Street":"Erdinger Straße","HouseNumber":"14","PostalCode":"85652","AdditionalData":[{"value":"Deutschland","key":"CountryName"},{"value":"Bayern","key":"StateName"},{"value":"Ebersberg","key":"CountyName"}]},"MapReference":{"ReferenceId":"562805799","Spot":0.11,"SideOfStreet":"right","CountryId":"20147700","StateId":"20177250","CountyId":"20177648","CityId":"20177712","DistrictId":"20177716","AddressId":"183106629","RoadLinkId":"32628818"}}},{"Relevance":1.0,"Distance":58.3,"MatchLevel":"houseNumber","MatchQuality":{"Country":1.0,"State":1.0,"County":1.0,"City":1.0,"District":1.0,"Street":[1.0],"HouseNumber":1.0,"PostalCode":1.0},"MatchType":"interpolated","Location":{"LocationId":"NT_90G4VJJ-rq-arxfO3KlV0B_zA","LocationType":"point","DisplayPosition":{"Latitude":48.1876,"Longitude":11.77733},"MapView":{"TopLeft":{"Latitude":48.1887242,"Longitude":11.7756438},"BottomRight":{"Latitude":48.1864758,"Longitude":11.7790162}},"Address":{"Label":"Gartenweg 3, 85652 Pliening, Deutschland","Country":"DEU","State":"Bayern","County":"Ebersberg","City":"Pliening","District":"Landsham","Street":"Gartenweg","HouseNumber":"3","PostalCode":"85652","AdditionalData":[{"value":"Deutschland","key":"CountryName"},{"value":"Bayern","key":"StateName"},{"value":"Ebersberg","key":"CountyName"}]},"MapReference":{"ReferenceId":"82005949","Spot":0.51,"SideOfStreet":"right","CountryId":"20147700","StateId":"20177250","CountyId":"20177648","CityId":"20177712","DistrictId":"20177716","AddressId":"198998024","RoadLinkId":"33818887"}}},{"Relevance":1.0,"Distance":65.5,"MatchLevel":"houseNumber","MatchQuality":{"Country":1.0,"State":1.0,"County":1.0,"City":1.0,"District":1.0,"Street":[1.0],"HouseNumber":1.0,"PostalCode":1.0},"MatchType":"interpolated","Location":{"LocationId":"NT_yWQNZyUV1rf8i7mqS-tusA_xEE","LocationType":"point","DisplayPosition":{"Latitude":48.1888,"Longitude":11.77773},"MapView":{"TopLeft":{"Latitude":48.1899242,"Longitude":11.7760438},"BottomRight":{"Latitude":48.1876758,"Longitude":11.7794162}},"Address":{"Label":"Heribertstraße 1A, 85652 Pliening, Deutschland","Country":"DEU","State":"Bayern","County":"Ebersberg","City":"Pliening","District":"Landsham","Street":"Heribertstraße","HouseNumber":"1A","PostalCode":"85652","AdditionalData":[{"value":"Deutschland","key":"CountryName"},{"value":"Bayern","key":"StateName"},{"value":"Ebersberg","key":"CountyName"}]},"MapReference":{"ReferenceId":"82013126","Spot":0.29,"SideOfStreet":"left","CountryId":"20147700","StateId":"20177250","CountyId":"20177648","CityId":"20177712","DistrictId":"20177716","AddressId":"182802395","RoadLinkId":"33247940"}}},{"Relevance":1.0,"Distance":67.1,"MatchLevel":"houseNumber","MatchQuality":{"Country":1.0,"State":1.0,"County":1.0,"City":1.0,"District":1.0,"Street":[1.0],"HouseNumber":1.0,"PostalCode":1.0},"MatchType":"interpolated","Location":{"LocationId":"NT_EqEQah96haepTK4BYCO.iB_xETQ","LocationType":"point","DisplayPosition":{"Latitude":48.18737,"Longitude":11.77813},"MapView":{"TopLeft":{"Latitude":48.1884942,"Longitude":11.7764438},"BottomRight":{"Latitude":48.1862458,"Longitude":11.7798162}},"Address":{"Label":"Brennhausstraße 11A, 85652 Pliening, Deutschland","Country":"DEU","State":"Bayern","County":"Ebersberg","City":"Pliening","District":"Landsham","Street":"Brennhausstraße","HouseNumber":"11A","PostalCode":"85652","AdditionalData":[{"value":"Deutschland","key":"CountryName"},{"value":"Bayern","key":"StateName"},{"value":"Ebersberg","key":"CountyName"}]},"MapReference":{"ReferenceId":"82018123","Spot":0.4,"SideOfStreet":"left","CountryId":"20147700","StateId":"20177250","CountyId":"20177648","CityId":"20177712","DistrictId":"20177716","AddressId":"182088827","RoadLinkId":"32751291"}}},{"Relevance":1.0,"Distance":85.5,"MatchLevel":"street","MatchQuality":{"Country":1.0,"State":1.0,"County":1.0,"City":1.0,"District":1.0,"Street":[1.0],"PostalCode":1.0},"Location":{"LocationId":"NT_K.sT2O10XwMwq5nZbPkFHD_l_812332016_R","LocationType":"point","DisplayPosition":{"Latitude":48.18809,"Longitude":11.77609},"MapView":{"TopLeft":{"Latitude":48.18809,"Longitude":11.77588},"BottomRight":{"Latitude":48.18806,"Longitude":11.77609}},"Address":{"Label":"Erdinger Straße, 85652 Pliening, Deutschland","Country":"DEU","State":"Bayern","County":"Ebersberg","City":"Pliening","District":"Landsham","Street":"Erdinger Straße","PostalCode":"85652","AdditionalData":[{"value":"Deutschland","key":"CountryName"},{"value":"Bayern","key":"StateName"},{"value":"Ebersberg","key":"CountyName"}]},"MapReference":{"ReferenceId":"812332016","Spot":1.0,"SideOfStreet":"right","CountryId":"20147700","StateId":"20177250","CountyId":"20177648","CityId":"20177712","DistrictId":"20177716"}}}]}]}}