{"Response":{"MetaInfo":{"Timestamp":"2020-03-28T10:14:47.832+0000","NextPageInformation":"2"},"View":[{"_type":"SearchResultsViewType","ViewId":0,"Result":[{"Relevance":1.0,"Distance":0.0,"Direction":0.0,"MatchLevel":"district","MatchQuality":{"Country":1.0,"State":1.0,"County":1.0,"City":1.0,"District":1.0,"PostalCode":1.0},"Location":{"LocationId":"NT_Mv5Z8CTAaquuahX9FJBYHB","LocationType":"point","DisplayPosition":{"Latitude":48.1729118,"Longitude":14.5286975},"MapView":{"TopLeft":{"Latitude":48.18677,"Longitude":14.51752},"BottomRight":{"Latitude":48.16748,"Longitude":14.54713}},"Address":{"Label":"Sankt Valentin, Niederösterreich, Österreich","Country":"AUT","State":"Niederösterreich","County":"Amstetten","City":"Sankt Valentin","District":"Sankt Valentin","PostalCode":"4300","AdditionalData":[{"value":"Österreich","key":"CountryName"},{"value":"Niederösterreich","key":"StateName"},{"value":"Amstetten","key":"CountyName"}]},"MapReference":{"ReferenceId":"842166857","SideOfStreet":"neither","CountryId":"20128885","StateId":"20130295","CountyId":"20130338","CityId":"20130423","DistrictId":"20130428"}}},{"Relevance":1.0,"Distance":22.5,"MatchLevel":"houseNumber","MatchQuality":{"Country":1.0,"State":1.0,"County":1.0,"City":1.0,"District":1.0,"Street":[1.0],"HouseNumber":1.0,"PostalCode":1.0},"MatchType":"interpolated","Location":{"LocationId":"NT_bSjhXnXSkZpZEZvIPbeGDB_zMD","LocationType":"point","DisplayPosition":{"Latitude":48.17315,"Longitude":14.52877},"MapView":{"TopLeft":{"Latitude":48.1742742,"Longitude":14.5270843},"BottomRight":{"Latitude":48.1720258,"Longitude":14.5304557}},"Address":{"Label":"Schubertviertel 33, 4300 Sankt Valentin, Österreich","Country":"AUT","State":"Niederösterreich","County":"Amstetten","City":"Sankt Valentin","District":"Sankt Valentin","Street":"Schubertviertel","HouseNumber":"33","PostalCode":"4300","AdditionalData":[{"value":"Österreich","key":"CountryName"},{"value":"Niederösterreich","key":"StateName"},{"value":"Amstetten","key":"CountyName"}]},"MapReference":{"ReferenceId":"75452485","Spot":0.18,"SideOfStreet":"left","CountryId":"20128885","StateId":"20130295","CountyId":"20130338","CityId":"20130423","DistrictId":"20130428","AddressId":"162194998","RoadLinkId":"28163454"}}},{"Relevance":1.0,"Distance":31.2,"MatchLevel":"houseNumber","MatchQuality":{"Country":1.0,"State":1.0,"County":1.0,"City":1.0,"District":1.0,"Street":[1.0],"HouseNumber":1.0,"PostalCode":1.0},"MatchType":"interpolated","Location":{"LocationId":"NT_bSjhXnXSkZpZEZvIPbeGDB_zkD","LocationType":"point","DisplayPosition":{"Latitude":48.17267,"Longitude":14.52784},"MapView":{"TopLeft":{"Latitude":48.1737942,"Longitude":14.5261543},"BottomRight":{"Latitude":48.1715458,"Longitude":14.5295257}},"Address":{"Label":"Schubertviertel 39, 4300 Sankt Valentin, Österreich","Country":"AUT","State":"Niederösterreich","County":"Amstetten","City":"Sankt Valentin","District":"Sankt Valentin","Street":"Schubertviertel","HouseNumber":"39","PostalCode":"4300","AdditionalData":[{"value":"Österreich","key":"CountryName"},{"value":"Niederösterreich","key":"StateName"},{"value":"Amstetten","key":"CountyName"}]},"MapReference":{"ReferenceId":"1165365645","Spot":0.64,"SideOfStreet":"right","CountryId":"20128885","StateId":"20130295","CountyId":"20130338","CityId":"20130423","DistrictId":"20130428","AddressId":"162194984","RoadLinkId":"471801346"}}},{"Relevance":1.0,"Distance":54.0,"MatchLevel":"houseNumber","MatchQuality":{"Country":1.0,"State":1.0,"County":1.0,"City":1.0,"District":1.0,"Street":[1.0],"HouseNumber":1.0,"PostalCode":1.0},"MatchType":"interpolated","Location":{"LocationId":"NT_bSjhXnXSkZpZEZvIPbeGDB_yUD","LocationType":"point","DisplayPosition":{"Latitude":48.17308,"Longitude":14.52782},"MapView":{"TopLeft":{"Latitude":48.1742042,"Longitude":14.5261343},"BottomRight":{"Latitude":48.1719558,"Longitude":14.5295057}},"Address":{"Label":"Schubertviertel 25, 4300 Sankt Valentin, Österreich","Country":"AUT","State":"Niederösterreich","County":"Amstetten","City":"Sankt Valentin","District":"Sankt Valentin","Street":"Schubertviertel","HouseNumber":"25","PostalCode":"4300","AdditionalData":[{"value":"Österreich","key":"CountryName"},{"value":"Niederösterreich","key":"StateName"},{"value":"Amstetten","key":"CountyName"}]},"MapReference":{"ReferenceId":"62858521","Spot":0.59,"SideOfStreet":"right","CountryId":"20128885","StateId":"20130295","CountyId":"20130338","CityId":"20130423","DistrictId":"20130428","AddressId":"162195018","RoadLinkId":"28836088"}}},{"Relevance":1.0,"Distance":66.7,"MatchLevel":"houseNumber","MatchQuality":{"Country":1.0,"State":1.0,"County":1.0,"City":1.0,"District":1.0,"Street":[1.0],"HouseNumber":1.0,"PostalCode":1.0},"MatchType":"interpolated","Location":{"LocationId":"NT_bSjhXnXSkZpZEZvIPbeGDB_xkD","LocationType":"point","DisplayPosition":{"Latitude":48.17359,"Longitude":14.52879},"MapView":{"TopLeft":{"Latitude":48.1747142,"Longitude":14.5271043},"BottomRight":{"Latitude":48.1724658,"Longitude":14.5304757}},"Address":{"Label":"Schubertviertel 19, 4300 Sankt Valentin, Österreich","Country":"AUT","State":"Niederösterreich","County":"Amstetten","City":"Sankt Valentin","District":"Sankt Valentin","Street":"Schubertviertel","HouseNumber":"19","PostalCode":"4300","AdditionalData":[{"value":"Österreich","key":"CountryName"},{"value":"Niederösterreich","key":"StateName"},{"value":"Amstetten","key":"CountyName"}]},"MapReference":{"ReferenceId":"75463377","Spot":0.36,"SideOfStreet":"left","CountryId":"20128885","StateId":"20130295","CountyId":"20130338","CityId":"20130423","DistrictId":"20130428","AddressId":"729021944","RoadLinkId":"27882463"}}},{"Relevance":1.0,"Distance":73.2,"MatchLevel":"houseNumber","MatchQuality":{"Country":1.0,"State":1.0,"County":1.0,"City":1.0,"District":1.0,"Street":[1.0],"HouseNumber":1.0,"PostalCode":1.0},"MatchType":"interpolated","Location":{"LocationId":"NT_bSjhXnXSkZpZEZvIPbeGDB_zED","LocationType":"point","DisplayPosition":{"Latitude":48.17342,"Longitude":14.52781},"MapView":{"TopLeft":{"Latitude":48.1745442,"Longitude":14.5261243},"BottomRight":{"Latitude":48.1722958,"Longitude":14.5294957}},"Address":{"Label":"Schubertviertel 31, 4300 Sankt Valentin, Österreich","Country":"AUT","State":"Niederösterreich","County":"Amstetten","City":"Sankt Valentin","District":"Sankt Valentin","Street":"Schubertviertel","HouseNumber":"31","PostalCode":"4300","AdditionalData":[{"value":"Österreich","key":"CountryName"},{"value":"Niederösterreich","key":"StateName"},{"value":"Amstetten","key":"CountyName"}]},"MapReference":{"ReferenceId":"75452473","Spot":0.28,"SideOfStreet":"right","CountryId":"20128885","StateId":"20130295","CountyId":"20130338","CityId":"20130423","DistrictId":"20130428","AddressId":"162194992","RoadLinkId":"29005512"}}},{"Relevance":1.0,"Distance":73.9,"MatchLevel":"houseNumber","MatchQuality":{"Country":1.0,"State":1.0,"County":1.0,"City":1.0,"District":1.0,"Street":[1.0],"HouseNumber":1.0,"PostalCode":1.0},"MatchType":"interpolated","Location":{"LocationId":"NT_bSjhXnXSkZpZEZvIPbeGDB_0MD","LocationType":"point","DisplayPosition":{"Latitude":48.17202,"Longitude":14.52845},"MapView":{"TopLeft":{"Latitude":48.1731442,"Longitude":14.5267644},"BottomRight":{"Latitude":48.1708958,"Longitude":14.5301356}},"Address":{"Label":"Schubertviertel 43, 4300 Sankt Valentin, Österreich","Country":"AUT","State":"Niederösterreich","County":"Amstetten","City":"Sankt Valentin","District":"Sankt Valentin","Street":"Schubertviertel","HouseNumber":"43","PostalCode":"4300","AdditionalData":[{"value":"Österreich","key":"CountryName"},{"value":"Niederösterreich","key":"StateName"},{"value":"Amstetten","key":"CountyName"}]},"MapReference":{"ReferenceId":"1165433092","Spot":0.72,"SideOfStreet":"right","CountryId":"20128885","StateId":"20130295","CountyId":"20130338","CityId":"20130423","DistrictId":"20130428","AddressId":"162194195","RoadLinkId":"471878721"}}},{"Relevance":1.0,"Distance":74.6,"MatchLevel":"houseNumber","MatchQuality":{"Country":1.0,"State":1.0,"County":1.0,"City":1.0,"District":1.0,"Street":[1.0],"HouseNumber":1.0,"PostalCode":1.0},"MatchType":"interpolated","Location":{"LocationId":"NT_bSjhXnXSkZpZEZvIPbeGDB_0UD","LocationType":"point","DisplayPosition":{"Latitude":48.1724,"Longitude":14.52786},"MapView":{"TopLeft":{"Latitude":48.1735242,"Longitude":14.5261743},"BottomRight":{"Latitude":48.1712758,"Longitude":14.5295457}},"Address":{"Label":"Schubertviertel 45, 4300 Sankt Valentin, Österreich","Country":"AUT","State":"Niederösterreich","County":"Amstetten","City":"Sankt Valentin","District":"Sankt Valentin","Street":"Schubertviertel","HouseNumber":"45","PostalCode":"4300","AdditionalData":[{"value":"Österreich","key":"CountryName"},{"value":"Niederösterreich","key":"StateName"},{"value":"Amstetten","key":"CountyName"}]},"MapReference":{"ReferenceId":"1165365644","Spot":0.44,"SideOfStreet":"right","CountryId":"20128885","StateId":"20130295","CountyId":"20130338","CityId":"20130423","DistrictId":"20130428","AddressId":"162194988","RoadLinkId":"471801345"}}},{"Relevance":1.0,"Distance":82.9,"MatchLevel":"houseNumber","MatchQuality":{"Country":1.0,"State":1.0,"County":1.0,"City":1.0,"District":1.0,"Street":[1.0],"HouseNumber":1.0,"PostalCode":1.0},"MatchType":"interpolated","Location":{"LocationId":"NT_bSjhXnXSkZpZEZvIPbeGDB_yYD","LocationType":"point","DisplayPosition":{"Latitude":48.17331,"Longitude":14.5277},"MapView":{"TopLeft":{"Latitude":48.1744342,"Longitude":14.5260143},"BottomRight":{"Latitude":48.1721858,"Longitude":14.5293857}},"Address":{"Label":"Schubertviertel 26, 4300 Sankt Valentin, Österreich","Country":"AUT","State":"Niederösterreich","County":"Amstetten","City":"Sankt Valentin","District":"Sankt Valentin","Street":"Schubertviertel","HouseNumber":"26","PostalCode":"4300","AdditionalData":[{"value":"Österreich","key":"CountryName"},{"value":"Niederösterreich","key":"StateName"},{"value":"Amstetten","key":"CountyName"}]},"MapReference":{"ReferenceId":"75452474","Spot":0.13,"SideOfStreet":"left","CountryId":"20128885","StateId":"20130295","CountyId":"20130338","CityId":"20130423","DistrictId":"20130428","AddressId":"162194981","RoadLinkId":"29119607"}}},{"Relevance":1.0,"Distance":83.7,"MatchLevel":"houseNumber","MatchQuality":{"Country":1.0,"State":1.0,"County":1.0,"City":1.0,"District":1.0,"Street":[1.0],"HouseNumber":1.0,"PostalCode":1.0},"MatchType":"interpolated","Location":{"LocationId":"NT_x8M1Wgahxb2MX3Q.W.g.IB_yMD","LocationType":"point","DisplayPosition":{"Latitude":48.1725,"Longitude":14.53007},"MapView":{"TopLeft":{"Latitude":48.1736242,"Longitude":14.5283843},"BottomRight":{"Latitude":48.1713758,"Longitude":14.5317557}},"Address":{"Label":"Hauptplatz 23, 4300 Sankt Valentin, Österreich","Country":"AUT","State":"Niederösterreich","County":"Amstetten","City":"Sankt Valentin","District":"Sankt Valentin","Street":"Hauptplatz","HouseNumber":"23","PostalCode":"4300","AdditionalData":[{"value":"Österreich","key":"CountryName"},{"value":"Niederösterreich","key":"StateName"},{"value":"Amstetten","key":"CountyName"}]},"MapReference":{"ReferenceId":"75452547","Spot":1.0,"SideOfStreet":"left","CountryId":"20128885","StateId":"20130295","CountyId":"20130338","CityId":"20130423","DistrictId":"20130428","AddressId":"411869562","RoadLinkId":"299643052"}}}]}]}}