{"Response":{"MetaInfo":{"Timestamp":"2020-03-28T11:37:06.137+0000","NextPageInformation":"2"},"View":[{"_type":"SearchResultsViewType","ViewId":0,"Result":[{"Relevance":1.0,"Distance":-6.0,"MatchLevel":"landmark","MatchQuality":{"Country":1.0,"State":1.0,"County":1.0,"City":1.0,"District":1.0,"Street":[1.0],"HouseNumber":1.0,"PostalCode":1.0,"Name":1.0},"Location":{"LocationId":"NT_9JRbM2htnegfL72nf3Uw6B_p_3x.vIdNBNegdLGn-6fm6HA","LocationType":"hospital","Name":"Nemocnica svätého Michala","DisplayPosition":{"Latitude":48.1465,"Longitude":17.11723},"MapView":{"TopLeft":{"Latitude":48.1476242,"Longitude":17.1155452},"BottomRight":{"Latitude":48.1453758,"Longitude":17.1189148}},"Address":{"Label":"Cintorínska 16, 811 08 Bratislava, Slovenská Republika","Country":"SVK","State":"Bratislavský kraj","County":"Bratislava","City":"Bratislava","District":"Bratislava I","Street":"Cintorínska","HouseNumber":"16","PostalCode":"811 08","AdditionalData":[{"value":"Slovenská Republika","key":"CountryName"},{"value":"Bratislavský kraj","key":"StateName"},{"value":"Bratislava","key":"CountyName"}]},"MapReference":{"CountryId":"20428682","StateId":"20488475","CountyId":"20488476","CityId":"20488477","DistrictId":"20488478","PlaceId":"552141165"}}},{"Relevance":1.0,"Distance":0.0,"Direction":0.0,"MatchLevel":"district","MatchQuality":{"Country":1.0,"State":1.0,"County":1.0,"City":1.0,"District":1.0,"PostalCode":1.0},"Location":{"LocationId":"NT_VO74BD4g0gBEBfYStYQilB","LocationType":"point","DisplayPosition":{"Latitude":48.1462555,"Longitude":17.1168533},"MapView":{"TopLeft":{"Latitude":48.18353,"Longitude":17.07268},"BottomRight":{"Latitude":48.13826,"Longitude":17.13227}},"Address":{"Label":"Bratislava I, Bratislava, Bratislavský kraj, Slovenská Republika","Country":"SVK","State":"Bratislavský kraj","County":"Bratislava","City":"Bratislava","District":"Bratislava I","PostalCode":"811 06","AdditionalData":[{"value":"Slovenská Republika","key":"CountryName"},{"value":"Bratislavský kraj","key":"StateName"},{"value":"Bratislava","key":"CountyName"}]},"MapReference":{"ReferenceId":"766687997","SideOfStreet":"neither","CountryId":"20428682","StateId":"20488475","CountyId":"20488476","CityId":"20488477","DistrictId":"20488478"}}},{"Relevance":1.0,"Distance":6.4,"MatchLevel":"houseNumber","MatchQuality":{"Country":1.0,"State":1.0,"County":1.0,"City":1.0,"District":1.0,"Street":[1.0],"HouseNumber":1.0,"PostalCode":1.0},"MatchType":"interpolated","Location":{"LocationId":"NT_0PLwXtsZtOjrisc8Uj9nNC_3czNw8SM","LocationType":"point","DisplayPosition":{"Latitude":48.14621,"Longitude":17.1168},"MapView":{"TopLeft":{"Latitude":48.1473342,"Longitude":17.1151152},"BottomRight":{"Latitude":48.1450858,"Longitude":17.1184848}},"Address":{"Label":"Satinského 7770/1, 811 08 Bratislava, Slovenská Republika","Country":"SVK","State":"Bratislavský kraj","County":"Bratislava","City":"Bratislava","District":"Bratislava I","Street":"Satinského","HouseNumber":"7770/1","PostalCode":"811 08","AdditionalData":[{"value":"Slovenská Republika","key":"CountryName"},{"value":"Bratislavský kraj","key":"StateName"},{"value":"Bratislava","key":"CountyName"}]},"MapReference":{"ReferenceId":"1148971968","Spot":0.82,"SideOfStreet":"right","CountryId":"20428682","StateId":"20488475","CountyId":"20488476","CityId":"20488477","DistrictId":"20488478","AddressId":"721897888","RoadLinkId":"454275726"}}},{"Relevance":1.0,"Distance":11.4,"MatchLevel":"street","MatchQuality":{"Country":1.0,"State":1.0,"County":1.0,"City":1.0,"District":1.0,"Street":[1.0],"PostalCode":1.0},"Location":{"LocationId":"NT_T5KJllZTJGIBxkE15fx6NB_l_762505526_R","LocationType":"point","DisplayPosition":{"Latitude":48.1463551,"Longitude":17.1168175},"MapView":{"TopLeft":{"Latitude":48.1465,"Longitude":17.11672},"BottomRight":{"Latitude":48.14632,"Longitude":17.11722}},"Address":{"Label":"Cintorínska, 811 08 Bratislava, Slovenská Republika","Country":"SVK","State":"Bratislavský kraj","County":"Bratislava","City":"Bratislava","District":"Bratislava I","Street":"Cintorínska","PostalCode":"811 08","AdditionalData":[{"value":"Slovenská Republika","key":"CountryName"},{"value":"Bratislavský kraj","key":"StateName"},{"value":"Bratislava","key":"CountyName"}]},"MapReference":{"ReferenceId":"762505526","Spot":0.19,"SideOfStreet":"right","CountryId":"20428682","StateId":"20488475","CountyId":"20488476","CityId":"20488477","DistrictId":"20488478"}}},{"Relevance":1.0,"Distance":12.2,"MatchLevel":"street","MatchQuality":{"Country":1.0,"State":1.0,"County":1.0,"City":1.0,"District":1.0,"Street":[1.0],"PostalCode":1.0},"Location":{"LocationId":"NT_T5KJllZTJGIBxkE15fx6NB_l_840975390_R","LocationType":"point","DisplayPosition":{"Latitude":48.14632,"Longitude":17.11672},"MapView":{"TopLeft":{"Latitude":48.14647,"Longitude":17.11671},"BottomRight":{"Latitude":48.14632,"Longitude":17.11672}},"Address":{"Label":"Cintorínska, 811 08 Bratislava, Slovenská Republika","Country":"SVK","State":"Bratislavský kraj","County":"Bratislava","City":"Bratislava","District":"Bratislava I","Street":"Cintorínska","PostalCode":"811 08","AdditionalData":[{"value":"Slovenská Republika","key":"CountryName"},{"value":"Bratislavský kraj","key":"StateName"},{"value":"Bratislava","key":"CountyName"}]},"MapReference":{"ReferenceId":"840975390","Spot":0.0,"SideOfStreet":"right","CountryId":"20428682","StateId":"20488475","CountyId":"20488476","CityId":"20488477","DistrictId":"20488478"}}},{"Relevance":1.0,"Distance":23.1,"MatchLevel":"houseNumber","MatchQuality":{"Country":1.0,"State":1.0,"County":1.0,"City":1.0,"District":1.0,"Street":[1.0],"HouseNumber":1.0,"PostalCode":1.0},"MatchType":"interpolated","Location":{"LocationId":"NT_T5KJllZTJGIBxkE15fx6NB_3YjN58SMyA","LocationType":"point","DisplayPosition":{"Latitude":48.14625,"Longitude":17.11652},"MapView":{"TopLeft":{"Latitude":48.1473742,"Longitude":17.1148352},"BottomRight":{"Latitude":48.1451258,"Longitude":17.1182048}},"Address":{"Label":"Cintorínska 7669/12, 811 08 Bratislava, Slovenská Republika","Country":"SVK","State":"Bratislavský kraj","County":"Bratislava","City":"Bratislava","District":"Bratislava I","Street":"Cintorínska","HouseNumber":"7669/12","PostalCode":"811 08","AdditionalData":[{"value":"Slovenská Republika","key":"CountryName"},{"value":"Bratislavský kraj","key":"StateName"},{"value":"Bratislava","key":"CountyName"}]},"MapReference":{"ReferenceId":"759535282","Spot":0.58,"SideOfStreet":"right","CountryId":"20428682","StateId":"20488475","CountyId":"20488476","CityId":"20488477","DistrictId":"20488478","AddressId":"676465074","RoadLinkId":"154127590"}}},{"Relevance":1.0,"Distance":26.1,"MatchLevel":"houseNumber","MatchQuality":{"Country":1.0,"State":1.0,"County":1.0,"City":1.0,"District":1.0,"Street":[1.0],"HouseNumber":1.0,"PostalCode":1.0},"MatchType":"interpolated","Location":{"LocationId":"NT_T5KJllZTJGIBxkE15fx6NB_2czN48yMiB","LocationType":"point","DisplayPosition":{"Latitude":48.14647,"Longitude":17.11671},"MapView":{"TopLeft":{"Latitude":48.1475942,"Longitude":17.1150252},"BottomRight":{"Latitude":48.1453458,"Longitude":17.1183948}},"Address":{"Label":"Cintorínska 6778/3b, 811 08 Bratislava, Slovenská Republika","Country":"SVK","State":"Bratislavský kraj","County":"Bratislava","City":"Bratislava","District":"Bratislava I","Street":"Cintorínska","HouseNumber":"6778/3b","PostalCode":"811 08","AdditionalData":[{"value":"Slovenská Republika","key":"CountryName"},{"value":"Bratislavský kraj","key":"StateName"},{"value":"Bratislava","key":"CountyName"}]},"MapReference":{"ReferenceId":"841326683","Spot":0.0,"SideOfStreet":"left","CountryId":"20428682","StateId":"20488475","CountyId":"20488476","CityId":"20488477","DistrictId":"20488478","AddressId":"589539266","RoadLinkId":"223194035"}}},{"Relevance":1.0,"Distance":34.1,"MatchLevel":"street","MatchQuality":{"Country":1.0,"State":1.0,"County":1.0,"City":1.0,"District":1.0,"Street":[1.0],"PostalCode":1.0},"Location":{"LocationId":"NT_T5KJllZTJGIBxkE15fx6NB_l_841326684_R","LocationType":"point","DisplayPosition":{"Latitude":48.14656,"Longitude":17.1168},"MapView":{"TopLeft":{"Latitude":48.14671,"Longitude":17.1168},"BottomRight":{"Latitude":48.14656,"Longitude":17.11698}},"Address":{"Label":"Cintorínska, 811 08 Bratislava, Slovenská Republika","Country":"SVK","State":"Bratislavský kraj","County":"Bratislava","City":"Bratislava","District":"Bratislava I","Street":"Cintorínska","PostalCode":"811 08","AdditionalData":[{"value":"Slovenská Republika","key":"CountryName"},{"value":"Bratislavský kraj","key":"StateName"},{"value":"Bratislava","key":"CountyName"}]},"MapReference":{"ReferenceId":"841326684","Spot":0.0,"SideOfStreet":"right","CountryId":"20428682","StateId":"20488475","CountyId":"20488476","CityId":"20488477","DistrictId":"20488478"}}},{"Relevance":1.0,"Distance":41.2,"MatchLevel":"street","MatchQuality":{"Country":1.0,"State":1.0,"County":1.0,"City":1.0,"District":1.0,"PostalCode":1.0},"Location":{"LocationId":"NT_2TBTnUsYAv391dtumvq9hB_l_762505528_L","LocationType":"point","DisplayPosition":{"Latitude":48.1465757,"Longitude":17.1171335},"MapView":{"TopLeft":{"Latitude":48.14671,"Longitude":17.11698},"BottomRight":{"Latitude":48.1465,"Longitude":17.11722}},"Address":{"Label":"811 08 Bratislava, Slovenská Republika","Country":"SVK","State":"Bratislavský kraj","County":"Bratislava","City":"Bratislava","District":"Bratislava I","PostalCode":"811 08","AdditionalData":[{"value":"Slovenská Republika","key":"CountryName"},{"value":"Bratislavský kraj","key":"StateName"},{"value":"Bratislava","key":"CountyName"}]},"MapReference":{"ReferenceId":"762505528","Spot":0.36,"SideOfStreet":"left","CountryId":"20428682","StateId":"20488475","CountyId":"20488476","CityId":"20488477","DistrictId":"20488478"}}},{"Relevance":1.0,"Distance":46.3,"MatchLevel":"street","MatchQuality":{"Country":1.0,"State":1.0,"County":1.0,"City":1.0,"District":1.0,"PostalCode":1.0},"Location":{"LocationId":"NT_2TBTnUsYAv391dtumvq9hB_l_759535264_R","LocationType":"point","DisplayPosition":{"Latitude":48.14615,"Longitude":17.11625},"MapView":{"TopLeft":{"Latitude":48.14634,"Longitude":17.11608},"BottomRight":{"Latitude":48.14615,"Longitude":17.11625}},"Address":{"Label":"811 08 Bratislava, Slovenská Republika","Country":"SVK","State":"Bratislavský kraj","County":"Bratislava","City":"Bratislava","District":"Bratislava I","PostalCode":"811 08","AdditionalData":[{"value":"Slovenská Republika","key":"CountryName"},{"value":"Bratislavský kraj","key":"StateName"},{"value":"Bratislava","key":"CountyName"}]},"MapReference":{"ReferenceId":"759535264","Spot":0.0,"SideOfStreet":"right","CountryId":"20428682","StateId":"20488475","CountyId":"20488476","CityId":"20488477","DistrictId":"20488478"}}}]}]}}