{"Response":{"MetaInfo":{"Timestamp":"2020-03-28T11:45:04.771+0000","NextPageInformation":"2"},"View":[{"_type":"SearchResultsViewType","ViewId":0,"Result":[{"Relevance":1.0,"Distance":0.0,"Direction":0.0,"MatchLevel":"district","MatchQuality":{"Country":1.0,"State":1.0,"County":1.0,"City":1.0,"District":1.0,"PostalCode":1.0},"Location":{"LocationId":"NT_zlqTuTmpoe-k42Os5ZZ17B","LocationType":"point","DisplayPosition":{"Latitude":48.1089567,"Longitude":11.3006923},"MapView":{"TopLeft":{"Latitude":48.12428,"Longitude":11.27774},"BottomRight":{"Latitude":48.09017,"Longitude":11.31483}},"Address":{"Label":"Gilching, Bayern, Deutschland","Country":"DEU","State":"Bayern","County":"Starnberg","City":"Gilching","District":"Gilching","PostalCode":"82205","AdditionalData":[{"value":"Deutschland","key":"CountryName"},{"value":"Bayern","key":"StateName"},{"value":"Starnberg","key":"CountyName"}]},"MapReference":{"ReferenceId":"851710835","SideOfStreet":"neither","CountryId":"20147700","StateId":"20177250","CountyId":"20179164","CityId":"20179191","DistrictId":"20179193"}}},{"Relevance":1.0,"Distance":8.6,"MatchLevel":"houseNumber","MatchQuality":{"Country":1.0,"State":1.0,"County":1.0,"City":1.0,"District":1.0,"Street":[1.0],"HouseNumber":1.0,"PostalCode":1.0},"MatchType":"interpolated","Location":{"LocationId":"NT_I58BLA4QDjlNeBCcYvEo9D_yYD","LocationType":"point","DisplayPosition":{"Latitude":48.10879,"Longitude":11.30058},"MapView":{"TopLeft":{"Latitude":48.1099142,"Longitude":11.2988964},"BottomRight":{"Latitude":48.1076658,"Longitude":11.3022636}},"Address":{"Label":"Römerstraße 26, 82205 Gilching, Deutschland","Country":"DEU","State":"Bayern","County":"Starnberg","City":"Gilching","District":"Gilching","Street":"Römerstraße","HouseNumber":"26","PostalCode":"82205","AdditionalData":[{"value":"Deutschland","key":"CountryName"},{"value":"Bayern","key":"StateName"},{"value":"Starnberg","key":"CountyName"}]},"MapReference":{"ReferenceId":"851710835","Spot":0.1,"SideOfStreet":"right","CountryId":"20147700","StateId":"20177250","CountyId":"20179164","CityId":"20179191","DistrictId":"20179193","AddressId":"182223212","RoadLinkId":"231074928"}}},{"Relevance":1.0,"Distance":24.0,"MatchLevel":"houseNumber","MatchQuality":{"Country":1.0,"State":1.0,"County":1.0,"City":1.0,"District":1.0,"Street":[1.0],"HouseNumber":1.0,"PostalCode":1.0},"MatchType":"interpolated","Location":{"LocationId":"NT_yvKWpD1LNacnt6JFYvpreD_xA","LocationType":"point","DisplayPosition":{"Latitude":48.10895,"Longitude":11.30112},"MapView":{"TopLeft":{"Latitude":48.1100742,"Longitude":11.2994364},"BottomRight":{"Latitude":48.1078258,"Longitude":11.3028036}},"Address":{"Label":"Weiherweg 1, 82205 Gilching, Deutschland","Country":"DEU","State":"Bayern","County":"Starnberg","City":"Gilching","District":"Gilching","Street":"Weiherweg","HouseNumber":"1","PostalCode":"82205","AdditionalData":[{"value":"Deutschland","key":"CountryName"},{"value":"Bayern","key":"StateName"},{"value":"Starnberg","key":"CountyName"}]},"MapReference":{"ReferenceId":"79562451","Spot":0.26,"SideOfStreet":"left","CountryId":"20147700","StateId":"20177250","CountyId":"20179164","CityId":"20179191","DistrictId":"20179193","AddressId":"186117048","RoadLinkId":"32893044"}}},{"Relevance":1.0,"Distance":26.3,"MatchLevel":"street","MatchQuality":{"Country":1.0,"State":1.0,"County":1.0,"City":1.0,"District":1.0,"Street":[1.0],"PostalCode":1.0},"Location":{"LocationId":"NT_3Duapzki3TgU-FLmnuUB1D_l_576320415_L","LocationType":"point","DisplayPosition":{"Latitude":48.10872,"Longitude":11.3007},"MapView":{"TopLeft":{"Latitude":48.10872,"Longitude":11.29864},"BottomRight":{"Latitude":48.10767,"Longitude":11.3007}},"Address":{"Label":"Schäftlarner Weg, 82205 Gilching, Deutschland","Country":"DEU","State":"Bayern","County":"Starnberg","City":"Gilching","District":"Gilching","Street":"Schäftlarner Weg","PostalCode":"82205","AdditionalData":[{"value":"Deutschland","key":"CountryName"},{"value":"Bayern","key":"StateName"},{"value":"Starnberg","key":"CountyName"}]},"MapReference":{"ReferenceId":"576320415","Spot":1.0,"SideOfStreet":"left","CountryId":"20147700","StateId":"20177250","CountyId":"20179164","CityId":"20179191","DistrictId":"20179193"}}},{"Relevance":1.0,"Distance":36.5,"MatchLevel":"houseNumber","MatchQuality":{"Country":1.0,"State":1.0,"County":1.0,"City":1.0,"District":1.0,"Street":[1.0],"HouseNumber":1.0,"PostalCode":1.0},"MatchType":"interpolated","Location":{"LocationId":"NT_I58BLA4QDjlNeBCcYvEo9D_yQD","LocationType":"point","DisplayPosition":{"Latitude":48.10864,"Longitude":11.30082},"MapView":{"TopLeft":{"Latitude":48.1097642,"Longitude":11.2991364},"BottomRight":{"Latitude":48.1075158,"Longitude":11.3025036}},"Address":{"Label":"Römerstraße 24, 82205 Gilching, Deutschland","Country":"DEU","State":"Bayern","County":"Starnberg","City":"Gilching","District":"Gilching","Street":"Römerstraße","HouseNumber":"24","PostalCode":"82205","AdditionalData":[{"value":"Deutschland","key":"CountryName"},{"value":"Bayern","key":"StateName"},{"value":"Starnberg","key":"CountyName"}]},"MapReference":{"ReferenceId":"79562455","Spot":0.54,"SideOfStreet":"right","CountryId":"20147700","StateId":"20177250","CountyId":"20179164","CityId":"20179191","DistrictId":"20179193","AddressId":"182875390","RoadLinkId":"33166250"}}},{"Relevance":1.0,"Distance":68.7,"MatchLevel":"houseNumber","MatchQuality":{"Country":1.0,"State":1.0,"County":1.0,"City":1.0,"District":1.0,"Street":[1.0],"HouseNumber":1.0,"PostalCode":1.0},"MatchType":"interpolated","Location":{"LocationId":"NT_I58BLA4QDjlNeBCcYvEo9D_yID","LocationType":"point","DisplayPosition":{"Latitude":48.10842,"Longitude":11.30115},"MapView":{"TopLeft":{"Latitude":48.1095442,"Longitude":11.2994664},"BottomRight":{"Latitude":48.1072958,"Longitude":11.3028336}},"Address":{"Label":"Römerstraße 22, 82205 Gilching, Deutschland","Country":"DEU","State":"Bayern","County":"Starnberg","City":"Gilching","District":"Gilching","Street":"Römerstraße","HouseNumber":"22","PostalCode":"82205","AdditionalData":[{"value":"Deutschland","key":"CountryName"},{"value":"Bayern","key":"StateName"},{"value":"Starnberg","key":"CountyName"}]},"MapReference":{"ReferenceId":"1268562894","Spot":0.71,"SideOfStreet":"right","CountryId":"20147700","StateId":"20177250","CountyId":"20179164","CityId":"20179191","DistrictId":"20179193","AddressId":"814886477","RoadLinkId":"595662890"}}},{"Relevance":1.0,"Distance":86.4,"MatchLevel":"houseNumber","MatchQuality":{"Country":1.0,"State":1.0,"County":1.0,"City":1.0,"District":1.0,"Street":[1.0],"HouseNumber":1.0,"PostalCode":1.0},"MatchType":"interpolated","Location":{"LocationId":"NT_P8hzYlgbT-mEC5nuQnH-VD_1A","LocationType":"point","DisplayPosition":{"Latitude":48.10848,"Longitude":11.30226},"MapView":{"TopLeft":{"Latitude":48.1096042,"Longitude":11.3005764},"BottomRight":{"Latitude":48.1073558,"Longitude":11.3039436}},"Address":{"Label":"Am Burgstall 5, 82205 Gilching, Deutschland","Country":"DEU","State":"Bayern","County":"Starnberg","City":"Gilching","District":"Gilching","Street":"Am Burgstall","HouseNumber":"5","PostalCode":"82205","AdditionalData":[{"value":"Deutschland","key":"CountryName"},{"value":"Bayern","key":"StateName"},{"value":"Starnberg","key":"CountyName"}]},"MapReference":{"ReferenceId":"79562453","Spot":0.29,"SideOfStreet":"left","CountryId":"20147700","StateId":"20177250","CountyId":"20179164","CityId":"20179191","DistrictId":"20179193","AddressId":"182798111","RoadLinkId":"32879269"}}},{"Relevance":1.0,"Distance":97.1,"MatchLevel":"houseNumber","MatchQuality":{"Country":1.0,"State":1.0,"County":1.0,"City":1.0,"District":1.0,"Street":[1.0],"HouseNumber":1.0,"PostalCode":1.0},"MatchType":"interpolated","Location":{"LocationId":"NT_h7KS1Tbcytzx3-wjGHTKOD_xA","LocationType":"point","DisplayPosition":{"Latitude":48.1086,"Longitude":11.29922},"MapView":{"TopLeft":{"Latitude":48.1097242,"Longitude":11.2975364},"BottomRight":{"Latitude":48.1074758,"Longitude":11.3009036}},"Address":{"Label":"Am Markt 1, 82205 Gilching, Deutschland","Country":"DEU","State":"Bayern","County":"Starnberg","City":"Gilching","District":"Gilching","Street":"Am Markt","HouseNumber":"1","PostalCode":"82205","AdditionalData":[{"value":"Deutschland","key":"CountryName"},{"value":"Bayern","key":"StateName"},{"value":"Starnberg","key":"CountyName"}]},"MapReference":{"ReferenceId":"851710837","Spot":0.56,"SideOfStreet":"right","CountryId":"20147700","StateId":"20177250","CountyId":"20179164","CityId":"20179191","DistrictId":"20179193","AddressId":"182223213","RoadLinkId":"231074933"}}},{"Relevance":1.0,"Distance":109.8,"MatchLevel":"houseNumber","MatchQuality":{"Country":1.0,"State":1.0,"County":1.0,"City":1.0,"District":1.0,"Street":[1.0],"HouseNumber":1.0,"PostalCode":1.0},"MatchType":"interpolated","Location":{"LocationId":"NT_Z-yH827bVNpWZFRt3n2YtD_0A","LocationType":"point","DisplayPosition":{"Latitude":48.10807,"Longitude":11.30004},"MapView":{"TopLeft":{"Latitude":48.1091942,"Longitude":11.2983565},"BottomRight":{"Latitude":48.1069458,"Longitude":11.3017235}},"Address":{"Label":"Arnoldusstraße 4, 82205 Gilching, Deutschland","Country":"DEU","State":"Bayern","County":"Starnberg","City":"Gilching","District":"Gilching","Street":"Arnoldusstraße","HouseNumber":"4","PostalCode":"82205","AdditionalData":[{"value":"Deutschland","key":"CountryName"},{"value":"Bayern","key":"StateName"},{"value":"Starnberg","key":"CountyName"}]},"MapReference":{"ReferenceId":"79562456","Spot":0.41,"SideOfStreet":"left","CountryId":"20147700","StateId":"20177250","CountyId":"20179164","CityId":"20179191","DistrictId":"20179193","AddressId":"183657698","RoadLinkId":"33855802"}}},{"Relevance":1.0,"Distance":115.3,"MatchLevel":"street","MatchQuality":{"Country":1.0,"State":1.0,"County":1.0,"City":1.0,"District":1.0,"Street":[1.0],"PostalCode":1.0},"Location":{"LocationId":"NT_L1wkOSDIIS-M35Fhxiia1C_l_79562475_R","LocationType":"point","DisplayPosition":{"Latitude":48.10813,"Longitude":11.30163},"MapView":{"TopLeft":{"Latitude":48.10813,"Longitude":11.30163},"BottomRight":{"Latitude":48.10808,"Longitude":11.30171}},"Address":{"Label":"Römerstraße, 82205 Gilching, Deutschland","Country":"DEU","State":"Bayern","County":"Starnberg","City":"Gilching","District":"Gilching","Street":"Römerstraße","PostalCode":"82205","AdditionalData":[{"value":"Deutschland","key":"CountryName"},{"value":"Bayern","key":"StateName"},{"value":"Starnberg","key":"CountyName"}]},"MapReference":{"ReferenceId":"79562475","Spot":1.0,"SideOfStreet":"right","CountryId":"20147700","StateId":"20177250","CountyId":"20179164","CityId":"20179191","DistrictId":"20179193"}}}]}]}}