{"Response":{"MetaInfo":{"Timestamp":"2020-03-28T09:35:19.554+0000","NextPageInformation":"2"},"View":[{"_type":"SearchResultsViewType","ViewId":0,"Result":[{"Relevance":1.0,"Distance":0.0,"Direction":0.0,"MatchLevel":"district","MatchQuality":{"Country":1.0,"State":1.0,"County":1.0,"City":1.0,"District":1.0,"PostalCode":1.0},"Location":{"LocationId":"NT_HG9wqSGkhKvc5QbjcyuufC","LocationType":"point","DisplayPosition":{"Latitude":48.1103151,"Longitude":11.5950963},"MapView":{"TopLeft":{"Latitude":48.12287,"Longitude":11.57367},"BottomRight":{"Latitude":48.09352,"Longitude":11.60367}},"Address":{"Label":"Obergiesing, München, Bayern, Deutschland","Country":"DEU","State":"Bayern","County":"München (Stadt)","City":"München","District":"Obergiesing","PostalCode":"81539","AdditionalData":[{"value":"Deutschland","key":"CountryName"},{"value":"Bayern","key":"StateName"},{"value":"München (Stadt)","key":"CountyName"}]},"MapReference":{"ReferenceId":"52811872","SideOfStreet":"neither","CountryId":"20147700","StateId":"20177250","CountyId":"20177268","CityId":"20177269"}}},{"Relevance":1.0,"Distance":6.5,"MatchLevel":"houseNumber","MatchQuality":{"Country":1.0,"State":1.0,"County":1.0,"City":1.0,"District":1.0,"Street":[1.0],"HouseNumber":1.0,"PostalCode":1.0},"MatchType":"interpolated","Location":{"LocationId":"NT_VexecT1aB1rApenEgobRRC_yA","LocationType":"point","DisplayPosition":{"Latitude":48.11027,"Longitude":11.59504},"MapView":{"TopLeft":{"Latitude":48.1113942,"Longitude":11.5933564},"BottomRight":{"Latitude":48.1091458,"Longitude":11.5967236}},"Address":{"Label":"Giesinger Bahnhofplatz 2, 81539 München, Deutschland","Country":"DEU","State":"Bayern","County":"München (Stadt)","City":"München","District":"Obergiesing","Street":"Giesinger Bahnhofplatz","HouseNumber":"2","PostalCode":"81539","AdditionalData":[{"value":"Deutschland","key":"CountryName"},{"value":"Bayern","key":"StateName"},{"value":"München (Stadt)","key":"CountyName"}]},"MapReference":{"ReferenceId":"798634161","Spot":0.09,"SideOfStreet":"right","CountryId":"20147700","StateId":"20177250","CountyId":"20177268","CityId":"20177269","AddressId":"199007752","RoadLinkId":"189431521"}}},{"Relevance":1.0,"Distance":23.0,"MatchLevel":"houseNumber","MatchQuality":{"Country":1.0,"State":1.0,"County":1.0,"City":1.0,"District":1.0,"Street":[1.0],"HouseNumber":1.0,"PostalCode":1.0},"MatchType":"interpolated","Location":{"LocationId":"NT_VexecT1aB1rApenEgobRRC_zA","LocationType":"point","DisplayPosition":{"Latitude":48.11021,"Longitude":11.59483},"MapView":{"TopLeft":{"Latitude":48.1113342,"Longitude":11.5931464},"BottomRight":{"Latitude":48.1090858,"Longitude":11.5965136}},"Address":{"Label":"Giesinger Bahnhofplatz 3, 81539 München, Deutschland","Country":"DEU","State":"Bayern","County":"München (Stadt)","City":"München","District":"Obergiesing","Street":"Giesinger Bahnhofplatz","HouseNumber":"3","PostalCode":"81539","AdditionalData":[{"value":"Deutschland","key":"CountryName"},{"value":"Bayern","key":"StateName"},{"value":"München (Stadt)","key":"CountyName"}]},"MapReference":{"ReferenceId":"842215798","Spot":0.05,"SideOfStreet":"left","CountryId":"20147700","StateId":"20177250","CountyId":"20177268","CityId":"20177269","AddressId":"214081678","RoadLinkId":"224147874"}}},{"Relevance":1.0,"Distance":27.0,"MatchLevel":"houseNumber","MatchQuality":{"Country":1.0,"State":1.0,"County":1.0,"City":1.0,"District":1.0,"Street":[1.0],"HouseNumber":1.0,"PostalCode":1.0},"MatchType":"interpolated","Location":{"LocationId":"NT_ns7SGC2Kqcut0UlHAixOiC_yA","LocationType":"point","DisplayPosition":{"Latitude":48.11013,"Longitude":11.59486},"MapView":{"TopLeft":{"Latitude":48.1112542,"Longitude":11.5931764},"BottomRight":{"Latitude":48.1090058,"Longitude":11.5965436}},"Address":{"Label":"Schwanseestraße 2, 81539 München, Deutschland","Country":"DEU","State":"Bayern","County":"München (Stadt)","City":"München","District":"Obergiesing","Street":"Schwanseestraße","HouseNumber":"2","PostalCode":"81539","AdditionalData":[{"value":"Deutschland","key":"CountryName"},{"value":"Bayern","key":"StateName"},{"value":"München (Stadt)","key":"CountyName"}]},"MapReference":{"ReferenceId":"1194634895","Spot":0.92,"SideOfStreet":"left","CountryId":"20147700","StateId":"20177250","CountyId":"20177268","CityId":"20177269","AddressId":"168629880","RoadLinkId":"504734372"}}},{"Relevance":1.0,"Distance":30.2,"MatchLevel":"street","MatchQuality":{"Country":1.0,"State":1.0,"County":1.0,"City":1.0,"District":1.0,"Street":[1.0],"PostalCode":1.0},"Location":{"LocationId":"NT_VexecT1aB1rApenEgobRRC_l_52811871_L","LocationType":"point","DisplayPosition":{"Latitude":48.11048,"Longitude":11.59542},"MapView":{"TopLeft":{"Latitude":48.11096,"Longitude":11.59523},"BottomRight":{"Latitude":48.11048,"Longitude":11.59542}},"Address":{"Label":"Giesinger Bahnhofplatz, 81539 München, Deutschland","Country":"DEU","State":"Bayern","County":"München (Stadt)","City":"München","District":"Obergiesing","Street":"Giesinger Bahnhofplatz","PostalCode":"81539","AdditionalData":[{"value":"Deutschland","key":"CountryName"},{"value":"Bayern","key":"StateName"},{"value":"München (Stadt)","key":"CountyName"}]},"MapReference":{"ReferenceId":"52811871","Spot":0.0,"SideOfStreet":"left","CountryId":"20147700","StateId":"20177250","CountyId":"20177268","CityId":"20177269"}}},{"Relevance":1.0,"Distance":30.2,"MatchLevel":"street","MatchQuality":{"Country":1.0,"State":1.0,"County":1.0,"City":1.0,"District":1.0,"Street":[1.0],"PostalCode":1.0},"Location":{"LocationId":"NT_VexecT1aB1rApenEgobRRC_l_842215799_R","LocationType":"point","DisplayPosition":{"Latitude":48.11048,"Longitude":11.59542},"MapView":{"TopLeft":{"Latitude":48.1105,"Longitude":11.59542},"BottomRight":{"Latitude":48.11048,"Longitude":11.59553}},"Address":{"Label":"Giesinger Bahnhofplatz, 81539 München, Deutschland","Country":"DEU","State":"Bayern","County":"München (Stadt)","City":"München","District":"Obergiesing","Street":"Giesinger Bahnhofplatz","PostalCode":"81539","AdditionalData":[{"value":"Deutschland","key":"CountryName"},{"value":"Bayern","key":"StateName"},{"value":"München (Stadt)","key":"CountyName"}]},"MapReference":{"ReferenceId":"842215799","Spot":0.0,"SideOfStreet":"right","CountryId":"20147700","StateId":"20177250","CountyId":"20177268","CityId":"20177269"}}},{"Relevance":1.0,"Distance":38.2,"MatchLevel":"street","MatchQuality":{"Country":1.0,"State":1.0,"County":1.0,"City":1.0,"District":1.0,"Street":[1.0],"PostalCode":1.0},"Location":{"LocationId":"NT_VexecT1aB1rApenEgobRRC_l_859179643_L","LocationType":"point","DisplayPosition":{"Latitude":48.1105,"Longitude":11.59553},"MapView":{"TopLeft":{"Latitude":48.1105,"Longitude":11.59553},"BottomRight":{"Latitude":48.11011,"Longitude":11.5957}},"Address":{"Label":"Giesinger Bahnhofplatz, 81539 München, Deutschland","Country":"DEU","State":"Bayern","County":"München (Stadt)","City":"München","District":"Obergiesing","Street":"Giesinger Bahnhofplatz","PostalCode":"81539","AdditionalData":[{"value":"Deutschland","key":"CountryName"},{"value":"Bayern","key":"StateName"},{"value":"München (Stadt)","key":"CountyName"}]},"MapReference":{"ReferenceId":"859179643","Spot":1.0,"SideOfStreet":"left","CountryId":"20147700","StateId":"20177250","CountyId":"20177268","CityId":"20177269"}}},{"Relevance":1.0,"Distance":38.2,"MatchLevel":"street","MatchQuality":{"Country":1.0,"State":1.0,"County":1.0,"City":1.0,"District":1.0,"Street":[1.0],"PostalCode":1.0},"Location":{"LocationId":"NT_VexecT1aB1rApenEgobRRC_l_1218914403_R","LocationType":"point","DisplayPosition":{"Latitude":48.1105,"Longitude":11.59553},"MapView":{"TopLeft":{"Latitude":48.11067,"Longitude":11.59553},"BottomRight":{"Latitude":48.1105,"Longitude":11.59587}},"Address":{"Label":"Giesinger Bahnhofplatz, 81539 München, Deutschland","Country":"DEU","State":"Bayern","County":"München (Stadt)","City":"München","District":"Obergiesing","Street":"Giesinger Bahnhofplatz","PostalCode":"81539","AdditionalData":[{"value":"Deutschland","key":"CountryName"},{"value":"Bayern","key":"StateName"},{"value":"München (Stadt)","key":"CountyName"}]},"MapReference":{"ReferenceId":"1218914403","Spot":0.0,"SideOfStreet":"right","CountryId":"20147700","StateId":"20177250","CountyId":"20177268","CityId":"20177269"}}},{"Relevance":1.0,"Distance":57.7,"MatchLevel":"houseNumber","MatchQuality":{"Country":1.0,"State":1.0,"County":1.0,"City":1.0,"District":1.0,"Street":[1.0],"HouseNumber":1.0,"PostalCode":1.0},"MatchType":"interpolated","Location":{"LocationId":"NT_ns7SGC2Kqcut0UlHAixOiC_zA","LocationType":"point","DisplayPosition":{"Latitude":48.1098,"Longitude":11.59519},"MapView":{"TopLeft":{"Latitude":48.1109242,"Longitude":11.5935064},"BottomRight":{"Latitude":48.1086758,"Longitude":11.5968736}},"Address":{"Label":"Schwanseestraße 3, 81539 München, Deutschland","Country":"DEU","State":"Bayern","County":"München (Stadt)","City":"München","District":"Obergiesing","Street":"Schwanseestraße","HouseNumber":"3","PostalCode":"81539","AdditionalData":[{"value":"Deutschland","key":"CountryName"},{"value":"Bayern","key":"StateName"},{"value":"München (Stadt)","key":"CountyName"}]},"MapReference":{"ReferenceId":"798634160","Spot":0.58,"SideOfStreet":"right","CountryId":"20147700","StateId":"20177250","CountyId":"20177268","CityId":"20177269","AddressId":"168965350","RoadLinkId":"189431520"}}},{"Relevance":1.0,"Distance":65.3,"MatchLevel":"street","MatchQuality":{"Country":1.0,"State":1.0,"County":1.0,"City":1.0,"District":1.0,"PostalCode":1.0},"Location":{"LocationId":"NT_BkG5n.N.prbvEqiDxpSHbA_l_52811832_R","LocationType":"point","DisplayPosition":{"Latitude":48.11087,"Longitude":11.59481},"MapView":{"TopLeft":{"Latitude":48.11087,"Longitude":11.59459},"BottomRight":{"Latitude":48.11083,"Longitude":11.59481}},"Address":{"Label":"81539 München, Deutschland","Country":"DEU","State":"Bayern","County":"München (Stadt)","City":"München","District":"Obergiesing","PostalCode":"81539","AdditionalData":[{"value":"Deutschland","key":"CountryName"},{"value":"Bayern","key":"StateName"},{"value":"München (Stadt)","key":"CountyName"}]},"MapReference":{"ReferenceId":"52811832","Spot":1.0,"SideOfStreet":"right","CountryId":"20147700","StateId":"20177250","CountyId":"20177268","CityId":"20177269"}}}]}]}}