{"Response":{"MetaInfo":{"Timestamp":"2020-03-28T10:51:12.041+0000","NextPageInformation":"2"},"View":[{"_type":"SearchResultsViewType","ViewId":0,"Result":[{"Relevance":1.0,"Distance":-3.8,"MatchLevel":"landmark","MatchQuality":{"Country":1.0,"State":1.0,"County":1.0,"City":1.0,"District":1.0,"Street":[1.0],"HouseNumber":1.0,"PostalCode":1.0,"Name":1.0},"Location":{"LocationId":"NT_vb8aiqtcmCHj3corksuJxC_p_BRcPFk-dun4nmUgrqU5IWA","LocationType":"hospital","Name":"Ordensklinikum Barmh. Schwestern","DisplayPosition":{"Latitude":48.29929,"Longitude":14.28961},"MapView":{"TopLeft":{"Latitude":48.3004142,"Longitude":14.2879202},"BottomRight":{"Latitude":48.2981658,"Longitude":14.2912998}},"Address":{"Label":"Seilerstätte 4, 4020 Linz, Österreich","Country":"AUT","State":"Oberösterreich","County":"Linz","City":"Linz","District":"Linz-City","Street":"Seilerstätte","HouseNumber":"4","PostalCode":"4020","AdditionalData":[{"value":"Österreich","key":"CountryName"},{"value":"Oberösterreich","key":"StateName"},{"value":"Linz","key":"CountyName"}]},"MapReference":{"CountryId":"20128885","StateId":"20132880","CountyId":"20132881","CityId":"20132882","PlaceId":"51061496"}}},{"Relevance":1.0,"Distance":0.0,"Direction":0.0,"MatchLevel":"district","MatchQuality":{"Country":1.0,"State":1.0,"County":1.0,"City":1.0,"District":1.0,"PostalCode":1.0},"Location":{"LocationId":"NT_C4Og-g0B6TTTK7wRo9zk6C","LocationType":"point","DisplayPosition":{"Latitude":48.2996312,"Longitude":14.28946},"MapView":{"TopLeft":{"Latitude":48.31761,"Longitude":14.24575},"BottomRight":{"Latitude":48.28237,"Longitude":14.31066}},"Address":{"Label":"Linz-City, Linz, Oberösterreich, Österreich","Country":"AUT","State":"Oberösterreich","County":"Linz","City":"Linz","District":"Linz-City","PostalCode":"4020","AdditionalData":[{"value":"Österreich","key":"CountryName"},{"value":"Oberösterreich","key":"StateName"},{"value":"Linz","key":"CountyName"}]},"MapReference":{"ReferenceId":"865264636","SideOfStreet":"neither","CountryId":"20128885","StateId":"20132880","CountyId":"20132881","CityId":"20132882"}}},{"Relevance":1.0,"Distance":16.7,"MatchLevel":"houseNumber","MatchQuality":{"Country":1.0,"State":1.0,"County":1.0,"City":1.0,"District":1.0,"Street":[1.0],"HouseNumber":1.0,"PostalCode":1.0},"MatchType":"interpolated","Location":{"LocationId":"NT_QCGw-MJnbxdQ-1jZMYQAHD_xEG","LocationType":"point","DisplayPosition":{"Latitude":48.29978,"Longitude":14.28949},"MapView":{"TopLeft":{"Latitude":48.3009042,"Longitude":14.2878001},"BottomRight":{"Latitude":48.2986558,"Longitude":14.2911799}},"Address":{"Label":"Seilerstätte 1a, 4020 Linz, Österreich","Country":"AUT","State":"Oberösterreich","County":"Linz","City":"Linz","District":"Linz-City","Street":"Seilerstätte","HouseNumber":"1a","PostalCode":"4020","AdditionalData":[{"value":"Österreich","key":"CountryName"},{"value":"Oberösterreich","key":"StateName"},{"value":"Linz","key":"CountyName"}]},"MapReference":{"ReferenceId":"55889203","Spot":0.39,"SideOfStreet":"right","CountryId":"20128885","StateId":"20132880","CountyId":"20132881","CityId":"20132882","AddressId":"177029702","RoadLinkId":"28711798"}}},{"Relevance":1.0,"Distance":39.4,"MatchLevel":"houseNumber","MatchQuality":{"Country":1.0,"State":1.0,"County":1.0,"City":1.0,"District":1.0,"Street":[1.0],"HouseNumber":1.0,"PostalCode":1.0},"MatchType":"interpolated","Location":{"LocationId":"NT_WaVXFpiHdM0iWVcLeimmvA_xAD","LocationType":"point","DisplayPosition":{"Latitude":48.29973,"Longitude":14.28998},"MapView":{"TopLeft":{"Latitude":48.3008542,"Longitude":14.2882901},"BottomRight":{"Latitude":48.2986058,"Longitude":14.2916699}},"Address":{"Label":"Magazingasse 10, 4020 Linz, Österreich","Country":"AUT","State":"Oberösterreich","County":"Linz","City":"Linz","District":"Linz-City","Street":"Magazingasse","HouseNumber":"10","PostalCode":"4020","AdditionalData":[{"value":"Österreich","key":"CountryName"},{"value":"Oberösterreich","key":"StateName"},{"value":"Linz","key":"CountyName"}]},"MapReference":{"ReferenceId":"55889477","Spot":0.3,"SideOfStreet":"left","CountryId":"20128885","StateId":"20132880","CountyId":"20132881","CityId":"20132882","AddressId":"160841544","RoadLinkId":"28075466"}}},{"Relevance":1.0,"Distance":61.1,"MatchLevel":"houseNumber","MatchQuality":{"Country":1.0,"State":1.0,"County":1.0,"City":1.0,"District":1.0,"Street":[1.0],"HouseNumber":1.0,"PostalCode":1.0},"MatchType":"interpolated","Location":{"LocationId":"NT_melsOKq94CnM7IQAdOODlA_xID","LocationType":"point","DisplayPosition":{"Latitude":48.29909,"Longitude":14.28996},"MapView":{"TopLeft":{"Latitude":48.3002142,"Longitude":14.2882702},"BottomRight":{"Latitude":48.2979658,"Longitude":14.2916498}},"Address":{"Label":"Hafferlstraße 12, 4020 Linz, Österreich","Country":"AUT","State":"Oberösterreich","County":"Linz","City":"Linz","District":"Linz-City","Street":"Hafferlstraße","HouseNumber":"12","PostalCode":"4020","AdditionalData":[{"value":"Österreich","key":"CountryName"},{"value":"Oberösterreich","key":"StateName"},{"value":"Linz","key":"CountyName"}]},"MapReference":{"ReferenceId":"55938213","Spot":1.0,"SideOfStreet":"left","CountryId":"20128885","StateId":"20132880","CountyId":"20132881","CityId":"20132882","AddressId":"160728317","RoadLinkId":"28400721"}}},{"Relevance":1.0,"Distance":64.5,"MatchLevel":"houseNumber","MatchQuality":{"Country":1.0,"State":1.0,"County":1.0,"City":1.0,"District":1.0,"Street":[1.0],"HouseNumber":1.0,"PostalCode":1.0},"MatchType":"interpolated","Location":{"LocationId":"NT_QCGw-MJnbxdQ-1jZMYQAHD_0A","LocationType":"point","DisplayPosition":{"Latitude":48.29907,"Longitude":14.28968},"MapView":{"TopLeft":{"Latitude":48.3001942,"Longitude":14.2879902},"BottomRight":{"Latitude":48.2979458,"Longitude":14.2913698}},"Address":{"Label":"Seilerstätte 4, 4020 Linz, Österreich","Country":"AUT","State":"Oberösterreich","County":"Linz","City":"Linz","District":"Linz-City","Street":"Seilerstätte","HouseNumber":"4","PostalCode":"4020","AdditionalData":[{"value":"Österreich","key":"CountryName"},{"value":"Oberösterreich","key":"StateName"},{"value":"Linz","key":"CountyName"}]},"MapReference":{"ReferenceId":"55889479","Spot":0.12,"SideOfStreet":"left","CountryId":"20128885","StateId":"20132880","CountyId":"20132881","CityId":"20132882","AddressId":"160844668","RoadLinkId":"28222403"}}},{"Relevance":1.0,"Distance":67.4,"MatchLevel":"houseNumber","MatchQuality":{"Country":1.0,"State":1.0,"County":1.0,"City":1.0,"District":1.0,"Street":[1.0],"HouseNumber":1.0,"PostalCode":1.0},"MatchType":"interpolated","Location":{"LocationId":"NT_melsOKq94CnM7IQAdOODlA_xAD","LocationType":"point","DisplayPosition":{"Latitude":48.29915,"Longitude":14.29017},"MapView":{"TopLeft":{"Latitude":48.3002742,"Longitude":14.2884802},"BottomRight":{"Latitude":48.2980258,"Longitude":14.2918598}},"Address":{"Label":"Hafferlstraße 10, 4020 Linz, Österreich","Country":"AUT","State":"Oberösterreich","County":"Linz","City":"Linz","District":"Linz-City","Street":"Hafferlstraße","HouseNumber":"10","PostalCode":"4020","AdditionalData":[{"value":"Österreich","key":"CountryName"},{"value":"Oberösterreich","key":"StateName"},{"value":"Linz","key":"CountyName"}]},"MapReference":{"ReferenceId":"55938214","Spot":0.16,"SideOfStreet":"left","CountryId":"20128885","StateId":"20132880","CountyId":"20132881","CityId":"20132882","AddressId":"160728318","RoadLinkId":"28732299"}}},{"Relevance":1.0,"Distance":85.3,"MatchLevel":"houseNumber","MatchQuality":{"Country":1.0,"State":1.0,"County":1.0,"City":1.0,"District":1.0,"Street":[1.0],"HouseNumber":1.0,"PostalCode":1.0},"MatchType":"interpolated","Location":{"LocationId":"NT_QCGw-MJnbxdQ-1jZMYQAHD_l_55889478_R_yUD","LocationType":"point","DisplayPosition":{"Latitude":48.298871,"Longitude":14.28961},"MapView":{"TopLeft":{"Latitude":48.2999952,"Longitude":14.2879202},"BottomRight":{"Latitude":48.2977469,"Longitude":14.2912998}},"Address":{"Label":"Seilerstätte 25, 4020 Linz, Österreich","Country":"AUT","State":"Oberösterreich","County":"Linz","City":"Linz","District":"Linz-City","Street":"Seilerstätte","HouseNumber":"25","PostalCode":"4020","AdditionalData":[{"value":"Österreich","key":"CountryName"},{"value":"Oberösterreich","key":"StateName"},{"value":"Linz","key":"CountyName"}]},"MapReference":{"ReferenceId":"55889478","Spot":0.52,"SideOfStreet":"right","CountryId":"20128885","StateId":"20132880","CountyId":"20132881","CityId":"20132882"}}},{"Relevance":1.0,"Distance":95.1,"MatchLevel":"houseNumber","MatchQuality":{"Country":1.0,"State":1.0,"County":1.0,"City":1.0,"District":1.0,"Street":[1.0],"HouseNumber":1.0,"PostalCode":1.0},"MatchType":"interpolated","Location":{"LocationId":"NT_EBGvpClHw8ULs4bXTHyBFC_xED","LocationType":"point","DisplayPosition":{"Latitude":48.30067,"Longitude":14.289},"MapView":{"TopLeft":{"Latitude":48.3017942,"Longitude":14.2873101},"BottomRight":{"Latitude":48.2995458,"Longitude":14.2906899}},"Address":{"Label":"Rudigierstraße 11, 4020 Linz, Österreich","Country":"AUT","State":"Oberösterreich","County":"Linz","City":"Linz","District":"Linz-City","Street":"Rudigierstraße","HouseNumber":"11","PostalCode":"4020","AdditionalData":[{"value":"Österreich","key":"CountryName"},{"value":"Oberösterreich","key":"StateName"},{"value":"Linz","key":"CountyName"}]},"MapReference":{"ReferenceId":"1104866860","Spot":0.89,"SideOfStreet":"right","CountryId":"20128885","StateId":"20132880","CountyId":"20132881","CityId":"20132882","AddressId":"160849614","RoadLinkId":"416678794"}}},{"Relevance":1.0,"Distance":95.8,"MatchLevel":"houseNumber","MatchQuality":{"Country":1.0,"State":1.0,"County":1.0,"City":1.0,"District":1.0,"Street":[1.0],"HouseNumber":1.0,"PostalCode":1.0},"MatchType":"interpolated","Location":{"LocationId":"NT_QCGw-MJnbxdQ-1jZMYQAHD_yA","LocationType":"point","DisplayPosition":{"Latitude":48.30048,"Longitude":14.28924},"MapView":{"TopLeft":{"Latitude":48.3016042,"Longitude":14.2875501},"BottomRight":{"Latitude":48.2993558,"Longitude":14.2909299}},"Address":{"Label":"Seilerstätte 2, 4020 Linz, Österreich","Country":"AUT","State":"Oberösterreich","County":"Linz","City":"Linz","District":"Linz-City","Street":"Seilerstätte","HouseNumber":"2","PostalCode":"4020","AdditionalData":[{"value":"Österreich","key":"CountryName"},{"value":"Oberösterreich","key":"StateName"},{"value":"Linz","key":"CountyName"}]},"MapReference":{"ReferenceId":"55889204","Spot":0.65,"SideOfStreet":"left","CountryId":"20128885","StateId":"20132880","CountyId":"20132881","CityId":"20132882","AddressId":"160844662","RoadLinkId":"29134030"}}}]}]}}