{"Response":{"MetaInfo":{"Timestamp":"2020-03-28T11:46:59.379+0000","NextPageInformation":"2"},"View":[{"_type":"SearchResultsViewType","ViewId":0,"Result":[{"Relevance":1.0,"Distance":0.0,"Direction":0.0,"MatchLevel":"city","MatchQuality":{"Country":1.0,"State":1.0,"County":1.0,"City":1.0,"PostalCode":1.0},"Location":{"LocationId":"NT_kwFi6UjGAcpLYK.o6kQDpB","LocationType":"point","DisplayPosition":{"Latitude":48.2935162,"Longitude":6.1092988},"MapView":{"TopLeft":{"Latitude":48.31543,"Longitude":6.08047},"BottomRight":{"Latitude":48.27193,"Longitude":6.15726}},"Address":{"Label":"Mirecourt, Grand Est, France","Country":"FRA","State":"Grand Est","County":"Vosges","City":"Mirecourt","PostalCode":"88500","AdditionalData":[{"value":"France","key":"CountryName"},{"value":"Grand Est","key":"StateName"},{"value":"Vosges","key":"CountyName"}]},"MapReference":{"ReferenceId":"579037693","SideOfStreet":"neither","CountryId":"20000001","StateId":"20002047","CountyId":"20041294","CityId":"20042188"}}},{"Relevance":1.0,"Distance":24.0,"MatchLevel":"street","MatchQuality":{"Country":1.0,"State":1.0,"County":1.0,"City":1.0,"PostalCode":1.0},"Location":{"LocationId":"NT_17On03zYVXQIv0dUB1EQPD_l_1066260490_L","LocationType":"point","DisplayPosition":{"Latitude":48.2937283,"Longitude":6.1093548},"MapView":{"TopLeft":{"Latitude":48.29383,"Longitude":6.10897},"BottomRight":{"Latitude":48.29355,"Longitude":6.11003}},"Address":{"Label":"88500 Mirecourt, France","Country":"FRA","State":"Grand Est","County":"Vosges","City":"Mirecourt","PostalCode":"88500","AdditionalData":[{"value":"France","key":"CountryName"},{"value":"Grand Est","key":"StateName"},{"value":"Vosges","key":"CountyName"}]},"MapReference":{"ReferenceId":"1066260490","Spot":0.64,"SideOfStreet":"left","CountryId":"20000001","StateId":"20002047","CountyId":"20041294","CityId":"20042188"}}},{"Relevance":1.0,"Distance":39.0,"MatchLevel":"street","MatchQuality":{"Country":1.0,"State":1.0,"County":1.0,"City":1.0,"PostalCode":1.0},"Location":{"LocationId":"NT_17On03zYVXQIv0dUB1EQPD_l_1066260442_R","LocationType":"point","DisplayPosition":{"Latitude":48.2937645,"Longitude":6.1089263},"MapView":{"TopLeft":{"Latitude":48.29383,"Longitude":6.10867},"BottomRight":{"Latitude":48.29322,"Longitude":6.10897}},"Address":{"Label":"88500 Mirecourt, France","Country":"FRA","State":"Grand Est","County":"Vosges","City":"Mirecourt","PostalCode":"88500","AdditionalData":[{"value":"France","key":"CountryName"},{"value":"Grand Est","key":"StateName"},{"value":"Vosges","key":"CountyName"}]},"MapReference":{"ReferenceId":"1066260442","Spot":0.88,"SideOfStreet":"right","CountryId":"20000001","StateId":"20002047","CountyId":"20041294","CityId":"20042188"}}},{"Relevance":1.0,"Distance":42.5,"MatchLevel":"street","MatchQuality":{"Country":1.0,"State":1.0,"County":1.0,"City":1.0,"PostalCode":1.0},"Location":{"LocationId":"NT_17On03zYVXQIv0dUB1EQPD_l_1066259635_L","LocationType":"point","DisplayPosition":{"Latitude":48.29383,"Longitude":6.10897},"MapView":{"TopLeft":{"Latitude":48.29446,"Longitude":6.10849},"BottomRight":{"Latitude":48.29383,"Longitude":6.10897}},"Address":{"Label":"88500 Mirecourt, France","Country":"FRA","State":"Grand Est","County":"Vosges","City":"Mirecourt","PostalCode":"88500","AdditionalData":[{"value":"France","key":"CountryName"},{"value":"Grand Est","key":"StateName"},{"value":"Vosges","key":"CountyName"}]},"MapReference":{"ReferenceId":"1066259635","Spot":0.0,"SideOfStreet":"left","CountryId":"20000001","StateId":"20002047","CountyId":"20041294","CityId":"20042188"}}},{"Relevance":1.0,"Distance":42.5,"MatchLevel":"street","MatchQuality":{"Country":1.0,"State":1.0,"County":1.0,"City":1.0,"PostalCode":1.0},"Location":{"LocationId":"NT_17On03zYVXQIv0dUB1EQPD_l_1066259446_R","LocationType":"point","DisplayPosition":{"Latitude":48.29383,"Longitude":6.10897},"MapView":{"TopLeft":{"Latitude":48.29434,"Longitude":6.10897},"BottomRight":{"Latitude":48.29383,"Longitude":6.1093}},"Address":{"Label":"88500 Mirecourt, France","Country":"FRA","State":"Grand Est","County":"Vosges","City":"Mirecourt","PostalCode":"88500","AdditionalData":[{"value":"France","key":"CountryName"},{"value":"Grand Est","key":"StateName"},{"value":"Vosges","key":"CountyName"}]},"MapReference":{"ReferenceId":"1066259446","Spot":0.0,"SideOfStreet":"right","CountryId":"20000001","StateId":"20002047","CountyId":"20041294","CityId":"20042188"}}},{"Relevance":1.0,"Distance":47.3,"MatchLevel":"street","MatchQuality":{"Country":1.0,"State":1.0,"County":1.0,"City":1.0,"PostalCode":1.0},"Location":{"LocationId":"NT_17On03zYVXQIv0dUB1EQPD_l_1066259441_R","LocationType":"point","DisplayPosition":{"Latitude":48.2930956,"Longitude":6.1092001},"MapView":{"TopLeft":{"Latitude":48.29322,"Longitude":6.10867},"BottomRight":{"Latitude":48.29299,"Longitude":6.10965}},"Address":{"Label":"88500 Mirecourt, France","Country":"FRA","State":"Grand Est","County":"Vosges","City":"Mirecourt","PostalCode":"88500","AdditionalData":[{"value":"France","key":"CountryName"},{"value":"Grand Est","key":"StateName"},{"value":"Vosges","key":"CountyName"}]},"MapReference":{"ReferenceId":"1066259441","Spot":0.46,"SideOfStreet":"right","CountryId":"20000001","StateId":"20002047","CountyId":"20041294","CityId":"20042188"}}},{"Relevance":1.0,"Distance":51.2,"MatchLevel":"street","MatchQuality":{"Country":1.0,"State":1.0,"County":1.0,"City":1.0,"PostalCode":1.0},"Location":{"LocationId":"NT_17On03zYVXQIv0dUB1EQPD_l_1066260445_L","LocationType":"point","DisplayPosition":{"Latitude":48.2931871,"Longitude":6.1097838},"MapView":{"TopLeft":{"Latitude":48.29355,"Longitude":6.10965},"BottomRight":{"Latitude":48.29299,"Longitude":6.11003}},"Address":{"Label":"88500 Mirecourt, France","Country":"FRA","State":"Grand Est","County":"Vosges","City":"Mirecourt","PostalCode":"88500","AdditionalData":[{"value":"France","key":"CountryName"},{"value":"Grand Est","key":"StateName"},{"value":"Vosges","key":"CountyName"}]},"MapReference":{"ReferenceId":"1066260445","Spot":0.35,"SideOfStreet":"left","CountryId":"20000001","StateId":"20002047","CountyId":"20041294","CityId":"20042188"}}},{"Relevance":1.0,"Distance":54.2,"MatchLevel":"street","MatchQuality":{"Country":1.0,"State":1.0,"County":1.0,"City":1.0,"PostalCode":1.0},"Location":{"LocationId":"NT_17On03zYVXQIv0dUB1EQPD_l_1066259593_L","LocationType":"point","DisplayPosition":{"Latitude":48.29355,"Longitude":6.11003},"MapView":{"TopLeft":{"Latitude":48.2945,"Longitude":6.11003},"BottomRight":{"Latitude":48.29355,"Longitude":6.11067}},"Address":{"Label":"88500 Mirecourt, France","Country":"FRA","State":"Grand Est","County":"Vosges","City":"Mirecourt","PostalCode":"88500","AdditionalData":[{"value":"France","key":"CountryName"},{"value":"Grand Est","key":"StateName"},{"value":"Vosges","key":"CountyName"}]},"MapReference":{"ReferenceId":"1066259593","Spot":0.0,"SideOfStreet":"left","CountryId":"20000001","StateId":"20002047","CountyId":"20041294","CityId":"20042188"}}},{"Relevance":1.0,"Distance":57.0,"MatchLevel":"street","MatchQuality":{"Country":1.0,"State":1.0,"County":1.0,"City":1.0,"PostalCode":1.0},"Location":{"LocationId":"NT_17On03zYVXQIv0dUB1EQPD_l_1066259260_R","LocationType":"point","DisplayPosition":{"Latitude":48.29322,"Longitude":6.10867},"MapView":{"TopLeft":{"Latitude":48.29322,"Longitude":6.10788},"BottomRight":{"Latitude":48.29306,"Longitude":6.10867}},"Address":{"Label":"88500 Mirecourt, France","Country":"FRA","State":"Grand Est","County":"Vosges","City":"Mirecourt","PostalCode":"88500","AdditionalData":[{"value":"France","key":"CountryName"},{"value":"Grand Est","key":"StateName"},{"value":"Vosges","key":"CountyName"}]},"MapReference":{"ReferenceId":"1066259260","Spot":1.0,"SideOfStreet":"right","CountryId":"20000001","StateId":"20002047","CountyId":"20041294","CityId":"20042188"}}},{"Relevance":1.0,"Distance":57.0,"MatchLevel":"street","MatchQuality":{"Country":1.0,"State":1.0,"County":1.0,"City":1.0,"PostalCode":1.0},"Location":{"LocationId":"NT_17On03zYVXQIv0dUB1EQPD_l_1066259248_R","LocationType":"point","DisplayPosition":{"Latitude":48.29322,"Longitude":6.10867},"MapView":{"TopLeft":{"Latitude":48.29322,"Longitude":6.10856},"BottomRight":{"Latitude":48.29276,"Longitude":6.10867}},"Address":{"Label":"88500 Mirecourt, France","Country":"FRA","State":"Grand Est","County":"Vosges","City":"Mirecourt","PostalCode":"88500","AdditionalData":[{"value":"France","key":"CountryName"},{"value":"Grand Est","key":"StateName"},{"value":"Vosges","key":"CountyName"}]},"MapReference":{"ReferenceId":"1066259248","Spot":1.0,"SideOfStreet":"right","CountryId":"20000001","StateId":"20002047","CountyId":"20041294","CityId":"20042188"}}}]}]}}