{"Response":{"MetaInfo":{"Timestamp":"2020-03-28T10:51:10.102+0000","NextPageInformation":"2"},"View":[{"_type":"SearchResultsViewType","ViewId":0,"Result":[{"Relevance":1.0,"Distance":0.0,"Direction":0.0,"MatchLevel":"district","MatchQuality":{"Country":1.0,"State":1.0,"County":1.0,"City":1.0,"District":1.0,"PostalCode":1.0},"Location":{"LocationId":"NT_j4-rY1HUIzEa5iLvcp2qbA","LocationType":"point","DisplayPosition":{"Latitude":48.2157345,"Longitude":16.3811781},"MapView":{"TopLeft":{"Latitude":48.23639,"Longitude":16.36749},"BottomRight":{"Latitude":48.16178,"Longitude":16.50472}},"Address":{"Label":"2. Bezirk-Leopoldstadt, Wien, Österreich","Country":"AUT","State":"Wien","County":"Wien","City":"Wien","District":"2. Bezirk-Leopoldstadt","PostalCode":"1020","AdditionalData":[{"value":"Österreich","key":"CountryName"},{"value":"Wien","key":"StateName"},{"value":"Wien","key":"CountyName"}]},"MapReference":{"ReferenceId":"55862573","SideOfStreet":"neither","CountryId":"20128885","StateId":"20138131","CountyId":"20138132","CityId":"20138133","DistrictId":"20243447"}}},{"Relevance":1.0,"Distance":12.5,"MatchLevel":"houseNumber","MatchQuality":{"Country":1.0,"State":1.0,"County":1.0,"City":1.0,"District":1.0,"Street":[1.0],"HouseNumber":1.0,"PostalCode":1.0},"MatchType":"interpolated","Location":{"LocationId":"NT_e2iKX2dp4ppaKdcJihSpoA_yA","LocationType":"point","DisplayPosition":{"Latitude":48.21577,"Longitude":16.38101},"MapView":{"TopLeft":{"Latitude":48.2168942,"Longitude":16.3793229},"BottomRight":{"Latitude":48.2146458,"Longitude":16.3826971}},"Address":{"Label":"Schmelzgasse 2, 1020 Wien, Österreich","Country":"AUT","State":"Wien","County":"Wien","City":"Wien","District":"2. Bezirk-Leopoldstadt","Street":"Schmelzgasse","HouseNumber":"2","PostalCode":"1020","AdditionalData":[{"value":"Österreich","key":"CountryName"},{"value":"Wien","key":"StateName"},{"value":"Wien","key":"CountyName"}]},"MapReference":{"ReferenceId":"55862352","Spot":0.32,"SideOfStreet":"right","CountryId":"20128885","StateId":"20138131","CountyId":"20138132","CityId":"20138133","DistrictId":"20243447","AddressId":"162070975","RoadLinkId":"28512602"}}},{"Relevance":1.0,"Distance":41.5,"MatchLevel":"houseNumber","MatchQuality":{"Country":1.0,"State":1.0,"County":1.0,"City":1.0,"District":1.0,"Street":[1.0],"HouseNumber":1.0,"PostalCode":1.0},"MatchType":"interpolated","Location":{"LocationId":"NT_1f496GuYIL-dCe6pFp5xKB_yAD","LocationType":"point","DisplayPosition":{"Latitude":48.21599,"Longitude":16.38048},"MapView":{"TopLeft":{"Latitude":48.2171142,"Longitude":16.3787929},"BottomRight":{"Latitude":48.2148658,"Longitude":16.3821671}},"Address":{"Label":"Taborstraße 20, 1020 Wien, Österreich","Country":"AUT","State":"Wien","County":"Wien","City":"Wien","District":"2. Bezirk-Leopoldstadt","Street":"Taborstraße","HouseNumber":"20","PostalCode":"1020","AdditionalData":[{"value":"Österreich","key":"CountryName"},{"value":"Wien","key":"StateName"},{"value":"Wien","key":"CountyName"}]},"MapReference":{"ReferenceId":"55862353","Spot":0.46,"SideOfStreet":"right","CountryId":"20128885","StateId":"20138131","CountyId":"20138132","CityId":"20138133","DistrictId":"20243447","AddressId":"162173830","RoadLinkId":"28550590"}}},{"Relevance":1.0,"Distance":57.1,"MatchLevel":"houseNumber","MatchQuality":{"Country":1.0,"State":1.0,"County":1.0,"City":1.0,"District":1.0,"Street":[1.0],"HouseNumber":1.0,"PostalCode":1.0},"MatchType":"interpolated","Location":{"LocationId":"NT_1f496GuYIL-dCe6pFp5xKB_xgD","LocationType":"point","DisplayPosition":{"Latitude":48.21551,"Longitude":16.3803},"MapView":{"TopLeft":{"Latitude":48.2166342,"Longitude":16.3786129},"BottomRight":{"Latitude":48.2143858,"Longitude":16.3819871}},"Address":{"Label":"Taborstraße 18, 1020 Wien, Österreich","Country":"AUT","State":"Wien","County":"Wien","City":"Wien","District":"2. Bezirk-Leopoldstadt","Street":"Taborstraße","HouseNumber":"18","PostalCode":"1020","AdditionalData":[{"value":"Österreich","key":"CountryName"},{"value":"Wien","key":"StateName"},{"value":"Wien","key":"CountyName"}]},"MapReference":{"ReferenceId":"55862573","Spot":0.7,"SideOfStreet":"right","CountryId":"20128885","StateId":"20138131","CountyId":"20138132","CityId":"20138133","DistrictId":"20243447","AddressId":"162149210","RoadLinkId":"28786164"}}},{"Relevance":1.0,"Distance":60.6,"MatchLevel":"street","MatchQuality":{"Country":1.0,"State":1.0,"County":1.0,"City":1.0,"District":1.0,"Street":[1.0],"PostalCode":1.0},"Location":{"LocationId":"NT_uJ7bRPmSrlLTa.VoYkgnQC_l_62870057_R","LocationType":"point","DisplayPosition":{"Latitude":48.21572,"Longitude":16.38036},"MapView":{"TopLeft":{"Latitude":48.21572,"Longitude":16.37987},"BottomRight":{"Latitude":48.21562,"Longitude":16.38036}},"Address":{"Label":"Karmeliterplatz, 1020 Wien, Österreich","Country":"AUT","State":"Wien","County":"Wien","City":"Wien","District":"2. Bezirk-Leopoldstadt","Street":"Karmeliterplatz","PostalCode":"1020","AdditionalData":[{"value":"Österreich","key":"CountryName"},{"value":"Wien","key":"StateName"},{"value":"Wien","key":"CountyName"}]},"MapReference":{"ReferenceId":"62870057","Spot":1.0,"SideOfStreet":"right","CountryId":"20128885","StateId":"20138131","CountyId":"20138132","CityId":"20138133","DistrictId":"20243447"}}},{"Relevance":1.0,"Distance":75.7,"MatchLevel":"houseNumber","MatchQuality":{"Country":1.0,"State":1.0,"County":1.0,"City":1.0,"District":1.0,"Street":[1.0],"HouseNumber":1.0,"PostalCode":1.0},"MatchType":"interpolated","Location":{"LocationId":"NT_1f496GuYIL-dCe6pFp5xKB_yID","LocationType":"point","DisplayPosition":{"Latitude":48.21645,"Longitude":16.38067},"MapView":{"TopLeft":{"Latitude":48.2175742,"Longitude":16.3789829},"BottomRight":{"Latitude":48.2153258,"Longitude":16.3823571}},"Address":{"Label":"Taborstraße 22, 1020 Wien, Österreich","Country":"AUT","State":"Wien","County":"Wien","City":"Wien","District":"2. Bezirk-Leopoldstadt","Street":"Taborstraße","HouseNumber":"22","PostalCode":"1020","AdditionalData":[{"value":"Österreich","key":"CountryName"},{"value":"Wien","key":"StateName"},{"value":"Wien","key":"CountyName"}]},"MapReference":{"ReferenceId":"55875991","Spot":0.39,"SideOfStreet":"right","CountryId":"20128885","StateId":"20138131","CountyId":"20138132","CityId":"20138133","DistrictId":"20243447","AddressId":"162173829","RoadLinkId":"28771939"}}},{"Relevance":1.0,"Distance":79.0,"MatchLevel":"houseNumber","MatchQuality":{"Country":1.0,"State":1.0,"County":1.0,"City":1.0,"District":1.0,"Street":[1.0],"HouseNumber":1.0,"PostalCode":1.0},"MatchType":"interpolated","Location":{"LocationId":"NT_sbMslHex.sWT9POkAEsTXB_xA","LocationType":"point","DisplayPosition":{"Latitude":48.21559,"Longitude":16.38228},"MapView":{"TopLeft":{"Latitude":48.2167142,"Longitude":16.3805929},"BottomRight":{"Latitude":48.2144658,"Longitude":16.3839671}},"Address":{"Label":"Johannes-von-Gott-Platz 1, 1020 Wien, Österreich","Country":"AUT","State":"Wien","County":"Wien","City":"Wien","District":"2. Bezirk-Leopoldstadt","Street":"Johannes-von-Gott-Platz","HouseNumber":"1","PostalCode":"1020","AdditionalData":[{"value":"Österreich","key":"CountryName"},{"value":"Wien","key":"StateName"},{"value":"Wien","key":"CountyName"}]},"MapReference":{"ReferenceId":"55862462","Spot":0.49,"SideOfStreet":"left","CountryId":"20128885","StateId":"20138131","CountyId":"20138132","CityId":"20138133","DistrictId":"20243447","AddressId":"214861977","RoadLinkId":"287837139"}}},{"Relevance":1.0,"Distance":84.7,"MatchLevel":"houseNumber","MatchQuality":{"Country":1.0,"State":1.0,"County":1.0,"City":1.0,"District":1.0,"Street":[1.0],"HouseNumber":1.0,"PostalCode":1.0},"MatchType":"interpolated","Location":{"LocationId":"NT_hj-JVaUkZqiuqXV-b5o3BA_xcD","LocationType":"point","DisplayPosition":{"Latitude":48.21592,"Longitude":16.38239},"MapView":{"TopLeft":{"Latitude":48.2170442,"Longitude":16.3807029},"BottomRight":{"Latitude":48.2147958,"Longitude":16.3840771}},"Address":{"Label":"Große Mohrengasse 17, 1020 Wien, Österreich","Country":"AUT","State":"Wien","County":"Wien","City":"Wien","District":"2. Bezirk-Leopoldstadt","Street":"Große Mohrengasse","HouseNumber":"17","PostalCode":"1020","AdditionalData":[{"value":"Österreich","key":"CountryName"},{"value":"Wien","key":"StateName"},{"value":"Wien","key":"CountyName"}]},"MapReference":{"ReferenceId":"55862309","Spot":0.03,"SideOfStreet":"left","CountryId":"20128885","StateId":"20138131","CountyId":"20138132","CityId":"20138133","DistrictId":"20243447","AddressId":"162004608","RoadLinkId":"27859282"}}},{"Relevance":1.0,"Distance":95.5,"MatchLevel":"landmark","MatchQuality":{"Country":1.0,"State":1.0,"County":1.0,"City":1.0,"District":1.0,"PostalCode":1.0,"Name":1.0},"Location":{"LocationId":"NT_deREWBLbhDBhpkecOG6h9C","LocationType":"park","Name":"Parkanlage Große Mohrengasse","DisplayPosition":{"Latitude":48.21481,"Longitude":16.38204},"MapView":{"TopLeft":{"Latitude":48.2153,"Longitude":16.38168},"BottomRight":{"Latitude":48.21431,"Longitude":16.38316}},"Address":{"Label":"1020 Wien, Österreich","Country":"AUT","State":"Wien","County":"Wien","City":"Wien","District":"2. Bezirk-Leopoldstadt","PostalCode":"1020","AdditionalData":[{"value":"Österreich","key":"CountryName"},{"value":"Wien","key":"StateName"},{"value":"Wien","key":"CountyName"}]},"MapReference":{"CountryId":"20128885","StateId":"20138131","CountyId":"20138132","CityId":"20138133","DistrictId":"20243447","PlaceId":"1469544044"}}},{"Relevance":1.0,"Distance":95.5,"MatchLevel":"street","MatchQuality":{"Country":1.0,"State":1.0,"County":1.0,"City":1.0,"District":1.0,"Street":[1.0],"PostalCode":1.0},"Location":{"LocationId":"NT_hj-JVaUkZqiuqXV-b5o3BA_l_984898729_L","LocationType":"point","DisplayPosition":{"Latitude":48.2151806,"Longitude":16.3821628},"MapView":{"TopLeft":{"Latitude":48.2153,"Longitude":16.38214},"BottomRight":{"Latitude":48.21514,"Longitude":16.38223}},"Address":{"Label":"Große Mohrengasse, 1020 Wien, Österreich","Country":"AUT","State":"Wien","County":"Wien","City":"Wien","District":"2. Bezirk-Leopoldstadt","Street":"Große Mohrengasse","PostalCode":"1020","AdditionalData":[{"value":"Österreich","key":"CountryName"},{"value":"Wien","key":"StateName"},{"value":"Wien","key":"CountyName"}]},"MapReference":{"ReferenceId":"984898729","Spot":0.25,"SideOfStreet":"left","CountryId":"20128885","StateId":"20138131","CountyId":"20138132","CityId":"20138133","DistrictId":"20243447"}}}]}]}}