{"Response":{"MetaInfo":{"Timestamp":"2020-03-28T10:59:17.816+0000","NextPageInformation":"2"},"View":[{"_type":"SearchResultsViewType","ViewId":0,"Result":[{"Relevance":1.0,"Distance":0.0,"Direction":0.0,"MatchLevel":"district","MatchQuality":{"Country":1.0,"State":1.0,"County":1.0,"City":1.0,"District":1.0,"PostalCode":1.0},"Location":{"LocationId":"NT_ljqQ1Kcellei49qqzDGdKB","LocationType":"point","DisplayPosition":{"Latitude":48.234907,"Longitude":12.6758891},"MapView":{"TopLeft":{"Latitude":48.23631,"Longitude":12.65753},"BottomRight":{"Latitude":48.21325,"Longitude":12.69515}},"Address":{"Label":"Altötting, Bayern, Deutschland","Country":"DEU","State":"Bayern","County":"Altötting","City":"Altötting","District":"Altötting","PostalCode":"84503","AdditionalData":[{"value":"Deutschland","key":"CountryName"},{"value":"Bayern","key":"StateName"},{"value":"Altötting","key":"CountyName"}]},"MapReference":{"ReferenceId":"1272452270","SideOfStreet":"neither","CountryId":"20147700","StateId":"20177250","CountyId":"20177282","CityId":"20177283","DistrictId":"20177285"}}},{"Relevance":1.0,"Distance":33.2,"MatchLevel":"street","MatchQuality":{"Country":1.0,"State":1.0,"County":1.0,"City":1.0,"District":1.0,"PostalCode":1.0},"Location":{"LocationId":"NT_2bORAee5ukJSM6m1Bdx6OB_l_586898485_R","LocationType":"point","DisplayPosition":{"Latitude":48.23472,"Longitude":12.67554},"MapView":{"TopLeft":{"Latitude":48.23472,"Longitude":12.67552},"BottomRight":{"Latitude":48.23445,"Longitude":12.67554}},"Address":{"Label":"84503 Altötting, Deutschland","Country":"DEU","State":"Bayern","County":"Altötting","City":"Altötting","District":"Altötting","PostalCode":"84503","AdditionalData":[{"value":"Deutschland","key":"CountryName"},{"value":"Bayern","key":"StateName"},{"value":"Altötting","key":"CountyName"}]},"MapReference":{"ReferenceId":"586898485","Spot":1.0,"SideOfStreet":"right","CountryId":"20147700","StateId":"20177250","CountyId":"20177282","CityId":"20177283","DistrictId":"20177285"}}},{"Relevance":1.0,"Distance":51.6,"MatchLevel":"landmark","MatchQuality":{"Country":1.0,"State":1.0,"County":1.0,"City":1.0,"District":1.0,"PostalCode":1.0,"Name":1.0},"Location":{"LocationId":"NT_u7pvB2W7O8JAGXwr.FrfyA_p_6Qp5DDSgm.XmVEC10563BB","LocationType":"hospital","Name":"Kreisklinik Altötting","DisplayPosition":{"Latitude":48.23343,"Longitude":12.67484},"MapView":{"TopLeft":{"Latitude":48.23445,"Longitude":12.6743},"BottomRight":{"Latitude":48.2324,"Longitude":12.67823}},"Address":{"Label":"84503 Altötting, Deutschland","Country":"DEU","State":"Bayern","County":"Altötting","City":"Altötting","District":"Altötting","PostalCode":"84503","AdditionalData":[{"value":"Deutschland","key":"CountryName"},{"value":"Bayern","key":"StateName"},{"value":"Altötting","key":"CountyName"}]},"MapReference":{"CountryId":"20147700","StateId":"20177250","CountyId":"20177282","CityId":"20177283","DistrictId":"20177285","PlaceId":"55773385"}}},{"Relevance":1.0,"Distance":51.6,"MatchLevel":"street","MatchQuality":{"Country":1.0,"State":1.0,"County":1.0,"City":1.0,"District":1.0,"PostalCode":1.0},"Location":{"LocationId":"NT_2bORAee5ukJSM6m1Bdx6OB_l_586898486_R","LocationType":"point","DisplayPosition":{"Latitude":48.2344433,"Longitude":12.6758804},"MapView":{"TopLeft":{"Latitude":48.23445,"Longitude":12.67552},"BottomRight":{"Latitude":48.23443,"Longitude":12.67659}},"Address":{"Label":"84503 Altötting, Deutschland","Country":"DEU","State":"Bayern","County":"Altötting","City":"Altötting","District":"Altötting","PostalCode":"84503","AdditionalData":[{"value":"Deutschland","key":"CountryName"},{"value":"Bayern","key":"StateName"},{"value":"Altötting","key":"CountyName"}]},"MapReference":{"ReferenceId":"586898486","Spot":0.66,"SideOfStreet":"right","CountryId":"20147700","StateId":"20177250","CountyId":"20177282","CityId":"20177283","DistrictId":"20177285"}}},{"Relevance":1.0,"Distance":57.7,"MatchLevel":"street","MatchQuality":{"Country":1.0,"State":1.0,"County":1.0,"City":1.0,"District":1.0,"PostalCode":1.0},"Location":{"LocationId":"NT_2bORAee5ukJSM6m1Bdx6OB_l_586898484_L","LocationType":"point","DisplayPosition":{"Latitude":48.23445,"Longitude":12.67552},"MapView":{"TopLeft":{"Latitude":48.23445,"Longitude":12.6743},"BottomRight":{"Latitude":48.23433,"Longitude":12.67552}},"Address":{"Label":"84503 Altötting, Deutschland","Country":"DEU","State":"Bayern","County":"Altötting","City":"Altötting","District":"Altötting","PostalCode":"84503","AdditionalData":[{"value":"Deutschland","key":"CountryName"},{"value":"Bayern","key":"StateName"},{"value":"Altötting","key":"CountyName"}]},"MapReference":{"ReferenceId":"586898484","Spot":1.0,"SideOfStreet":"left","CountryId":"20147700","StateId":"20177250","CountyId":"20177282","CityId":"20177283","DistrictId":"20177285"}}},{"Relevance":1.0,"Distance":74.2,"MatchLevel":"street","MatchQuality":{"Country":1.0,"State":1.0,"County":1.0,"City":1.0,"District":1.0,"PostalCode":1.0},"Location":{"LocationId":"NT_2bORAee5ukJSM6m1Bdx6OB_l_586898487_L","LocationType":"point","DisplayPosition":{"Latitude":48.23443,"Longitude":12.67659},"MapView":{"TopLeft":{"Latitude":48.23443,"Longitude":12.67659},"BottomRight":{"Latitude":48.23443,"Longitude":12.67675}},"Address":{"Label":"84503 Altötting, Deutschland","Country":"DEU","State":"Bayern","County":"Altötting","City":"Altötting","District":"Altötting","PostalCode":"84503","AdditionalData":[{"value":"Deutschland","key":"CountryName"},{"value":"Bayern","key":"StateName"},{"value":"Altötting","key":"CountyName"}]},"MapReference":{"ReferenceId":"586898487","Spot":0.0,"SideOfStreet":"left","CountryId":"20147700","StateId":"20177250","CountyId":"20177282","CityId":"20177283","DistrictId":"20177285"}}},{"Relevance":1.0,"Distance":82.9,"MatchLevel":"street","MatchQuality":{"Country":1.0,"State":1.0,"County":1.0,"City":1.0,"District":1.0,"PostalCode":1.0},"Location":{"LocationId":"NT_2bORAee5ukJSM6m1Bdx6OB_l_541720290_L","LocationType":"point","DisplayPosition":{"Latitude":48.23443,"Longitude":12.67675},"MapView":{"TopLeft":{"Latitude":48.23443,"Longitude":12.67675},"BottomRight":{"Latitude":48.23393,"Longitude":12.67675}},"Address":{"Label":"84503 Altötting, Deutschland","Country":"DEU","State":"Bayern","County":"Altötting","City":"Altötting","District":"Altötting","PostalCode":"84503","AdditionalData":[{"value":"Deutschland","key":"CountryName"},{"value":"Bayern","key":"StateName"},{"value":"Altötting","key":"CountyName"}]},"MapReference":{"ReferenceId":"541720290","Spot":1.0,"SideOfStreet":"left","CountryId":"20147700","StateId":"20177250","CountyId":"20177282","CityId":"20177283","DistrictId":"20177285"}}},{"Relevance":1.0,"Distance":96.5,"MatchLevel":"houseNumber","MatchQuality":{"Country":1.0,"State":1.0,"County":1.0,"City":1.0,"District":1.0,"Street":[1.0],"HouseNumber":1.0,"PostalCode":1.0},"MatchType":"interpolated","Location":{"LocationId":"NT_1teLTCSTW5iRXM6nJ8sZ.C_xID","LocationType":"point","DisplayPosition":{"Latitude":48.23474,"Longitude":12.6743},"MapView":{"TopLeft":{"Latitude":48.2358642,"Longitude":12.6726123},"BottomRight":{"Latitude":48.2336158,"Longitude":12.6759877}},"Address":{"Label":"Vinzenz-von-Paul-Straße 12, 84503 Altötting, Deutschland","Country":"DEU","State":"Bayern","County":"Altötting","City":"Altötting","District":"Altötting","Street":"Vinzenz-von-Paul-Straße","HouseNumber":"12","PostalCode":"84503","AdditionalData":[{"value":"Deutschland","key":"CountryName"},{"value":"Bayern","key":"StateName"},{"value":"Altötting","key":"CountyName"}]},"MapReference":{"ReferenceId":"586898483","Spot":0.82,"SideOfStreet":"right","CountryId":"20147700","StateId":"20177250","CountyId":"20177282","CityId":"20177283","DistrictId":"20177285","AddressId":"184256778","RoadLinkId":"33266467"}}},{"Relevance":1.0,"Distance":113.0,"MatchLevel":"houseNumber","MatchQuality":{"Country":1.0,"State":1.0,"County":1.0,"City":1.0,"District":1.0,"Street":[1.0],"HouseNumber":1.0,"PostalCode":1.0},"MatchType":"interpolated","Location":{"LocationId":"NT_1teLTCSTW5iRXM6nJ8sZ.C_xQD","LocationType":"point","DisplayPosition":{"Latitude":48.23441,"Longitude":12.67722},"MapView":{"TopLeft":{"Latitude":48.2355342,"Longitude":12.6755323},"BottomRight":{"Latitude":48.2332858,"Longitude":12.6789077}},"Address":{"Label":"Vinzenz-von-Paul-Straße 14, 84503 Altötting, Deutschland","Country":"DEU","State":"Bayern","County":"Altötting","City":"Altötting","District":"Altötting","Street":"Vinzenz-von-Paul-Straße","HouseNumber":"14","PostalCode":"84503","AdditionalData":[{"value":"Deutschland","key":"CountryName"},{"value":"Bayern","key":"StateName"},{"value":"Altötting","key":"CountyName"}]},"MapReference":{"ReferenceId":"799447457","Spot":0.68,"SideOfStreet":"left","CountryId":"20147700","StateId":"20177250","CountyId":"20177282","CityId":"20177283","DistrictId":"20177285","AddressId":"255698283","RoadLinkId":"245777793"}}},{"Relevance":1.0,"Distance":114.5,"MatchLevel":"street","MatchQuality":{"Country":1.0,"State":1.0,"County":1.0,"City":1.0,"District":1.0,"PostalCode":1.0},"Location":{"LocationId":"NT_2bORAee5ukJSM6m1Bdx6OB_l_586898481_R","LocationType":"point","DisplayPosition":{"Latitude":48.23417,"Longitude":12.67481},"MapView":{"TopLeft":{"Latitude":48.23417,"Longitude":12.67433},"BottomRight":{"Latitude":48.23322,"Longitude":12.67507}},"Address":{"Label":"84503 Altötting, Deutschland","Country":"DEU","State":"Bayern","County":"Altötting","City":"Altötting","District":"Altötting","PostalCode":"84503","AdditionalData":[{"value":"Deutschland","key":"CountryName"},{"value":"Bayern","key":"StateName"},{"value":"Altötting","key":"CountyName"}]},"MapReference":{"ReferenceId":"586898481","Spot":0.69,"SideOfStreet":"right","CountryId":"20147700","StateId":"20177250","CountyId":"20177282","CityId":"20177283","DistrictId":"20177285"}}}]}]}}