{"Response":{"MetaInfo":{"Timestamp":"2020-03-28T11:13:47.802+0000","NextPageInformation":"2"},"View":[{"_type":"SearchResultsViewType","ViewId":0,"Result":[{"Relevance":1.0,"Distance":-7553.4,"MatchLevel":"landmark","MatchQuality":{"Country":1.0,"Name":1.0},"Location":{"LocationId":"NT_UPybkYPOrqIalxkGQ2QmSA","LocationType":"park","Name":"P.N.R. des Ballons des Vosges","DisplayPosition":{"Latitude":47.99075,"Longitude":6.83669},"MapView":{"TopLeft":{"Latitude":48.35268,"Longitude":6.58724},"BottomRight":{"Latitude":47.62881,"Longitude":7.43586}},"Address":{"Label":"France","Country":"FRA","AdditionalData":[{"value":"France","key":"CountryName"}]},"MapReference":{"CountryId":"20000001","PlaceId":"1508924919"}}},{"Relevance":1.0,"Distance":0.0,"Direction":0.0,"MatchLevel":"city","MatchQuality":{"Country":1.0,"State":1.0,"County":1.0,"City":1.0,"PostalCode":1.0},"Location":{"LocationId":"NT_ruNDTe6HbSiA6DLcKXHtOB","LocationType":"point","DisplayPosition":{"Latitude":48.244252,"Longitude":7.1756719},"MapView":{"TopLeft":{"Latitude":48.26752,"Longitude":7.10653},"BottomRight":{"Latitude":48.19127,"Longitude":7.2315}},"Address":{"Label":"Sainte-Marie-aux-Mines, Grand Est, France","Country":"FRA","State":"Grand Est","County":"Haut-Rhin","City":"Sainte-Marie-aux-Mines","PostalCode":"68160","AdditionalData":[{"value":"France","key":"CountryName"},{"value":"Grand Est","key":"StateName"},{"value":"Haut-Rhin","key":"CountyName"}]},"MapReference":{"ReferenceId":"545419256","SideOfStreet":"neither","CountryId":"20000001","StateId":"20002047","CountyId":"20034358","CityId":"20035238"}}},{"Relevance":1.0,"Distance":10.1,"MatchLevel":"houseNumber","MatchQuality":{"Country":1.0,"State":1.0,"County":1.0,"City":1.0,"Street":[1.0],"HouseNumber":1.0,"PostalCode":1.0},"MatchType":"interpolated","Location":{"LocationId":"NT_FAoTmvlz1QNSt8floavmyC_1A","LocationType":"point","DisplayPosition":{"Latitude":48.24436,"Longitude":7.1757},"MapView":{"TopLeft":{"Latitude":48.2454842,"Longitude":7.174012},"BottomRight":{"Latitude":48.2432358,"Longitude":7.177388}},"Address":{"Label":"5 Rue Jacques Bock, 68160 Sainte-Marie-aux-Mines, France","Country":"FRA","State":"Grand Est","County":"Haut-Rhin","City":"Sainte-Marie-aux-Mines","Street":"Rue Jacques Bock","HouseNumber":"5","PostalCode":"68160","AdditionalData":[{"value":"France","key":"CountryName"},{"value":"Grand Est","key":"StateName"},{"value":"Haut-Rhin","key":"CountyName"}]},"MapReference":{"ReferenceId":"961746578","Spot":0.06,"SideOfStreet":"left","CountryId":"20000001","StateId":"20002047","CountyId":"20034358","CityId":"20035238","AddressId":"316374630","RoadLinkId":"303587032"}}},{"Relevance":1.0,"Distance":11.1,"MatchLevel":"houseNumber","MatchQuality":{"Country":1.0,"State":1.0,"County":1.0,"City":1.0,"Street":[1.0],"HouseNumber":1.0,"PostalCode":1.0},"MatchType":"interpolated","Location":{"LocationId":"NT_FAoTmvlz1QNSt8floavmyC_zA","LocationType":"point","DisplayPosition":{"Latitude":48.24422,"Longitude":7.17585},"MapView":{"TopLeft":{"Latitude":48.2453442,"Longitude":7.174162},"BottomRight":{"Latitude":48.2430958,"Longitude":7.177538}},"Address":{"Label":"3 Rue Jacques Bock, 68160 Sainte-Marie-aux-Mines, France","Country":"FRA","State":"Grand Est","County":"Haut-Rhin","City":"Sainte-Marie-aux-Mines","Street":"Rue Jacques Bock","HouseNumber":"3","PostalCode":"68160","AdditionalData":[{"value":"France","key":"CountryName"},{"value":"Grand Est","key":"StateName"},{"value":"Haut-Rhin","key":"CountyName"}]},"MapReference":{"ReferenceId":"961746577","Spot":0.93,"SideOfStreet":"left","CountryId":"20000001","StateId":"20002047","CountyId":"20034358","CityId":"20035238","AddressId":"316374641","RoadLinkId":"303587031"}}},{"Relevance":1.0,"Distance":67.0,"MatchLevel":"houseNumber","MatchQuality":{"Country":1.0,"State":1.0,"County":1.0,"City":1.0,"Street":[1.0],"HouseNumber":1.0,"PostalCode":1.0},"MatchType":"interpolated","Location":{"LocationId":"NT_FAoTmvlz1QNSt8floavmyC_2ME","LocationType":"point","DisplayPosition":{"Latitude":48.24457,"Longitude":7.17644},"MapView":{"TopLeft":{"Latitude":48.2456942,"Longitude":7.174752},"BottomRight":{"Latitude":48.2434458,"Longitude":7.178128}},"Address":{"Label":"6C Rue Jacques Bock, 68160 Sainte-Marie-aux-Mines, France","Country":"FRA","State":"Grand Est","County":"Haut-Rhin","City":"Sainte-Marie-aux-Mines","Street":"Rue Jacques Bock","HouseNumber":"6C","PostalCode":"68160","AdditionalData":[{"value":"France","key":"CountryName"},{"value":"Grand Est","key":"StateName"},{"value":"Haut-Rhin","key":"CountyName"}]},"MapReference":{"ReferenceId":"961746579","Spot":0.74,"SideOfStreet":"right","CountryId":"20000001","StateId":"20002047","CountyId":"20034358","CityId":"20035238","AddressId":"375269596","RoadLinkId":"303587033"}}},{"Relevance":1.0,"Distance":76.1,"MatchLevel":"houseNumber","MatchQuality":{"Country":1.0,"State":1.0,"County":1.0,"City":1.0,"Street":[1.0],"HouseNumber":1.0,"PostalCode":1.0},"MatchType":"interpolated","Location":{"LocationId":"NT_tGlRmy3qRR0TMXVbLORkoC_xcDO","LocationType":"point","DisplayPosition":{"Latitude":48.24354,"Longitude":7.17577},"MapView":{"TopLeft":{"Latitude":48.2446642,"Longitude":7.174082},"BottomRight":{"Latitude":48.2424158,"Longitude":7.177458}},"Address":{"Label":"178 Rue Clemenceau, 68160 Sainte-Marie-aux-Mines, France","Country":"FRA","State":"Grand Est","County":"Haut-Rhin","City":"Sainte-Marie-aux-Mines","Street":"Rue Clemenceau","HouseNumber":"178","PostalCode":"68160","AdditionalData":[{"value":"France","key":"CountryName"},{"value":"Grand Est","key":"StateName"},{"value":"Haut-Rhin","key":"CountyName"}]},"MapReference":{"ReferenceId":"545419194","Spot":0.53,"SideOfStreet":"left","CountryId":"20000001","StateId":"20002047","CountyId":"20034358","CityId":"20035238","AddressId":"316404897","RoadLinkId":"45028518"}}},{"Relevance":1.0,"Distance":77.2,"MatchLevel":"houseNumber","MatchQuality":{"Country":1.0,"State":1.0,"County":1.0,"City":1.0,"Street":[1.0],"HouseNumber":1.0,"PostalCode":1.0},"MatchType":"interpolated","Location":{"LocationId":"NT_tGlRmy3qRR0TMXVbLORkoC_xcDN","LocationType":"point","DisplayPosition":{"Latitude":48.2438,"Longitude":7.17652},"MapView":{"TopLeft":{"Latitude":48.2449242,"Longitude":7.174832},"BottomRight":{"Latitude":48.2426758,"Longitude":7.178208}},"Address":{"Label":"174 Rue Clemenceau, 68160 Sainte-Marie-aux-Mines, France","Country":"FRA","State":"Grand Est","County":"Haut-Rhin","City":"Sainte-Marie-aux-Mines","Street":"Rue Clemenceau","HouseNumber":"174","PostalCode":"68160","AdditionalData":[{"value":"France","key":"CountryName"},{"value":"Grand Est","key":"StateName"},{"value":"Haut-Rhin","key":"CountyName"}]},"MapReference":{"ReferenceId":"545313967","Spot":0.48,"SideOfStreet":"left","CountryId":"20000001","StateId":"20002047","CountyId":"20034358","CityId":"20035238","AddressId":"316405509","RoadLinkId":"44422130"}}},{"Relevance":1.0,"Distance":86.3,"MatchLevel":"street","MatchQuality":{"Country":1.0,"State":1.0,"County":1.0,"City":1.0,"Street":[1.0],"PostalCode":1.0},"Location":{"LocationId":"NT_KwtdrNFFtAxjZh0M81GhFB_l_545313961_L","LocationType":"point","DisplayPosition":{"Latitude":48.24384,"Longitude":7.17666},"MapView":{"TopLeft":{"Latitude":48.24384,"Longitude":7.17666},"BottomRight":{"Latitude":48.24308,"Longitude":7.17725}},"Address":{"Label":"Place du Général de Gaulle, 68160 Sainte-Marie-aux-Mines, France","Country":"FRA","State":"Grand Est","County":"Haut-Rhin","City":"Sainte-Marie-aux-Mines","Street":"Place du Général de Gaulle","PostalCode":"68160","AdditionalData":[{"value":"France","key":"CountryName"},{"value":"Grand Est","key":"StateName"},{"value":"Haut-Rhin","key":"CountyName"}]},"MapReference":{"ReferenceId":"545313961","Spot":1.0,"SideOfStreet":"left","CountryId":"20000001","StateId":"20002047","CountyId":"20034358","CityId":"20035238"}}},{"Relevance":1.0,"Distance":87.4,"MatchLevel":"houseNumber","MatchQuality":{"Country":1.0,"State":1.0,"County":1.0,"City":1.0,"Street":[1.0],"HouseNumber":1.0,"PostalCode":1.0},"MatchType":"interpolated","Location":{"LocationId":"NT_tGlRmy3qRR0TMXVbLORkoC_xcDM","LocationType":"point","DisplayPosition":{"Latitude":48.24386,"Longitude":7.17674},"MapView":{"TopLeft":{"Latitude":48.2449842,"Longitude":7.175052},"BottomRight":{"Latitude":48.2427358,"Longitude":7.178428}},"Address":{"Label":"170 Rue Clemenceau, 68160 Sainte-Marie-aux-Mines, France","Country":"FRA","State":"Grand Est","County":"Haut-Rhin","City":"Sainte-Marie-aux-Mines","Street":"Rue Clemenceau","HouseNumber":"170","PostalCode":"68160","AdditionalData":[{"value":"France","key":"CountryName"},{"value":"Grand Est","key":"StateName"},{"value":"Haut-Rhin","key":"CountyName"}]},"MapReference":{"ReferenceId":"732327804","Spot":0.11,"SideOfStreet":"left","CountryId":"20000001","StateId":"20002047","CountyId":"20034358","CityId":"20035238","AddressId":"569845638","RoadLinkId":"134549382"}}},{"Relevance":1.0,"Distance":125.3,"MatchLevel":"houseNumber","MatchQuality":{"Country":1.0,"State":1.0,"County":1.0,"City":1.0,"Street":[1.0],"HouseNumber":1.0,"PostalCode":1.0},"MatchType":"interpolated","Location":{"LocationId":"NT_tGlRmy3qRR0TMXVbLORkoC_xgDN","LocationType":"point","DisplayPosition":{"Latitude":48.24322,"Longitude":7.1749},"MapView":{"TopLeft":{"Latitude":48.2443442,"Longitude":7.173212},"BottomRight":{"Latitude":48.2420958,"Longitude":7.176588}},"Address":{"Label":"184 Rue Clemenceau, 68160 Sainte-Marie-aux-Mines, France","Country":"FRA","State":"Grand Est","County":"Haut-Rhin","City":"Sainte-Marie-aux-Mines","Street":"Rue Clemenceau","HouseNumber":"184","PostalCode":"68160","AdditionalData":[{"value":"France","key":"CountryName"},{"value":"Grand Est","key":"StateName"},{"value":"Haut-Rhin","key":"CountyName"}]},"MapReference":{"ReferenceId":"545419197","Spot":0.6,"SideOfStreet":"left","CountryId":"20000001","StateId":"20002047","CountyId":"20034358","CityId":"20035238","AddressId":"316368224","RoadLinkId":"44899972"}}}]}]}}