{"Response":{"MetaInfo":{"Timestamp":"2020-03-28T11:44:36.575+0000","NextPageInformation":"2"},"View":[{"_type":"SearchResultsViewType","ViewId":0,"Result":[{"Relevance":1.0,"Distance":0.0,"Direction":0.0,"MatchLevel":"district","MatchQuality":{"Country":1.0,"State":1.0,"County":1.0,"City":1.0,"District":1.0,"PostalCode":1.0},"Location":{"LocationId":"NT_SnHnsYIPx6rPdHw9iyx80B","LocationType":"point","DisplayPosition":{"Latitude":48.2721976,"Longitude":12.2581375},"MapView":{"TopLeft":{"Latitude":48.27564,"Longitude":12.23893},"BottomRight":{"Latitude":48.26737,"Longitude":12.26677}},"Address":{"Label":"Schwindegg, Bayern, Deutschland","Country":"DEU","State":"Bayern","County":"Mühldorf a. Inn","City":"Schwindegg","District":"Schwindegg","PostalCode":"84419","AdditionalData":[{"value":"Deutschland","key":"CountryName"},{"value":"Bayern","key":"StateName"},{"value":"Mühldorf a. Inn","key":"CountyName"}]},"MapReference":{"ReferenceId":"53027391","SideOfStreet":"neither","CountryId":"20147700","StateId":"20177250","CountyId":"20178530","CityId":"20178624","DistrictId":"20178626"}}},{"Relevance":1.0,"Distance":17.9,"MatchLevel":"landmark","MatchQuality":{"Country":1.0,"State":1.0,"Name":1.0},"Location":{"LocationId":"NT_1g5vaWs3zn4rJRf99XsVMB","LocationType":"river","Name":"Goldach","DisplayPosition":{"Latitude":48.37417,"Longitude":11.7848},"MapView":{"TopLeft":{"Latitude":48.41818,"Longitude":11.718},"BottomRight":{"Latitude":48.21691,"Longitude":12.26711}},"Address":{"Label":"Deutschland","Country":"DEU","State":"Bayern","AdditionalData":[{"value":"Deutschland","key":"CountryName"},{"value":"Bayern","key":"StateName"}]},"MapReference":{"CountryId":"20147700","StateId":"20177250","PlaceId":"771263395"}}},{"Relevance":1.0,"Distance":18.8,"MatchLevel":"houseNumber","MatchQuality":{"Country":1.0,"State":1.0,"County":1.0,"City":1.0,"District":1.0,"Street":[1.0],"HouseNumber":1.0,"PostalCode":1.0},"MatchType":"interpolated","Location":{"LocationId":"NT_Fh75718za5S67XtNKEzc.A_yMD","LocationType":"point","DisplayPosition":{"Latitude":48.2719,"Longitude":12.25796},"MapView":{"TopLeft":{"Latitude":48.2730242,"Longitude":12.2562711},"BottomRight":{"Latitude":48.2707758,"Longitude":12.2596489}},"Address":{"Label":"Mühldorfer Straße 23, 84419 Schwindegg, Deutschland","Country":"DEU","State":"Bayern","County":"Mühldorf a. Inn","City":"Schwindegg","District":"Schwindegg","Street":"Mühldorfer Straße","HouseNumber":"23","PostalCode":"84419","AdditionalData":[{"value":"Deutschland","key":"CountryName"},{"value":"Bayern","key":"StateName"},{"value":"Mühldorf a. Inn","key":"CountyName"}]},"MapReference":{"ReferenceId":"541664537","Spot":0.78,"SideOfStreet":"right","CountryId":"20147700","StateId":"20177250","CountyId":"20178530","CityId":"20178624","DistrictId":"20178626","AddressId":"183729288","RoadLinkId":"32655379"}}},{"Relevance":1.0,"Distance":36.3,"MatchLevel":"houseNumber","MatchQuality":{"Country":1.0,"State":1.0,"County":1.0,"City":1.0,"District":1.0,"Street":[1.0],"HouseNumber":1.0,"PostalCode":1.0},"MatchType":"interpolated","Location":{"LocationId":"NT_Fh75718za5S67XtNKEzc.A_yUD","LocationType":"point","DisplayPosition":{"Latitude":48.27189,"Longitude":12.25862},"MapView":{"TopLeft":{"Latitude":48.2730142,"Longitude":12.2569311},"BottomRight":{"Latitude":48.2707658,"Longitude":12.2603089}},"Address":{"Label":"Mühldorfer Straße 25, 84419 Schwindegg, Deutschland","Country":"DEU","State":"Bayern","County":"Mühldorf a. Inn","City":"Schwindegg","District":"Schwindegg","Street":"Mühldorfer Straße","HouseNumber":"25","PostalCode":"84419","AdditionalData":[{"value":"Deutschland","key":"CountryName"},{"value":"Bayern","key":"StateName"},{"value":"Mühldorf a. Inn","key":"CountyName"}]},"MapReference":{"ReferenceId":"541656347","Spot":0.14,"SideOfStreet":"left","CountryId":"20147700","StateId":"20177250","CountyId":"20178530","CityId":"20178624","DistrictId":"20178626","AddressId":"184166240","RoadLinkId":"32773485"}}},{"Relevance":1.0,"Distance":36.4,"MatchLevel":"street","MatchQuality":{"Country":1.0,"State":1.0,"County":1.0,"City":1.0,"District":1.0,"Street":[1.0],"PostalCode":1.0},"Location":{"LocationId":"NT_49KYyykpjHTsuYBG6a.CBA_l_1192237454_R","LocationType":"point","DisplayPosition":{"Latitude":48.2725101,"Longitude":12.2579917},"MapView":{"TopLeft":{"Latitude":48.27283,"Longitude":12.25797},"BottomRight":{"Latitude":48.2725,"Longitude":12.25851}},"Address":{"Label":"Buchbacher Straße, 84419 Schwindegg, Deutschland","Country":"DEU","State":"Bayern","County":"Mühldorf a. Inn","City":"Schwindegg","District":"Schwindegg","Street":"Buchbacher Straße","PostalCode":"84419","AdditionalData":[{"value":"Deutschland","key":"CountryName"},{"value":"Bayern","key":"StateName"},{"value":"Mühldorf a. Inn","key":"CountyName"}]},"MapReference":{"ReferenceId":"1192237454","Spot":0.04,"SideOfStreet":"right","CountryId":"20147700","StateId":"20177250","CountyId":"20178530","CityId":"20178624","DistrictId":"20178626"}}},{"Relevance":1.0,"Distance":37.0,"MatchLevel":"houseNumber","MatchQuality":{"Country":1.0,"State":1.0,"County":1.0,"City":1.0,"District":1.0,"Street":[1.0],"HouseNumber":1.0,"PostalCode":1.0},"MatchType":"interpolated","Location":{"LocationId":"NT_MJne3Ekins.U6z.BLsv06A_zA","LocationType":"point","DisplayPosition":{"Latitude":48.27246,"Longitude":12.25783},"MapView":{"TopLeft":{"Latitude":48.2735842,"Longitude":12.256141},"BottomRight":{"Latitude":48.2713358,"Longitude":12.259519}},"Address":{"Label":"Buchbacher Straße 3, 84419 Schwindegg, Deutschland","Country":"DEU","State":"Bayern","County":"Mühldorf a. Inn","City":"Schwindegg","District":"Schwindegg","Street":"Buchbacher Straße","HouseNumber":"3","PostalCode":"84419","AdditionalData":[{"value":"Deutschland","key":"CountryName"},{"value":"Bayern","key":"StateName"},{"value":"Mühldorf a. Inn","key":"CountyName"}]},"MapReference":{"ReferenceId":"53027391","Spot":0.69,"SideOfStreet":"left","CountryId":"20147700","StateId":"20177250","CountyId":"20178530","CityId":"20178624","DistrictId":"20178626","AddressId":"183609076","RoadLinkId":"32818827"}}},{"Relevance":1.0,"Distance":37.6,"MatchLevel":"street","MatchQuality":{"Country":1.0,"State":1.0,"County":1.0,"City":1.0,"District":1.0,"Street":[1.0],"PostalCode":1.0},"Location":{"LocationId":"NT_LhEh3Q0UrRI.7bBN1eL40D_l_541656351_L","LocationType":"point","DisplayPosition":{"Latitude":48.27189,"Longitude":12.25835},"MapView":{"TopLeft":{"Latitude":48.27189,"Longitude":12.25835},"BottomRight":{"Latitude":48.27109,"Longitude":12.2585}},"Address":{"Label":"Rimbachstraße, 84419 Schwindegg, Deutschland","Country":"DEU","State":"Bayern","County":"Mühldorf a. Inn","City":"Schwindegg","District":"Schwindegg","Street":"Rimbachstraße","PostalCode":"84419","AdditionalData":[{"value":"Deutschland","key":"CountryName"},{"value":"Bayern","key":"StateName"},{"value":"Mühldorf a. Inn","key":"CountyName"}]},"MapReference":{"ReferenceId":"541656351","Spot":1.0,"SideOfStreet":"left","CountryId":"20147700","StateId":"20177250","CountyId":"20178530","CityId":"20178624","DistrictId":"20178626"}}},{"Relevance":1.0,"Distance":38.4,"MatchLevel":"street","MatchQuality":{"Country":1.0,"State":1.0,"County":1.0,"City":1.0,"District":1.0,"Street":[1.0],"PostalCode":1.0},"Location":{"LocationId":"NT_Fh75718za5S67XtNKEzc.A_l_541664538_R","LocationType":"point","DisplayPosition":{"Latitude":48.27191,"Longitude":12.25785},"MapView":{"TopLeft":{"Latitude":48.27211,"Longitude":12.25727},"BottomRight":{"Latitude":48.27191,"Longitude":12.25785}},"Address":{"Label":"Mühldorfer Straße, 84419 Schwindegg, Deutschland","Country":"DEU","State":"Bayern","County":"Mühldorf a. Inn","City":"Schwindegg","District":"Schwindegg","Street":"Mühldorfer Straße","PostalCode":"84419","AdditionalData":[{"value":"Deutschland","key":"CountryName"},{"value":"Bayern","key":"StateName"},{"value":"Mühldorf a. Inn","key":"CountyName"}]},"MapReference":{"ReferenceId":"541664538","Spot":0.0,"SideOfStreet":"right","CountryId":"20147700","StateId":"20177250","CountyId":"20178530","CityId":"20178624","DistrictId":"20178626"}}},{"Relevance":1.0,"Distance":39.2,"MatchLevel":"houseNumber","MatchQuality":{"Country":1.0,"State":1.0,"County":1.0,"City":1.0,"District":1.0,"Street":[1.0],"HouseNumber":1.0,"PostalCode":1.0},"MatchType":"interpolated","Location":{"LocationId":"NT_MJne3Ekins.U6z.BLsv06A_yA","LocationType":"point","DisplayPosition":{"Latitude":48.27233,"Longitude":12.2575},"MapView":{"TopLeft":{"Latitude":48.2734542,"Longitude":12.255811},"BottomRight":{"Latitude":48.2712058,"Longitude":12.259189}},"Address":{"Label":"Buchbacher Straße 2, 84419 Schwindegg, Deutschland","Country":"DEU","State":"Bayern","County":"Mühldorf a. Inn","City":"Schwindegg","District":"Schwindegg","Street":"Buchbacher Straße","HouseNumber":"2","PostalCode":"84419","AdditionalData":[{"value":"Deutschland","key":"CountryName"},{"value":"Bayern","key":"StateName"},{"value":"Mühldorf a. Inn","key":"CountyName"}]},"MapReference":{"ReferenceId":"541656370","Spot":0.9,"SideOfStreet":"right","CountryId":"20147700","StateId":"20177250","CountyId":"20178530","CityId":"20178624","DistrictId":"20178626","AddressId":"182271765","RoadLinkId":"33129612"}}},{"Relevance":1.0,"Distance":60.3,"MatchLevel":"houseNumber","MatchQuality":{"Country":1.0,"State":1.0,"County":1.0,"City":1.0,"District":1.0,"Street":[1.0],"HouseNumber":1.0,"PostalCode":1.0},"MatchType":"interpolated","Location":{"LocationId":"NT_6gKOfP4CP4P50pzEpP.FwC_yA","LocationType":"point","DisplayPosition":{"Latitude":48.27275,"Longitude":12.25805},"MapView":{"TopLeft":{"Latitude":48.2738742,"Longitude":12.256361},"BottomRight":{"Latitude":48.2716258,"Longitude":12.259739}},"Address":{"Label":"Weidestraße 2, 84419 Schwindegg, Deutschland","Country":"DEU","State":"Bayern","County":"Mühldorf a. Inn","City":"Schwindegg","District":"Schwindegg","Street":"Weidestraße","HouseNumber":"2","PostalCode":"84419","AdditionalData":[{"value":"Deutschland","key":"CountryName"},{"value":"Bayern","key":"StateName"},{"value":"Mühldorf a. Inn","key":"CountyName"}]},"MapReference":{"ReferenceId":"541656787","Spot":0.32,"SideOfStreet":"right","CountryId":"20147700","StateId":"20177250","CountyId":"20178530","CityId":"20178624","DistrictId":"20178626","AddressId":"183490120","RoadLinkId":"32722551"}}}]}]}}