{"Response":{"MetaInfo":{"Timestamp":"2020-03-28T10:14:13.447+0000","NextPageInformation":"2"},"View":[{"_type":"SearchResultsViewType","ViewId":0,"Result":[{"Relevance":1.0,"Distance":0.0,"Direction":0.0,"MatchLevel":"district","MatchQuality":{"Country":1.0,"State":1.0,"County":1.0,"City":1.0,"District":1.0,"PostalCode":1.0},"Location":{"LocationId":"NT_HhiRy4fEg.aLUeVgECtlpB","LocationType":"point","DisplayPosition":{"Latitude":48.2492142,"Longitude":13.2348744},"MapView":{"TopLeft":{"Latitude":48.25841,"Longitude":13.21302},"BottomRight":{"Latitude":48.23763,"Longitude":13.25071}},"Address":{"Label":"Altheim, Oberösterreich, Österreich","Country":"AUT","State":"Oberösterreich","County":"Braunau am Inn","City":"Altheim","District":"Altheim","PostalCode":"4950","AdditionalData":[{"value":"Österreich","key":"CountryName"},{"value":"Oberösterreich","key":"StateName"},{"value":"Braunau am Inn","key":"CountyName"}]},"MapReference":{"ReferenceId":"833075071","SideOfStreet":"neither","CountryId":"20128885","StateId":"20132880","CountyId":"20132896","CityId":"20132897","DistrictId":"20132899"}}},{"Relevance":1.0,"Distance":5.0,"MatchLevel":"houseNumber","MatchQuality":{"Country":1.0,"State":1.0,"County":1.0,"City":1.0,"District":1.0,"Street":[1.0],"HouseNumber":1.0,"PostalCode":1.0},"MatchType":"interpolated","Location":{"LocationId":"NT_Zy88d2bKLvLPjd0f-Nj8iB_2A","LocationType":"point","DisplayPosition":{"Latitude":48.24917,"Longitude":13.23489},"MapView":{"TopLeft":{"Latitude":48.2502942,"Longitude":13.2332018},"BottomRight":{"Latitude":48.2480458,"Longitude":13.2365782}},"Address":{"Label":"Wiesner Straße 6, 4950 Altheim, Österreich","Country":"AUT","State":"Oberösterreich","County":"Braunau am Inn","City":"Altheim","District":"Altheim","Street":"Wiesner Straße","HouseNumber":"6","PostalCode":"4950","AdditionalData":[{"value":"Österreich","key":"CountryName"},{"value":"Oberösterreich","key":"StateName"},{"value":"Braunau am Inn","key":"CountyName"}]},"MapReference":{"ReferenceId":"557072253","Spot":0.45,"SideOfStreet":"left","CountryId":"20128885","StateId":"20132880","CountyId":"20132896","CityId":"20132897","DistrictId":"20132899","AddressId":"160820094","RoadLinkId":"28673648"}}},{"Relevance":1.0,"Distance":45.7,"MatchLevel":"houseNumber","MatchQuality":{"Country":1.0,"State":1.0,"County":1.0,"City":1.0,"District":1.0,"Street":[1.0],"HouseNumber":1.0,"PostalCode":1.0},"MatchType":"interpolated","Location":{"LocationId":"NT_pElCiy-80F-WwYjPjGP1qA_5A","LocationType":"point","DisplayPosition":{"Latitude":48.24924,"Longitude":13.23577},"MapView":{"TopLeft":{"Latitude":48.2503642,"Longitude":13.2340818},"BottomRight":{"Latitude":48.2481158,"Longitude":13.2374582}},"Address":{"Label":"Hagergasse 9, 4950 Altheim, Österreich","Country":"AUT","State":"Oberösterreich","County":"Braunau am Inn","City":"Altheim","District":"Altheim","Street":"Hagergasse","HouseNumber":"9","PostalCode":"4950","AdditionalData":[{"value":"Österreich","key":"CountryName"},{"value":"Oberösterreich","key":"StateName"},{"value":"Braunau am Inn","key":"CountyName"}]},"MapReference":{"ReferenceId":"557072256","Spot":0.34,"SideOfStreet":"left","CountryId":"20128885","StateId":"20132880","CountyId":"20132896","CityId":"20132897","DistrictId":"20132899","AddressId":"160820938","RoadLinkId":"27769515"}}},{"Relevance":1.0,"Distance":48.6,"MatchLevel":"houseNumber","MatchQuality":{"Country":1.0,"State":1.0,"County":1.0,"City":1.0,"District":1.0,"Street":[1.0],"HouseNumber":1.0,"PostalCode":1.0},"MatchType":"interpolated","Location":{"LocationId":"NT_Zy88d2bKLvLPjd0f-Nj8iB_xAD","LocationType":"point","DisplayPosition":{"Latitude":48.24894,"Longitude":13.23541},"MapView":{"TopLeft":{"Latitude":48.2500642,"Longitude":13.2337218},"BottomRight":{"Latitude":48.2478158,"Longitude":13.2370982}},"Address":{"Label":"Wiesner Straße 10, 4950 Altheim, Österreich","Country":"AUT","State":"Oberösterreich","County":"Braunau am Inn","City":"Altheim","District":"Altheim","Street":"Wiesner Straße","HouseNumber":"10","PostalCode":"4950","AdditionalData":[{"value":"Österreich","key":"CountryName"},{"value":"Oberösterreich","key":"StateName"},{"value":"Braunau am Inn","key":"CountyName"}]},"MapReference":{"ReferenceId":"557072254","Spot":0.97,"SideOfStreet":"left","CountryId":"20128885","StateId":"20132880","CountyId":"20132896","CityId":"20132897","DistrictId":"20132899","AddressId":"160820088","RoadLinkId":"28265897"}}},{"Relevance":1.0,"Distance":48.8,"MatchLevel":"landmark","MatchQuality":{"Country":1.0,"State":1.0,"County":1.0,"City":1.0,"District":1.0,"PostalCode":1.0,"Name":1.0},"Location":{"LocationId":"NT_vyMryIQ2jhMl1Asmd2PR8D","LocationType":"industrialComplex","Name":"Wiesner-Hager Möbel","DisplayPosition":{"Latitude":48.25116,"Longitude":13.24618},"MapView":{"TopLeft":{"Latitude":48.25469,"Longitude":13.2354},"BottomRight":{"Latitude":48.24762,"Longitude":13.25071}},"Address":{"Label":"4950 Altheim, Österreich","Country":"AUT","State":"Oberösterreich","County":"Braunau am Inn","City":"Altheim","District":"Altheim","PostalCode":"4950","AdditionalData":[{"value":"Österreich","key":"CountryName"},{"value":"Oberösterreich","key":"StateName"},{"value":"Braunau am Inn","key":"CountyName"}]},"MapReference":{"CountryId":"20128885","StateId":"20132880","CountyId":"20132896","CityId":"20132897","DistrictId":"20132899","PlaceId":"1414828724"}}},{"Relevance":1.0,"Distance":50.5,"MatchLevel":"houseNumber","MatchQuality":{"Country":1.0,"State":1.0,"County":1.0,"City":1.0,"District":1.0,"Street":[1.0],"HouseNumber":1.0,"PostalCode":1.0},"MatchType":"interpolated","Location":{"LocationId":"NT_q-crr33oEvsItT1G37YVAB_5A","LocationType":"point","DisplayPosition":{"Latitude":48.24883,"Longitude":13.23415},"MapView":{"TopLeft":{"Latitude":48.2499542,"Longitude":13.2324618},"BottomRight":{"Latitude":48.2477058,"Longitude":13.2358382}},"Address":{"Label":"Am Anger 9, 4950 Altheim, Österreich","Country":"AUT","State":"Oberösterreich","County":"Braunau am Inn","City":"Altheim","District":"Altheim","Street":"Am Anger","HouseNumber":"9","PostalCode":"4950","AdditionalData":[{"value":"Österreich","key":"CountryName"},{"value":"Oberösterreich","key":"StateName"},{"value":"Braunau am Inn","key":"CountyName"}]},"MapReference":{"ReferenceId":"62862698","Spot":0.37,"SideOfStreet":"right","CountryId":"20128885","StateId":"20132880","CountyId":"20132896","CityId":"20132897","DistrictId":"20132899","AddressId":"160806153","RoadLinkId":"28481645"}}},{"Relevance":1.0,"Distance":61.2,"MatchLevel":"houseNumber","MatchQuality":{"Country":1.0,"State":1.0,"County":1.0,"City":1.0,"District":1.0,"Street":[1.0],"HouseNumber":1.0,"PostalCode":1.0},"MatchType":"interpolated","Location":{"LocationId":"NT_q-crr33oEvsItT1G37YVAB_3A","LocationType":"point","DisplayPosition":{"Latitude":48.24908,"Longitude":13.23395},"MapView":{"TopLeft":{"Latitude":48.2502042,"Longitude":13.2322618},"BottomRight":{"Latitude":48.2479558,"Longitude":13.2356382}},"Address":{"Label":"Am Anger 7, 4950 Altheim, Österreich","Country":"AUT","State":"Oberösterreich","County":"Braunau am Inn","City":"Altheim","District":"Altheim","Street":"Am Anger","HouseNumber":"7","PostalCode":"4950","AdditionalData":[{"value":"Österreich","key":"CountryName"},{"value":"Oberösterreich","key":"StateName"},{"value":"Braunau am Inn","key":"CountyName"}]},"MapReference":{"ReferenceId":"557072262","Spot":0.22,"SideOfStreet":"right","CountryId":"20128885","StateId":"20132880","CountyId":"20132896","CityId":"20132897","DistrictId":"20132899","AddressId":"160806152","RoadLinkId":"28090195"}}},{"Relevance":1.0,"Distance":63.9,"MatchLevel":"houseNumber","MatchQuality":{"Country":1.0,"State":1.0,"County":1.0,"City":1.0,"District":1.0,"Street":[1.0],"HouseNumber":1.0,"PostalCode":1.0},"MatchType":"interpolated","Location":{"LocationId":"NT_q-crr33oEvsItT1G37YVAB_xED","LocationType":"point","DisplayPosition":{"Latitude":48.24871,"Longitude":13.23429},"MapView":{"TopLeft":{"Latitude":48.2498342,"Longitude":13.2326018},"BottomRight":{"Latitude":48.2475858,"Longitude":13.2359782}},"Address":{"Label":"Am Anger 11, 4950 Altheim, Österreich","Country":"AUT","State":"Oberösterreich","County":"Braunau am Inn","City":"Altheim","District":"Altheim","Street":"Am Anger","HouseNumber":"11","PostalCode":"4950","AdditionalData":[{"value":"Österreich","key":"CountryName"},{"value":"Oberösterreich","key":"StateName"},{"value":"Braunau am Inn","key":"CountyName"}]},"MapReference":{"ReferenceId":"62862697","Spot":0.94,"SideOfStreet":"right","CountryId":"20128885","StateId":"20132880","CountyId":"20132896","CityId":"20132897","DistrictId":"20132899","AddressId":"160806173","RoadLinkId":"28248251"}}},{"Relevance":1.0,"Distance":78.4,"MatchLevel":"houseNumber","MatchQuality":{"Country":1.0,"State":1.0,"County":1.0,"City":1.0,"District":1.0,"Street":[1.0],"HouseNumber":1.0,"PostalCode":1.0},"MatchType":"interpolated","Location":{"LocationId":"NT_Zy88d2bKLvLPjd0f-Nj8iB_xID","LocationType":"point","DisplayPosition":{"Latitude":48.24843,"Longitude":13.23554},"MapView":{"TopLeft":{"Latitude":48.2495542,"Longitude":13.2338518},"BottomRight":{"Latitude":48.2473058,"Longitude":13.2372282}},"Address":{"Label":"Wiesner Straße 12, 4950 Altheim, Österreich","Country":"AUT","State":"Oberösterreich","County":"Braunau am Inn","City":"Altheim","District":"Altheim","Street":"Wiesner Straße","HouseNumber":"12","PostalCode":"4950","AdditionalData":[{"value":"Österreich","key":"CountryName"},{"value":"Oberösterreich","key":"StateName"},{"value":"Braunau am Inn","key":"CountyName"}]},"MapReference":{"ReferenceId":"557072251","Spot":0.63,"SideOfStreet":"left","CountryId":"20128885","StateId":"20132880","CountyId":"20132896","CityId":"20132897","DistrictId":"20132899","AddressId":"160820091","RoadLinkId":"28322741"}}},{"Relevance":1.0,"Distance":82.1,"MatchLevel":"houseNumber","MatchQuality":{"Country":1.0,"State":1.0,"County":1.0,"City":1.0,"District":1.0,"Street":[1.0],"HouseNumber":1.0,"PostalCode":1.0},"MatchType":"interpolated","Location":{"LocationId":"NT_EPgvcmy9KwBM-wAGjN3zGB_xMD","LocationType":"point","DisplayPosition":{"Latitude":48.24973,"Longitude":13.23409},"MapView":{"TopLeft":{"Latitude":48.2508542,"Longitude":13.2324018},"BottomRight":{"Latitude":48.2486058,"Longitude":13.2357782}},"Address":{"Label":"Kirchengasse 13, 4950 Altheim, Österreich","Country":"AUT","State":"Oberösterreich","County":"Braunau am Inn","City":"Altheim","District":"Altheim","Street":"Kirchengasse","HouseNumber":"13","PostalCode":"4950","AdditionalData":[{"value":"Österreich","key":"CountryName"},{"value":"Oberösterreich","key":"StateName"},{"value":"Braunau am Inn","key":"CountyName"}]},"MapReference":{"ReferenceId":"557072267","Spot":0.33,"SideOfStreet":"right","CountryId":"20128885","StateId":"20132880","CountyId":"20132896","CityId":"20132897","DistrictId":"20132899","AddressId":"160808445","RoadLinkId":"28246809"}}}]}]}}