{"Response":{"MetaInfo":{"Timestamp":"2020-03-28T10:14:02.068+0000","NextPageInformation":"2"},"View":[{"_type":"SearchResultsViewType","ViewId":0,"Result":[{"Relevance":1.0,"Distance":0.0,"Direction":0.0,"MatchLevel":"district","MatchQuality":{"Country":1.0,"State":1.0,"County":1.0,"City":1.0,"District":1.0,"PostalCode":1.0},"Location":{"LocationId":"NT_.rNHp5kAuQhu2JwGzMJUnD","LocationType":"point","DisplayPosition":{"Latitude":48.2279949,"Longitude":14.8439245},"MapView":{"TopLeft":{"Latitude":48.23513,"Longitude":14.83244},"BottomRight":{"Latitude":48.21683,"Longitude":14.87313}},"Address":{"Label":"Grein, Oberösterreich, Österreich","Country":"AUT","State":"Oberösterreich","County":"Perg","City":"Grein","District":"Grein","PostalCode":"4360","AdditionalData":[{"value":"Österreich","key":"CountryName"},{"value":"Oberösterreich","key":"StateName"},{"value":"Perg","key":"CountyName"}]},"MapReference":{"ReferenceId":"569709644","SideOfStreet":"neither","CountryId":"20128885","StateId":"20132880","CountyId":"20133567","CityId":"20133580","DistrictId":"20133582"}}},{"Relevance":1.0,"Distance":27.7,"MatchLevel":"houseNumber","MatchQuality":{"Country":1.0,"State":1.0,"County":1.0,"City":1.0,"District":1.0,"Street":[1.0],"HouseNumber":1.0,"PostalCode":1.0},"MatchType":"interpolated","Location":{"LocationId":"NT_6wkdsWL15yAr3HLSOmsEyB_xED","LocationType":"point","DisplayPosition":{"Latitude":48.22833,"Longitude":14.844},"MapView":{"TopLeft":{"Latitude":48.2294542,"Longitude":14.8423125},"BottomRight":{"Latitude":48.2272058,"Longitude":14.8456875}},"Address":{"Label":"Breitenangerstraße 11, 4360 Grein, Österreich","Country":"AUT","State":"Oberösterreich","County":"Perg","City":"Grein","District":"Grein","Street":"Breitenangerstraße","HouseNumber":"11","PostalCode":"4360","AdditionalData":[{"value":"Österreich","key":"CountryName"},{"value":"Oberösterreich","key":"StateName"},{"value":"Perg","key":"CountyName"}]},"MapReference":{"ReferenceId":"569720116","Spot":0.29,"SideOfStreet":"left","CountryId":"20128885","StateId":"20132880","CountyId":"20133567","CityId":"20133580","DistrictId":"20133582","AddressId":"160882230","RoadLinkId":"27901615"}}},{"Relevance":1.0,"Distance":52.4,"MatchLevel":"houseNumber","MatchQuality":{"Country":1.0,"State":1.0,"County":1.0,"City":1.0,"District":1.0,"Street":[1.0],"HouseNumber":1.0,"PostalCode":1.0},"MatchType":"interpolated","Location":{"LocationId":"NT_TQkLtaQpOq1MtoMj3GclCB_xkD","LocationType":"point","DisplayPosition":{"Latitude":48.22755,"Longitude":14.84425},"MapView":{"TopLeft":{"Latitude":48.2286742,"Longitude":14.8425625},"BottomRight":{"Latitude":48.2264258,"Longitude":14.8459375}},"Address":{"Label":"Angerweg 19, 4360 Grein, Österreich","Country":"AUT","State":"Oberösterreich","County":"Perg","City":"Grein","District":"Grein","Street":"Angerweg","HouseNumber":"19","PostalCode":"4360","AdditionalData":[{"value":"Österreich","key":"CountryName"},{"value":"Oberösterreich","key":"StateName"},{"value":"Perg","key":"CountyName"}]},"MapReference":{"ReferenceId":"569720117","Spot":0.39,"SideOfStreet":"left","CountryId":"20128885","StateId":"20132880","CountyId":"20133567","CityId":"20133580","DistrictId":"20133582","AddressId":"160882316","RoadLinkId":"28177934"}}},{"Relevance":1.0,"Distance":54.9,"MatchLevel":"houseNumber","MatchQuality":{"Country":1.0,"State":1.0,"County":1.0,"City":1.0,"District":1.0,"Street":[1.0],"HouseNumber":1.0,"PostalCode":1.0},"MatchType":"interpolated","Location":{"LocationId":"NT_TQkLtaQpOq1MtoMj3GclCB_3A","LocationType":"point","DisplayPosition":{"Latitude":48.22748,"Longitude":14.84337},"MapView":{"TopLeft":{"Latitude":48.2286042,"Longitude":14.8416825},"BottomRight":{"Latitude":48.2263558,"Longitude":14.8450575}},"Address":{"Label":"Angerweg 7, 4360 Grein, Österreich","Country":"AUT","State":"Oberösterreich","County":"Perg","City":"Grein","District":"Grein","Street":"Angerweg","HouseNumber":"7","PostalCode":"4360","AdditionalData":[{"value":"Österreich","key":"CountryName"},{"value":"Oberösterreich","key":"StateName"},{"value":"Perg","key":"CountyName"}]},"MapReference":{"ReferenceId":"569709434","Spot":0.69,"SideOfStreet":"right","CountryId":"20128885","StateId":"20132880","CountyId":"20133567","CityId":"20133580","DistrictId":"20133582","AddressId":"729034634","RoadLinkId":"28020459"}}},{"Relevance":1.0,"Distance":58.1,"MatchLevel":"houseNumber","MatchQuality":{"Country":1.0,"State":1.0,"County":1.0,"City":1.0,"District":1.0,"Street":[1.0],"HouseNumber":1.0,"PostalCode":1.0},"MatchType":"interpolated","Location":{"LocationId":"NT_TQkLtaQpOq1MtoMj3GclCB_1A","LocationType":"point","DisplayPosition":{"Latitude":48.22761,"Longitude":14.8431},"MapView":{"TopLeft":{"Latitude":48.2287342,"Longitude":14.8414125},"BottomRight":{"Latitude":48.2264858,"Longitude":14.8447875}},"Address":{"Label":"Angerweg 5, 4360 Grein, Österreich","Country":"AUT","State":"Oberösterreich","County":"Perg","City":"Grein","District":"Grein","Street":"Angerweg","HouseNumber":"5","PostalCode":"4360","AdditionalData":[{"value":"Österreich","key":"CountryName"},{"value":"Oberösterreich","key":"StateName"},{"value":"Perg","key":"CountyName"}]},"MapReference":{"ReferenceId":"569709435","Spot":0.02,"SideOfStreet":"right","CountryId":"20128885","StateId":"20132880","CountyId":"20133567","CityId":"20133580","DistrictId":"20133582","AddressId":"160882311","RoadLinkId":"28646144"}}},{"Relevance":1.0,"Distance":99.8,"MatchLevel":"houseNumber","MatchQuality":{"Country":1.0,"State":1.0,"County":1.0,"City":1.0,"District":1.0,"Street":[1.0],"HouseNumber":1.0,"PostalCode":1.0},"MatchType":"interpolated","Location":{"LocationId":"NT_TQkLtaQpOq1MtoMj3GclCB_xUD","LocationType":"point","DisplayPosition":{"Latitude":48.2271,"Longitude":14.84383},"MapView":{"TopLeft":{"Latitude":48.2282242,"Longitude":14.8421425},"BottomRight":{"Latitude":48.2259758,"Longitude":14.8455175}},"Address":{"Label":"Angerweg 15, 4360 Grein, Österreich","Country":"AUT","State":"Oberösterreich","County":"Perg","City":"Grein","District":"Grein","Street":"Angerweg","HouseNumber":"15","PostalCode":"4360","AdditionalData":[{"value":"Österreich","key":"CountryName"},{"value":"Oberösterreich","key":"StateName"},{"value":"Perg","key":"CountyName"}]},"MapReference":{"ReferenceId":"569709438","Spot":0.66,"SideOfStreet":"right","CountryId":"20128885","StateId":"20132880","CountyId":"20133567","CityId":"20133580","DistrictId":"20133582","AddressId":"160882318","RoadLinkId":"28186111"}}},{"Relevance":1.0,"Distance":103.2,"MatchLevel":"houseNumber","MatchQuality":{"Country":1.0,"State":1.0,"County":1.0,"City":1.0,"District":1.0,"Street":[1.0],"HouseNumber":1.0,"PostalCode":1.0},"MatchType":"interpolated","Location":{"LocationId":"NT_6wkdsWL15yAr3HLSOmsEyB_xAD","LocationType":"point","DisplayPosition":{"Latitude":48.22842,"Longitude":14.84495},"MapView":{"TopLeft":{"Latitude":48.2295442,"Longitude":14.8432625},"BottomRight":{"Latitude":48.2272958,"Longitude":14.8466375}},"Address":{"Label":"Breitenangerstraße 10, 4360 Grein, Österreich","Country":"AUT","State":"Oberösterreich","County":"Perg","City":"Grein","District":"Grein","Street":"Breitenangerstraße","HouseNumber":"10","PostalCode":"4360","AdditionalData":[{"value":"Österreich","key":"CountryName"},{"value":"Oberösterreich","key":"StateName"},{"value":"Perg","key":"CountyName"}]},"MapReference":{"ReferenceId":"569720118","Spot":0.43,"SideOfStreet":"left","CountryId":"20128885","StateId":"20132880","CountyId":"20133567","CityId":"20133580","DistrictId":"20133582","AddressId":"411901845","RoadLinkId":"29173588"}}},{"Relevance":1.0,"Distance":108.2,"MatchLevel":"houseNumber","MatchQuality":{"Country":1.0,"State":1.0,"County":1.0,"City":1.0,"District":1.0,"Street":[1.0],"HouseNumber":1.0,"PostalCode":1.0},"MatchType":"interpolated","Location":{"LocationId":"NT_6wkdsWL15yAr3HLSOmsEyB_xUD","LocationType":"point","DisplayPosition":{"Latitude":48.22814,"Longitude":14.84248},"MapView":{"TopLeft":{"Latitude":48.2292642,"Longitude":14.8407925},"BottomRight":{"Latitude":48.2270158,"Longitude":14.8441675}},"Address":{"Label":"Breitenangerstraße 15, 4360 Grein, Österreich","Country":"AUT","State":"Oberösterreich","County":"Perg","City":"Grein","District":"Grein","Street":"Breitenangerstraße","HouseNumber":"15","PostalCode":"4360","AdditionalData":[{"value":"Österreich","key":"CountryName"},{"value":"Oberösterreich","key":"StateName"},{"value":"Perg","key":"CountyName"}]},"MapReference":{"ReferenceId":"569709431","Spot":0.45,"SideOfStreet":"left","CountryId":"20128885","StateId":"20132880","CountyId":"20133567","CityId":"20133580","DistrictId":"20133582","AddressId":"160882240","RoadLinkId":"28669240"}}},{"Relevance":1.0,"Distance":117.8,"MatchLevel":"houseNumber","MatchQuality":{"Country":1.0,"State":1.0,"County":1.0,"City":1.0,"District":1.0,"Street":[1.0],"HouseNumber":1.0,"PostalCode":1.0},"MatchType":"interpolated","Location":{"LocationId":"NT_TQkLtaQpOq1MtoMj3GclCB_xYD","LocationType":"point","DisplayPosition":{"Latitude":48.22701,"Longitude":14.84334},"MapView":{"TopLeft":{"Latitude":48.2281342,"Longitude":14.8416525},"BottomRight":{"Latitude":48.2258858,"Longitude":14.8450275}},"Address":{"Label":"Angerweg 16, 4360 Grein, Österreich","Country":"AUT","State":"Oberösterreich","County":"Perg","City":"Grein","District":"Grein","Street":"Angerweg","HouseNumber":"16","PostalCode":"4360","AdditionalData":[{"value":"Österreich","key":"CountryName"},{"value":"Oberösterreich","key":"StateName"},{"value":"Perg","key":"CountyName"}]},"MapReference":{"ReferenceId":"569709432","Spot":0.31,"SideOfStreet":"left","CountryId":"20128885","StateId":"20132880","CountyId":"20133567","CityId":"20133580","DistrictId":"20133582","AddressId":"728834032","RoadLinkId":"28740314"}}},{"Relevance":1.0,"Distance":121.8,"MatchLevel":"street","MatchQuality":{"Country":1.0,"State":1.0,"County":1.0,"City":1.0,"District":1.0,"Street":[1.0],"PostalCode":1.0},"Location":{"LocationId":"NT_TQkLtaQpOq1MtoMj3GclCB_l_569720126_R","LocationType":"point","DisplayPosition":{"Latitude":48.22802,"Longitude":14.84228},"MapView":{"TopLeft":{"Latitude":48.22802,"Longitude":14.84189},"BottomRight":{"Latitude":48.22787,"Longitude":14.84228}},"Address":{"Label":"Angerweg, 4360 Grein, Österreich","Country":"AUT","State":"Oberösterreich","County":"Perg","City":"Grein","District":"Grein","Street":"Angerweg","PostalCode":"4360","AdditionalData":[{"value":"Österreich","key":"CountryName"},{"value":"Oberösterreich","key":"StateName"},{"value":"Perg","key":"CountyName"}]},"MapReference":{"ReferenceId":"569720126","Spot":1.0,"SideOfStreet":"right","CountryId":"20128885","StateId":"20132880","CountyId":"20133567","CityId":"20133580","DistrictId":"20133582"}}}]}]}}