{"Response":{"MetaInfo":{"Timestamp":"2020-03-28T10:51:03.393+0000","NextPageInformation":"2"},"View":[{"_type":"SearchResultsViewType","ViewId":0,"Result":[{"Relevance":1.0,"Distance":0.0,"Direction":0.0,"MatchLevel":"district","MatchQuality":{"Country":1.0,"State":1.0,"County":1.0,"City":1.0,"District":1.0,"PostalCode":1.0},"Location":{"LocationId":"NT_jf-CcXfcW.1kSRkaCk14xC","LocationType":"point","DisplayPosition":{"Latitude":48.2242433,"Longitude":16.3456746},"MapView":{"TopLeft":{"Latitude":48.2509,"Longitude":16.2819},"BottomRight":{"Latitude":48.21729,"Longitude":16.35375}},"Address":{"Label":"18. Bezirk-Währing, Wien, Österreich","Country":"AUT","State":"Wien","County":"Wien","City":"Wien","District":"18. Bezirk-Währing","PostalCode":"1180","AdditionalData":[{"value":"Österreich","key":"CountryName"},{"value":"Wien","key":"StateName"},{"value":"Wien","key":"CountyName"}]},"MapReference":{"ReferenceId":"943824889","SideOfStreet":"neither","CountryId":"20128885","StateId":"20138131","CountyId":"20138132","CityId":"20138133","DistrictId":"20243469"}}},{"Relevance":1.0,"Distance":8.4,"MatchLevel":"houseNumber","MatchQuality":{"Country":1.0,"State":1.0,"County":1.0,"City":1.0,"District":1.0,"Street":[1.0],"HouseNumber":1.0,"PostalCode":1.0},"MatchType":"interpolated","Location":{"LocationId":"NT_7viEaaGOZQG05ur0ihRwyB_xQD","LocationType":"point","DisplayPosition":{"Latitude":48.22432,"Longitude":16.34561},"MapView":{"TopLeft":{"Latitude":48.2254442,"Longitude":16.3439226},"BottomRight":{"Latitude":48.2231958,"Longitude":16.3472974}},"Address":{"Label":"Hans-Sachs-Gasse 14, 1180 Wien, Österreich","Country":"AUT","State":"Wien","County":"Wien","City":"Wien","District":"18. Bezirk-Währing","Street":"Hans-Sachs-Gasse","HouseNumber":"14","PostalCode":"1180","AdditionalData":[{"value":"Österreich","key":"CountryName"},{"value":"Wien","key":"StateName"},{"value":"Wien","key":"CountyName"}]},"MapReference":{"ReferenceId":"55860430","Spot":0.49,"SideOfStreet":"right","CountryId":"20128885","StateId":"20138131","CountyId":"20138132","CityId":"20138133","DistrictId":"20243469","AddressId":"162046521","RoadLinkId":"28409552"}}},{"Relevance":1.0,"Distance":39.3,"MatchLevel":"houseNumber","MatchQuality":{"Country":1.0,"State":1.0,"County":1.0,"City":1.0,"District":1.0,"Street":[1.0],"HouseNumber":1.0,"PostalCode":1.0},"MatchType":"interpolated","Location":{"LocationId":"NT_beVRwkjnBz4v7Z4-4.0-aD_xgD","LocationType":"point","DisplayPosition":{"Latitude":48.2238,"Longitude":16.34563},"MapView":{"TopLeft":{"Latitude":48.2249242,"Longitude":16.3439426},"BottomRight":{"Latitude":48.2226758,"Longitude":16.3473174}},"Address":{"Label":"Schopenhauerstraße 18, 1180 Wien, Österreich","Country":"AUT","State":"Wien","County":"Wien","City":"Wien","District":"18. Bezirk-Währing","Street":"Schopenhauerstraße","HouseNumber":"18","PostalCode":"1180","AdditionalData":[{"value":"Österreich","key":"CountryName"},{"value":"Wien","key":"StateName"},{"value":"Wien","key":"CountyName"}]},"MapReference":{"ReferenceId":"1054583289","Spot":0.77,"SideOfStreet":"right","CountryId":"20128885","StateId":"20138131","CountyId":"20138132","CityId":"20138133","DistrictId":"20243469","AddressId":"162069901","RoadLinkId":"374084736"}}},{"Relevance":1.0,"Distance":49.6,"MatchLevel":"landmark","MatchQuality":{"Country":1.0,"State":1.0,"County":1.0,"City":1.0,"District":1.0,"PostalCode":1.0,"Name":1.0},"Location":{"LocationId":"NT_0tFE70mErjsNatVzIeAIyD","LocationType":"park","Name":"Vilma-Degischer-Park","DisplayPosition":{"Latitude":48.22364,"Longitude":16.34604},"MapView":{"TopLeft":{"Latitude":48.22381,"Longitude":16.34547},"BottomRight":{"Latitude":48.22346,"Longitude":16.34678}},"Address":{"Label":"1180 Wien, Österreich","Country":"AUT","State":"Wien","County":"Wien","City":"Wien","District":"18. Bezirk-Währing","PostalCode":"1180","AdditionalData":[{"value":"Österreich","key":"CountryName"},{"value":"Wien","key":"StateName"},{"value":"Wien","key":"CountyName"}]},"MapReference":{"CountryId":"20128885","StateId":"20138131","CountyId":"20138132","CityId":"20138133","DistrictId":"20243469","PlaceId":"51068071"}}},{"Relevance":1.0,"Distance":50.3,"MatchLevel":"houseNumber","MatchQuality":{"Country":1.0,"State":1.0,"County":1.0,"City":1.0,"District":1.0,"Street":[1.0],"HouseNumber":1.0,"PostalCode":1.0},"MatchType":"interpolated","Location":{"LocationId":"NT_beVRwkjnBz4v7Z4-4.0-aD_yAD","LocationType":"point","DisplayPosition":{"Latitude":48.22383,"Longitude":16.34518},"MapView":{"TopLeft":{"Latitude":48.2249542,"Longitude":16.3434926},"BottomRight":{"Latitude":48.2227058,"Longitude":16.3468674}},"Address":{"Label":"Schopenhauerstraße 20, 1180 Wien, Österreich","Country":"AUT","State":"Wien","County":"Wien","City":"Wien","District":"18. Bezirk-Währing","Street":"Schopenhauerstraße","HouseNumber":"20","PostalCode":"1180","AdditionalData":[{"value":"Österreich","key":"CountryName"},{"value":"Wien","key":"StateName"},{"value":"Wien","key":"CountyName"}]},"MapReference":{"ReferenceId":"55860431","Spot":0.22,"SideOfStreet":"right","CountryId":"20128885","StateId":"20138131","CountyId":"20138132","CityId":"20138133","DistrictId":"20243469","AddressId":"162069891","RoadLinkId":"29122094"}}},{"Relevance":1.0,"Distance":56.5,"MatchLevel":"houseNumber","MatchQuality":{"Country":1.0,"State":1.0,"County":1.0,"City":1.0,"District":1.0,"Street":[1.0],"HouseNumber":1.0,"PostalCode":1.0},"MatchType":"interpolated","Location":{"LocationId":"NT_VicnKmbqp9phqLzkYJVhUB_xcD","LocationType":"point","DisplayPosition":{"Latitude":48.22483,"Longitude":16.34596},"MapView":{"TopLeft":{"Latitude":48.2259542,"Longitude":16.3442726},"BottomRight":{"Latitude":48.2237058,"Longitude":16.3476474}},"Address":{"Label":"Schulgasse 17, 1180 Wien, Österreich","Country":"AUT","State":"Wien","County":"Wien","City":"Wien","District":"18. Bezirk-Währing","Street":"Schulgasse","HouseNumber":"17","PostalCode":"1180","AdditionalData":[{"value":"Österreich","key":"CountryName"},{"value":"Wien","key":"StateName"},{"value":"Wien","key":"CountyName"}]},"MapReference":{"ReferenceId":"55860235","Spot":0.85,"SideOfStreet":"left","CountryId":"20128885","StateId":"20138131","CountyId":"20138132","CityId":"20138133","DistrictId":"20243469","AddressId":"162071080","RoadLinkId":"27937525"}}},{"Relevance":1.0,"Distance":58.4,"MatchLevel":"houseNumber","MatchQuality":{"Country":1.0,"State":1.0,"County":1.0,"City":1.0,"District":1.0,"Street":[1.0],"HouseNumber":1.0,"PostalCode":1.0},"MatchType":"interpolated","Location":{"LocationId":"NT_VicnKmbqp9phqLzkYJVhUB_xkD","LocationType":"point","DisplayPosition":{"Latitude":48.22489,"Longitude":16.34529},"MapView":{"TopLeft":{"Latitude":48.2260142,"Longitude":16.3436026},"BottomRight":{"Latitude":48.2237658,"Longitude":16.3469774}},"Address":{"Label":"Schulgasse 19, 1180 Wien, Österreich","Country":"AUT","State":"Wien","County":"Wien","City":"Wien","District":"18. Bezirk-Währing","Street":"Schulgasse","HouseNumber":"19","PostalCode":"1180","AdditionalData":[{"value":"Österreich","key":"CountryName"},{"value":"Wien","key":"StateName"},{"value":"Wien","key":"CountyName"}]},"MapReference":{"ReferenceId":"55860213","Spot":0.36,"SideOfStreet":"left","CountryId":"20128885","StateId":"20138131","CountyId":"20138132","CityId":"20138133","DistrictId":"20243469","AddressId":"162071055","RoadLinkId":"28855396"}}},{"Relevance":1.0,"Distance":58.9,"MatchLevel":"houseNumber","MatchQuality":{"Country":1.0,"State":1.0,"County":1.0,"City":1.0,"District":1.0,"Street":[1.0],"HouseNumber":1.0,"PostalCode":1.0},"MatchType":"interpolated","Location":{"LocationId":"NT_7viEaaGOZQG05ur0ihRwyB_xED","LocationType":"point","DisplayPosition":{"Latitude":48.22372,"Longitude":16.34555},"MapView":{"TopLeft":{"Latitude":48.2248442,"Longitude":16.3438627},"BottomRight":{"Latitude":48.2225958,"Longitude":16.3472373}},"Address":{"Label":"Hans-Sachs-Gasse 11, 1180 Wien, Österreich","Country":"AUT","State":"Wien","County":"Wien","City":"Wien","District":"18. Bezirk-Währing","Street":"Hans-Sachs-Gasse","HouseNumber":"11","PostalCode":"1180","AdditionalData":[{"value":"Österreich","key":"CountryName"},{"value":"Wien","key":"StateName"},{"value":"Wien","key":"CountyName"}]},"MapReference":{"ReferenceId":"55860504","Spot":0.71,"SideOfStreet":"left","CountryId":"20128885","StateId":"20138131","CountyId":"20138132","CityId":"20138133","DistrictId":"20243469","AddressId":"162046050","RoadLinkId":"28924262"}}},{"Relevance":1.0,"Distance":63.9,"MatchLevel":"houseNumber","MatchQuality":{"Country":1.0,"State":1.0,"County":1.0,"City":1.0,"District":1.0,"Street":[1.0],"HouseNumber":1.0,"PostalCode":1.0},"MatchType":"interpolated","Location":{"LocationId":"NT_beVRwkjnBz4v7Z4-4.0-aD_xQD","LocationType":"point","DisplayPosition":{"Latitude":48.22375,"Longitude":16.34627},"MapView":{"TopLeft":{"Latitude":48.2248742,"Longitude":16.3445827},"BottomRight":{"Latitude":48.2226258,"Longitude":16.3479573}},"Address":{"Label":"Schopenhauerstraße 14, 1180 Wien, Österreich","Country":"AUT","State":"Wien","County":"Wien","City":"Wien","District":"18. Bezirk-Währing","Street":"Schopenhauerstraße","HouseNumber":"14","PostalCode":"1180","AdditionalData":[{"value":"Österreich","key":"CountryName"},{"value":"Wien","key":"StateName"},{"value":"Wien","key":"CountyName"}]},"MapReference":{"ReferenceId":"1054583288","Spot":0.84,"SideOfStreet":"right","CountryId":"20128885","StateId":"20138131","CountyId":"20138132","CityId":"20138133","DistrictId":"20243469","AddressId":"162069900","RoadLinkId":"374084735"}}},{"Relevance":1.0,"Distance":71.7,"MatchLevel":"street","MatchQuality":{"Country":1.0,"State":1.0,"County":1.0,"City":1.0,"District":1.0,"PostalCode":1.0},"Location":{"LocationId":"NT_LSmSqUCtZYNuWgdVXJTxVC_l_1054583290_L","LocationType":"point","DisplayPosition":{"Latitude":48.22362,"Longitude":16.34592},"MapView":{"TopLeft":{"Latitude":48.22376,"Longitude":16.34571},"BottomRight":{"Latitude":48.22346,"Longitude":16.34617}},"Address":{"Label":"1180 Wien, Österreich","Country":"AUT","State":"Wien","County":"Wien","City":"Wien","District":"18. Bezirk-Währing","PostalCode":"1180","AdditionalData":[{"value":"Österreich","key":"CountryName"},{"value":"Wien","key":"StateName"},{"value":"Wien","key":"CountyName"}]},"MapReference":{"ReferenceId":"1054583290","Spot":0.47,"SideOfStreet":"left","CountryId":"20128885","StateId":"20138131","CountyId":"20138132","CityId":"20138133","DistrictId":"20243469"}}}]}]}}