{"Response":{"MetaInfo":{"Timestamp":"2020-03-28T10:25:37.627+0000","NextPageInformation":"2"},"View":[{"_type":"SearchResultsViewType","ViewId":0,"Result":[{"Relevance":1.0,"Distance":0.0,"Direction":0.0,"MatchLevel":"district","MatchQuality":{"Country":1.0,"State":1.0,"County":1.0,"City":1.0,"District":1.0,"PostalCode":1.0},"Location":{"LocationId":"NT_zvywZIY37RXcakBPIdZXxA","LocationType":"point","DisplayPosition":{"Latitude":48.2466555,"Longitude":10.3596653},"MapView":{"TopLeft":{"Latitude":48.2589,"Longitude":10.34366},"BottomRight":{"Latitude":48.23061,"Longitude":10.37892}},"Address":{"Label":"Krumbach (Schwaben), Bayern, Deutschland","Country":"DEU","State":"Bayern","County":"Günzburg","City":"Krumbach (Schwaben)","District":"Krumbach (Schwaben)","PostalCode":"86381","AdditionalData":[{"value":"Deutschland","key":"CountryName"},{"value":"Bayern","key":"StateName"},{"value":"Günzburg","key":"CountyName"}]},"MapReference":{"ReferenceId":"542193040","SideOfStreet":"neither","CountryId":"20147700","StateId":"20177250","CountyId":"20185816","CityId":"20185917","DistrictId":"20185919"}}},{"Relevance":1.0,"Distance":13.1,"MatchLevel":"street","MatchQuality":{"Country":1.0,"State":1.0,"County":1.0,"City":1.0,"District":1.0,"Street":[1.0],"PostalCode":1.0},"Location":{"LocationId":"NT_YqE0O.8XG3R5a5gl1jF9eB_l_839441703_L","LocationType":"point","DisplayPosition":{"Latitude":48.2465394,"Longitude":10.3596933},"MapView":{"TopLeft":{"Latitude":48.24657,"Longitude":10.35953},"BottomRight":{"Latitude":48.2465,"Longitude":10.35982}},"Address":{"Label":"Ulmer Straße, 86381 Krumbach (Schwaben), Deutschland","Country":"DEU","State":"Bayern","County":"Günzburg","City":"Krumbach (Schwaben)","District":"Krumbach (Schwaben)","Street":"Ulmer Straße","PostalCode":"86381","AdditionalData":[{"value":"Deutschland","key":"CountryName"},{"value":"Bayern","key":"StateName"},{"value":"Günzburg","key":"CountyName"}]},"MapReference":{"ReferenceId":"839441703","Spot":0.56,"SideOfStreet":"left","CountryId":"20147700","StateId":"20177250","CountyId":"20185816","CityId":"20185917","DistrictId":"20185919"}}},{"Relevance":1.0,"Distance":16.3,"MatchLevel":"houseNumber","MatchQuality":{"Country":1.0,"State":1.0,"County":1.0,"City":1.0,"District":1.0,"Street":[1.0],"HouseNumber":1.0,"PostalCode":1.0},"MatchType":"interpolated","Location":{"LocationId":"NT_5YAyqi5H6SNkQiXG2kTEdC_0cD","LocationType":"point","DisplayPosition":{"Latitude":48.2468,"Longitude":10.3597},"MapView":{"TopLeft":{"Latitude":48.2479242,"Longitude":10.3580119},"BottomRight":{"Latitude":48.2456758,"Longitude":10.3613881}},"Address":{"Label":"Bahnhofstraße 47, 86381 Krumbach (Schwaben), Deutschland","Country":"DEU","State":"Bayern","County":"Günzburg","City":"Krumbach (Schwaben)","District":"Krumbach (Schwaben)","Street":"Bahnhofstraße","HouseNumber":"47","PostalCode":"86381","AdditionalData":[{"value":"Deutschland","key":"CountryName"},{"value":"Bayern","key":"StateName"},{"value":"Günzburg","key":"CountyName"}]},"MapReference":{"ReferenceId":"792372408","Spot":0.7,"SideOfStreet":"left","CountryId":"20147700","StateId":"20177250","CountyId":"20185816","CityId":"20185917","DistrictId":"20185919","AddressId":"185402987","RoadLinkId":"184523950"}}},{"Relevance":1.0,"Distance":27.2,"MatchLevel":"landmark","MatchQuality":{"Country":1.0,"State":1.0,"County":1.0,"City":1.0,"District":1.0,"PostalCode":1.0,"Name":1.0},"Location":{"LocationId":"NT_-DHvkBDd3pZAhDef5e198D","LocationType":"industrialComplex","Name":"Gewerbegebiet Langgwand","DisplayPosition":{"Latitude":48.2529,"Longitude":10.35809},"MapView":{"TopLeft":{"Latitude":48.2589,"Longitude":10.35433},"BottomRight":{"Latitude":48.2469,"Longitude":10.36169}},"Address":{"Label":"86381 Krumbach (Schwaben), Deutschland","Country":"DEU","State":"Bayern","County":"Günzburg","City":"Krumbach (Schwaben)","District":"Krumbach (Schwaben)","PostalCode":"86381","AdditionalData":[{"value":"Deutschland","key":"CountryName"},{"value":"Bayern","key":"StateName"},{"value":"Günzburg","key":"CountyName"}]},"MapReference":{"CountryId":"20147700","StateId":"20177250","CountyId":"20185816","CityId":"20185917","DistrictId":"20185919","PlaceId":"1410230748"}}},{"Relevance":1.0,"Distance":32.4,"MatchLevel":"houseNumber","MatchQuality":{"Country":1.0,"State":1.0,"County":1.0,"City":1.0,"District":1.0,"Street":[1.0],"HouseNumber":1.0,"PostalCode":1.0},"MatchType":"interpolated","Location":{"LocationId":"NT_5YAyqi5H6SNkQiXG2kTEdC_0UD","LocationType":"point","DisplayPosition":{"Latitude":48.24641,"Longitude":10.3599},"MapView":{"TopLeft":{"Latitude":48.2475342,"Longitude":10.3582119},"BottomRight":{"Latitude":48.2452858,"Longitude":10.3615881}},"Address":{"Label":"Bahnhofstraße 45, 86381 Krumbach (Schwaben), Deutschland","Country":"DEU","State":"Bayern","County":"Günzburg","City":"Krumbach (Schwaben)","District":"Krumbach (Schwaben)","Street":"Bahnhofstraße","HouseNumber":"45","PostalCode":"86381","AdditionalData":[{"value":"Deutschland","key":"CountryName"},{"value":"Bayern","key":"StateName"},{"value":"Günzburg","key":"CountyName"}]},"MapReference":{"ReferenceId":"542191403","Spot":0.73,"SideOfStreet":"left","CountryId":"20147700","StateId":"20177250","CountyId":"20185816","CityId":"20185917","DistrictId":"20185919","AddressId":"185430534","RoadLinkId":"32651938"}}},{"Relevance":1.0,"Distance":37.5,"MatchLevel":"houseNumber","MatchQuality":{"Country":1.0,"State":1.0,"County":1.0,"City":1.0,"District":1.0,"Street":[1.0],"HouseNumber":1.0,"PostalCode":1.0},"MatchType":"interpolated","Location":{"LocationId":"NT_5YAyqi5H6SNkQiXG2kTEdC_0kD","LocationType":"point","DisplayPosition":{"Latitude":48.24699,"Longitude":10.3596},"MapView":{"TopLeft":{"Latitude":48.2481142,"Longitude":10.3579119},"BottomRight":{"Latitude":48.2458658,"Longitude":10.3612881}},"Address":{"Label":"Bahnhofstraße 49, 86381 Krumbach (Schwaben), Deutschland","Country":"DEU","State":"Bayern","County":"Günzburg","City":"Krumbach (Schwaben)","District":"Krumbach (Schwaben)","Street":"Bahnhofstraße","HouseNumber":"49","PostalCode":"86381","AdditionalData":[{"value":"Deutschland","key":"CountryName"},{"value":"Bayern","key":"StateName"},{"value":"Günzburg","key":"CountyName"}]},"MapReference":{"ReferenceId":"1266628244","Spot":0.77,"SideOfStreet":"left","CountryId":"20147700","StateId":"20177250","CountyId":"20185816","CityId":"20185917","DistrictId":"20185919","AddressId":"185988498","RoadLinkId":"593245428"}}},{"Relevance":1.0,"Distance":40.9,"MatchLevel":"street","MatchQuality":{"Country":1.0,"State":1.0,"County":1.0,"City":1.0,"District":1.0,"Street":[1.0],"PostalCode":1.0},"Location":{"LocationId":"NT_5YAyqi5H6SNkQiXG2kTEdC_l_1266628248_R","LocationType":"point","DisplayPosition":{"Latitude":48.24702,"Longitude":10.35959},"MapView":{"TopLeft":{"Latitude":48.24707,"Longitude":10.35959},"BottomRight":{"Latitude":48.24702,"Longitude":10.35981}},"Address":{"Label":"Bahnhofstraße, 86381 Krumbach (Schwaben), Deutschland","Country":"DEU","State":"Bayern","County":"Günzburg","City":"Krumbach (Schwaben)","District":"Krumbach (Schwaben)","Street":"Bahnhofstraße","PostalCode":"86381","AdditionalData":[{"value":"Deutschland","key":"CountryName"},{"value":"Bayern","key":"StateName"},{"value":"Günzburg","key":"CountyName"}]},"MapReference":{"ReferenceId":"1266628248","Spot":0.0,"SideOfStreet":"right","CountryId":"20147700","StateId":"20177250","CountyId":"20185816","CityId":"20185917","DistrictId":"20185919"}}},{"Relevance":1.0,"Distance":50.3,"MatchLevel":"houseNumber","MatchQuality":{"Country":1.0,"State":1.0,"County":1.0,"City":1.0,"District":1.0,"Street":[1.0],"HouseNumber":1.0,"PostalCode":1.0},"MatchType":"interpolated","Location":{"LocationId":"NT_5YAyqi5H6SNkQiXG2kTEdC_l_1266628245_R_2QD","LocationType":"point","DisplayPosition":{"Latitude":48.2471013,"Longitude":10.3595521},"MapView":{"TopLeft":{"Latitude":48.2482254,"Longitude":10.3578639},"BottomRight":{"Latitude":48.2459771,"Longitude":10.3612402}},"Address":{"Label":"Bahnhofstraße 64, 86381 Krumbach (Schwaben), Deutschland","Country":"DEU","State":"Bayern","County":"Günzburg","City":"Krumbach (Schwaben)","District":"Krumbach (Schwaben)","Street":"Bahnhofstraße","HouseNumber":"64","PostalCode":"86381","AdditionalData":[{"value":"Deutschland","key":"CountryName"},{"value":"Bayern","key":"StateName"},{"value":"Günzburg","key":"CountyName"}]},"MapReference":{"ReferenceId":"1266628245","Spot":0.54,"SideOfStreet":"right","CountryId":"20147700","StateId":"20177250","CountyId":"20185816","CityId":"20185917","DistrictId":"20185919"}}},{"Relevance":1.0,"Distance":53.1,"MatchLevel":"houseNumber","MatchQuality":{"Country":1.0,"State":1.0,"County":1.0,"City":1.0,"District":1.0,"Street":[1.0],"HouseNumber":1.0,"PostalCode":1.0},"MatchType":"interpolated","Location":{"LocationId":"NT_0NT53EF5ywlwRYxc1IVT6C_zA","LocationType":"point","DisplayPosition":{"Latitude":48.24641,"Longitude":10.35905},"MapView":{"TopLeft":{"Latitude":48.2475342,"Longitude":10.3573619},"BottomRight":{"Latitude":48.2452858,"Longitude":10.3607381}},"Address":{"Label":"Ulmer Straße 3, 86381 Krumbach (Schwaben), Deutschland","Country":"DEU","State":"Bayern","County":"Günzburg","City":"Krumbach (Schwaben)","District":"Krumbach (Schwaben)","Street":"Ulmer Straße","HouseNumber":"3","PostalCode":"86381","AdditionalData":[{"value":"Deutschland","key":"CountryName"},{"value":"Bayern","key":"StateName"},{"value":"Günzburg","key":"CountyName"}]},"MapReference":{"ReferenceId":"1192450908","Spot":0.14,"SideOfStreet":"right","CountryId":"20147700","StateId":"20177250","CountyId":"20185816","CityId":"20185917","DistrictId":"20185919","AddressId":"182225430","RoadLinkId":"502136244"}}},{"Relevance":1.0,"Distance":53.4,"MatchLevel":"houseNumber","MatchQuality":{"Country":1.0,"State":1.0,"County":1.0,"City":1.0,"District":1.0,"Street":[1.0],"HouseNumber":1.0,"PostalCode":1.0},"MatchType":"interpolated","Location":{"LocationId":"NT_5YAyqi5H6SNkQiXG2kTEdC_2QD","LocationType":"point","DisplayPosition":{"Latitude":48.24713,"Longitude":10.35978},"MapView":{"TopLeft":{"Latitude":48.2482542,"Longitude":10.3580919},"BottomRight":{"Latitude":48.2460058,"Longitude":10.3614681}},"Address":{"Label":"Bahnhofstraße 64, 86381 Krumbach (Schwaben), Deutschland","Country":"DEU","State":"Bayern","County":"Günzburg","City":"Krumbach (Schwaben)","District":"Krumbach (Schwaben)","Street":"Bahnhofstraße","HouseNumber":"64","PostalCode":"86381","AdditionalData":[{"value":"Deutschland","key":"CountryName"},{"value":"Bayern","key":"StateName"},{"value":"Günzburg","key":"CountyName"}]},"MapReference":{"ReferenceId":"1266628249","Spot":0.21,"SideOfStreet":"right","CountryId":"20147700","StateId":"20177250","CountyId":"20185816","CityId":"20185917","DistrictId":"20185919","AddressId":"184578050","RoadLinkId":"593636863"}}}]}]}}