{"Response":{"MetaInfo":{"Timestamp":"2020-03-28T10:21:21.848+0000","NextPageInformation":"2"},"View":[{"_type":"SearchResultsViewType","ViewId":0,"Result":[{"Relevance":1.0,"Distance":-27.6,"MatchLevel":"landmark","MatchQuality":{"Country":1.0,"State":1.0,"County":1.0,"City":1.0,"District":1.0,"PostalCode":1.0,"Name":1.0},"Location":{"LocationId":"NT_CXRFOnz615HgA22V1vju.D","LocationType":"industrialComplex","Name":"Gewerbegebiet Unter dem Malesfelsen","DisplayPosition":{"Latitude":48.20689,"Longitude":9.02781},"MapView":{"TopLeft":{"Latitude":48.20952,"Longitude":9.01283},"BottomRight":{"Latitude":48.20425,"Longitude":9.03552}},"Address":{"Label":"72458 Albstadt, Deutschland","Country":"DEU","State":"Baden-Württemberg","County":"Zollernalbkreis","City":"Albstadt","District":"Ebingen","PostalCode":"72458","AdditionalData":[{"value":"Deutschland","key":"CountryName"},{"value":"Baden-Württemberg","key":"StateName"},{"value":"Zollernalbkreis","key":"CountyName"}]},"MapReference":{"CountryId":"20147700","StateId":"20171489","CountyId":"20176095","CityId":"20176225","DistrictId":"20176229","PlaceId":"1410181949"}}},{"Relevance":1.0,"Distance":0.0,"Direction":0.0,"MatchLevel":"district","MatchQuality":{"Country":1.0,"State":1.0,"County":1.0,"City":1.0,"District":1.0,"PostalCode":1.0},"Location":{"LocationId":"NT_ic0nkZiYMFwUSIu48ia7mA","LocationType":"point","DisplayPosition":{"Latitude":48.2080725,"Longitude":9.0241201},"MapView":{"TopLeft":{"Latitude":48.22717,"Longitude":8.98189},"BottomRight":{"Latitude":48.20004,"Longitude":9.05277}},"Address":{"Label":"Ebingen, Albstadt, Baden-Württemberg, Deutschland","Country":"DEU","State":"Baden-Württemberg","County":"Zollernalbkreis","City":"Albstadt","District":"Ebingen","PostalCode":"72458","AdditionalData":[{"value":"Deutschland","key":"CountryName"},{"value":"Baden-Württemberg","key":"StateName"},{"value":"Zollernalbkreis","key":"CountyName"}]},"MapReference":{"ReferenceId":"574380197","SideOfStreet":"neither","CountryId":"20147700","StateId":"20171489","CountyId":"20176095","CityId":"20176225","DistrictId":"20176229"}}},{"Relevance":1.0,"Distance":15.9,"MatchLevel":"houseNumber","MatchQuality":{"Country":1.0,"State":1.0,"County":1.0,"City":1.0,"District":1.0,"Street":[1.0],"HouseNumber":1.0,"PostalCode":1.0},"MatchType":"interpolated","Location":{"LocationId":"NT_dSzMMzHOXND6sseXBSG1UA_zUD","LocationType":"point","DisplayPosition":{"Latitude":48.20801,"Longitude":9.02378},"MapView":{"TopLeft":{"Latitude":48.2091342,"Longitude":9.0220932},"BottomRight":{"Latitude":48.2068858,"Longitude":9.0254668}},"Address":{"Label":"Johannes-Jerg-Weg 35, 72458 Albstadt, Deutschland","Country":"DEU","State":"Baden-Württemberg","County":"Zollernalbkreis","City":"Albstadt","District":"Ebingen","Street":"Johannes-Jerg-Weg","HouseNumber":"35","PostalCode":"72458","AdditionalData":[{"value":"Deutschland","key":"CountryName"},{"value":"Baden-Württemberg","key":"StateName"},{"value":"Zollernalbkreis","key":"CountyName"}]},"MapReference":{"ReferenceId":"771967036","Spot":0.8,"SideOfStreet":"right","CountryId":"20147700","StateId":"20171489","CountyId":"20176095","CityId":"20176225","DistrictId":"20176229","AddressId":"177823282","RoadLinkId":"165560716"}}},{"Relevance":1.0,"Distance":27.7,"MatchLevel":"street","MatchQuality":{"Country":1.0,"State":1.0,"County":1.0,"City":1.0,"District":1.0,"Street":[1.0],"PostalCode":1.0},"Location":{"LocationId":"NT_sdKoWE-zSaVySMyRDWdygA_l_915382672_L","LocationType":"point","DisplayPosition":{"Latitude":48.2083212,"Longitude":9.0241385},"MapView":{"TopLeft":{"Latitude":48.20833,"Longitude":9.02402},"BottomRight":{"Latitude":48.20825,"Longitude":9.02512}},"Address":{"Label":"Berliner Straße, 72458 Albstadt, Deutschland","Country":"DEU","State":"Baden-Württemberg","County":"Zollernalbkreis","City":"Albstadt","District":"Ebingen","Street":"Berliner Straße","PostalCode":"72458","AdditionalData":[{"value":"Deutschland","key":"CountryName"},{"value":"Baden-Württemberg","key":"StateName"},{"value":"Zollernalbkreis","key":"CountyName"}]},"MapReference":{"ReferenceId":"915382672","Spot":0.89,"SideOfStreet":"left","CountryId":"20147700","StateId":"20171489","CountyId":"20176095","CityId":"20176225","DistrictId":"20176229"}}},{"Relevance":1.0,"Distance":29.6,"MatchLevel":"landmark","MatchQuality":{"Country":1.0,"State":1.0,"County":1.0,"City":1.0,"District":1.0,"PostalCode":1.0,"Name":1.0},"Location":{"LocationId":"NT_IdoAUvNo5Afge3wZOaPA4A","LocationType":"industrialComplex","Name":"Gewerbegebiet Theodor-Groz-Straße","DisplayPosition":{"Latitude":48.2098,"Longitude":9.02009},"MapView":{"TopLeft":{"Latitude":48.21127,"Longitude":8.99591},"BottomRight":{"Latitude":48.20833,"Longitude":9.02436}},"Address":{"Label":"72458 Albstadt, Deutschland","Country":"DEU","State":"Baden-Württemberg","County":"Zollernalbkreis","City":"Albstadt","District":"Ebingen","PostalCode":"72458","AdditionalData":[{"value":"Deutschland","key":"CountryName"},{"value":"Baden-Württemberg","key":"StateName"},{"value":"Zollernalbkreis","key":"CountyName"}]},"MapReference":{"CountryId":"20147700","StateId":"20171489","CountyId":"20176095","CityId":"20176225","DistrictId":"20176229","PlaceId":"1410181952"}}},{"Relevance":1.0,"Distance":29.6,"MatchLevel":"street","MatchQuality":{"Country":1.0,"State":1.0,"County":1.0,"City":1.0,"District":1.0,"Street":[1.0],"PostalCode":1.0},"Location":{"LocationId":"NT_asxYEsMgvlzLy75Guek91B_l_792246530_L","LocationType":"point","DisplayPosition":{"Latitude":48.20833,"Longitude":9.02402},"MapView":{"TopLeft":{"Latitude":48.20838,"Longitude":9.02338},"BottomRight":{"Latitude":48.20833,"Longitude":9.02402}},"Address":{"Label":"Berliner Straße, 72458 Albstadt, Deutschland","Country":"DEU","State":"Baden-Württemberg","County":"Zollernalbkreis","City":"Albstadt","District":"Ebingen","Street":"Berliner Straße","PostalCode":"72458","AdditionalData":[{"value":"Deutschland","key":"CountryName"},{"value":"Baden-Württemberg","key":"StateName"},{"value":"Zollernalbkreis","key":"CountyName"}]},"MapReference":{"ReferenceId":"792246530","Spot":0.0,"SideOfStreet":"left","CountryId":"20147700","StateId":"20171489","CountyId":"20176095","CityId":"20176225","DistrictId":"20176229"}}},{"Relevance":1.0,"Distance":31.3,"MatchLevel":"houseNumber","MatchQuality":{"Country":1.0,"State":1.0,"County":1.0,"City":1.0,"District":1.0,"Street":[1.0],"HouseNumber":1.0,"PostalCode":1.0},"MatchType":"interpolated","Location":{"LocationId":"NT_zfs9yHj6GbDpi3nf33pOmC_3ID","LocationType":"point","DisplayPosition":{"Latitude":48.20721,"Longitude":9.02415},"MapView":{"TopLeft":{"Latitude":48.2083342,"Longitude":9.0224632},"BottomRight":{"Latitude":48.2060858,"Longitude":9.0258368}},"Address":{"Label":"Unter dem Malesfelsen 72, 72458 Albstadt, Deutschland","Country":"DEU","State":"Baden-Württemberg","County":"Zollernalbkreis","City":"Albstadt","District":"Ebingen","Street":"Unter dem Malesfelsen","HouseNumber":"72","PostalCode":"72458","AdditionalData":[{"value":"Deutschland","key":"CountryName"},{"value":"Baden-Württemberg","key":"StateName"},{"value":"Zollernalbkreis","key":"CountyName"}]},"MapReference":{"ReferenceId":"78607240","Spot":0.84,"SideOfStreet":"right","CountryId":"20147700","StateId":"20171489","CountyId":"20176095","CityId":"20176225","DistrictId":"20176229","AddressId":"732680574","RoadLinkId":"38343524"}}},{"Relevance":1.0,"Distance":64.6,"MatchLevel":"street","MatchQuality":{"Country":1.0,"State":1.0,"County":1.0,"City":1.0,"District":1.0,"Street":[1.0],"PostalCode":1.0},"Location":{"LocationId":"NT_sdKoWE-zSaVySMyRDWdygA_l_589234519_L","LocationType":"point","DisplayPosition":{"Latitude":48.20838,"Longitude":9.02338},"MapView":{"TopLeft":{"Latitude":48.20844,"Longitude":9.02248},"BottomRight":{"Latitude":48.20838,"Longitude":9.02338}},"Address":{"Label":"Berliner Straße, 72458 Albstadt, Deutschland","Country":"DEU","State":"Baden-Württemberg","County":"Zollernalbkreis","City":"Albstadt","District":"Ebingen","Street":"Berliner Straße","PostalCode":"72458","AdditionalData":[{"value":"Deutschland","key":"CountryName"},{"value":"Baden-Württemberg","key":"StateName"},{"value":"Zollernalbkreis","key":"CountyName"}]},"MapReference":{"ReferenceId":"589234519","Spot":0.0,"SideOfStreet":"left","CountryId":"20147700","StateId":"20171489","CountyId":"20176095","CityId":"20176225","DistrictId":"20176229"}}},{"Relevance":1.0,"Distance":76.7,"MatchLevel":"street","MatchQuality":{"Country":1.0,"State":1.0,"County":1.0,"City":1.0,"District":1.0,"Street":[1.0],"PostalCode":1.0},"Location":{"LocationId":"NT_sdKoWE-zSaVySMyRDWdygA_l_948509120_L","LocationType":"point","DisplayPosition":{"Latitude":48.20825,"Longitude":9.02512},"MapView":{"TopLeft":{"Latitude":48.20825,"Longitude":9.02512},"BottomRight":{"Latitude":48.20823,"Longitude":9.02533}},"Address":{"Label":"Berliner Straße, 72458 Albstadt, Deutschland","Country":"DEU","State":"Baden-Württemberg","County":"Zollernalbkreis","City":"Albstadt","District":"Ebingen","Street":"Berliner Straße","PostalCode":"72458","AdditionalData":[{"value":"Deutschland","key":"CountryName"},{"value":"Baden-Württemberg","key":"StateName"},{"value":"Zollernalbkreis","key":"CountyName"}]},"MapReference":{"ReferenceId":"948509120","Spot":1.0,"SideOfStreet":"left","CountryId":"20147700","StateId":"20171489","CountyId":"20176095","CityId":"20176225","DistrictId":"20176229"}}},{"Relevance":1.0,"Distance":91.4,"MatchLevel":"street","MatchQuality":{"Country":1.0,"State":1.0,"County":1.0,"City":1.0,"District":1.0,"Street":[1.0],"PostalCode":1.0},"Location":{"LocationId":"NT_asxYEsMgvlzLy75Guek91B_l_1090554904_L","LocationType":"point","DisplayPosition":{"Latitude":48.20823,"Longitude":9.02533},"MapView":{"TopLeft":{"Latitude":48.20823,"Longitude":9.02533},"BottomRight":{"Latitude":48.20819,"Longitude":9.02577}},"Address":{"Label":"Berliner Straße, 72458 Albstadt, Deutschland","Country":"DEU","State":"Baden-Württemberg","County":"Zollernalbkreis","City":"Albstadt","District":"Ebingen","Street":"Berliner Straße","PostalCode":"72458","AdditionalData":[{"value":"Deutschland","key":"CountryName"},{"value":"Baden-Württemberg","key":"StateName"},{"value":"Zollernalbkreis","key":"CountyName"}]},"MapReference":{"ReferenceId":"1090554904","Spot":1.0,"SideOfStreet":"left","CountryId":"20147700","StateId":"20171489","CountyId":"20176095","CityId":"20176225","DistrictId":"20176229"}}}]}]}}