{"Response":{"MetaInfo":{"Timestamp":"2020-03-28T11:37:14.127+0000","NextPageInformation":"2"},"View":[{"_type":"SearchResultsViewType","ViewId":0,"Result":[{"Relevance":1.0,"Distance":0.0,"Direction":0.0,"MatchLevel":"city","MatchQuality":{"Country":1.0,"State":1.0,"County":1.0,"City":1.0,"PostalCode":1.0},"Location":{"LocationId":"NT_f4GP.A1aNzTMbpTgg6xnXD","LocationType":"point","DisplayPosition":{"Latitude":48.285707,"Longitude":6.9515154},"MapView":{"TopLeft":{"Latitude":48.33393,"Longitude":6.86931},"BottomRight":{"Latitude":48.26042,"Longitude":7.00812}},"Address":{"Label":"Saint-Dié-des-Vosges, Grand Est, France","Country":"FRA","State":"Grand Est","County":"Vosges","City":"Saint-Dié-des-Vosges","PostalCode":"88100","AdditionalData":[{"value":"France","key":"CountryName"},{"value":"Grand Est","key":"StateName"},{"value":"Vosges","key":"CountyName"}]},"MapReference":{"ReferenceId":"563223894","SideOfStreet":"neither","CountryId":"20000001","StateId":"20002047","CountyId":"20041294","CityId":"20042494"}}},{"Relevance":1.0,"Distance":17.7,"MatchLevel":"houseNumber","MatchQuality":{"Country":1.0,"State":1.0,"County":1.0,"City":1.0,"Street":[1.0],"HouseNumber":1.0,"PostalCode":1.0},"MatchType":"interpolated","Location":{"LocationId":"NT_VTvx0ntdaKM3TT68DkuhDA_yA","LocationType":"point","DisplayPosition":{"Latitude":48.28581,"Longitude":6.9513},"MapView":{"TopLeft":{"Latitude":48.2869342,"Longitude":6.9496106},"BottomRight":{"Latitude":48.2846858,"Longitude":6.9529894}},"Address":{"Label":"2 Rue des Fusilles du 18 Novembre, 88100 Saint-Dié-des-Vosges, France","Country":"FRA","State":"Grand Est","County":"Vosges","City":"Saint-Dié-des-Vosges","Street":"Rue des Fusilles du 18 Novembre","HouseNumber":"2","PostalCode":"88100","AdditionalData":[{"value":"France","key":"CountryName"},{"value":"Grand Est","key":"StateName"},{"value":"Vosges","key":"CountyName"}]},"MapReference":{"ReferenceId":"548651954","Spot":0.84,"SideOfStreet":"left","CountryId":"20000001","StateId":"20002047","CountyId":"20041294","CityId":"20042494","AddressId":"605672745","RoadLinkId":"44554234"}}},{"Relevance":1.0,"Distance":22.5,"MatchLevel":"houseNumber","MatchQuality":{"Country":1.0,"State":1.0,"County":1.0,"City":1.0,"Street":[1.0],"HouseNumber":1.0,"PostalCode":1.0},"MatchType":"interpolated","Location":{"LocationId":"NT_LisIB9Dcofa1ZMR..YsU3B_0QF","LocationType":"point","DisplayPosition":{"Latitude":48.28555,"Longitude":6.95105},"MapView":{"TopLeft":{"Latitude":48.2866742,"Longitude":6.9493606},"BottomRight":{"Latitude":48.2844258,"Longitude":6.9527394}},"Address":{"Label":"4T Rue Concorde, 88100 Saint-Dié-des-Vosges, France","Country":"FRA","State":"Grand Est","County":"Vosges","City":"Saint-Dié-des-Vosges","Street":"Rue Concorde","HouseNumber":"4T","PostalCode":"88100","AdditionalData":[{"value":"France","key":"CountryName"},{"value":"Grand Est","key":"StateName"},{"value":"Vosges","key":"CountyName"}]},"MapReference":{"ReferenceId":"591211609","Spot":0.3,"SideOfStreet":"right","CountryId":"20000001","StateId":"20002047","CountyId":"20041294","CityId":"20042494","AddressId":"317781620","RoadLinkId":"44064937"}}},{"Relevance":1.0,"Distance":30.0,"MatchLevel":"houseNumber","MatchQuality":{"Country":1.0,"State":1.0,"County":1.0,"City":1.0,"Street":[1.0],"HouseNumber":1.0,"PostalCode":1.0},"MatchType":"interpolated","Location":{"LocationId":"NT_LisIB9Dcofa1ZMR..YsU3B_xAD","LocationType":"point","DisplayPosition":{"Latitude":48.2857,"Longitude":6.95108},"MapView":{"TopLeft":{"Latitude":48.2868242,"Longitude":6.9493906},"BottomRight":{"Latitude":48.2845758,"Longitude":6.9527694}},"Address":{"Label":"10 Rue Concorde, 88100 Saint-Dié-des-Vosges, France","Country":"FRA","State":"Grand Est","County":"Vosges","City":"Saint-Dié-des-Vosges","Street":"Rue Concorde","HouseNumber":"10","PostalCode":"88100","AdditionalData":[{"value":"France","key":"CountryName"},{"value":"Grand Est","key":"StateName"},{"value":"Vosges","key":"CountyName"}]},"MapReference":{"ReferenceId":"591211610","Spot":0.06,"SideOfStreet":"right","CountryId":"20000001","StateId":"20002047","CountyId":"20041294","CityId":"20042494","AddressId":"317623834","RoadLinkId":"43809070"}}},{"Relevance":1.0,"Distance":31.7,"MatchLevel":"houseNumber","MatchQuality":{"Country":1.0,"State":1.0,"County":1.0,"City":1.0,"Street":[1.0],"HouseNumber":1.0,"PostalCode":1.0},"MatchType":"interpolated","Location":{"LocationId":"NT_LisIB9Dcofa1ZMR..YsU3B_xID","LocationType":"point","DisplayPosition":{"Latitude":48.28592,"Longitude":6.95113},"MapView":{"TopLeft":{"Latitude":48.2870442,"Longitude":6.9494406},"BottomRight":{"Latitude":48.2847958,"Longitude":6.9528194}},"Address":{"Label":"12 Rue Concorde, 88100 Saint-Dié-des-Vosges, France","Country":"FRA","State":"Grand Est","County":"Vosges","City":"Saint-Dié-des-Vosges","Street":"Rue Concorde","HouseNumber":"12","PostalCode":"88100","AdditionalData":[{"value":"France","key":"CountryName"},{"value":"Grand Est","key":"StateName"},{"value":"Vosges","key":"CountyName"}]},"MapReference":{"ReferenceId":"542322256","Spot":0.13,"SideOfStreet":"right","CountryId":"20000001","StateId":"20002047","CountyId":"20041294","CityId":"20042494","AddressId":"371221727","RoadLinkId":"45056705"}}},{"Relevance":1.0,"Distance":33.0,"MatchLevel":"houseNumber","MatchQuality":{"Country":1.0,"State":1.0,"County":1.0,"City":1.0,"Street":[1.0],"HouseNumber":1.0,"PostalCode":1.0},"MatchType":"interpolated","Location":{"LocationId":"NT_LisIB9Dcofa1ZMR..YsU3B_0IE","LocationType":"point","DisplayPosition":{"Latitude":48.28546,"Longitude":6.95103},"MapView":{"TopLeft":{"Latitude":48.2865842,"Longitude":6.9493406},"BottomRight":{"Latitude":48.2843358,"Longitude":6.9527194}},"Address":{"Label":"4B Rue Concorde, 88100 Saint-Dié-des-Vosges, France","Country":"FRA","State":"Grand Est","County":"Vosges","City":"Saint-Dié-des-Vosges","Street":"Rue Concorde","HouseNumber":"4B","PostalCode":"88100","AdditionalData":[{"value":"France","key":"CountryName"},{"value":"Grand Est","key":"StateName"},{"value":"Vosges","key":"CountyName"}]},"MapReference":{"ReferenceId":"563225049","Spot":0.9,"SideOfStreet":"right","CountryId":"20000001","StateId":"20002047","CountyId":"20041294","CityId":"20042494","AddressId":"317765351","RoadLinkId":"45061591"}}},{"Relevance":1.0,"Distance":45.8,"MatchLevel":"houseNumber","MatchQuality":{"Country":1.0,"State":1.0,"County":1.0,"City":1.0,"Street":[1.0],"HouseNumber":1.0,"PostalCode":1.0},"MatchType":"interpolated","Location":{"LocationId":"NT_fFZo9yidpMR5SpJictMNWC_xAD","LocationType":"point","DisplayPosition":{"Latitude":48.2855,"Longitude":6.95094},"MapView":{"TopLeft":{"Latitude":48.2866242,"Longitude":6.9492506},"BottomRight":{"Latitude":48.2843758,"Longitude":6.9526294}},"Address":{"Label":"10 Place Jean Basin, 88100 Saint-Dié-des-Vosges, France","Country":"FRA","State":"Grand Est","County":"Vosges","City":"Saint-Dié-des-Vosges","Street":"Place Jean Basin","HouseNumber":"10","PostalCode":"88100","AdditionalData":[{"value":"France","key":"CountryName"},{"value":"Grand Est","key":"StateName"},{"value":"Vosges","key":"CountyName"}]},"MapReference":{"ReferenceId":"563225045","Spot":0.11,"SideOfStreet":"right","CountryId":"20000001","StateId":"20002047","CountyId":"20041294","CityId":"20042494","AddressId":"571553294","RoadLinkId":"44854605"}}},{"Relevance":1.0,"Distance":47.3,"MatchLevel":"houseNumber","MatchQuality":{"Country":1.0,"State":1.0,"County":1.0,"City":1.0,"Street":[1.0],"HouseNumber":1.0,"PostalCode":1.0},"MatchType":"interpolated","Location":{"LocationId":"NT_VTvx0ntdaKM3TT68DkuhDA_1A","LocationType":"point","DisplayPosition":{"Latitude":48.28575,"Longitude":6.95216},"MapView":{"TopLeft":{"Latitude":48.2868742,"Longitude":6.9504706},"BottomRight":{"Latitude":48.2846258,"Longitude":6.9538494}},"Address":{"Label":"5 Rue des Fusilles du 18 Novembre, 88100 Saint-Dié-des-Vosges, France","Country":"FRA","State":"Grand Est","County":"Vosges","City":"Saint-Dié-des-Vosges","Street":"Rue des Fusilles du 18 Novembre","HouseNumber":"5","PostalCode":"88100","AdditionalData":[{"value":"France","key":"CountryName"},{"value":"Grand Est","key":"StateName"},{"value":"Vosges","key":"CountyName"}]},"MapReference":{"ReferenceId":"548651953","Spot":0.04,"SideOfStreet":"left","CountryId":"20000001","StateId":"20002047","CountyId":"20041294","CityId":"20042494","AddressId":"682684375","RoadLinkId":"43992853"}}},{"Relevance":1.0,"Distance":49.3,"MatchLevel":"houseNumber","MatchQuality":{"Country":1.0,"State":1.0,"County":1.0,"City":1.0,"Street":[1.0],"HouseNumber":1.0,"PostalCode":1.0},"MatchType":"interpolated","Location":{"LocationId":"NT_xZtG2LAgCy4WEb4f4aPSzD_xAD","LocationType":"point","DisplayPosition":{"Latitude":48.28572,"Longitude":6.95085},"MapView":{"TopLeft":{"Latitude":48.2868442,"Longitude":6.9491606},"BottomRight":{"Latitude":48.2845958,"Longitude":6.9525394}},"Address":{"Label":"10 Rue Pastourelle, 88100 Saint-Dié-des-Vosges, France","Country":"FRA","State":"Grand Est","County":"Vosges","City":"Saint-Dié-des-Vosges","Street":"Rue Pastourelle","HouseNumber":"10","PostalCode":"88100","AdditionalData":[{"value":"France","key":"CountryName"},{"value":"Grand Est","key":"StateName"},{"value":"Vosges","key":"CountyName"}]},"MapReference":{"ReferenceId":"563225030","Spot":0.24,"SideOfStreet":"left","CountryId":"20000001","StateId":"20002047","CountyId":"20041294","CityId":"20042494","AddressId":"317661152","RoadLinkId":"44488163"}}},{"Relevance":1.0,"Distance":51.3,"MatchLevel":"houseNumber","MatchQuality":{"Country":1.0,"State":1.0,"County":1.0,"City":1.0,"Street":[1.0],"HouseNumber":1.0,"PostalCode":1.0},"MatchType":"interpolated","Location":{"LocationId":"NT_PC6Ij5lyvw11ZjZTwkMJQB_zA","LocationType":"point","DisplayPosition":{"Latitude":48.28515,"Longitude":6.9514},"MapView":{"TopLeft":{"Latitude":48.2862742,"Longitude":6.9497106},"BottomRight":{"Latitude":48.2840258,"Longitude":6.9530894}},"Address":{"Label":"3 Quai Jeanne d'Arc, 88100 Saint-Dié-des-Vosges, France","Country":"FRA","State":"Grand Est","County":"Vosges","City":"Saint-Dié-des-Vosges","Street":"Quai Jeanne d'Arc","HouseNumber":"3","PostalCode":"88100","AdditionalData":[{"value":"France","key":"CountryName"},{"value":"Grand Est","key":"StateName"},{"value":"Vosges","key":"CountyName"}]},"MapReference":{"ReferenceId":"563225062","Spot":0.79,"SideOfStreet":"right","CountryId":"20000001","StateId":"20002047","CountyId":"20041294","CityId":"20042494","AddressId":"317596139","RoadLinkId":"44397256"}}}]}]}}