{"Response":{"MetaInfo":{"Timestamp":"2020-03-28T10:28:33.193+0000","NextPageInformation":"2"},"View":[{"_type":"SearchResultsViewType","ViewId":0,"Result":[{"Relevance":1.0,"Distance":0.0,"Direction":0.0,"MatchLevel":"district","MatchQuality":{"Country":1.0,"State":1.0,"County":1.0,"City":1.0,"District":1.0,"PostalCode":1.0},"Location":{"LocationId":"NT_YqQ8JWT7xcH-CK-Pi0nrVB","LocationType":"point","DisplayPosition":{"Latitude":48.29397,"Longitude":4.0967816},"MapView":{"TopLeft":{"Latitude":48.30269,"Longitude":4.08081},"BottomRight":{"Latitude":48.27963,"Longitude":4.11121}},"Address":{"Label":"Les Senardes, Troyes, Grand Est, France","Country":"FRA","State":"Grand Est","County":"Aube","City":"Troyes","District":"Les Senardes","PostalCode":"10000","AdditionalData":[{"value":"France","key":"CountryName"},{"value":"Grand Est","key":"StateName"},{"value":"Aube","key":"CountyName"}]},"MapReference":{"ReferenceId":"65277459","SideOfStreet":"neither","CountryId":"20000001","StateId":"20002047","CountyId":"20002105","CityId":"20010996"}}},{"Relevance":1.0,"Distance":33.6,"MatchLevel":"houseNumber","MatchQuality":{"Country":1.0,"State":1.0,"County":1.0,"City":1.0,"District":1.0,"Street":[1.0],"HouseNumber":1.0,"PostalCode":1.0},"MatchType":"interpolated","Location":{"LocationId":"NT_.or96-TXyMC8aNzjGaTp2D_xA","LocationType":"point","DisplayPosition":{"Latitude":48.29364,"Longitude":4.09694},"MapView":{"TopLeft":{"Latitude":48.2947642,"Longitude":4.0952503},"BottomRight":{"Latitude":48.2925158,"Longitude":4.0986297}},"Address":{"Label":"1 Rue Blanche Odin, 10000 Troyes, France","Country":"FRA","State":"Grand Est","County":"Aube","City":"Troyes","District":"Les Senardes","Street":"Rue Blanche Odin","HouseNumber":"1","PostalCode":"10000","AdditionalData":[{"value":"France","key":"CountryName"},{"value":"Grand Est","key":"StateName"},{"value":"Aube","key":"CountyName"}]},"MapReference":{"ReferenceId":"917110336","Spot":0.5,"SideOfStreet":"left","CountryId":"20000001","StateId":"20002047","CountyId":"20002105","CityId":"20010996","AddressId":"379233882","RoadLinkId":"274619333"}}},{"Relevance":1.0,"Distance":54.2,"MatchLevel":"houseNumber","MatchQuality":{"Country":1.0,"State":1.0,"County":1.0,"City":1.0,"District":1.0,"Street":[1.0],"HouseNumber":1.0,"PostalCode":1.0},"MatchType":"interpolated","Location":{"LocationId":"NT_12Fvg5J2sGByv5Zc0LL0rD_xcD","LocationType":"point","DisplayPosition":{"Latitude":48.29394,"Longitude":4.096},"MapView":{"TopLeft":{"Latitude":48.2950642,"Longitude":4.0943103},"BottomRight":{"Latitude":48.2928158,"Longitude":4.0976897}},"Address":{"Label":"17 Rue Edmond Fariat, 10000 Troyes, France","Country":"FRA","State":"Grand Est","County":"Aube","City":"Troyes","District":"Les Senardes","Street":"Rue Edmond Fariat","HouseNumber":"17","PostalCode":"10000","AdditionalData":[{"value":"France","key":"CountryName"},{"value":"Grand Est","key":"StateName"},{"value":"Aube","key":"CountyName"}]},"MapReference":{"ReferenceId":"65276941","Spot":0.97,"SideOfStreet":"right","CountryId":"20000001","StateId":"20002047","CountyId":"20002105","CityId":"20010996","AddressId":"316610429","RoadLinkId":"43884988"}}},{"Relevance":1.0,"Distance":54.4,"MatchLevel":"houseNumber","MatchQuality":{"Country":1.0,"State":1.0,"County":1.0,"City":1.0,"District":1.0,"Street":[1.0],"HouseNumber":1.0,"PostalCode":1.0},"MatchType":"interpolated","Location":{"LocationId":"NT_12Fvg5J2sGByv5Zc0LL0rD_xUD","LocationType":"point","DisplayPosition":{"Latitude":48.29418,"Longitude":4.09604},"MapView":{"TopLeft":{"Latitude":48.2953042,"Longitude":4.0943503},"BottomRight":{"Latitude":48.2930558,"Longitude":4.0977297}},"Address":{"Label":"15 Rue Edmond Fariat, 10000 Troyes, France","Country":"FRA","State":"Grand Est","County":"Aube","City":"Troyes","District":"Les Senardes","Street":"Rue Edmond Fariat","HouseNumber":"15","PostalCode":"10000","AdditionalData":[{"value":"France","key":"CountryName"},{"value":"Grand Est","key":"StateName"},{"value":"Aube","key":"CountyName"}]},"MapReference":{"ReferenceId":"65276938","Spot":0.96,"SideOfStreet":"right","CountryId":"20000001","StateId":"20002047","CountyId":"20002105","CityId":"20010996","AddressId":"316505960","RoadLinkId":"44771199"}}},{"Relevance":1.0,"Distance":67.9,"MatchLevel":"houseNumber","MatchQuality":{"Country":1.0,"State":1.0,"County":1.0,"City":1.0,"District":1.0,"Street":[1.0],"HouseNumber":1.0,"PostalCode":1.0},"MatchType":"interpolated","Location":{"LocationId":"NT_B9KlaYPozahfh9fZMAIW4C_l_1165126262_R_yA","LocationType":"point","DisplayPosition":{"Latitude":48.2941951,"Longitude":4.0959279},"MapView":{"TopLeft":{"Latitude":48.2953192,"Longitude":4.0942382},"BottomRight":{"Latitude":48.2930709,"Longitude":4.0976176}},"Address":{"Label":"2 Rue Bernard Dimey, 10000 Troyes, France","Country":"FRA","State":"Grand Est","County":"Aube","City":"Troyes","District":"Les Senardes","Street":"Rue Bernard Dimey","HouseNumber":"2","PostalCode":"10000","AdditionalData":[{"value":"France","key":"CountryName"},{"value":"Grand Est","key":"StateName"},{"value":"Aube","key":"CountyName"}]},"MapReference":{"ReferenceId":"1165126262","Spot":0.51,"SideOfStreet":"right","CountryId":"20000001","StateId":"20002047","CountyId":"20002105","CityId":"20010996"}}},{"Relevance":1.0,"Distance":69.5,"MatchLevel":"houseNumber","MatchQuality":{"Country":1.0,"State":1.0,"County":1.0,"City":1.0,"District":1.0,"Street":[1.0],"HouseNumber":1.0,"PostalCode":1.0},"MatchType":"interpolated","Location":{"LocationId":"NT_12Fvg5J2sGByv5Zc0LL0rD_5A","LocationType":"point","DisplayPosition":{"Latitude":48.29463,"Longitude":4.09621},"MapView":{"TopLeft":{"Latitude":48.2957542,"Longitude":4.0945203},"BottomRight":{"Latitude":48.2935058,"Longitude":4.0978997}},"Address":{"Label":"9 Rue Edmond Fariat, 10000 Troyes, France","Country":"FRA","State":"Grand Est","County":"Aube","City":"Troyes","District":"Les Senardes","Street":"Rue Edmond Fariat","HouseNumber":"9","PostalCode":"10000","AdditionalData":[{"value":"France","key":"CountryName"},{"value":"Grand Est","key":"StateName"},{"value":"Aube","key":"CountyName"}]},"MapReference":{"ReferenceId":"65276939","Spot":0.31,"SideOfStreet":"right","CountryId":"20000001","StateId":"20002047","CountyId":"20002105","CityId":"20010996","AddressId":"316540736","RoadLinkId":"45021917"}}},{"Relevance":1.0,"Distance":75.6,"MatchLevel":"street","MatchQuality":{"Country":1.0,"State":1.0,"County":1.0,"City":1.0,"District":1.0,"Street":[1.0],"PostalCode":1.0},"Location":{"LocationId":"NT_B9KlaYPozahfh9fZMAIW4C_l_1165149499_R","LocationType":"point","DisplayPosition":{"Latitude":48.2942,"Longitude":4.09582},"MapView":{"TopLeft":{"Latitude":48.2942,"Longitude":4.09551},"BottomRight":{"Latitude":48.29408,"Longitude":4.09582}},"Address":{"Label":"Rue Bernard Dimey, 10000 Troyes, France","Country":"FRA","State":"Grand Est","County":"Aube","City":"Troyes","District":"Les Senardes","Street":"Rue Bernard Dimey","PostalCode":"10000","AdditionalData":[{"value":"France","key":"CountryName"},{"value":"Grand Est","key":"StateName"},{"value":"Aube","key":"CountyName"}]},"MapReference":{"ReferenceId":"1165149499","Spot":1.0,"SideOfStreet":"right","CountryId":"20000001","StateId":"20002047","CountyId":"20002105","CityId":"20010996"}}},{"Relevance":1.0,"Distance":75.6,"MatchLevel":"street","MatchQuality":{"Country":1.0,"State":1.0,"County":1.0,"City":1.0,"District":1.0,"PostalCode":1.0},"Location":{"LocationId":"NT_oll2ly7NPUSRPR.Djhe42A_l_1165126263_L","LocationType":"point","DisplayPosition":{"Latitude":48.2942,"Longitude":4.09582},"MapView":{"TopLeft":{"Latitude":48.29439,"Longitude":4.0947},"BottomRight":{"Latitude":48.29406,"Longitude":4.09582}},"Address":{"Label":"10000 Troyes, France","Country":"FRA","State":"Grand Est","County":"Aube","City":"Troyes","District":"Les Senardes","PostalCode":"10000","AdditionalData":[{"value":"France","key":"CountryName"},{"value":"Grand Est","key":"StateName"},{"value":"Aube","key":"CountyName"}]},"MapReference":{"ReferenceId":"1165126263","Spot":1.0,"SideOfStreet":"left","CountryId":"20000001","StateId":"20002047","CountyId":"20002105","CityId":"20010996"}}},{"Relevance":1.0,"Distance":100.8,"MatchLevel":"houseNumber","MatchQuality":{"Country":1.0,"State":1.0,"County":1.0,"City":1.0,"District":1.0,"Street":[1.0],"HouseNumber":1.0,"PostalCode":1.0},"MatchType":"interpolated","Location":{"LocationId":"NT_B9KlaYPozahfh9fZMAIW4C_xA","LocationType":"point","DisplayPosition":{"Latitude":48.29398,"Longitude":4.09536},"MapView":{"TopLeft":{"Latitude":48.2951042,"Longitude":4.0936703},"BottomRight":{"Latitude":48.2928558,"Longitude":4.0970497}},"Address":{"Label":"1 Rue Bernard Dimey, 10000 Troyes, France","Country":"FRA","State":"Grand Est","County":"Aube","City":"Troyes","District":"Les Senardes","Street":"Rue Bernard Dimey","HouseNumber":"1","PostalCode":"10000","AdditionalData":[{"value":"France","key":"CountryName"},{"value":"Grand Est","key":"StateName"},{"value":"Aube","key":"CountyName"}]},"MapReference":{"ReferenceId":"1165149501","Spot":0.44,"SideOfStreet":"right","CountryId":"20000001","StateId":"20002047","CountyId":"20002105","CityId":"20010996","AddressId":"370970855","RoadLinkId":"471547433"}}},{"Relevance":1.0,"Distance":102.2,"MatchLevel":"street","MatchQuality":{"Country":1.0,"State":1.0,"County":1.0,"City":1.0,"District":1.0,"PostalCode":1.0},"Location":{"LocationId":"NT_oll2ly7NPUSRPR.Djhe42A_l_1165119600_L","LocationType":"point","DisplayPosition":{"Latitude":48.2930742,"Longitude":4.0970895},"MapView":{"TopLeft":{"Latitude":48.29339,"Longitude":4.09618},"BottomRight":{"Latitude":48.29287,"Longitude":4.09802}},"Address":{"Label":"10000 Troyes, France","Country":"FRA","State":"Grand Est","County":"Aube","City":"Troyes","District":"Les Senardes","PostalCode":"10000","AdditionalData":[{"value":"France","key":"CountryName"},{"value":"Grand Est","key":"StateName"},{"value":"Aube","key":"CountyName"}]},"MapReference":{"ReferenceId":"1165119600","Spot":0.49,"SideOfStreet":"left","CountryId":"20000001","StateId":"20002047","CountyId":"20002105","CityId":"20010996"}}}]}]}}