{"Response":{"MetaInfo":{"Timestamp":"2020-03-28T10:20:02.637+0000","NextPageInformation":"2"},"View":[{"_type":"SearchResultsViewType","ViewId":0,"Result":[{"Relevance":1.0,"Distance":0.0,"Direction":0.0,"MatchLevel":"district","MatchQuality":{"Country":1.0,"State":1.0,"County":1.0,"City":1.0,"District":1.0,"PostalCode":1.0},"Location":{"LocationId":"NT_vOOl1AvXus2yXn-uphorgB","LocationType":"point","DisplayPosition":{"Latitude":48.2498004,"Longitude":11.6517924},"MapView":{"TopLeft":{"Latitude":48.25815,"Longitude":11.63096},"BottomRight":{"Latitude":48.24037,"Longitude":11.66402}},"Address":{"Label":"Garching bei München, Bayern, Deutschland","Country":"DEU","State":"Bayern","County":"München (Landkreis)","City":"Garching bei München","District":"Garching bei München","PostalCode":"85748","AdditionalData":[{"value":"Deutschland","key":"CountryName"},{"value":"Bayern","key":"StateName"},{"value":"München (Landkreis)","key":"CountyName"}]},"MapReference":{"ReferenceId":"576315066","SideOfStreet":"neither","CountryId":"20147700","StateId":"20177250","CountyId":"20178646","CityId":"20178664","DistrictId":"20178666"}}},{"Relevance":1.0,"Distance":2.8,"MatchLevel":"houseNumber","MatchQuality":{"Country":1.0,"State":1.0,"County":1.0,"City":1.0,"District":1.0,"Street":[1.0],"HouseNumber":1.0,"PostalCode":1.0},"MatchType":"interpolated","Location":{"LocationId":"NT_pn-klfSYQdL2Nyq73o1FwC_0A","LocationType":"point","DisplayPosition":{"Latitude":48.24963,"Longitude":11.65165},"MapView":{"TopLeft":{"Latitude":48.2507542,"Longitude":11.6499618},"BottomRight":{"Latitude":48.2485058,"Longitude":11.6533382}},"Address":{"Label":"Bürgerplatz 4, 85748 Garching bei München, Deutschland","Country":"DEU","State":"Bayern","County":"München (Landkreis)","City":"Garching bei München","District":"Garching bei München","Street":"Bürgerplatz","HouseNumber":"4","PostalCode":"85748","AdditionalData":[{"value":"Deutschland","key":"CountryName"},{"value":"Bayern","key":"StateName"},{"value":"München (Landkreis)","key":"CountyName"}]},"MapReference":{"ReferenceId":"576272373","Spot":0.0,"SideOfStreet":"right","CountryId":"20147700","StateId":"20177250","CountyId":"20178646","CityId":"20178664","DistrictId":"20178666","AddressId":"184264262","RoadLinkId":"33063627"}}},{"Relevance":1.0,"Distance":21.7,"MatchLevel":"street","MatchQuality":{"Country":1.0,"State":1.0,"County":1.0,"City":1.0,"District":1.0,"Street":[1.0],"PostalCode":1.0},"Location":{"LocationId":"NT_pn-klfSYQdL2Nyq73o1FwC_l_1190183137_R","LocationType":"point","DisplayPosition":{"Latitude":48.24963,"Longitude":11.65165},"MapView":{"TopLeft":{"Latitude":48.24963,"Longitude":11.65165},"BottomRight":{"Latitude":48.24935,"Longitude":11.65181}},"Address":{"Label":"Bürgerplatz, 85748 Garching bei München, Deutschland","Country":"DEU","State":"Bayern","County":"München (Landkreis)","City":"Garching bei München","District":"Garching bei München","Street":"Bürgerplatz","PostalCode":"85748","AdditionalData":[{"value":"Deutschland","key":"CountryName"},{"value":"Bayern","key":"StateName"},{"value":"München (Landkreis)","key":"CountyName"}]},"MapReference":{"ReferenceId":"1190183137","Spot":1.0,"SideOfStreet":"right","CountryId":"20147700","StateId":"20177250","CountyId":"20178646","CityId":"20178664","DistrictId":"20178666"}}},{"Relevance":1.0,"Distance":27.5,"MatchLevel":"houseNumber","MatchQuality":{"Country":1.0,"State":1.0,"County":1.0,"City":1.0,"District":1.0,"Street":[1.0],"HouseNumber":1.0,"PostalCode":1.0},"MatchType":"interpolated","Location":{"LocationId":"NT_w1QQHh-ldhr1TNxKJT8CCA_0EE","LocationType":"point","DisplayPosition":{"Latitude":48.2493,"Longitude":11.65209},"MapView":{"TopLeft":{"Latitude":48.2504242,"Longitude":11.6504018},"BottomRight":{"Latitude":48.2481758,"Longitude":11.6537782}},"Address":{"Label":"Münchener Straße 4A, 85748 Garching bei München, Deutschland","Country":"DEU","State":"Bayern","County":"München (Landkreis)","City":"Garching bei München","District":"Garching bei München","Street":"Münchener Straße","HouseNumber":"4A","PostalCode":"85748","AdditionalData":[{"value":"Deutschland","key":"CountryName"},{"value":"Bayern","key":"StateName"},{"value":"München (Landkreis)","key":"CountyName"}]},"MapReference":{"ReferenceId":"52819403","Spot":0.34,"SideOfStreet":"left","CountryId":"20147700","StateId":"20177250","CountyId":"20178646","CityId":"20178664","DistrictId":"20178666","AddressId":"184766883","RoadLinkId":"33419199"}}},{"Relevance":1.0,"Distance":41.4,"MatchLevel":"houseNumber","MatchQuality":{"Country":1.0,"State":1.0,"County":1.0,"City":1.0,"District":1.0,"Street":[1.0],"HouseNumber":1.0,"PostalCode":1.0},"MatchType":"interpolated","Location":{"LocationId":"NT_ow1ArSeyPf4nmabGA-XKJC_xA","LocationType":"point","DisplayPosition":{"Latitude":48.24944,"Longitude":11.6526},"MapView":{"TopLeft":{"Latitude":48.2505642,"Longitude":11.6509118},"BottomRight":{"Latitude":48.2483158,"Longitude":11.6542882}},"Address":{"Label":"Freisinger Landstraße 1, 85748 Garching bei München, Deutschland","Country":"DEU","State":"Bayern","County":"München (Landkreis)","City":"Garching bei München","District":"Garching bei München","Street":"Freisinger Landstraße","HouseNumber":"1","PostalCode":"85748","AdditionalData":[{"value":"Deutschland","key":"CountryName"},{"value":"Bayern","key":"StateName"},{"value":"München (Landkreis)","key":"CountyName"}]},"MapReference":{"ReferenceId":"576299359","Spot":0.0,"SideOfStreet":"left","CountryId":"20147700","StateId":"20177250","CountyId":"20178646","CityId":"20178664","DistrictId":"20178666","AddressId":"182314834","RoadLinkId":"33733671"}}},{"Relevance":1.0,"Distance":48.9,"MatchLevel":"houseNumber","MatchQuality":{"Country":1.0,"State":1.0,"County":1.0,"City":1.0,"District":1.0,"Street":[1.0],"HouseNumber":1.0,"PostalCode":1.0},"MatchType":"interpolated","Location":{"LocationId":"NT_wRYKvo0l1YyB9maIzmdenD_0A","LocationType":"point","DisplayPosition":{"Latitude":48.24932,"Longitude":11.65133},"MapView":{"TopLeft":{"Latitude":48.2504442,"Longitude":11.6496418},"BottomRight":{"Latitude":48.2481958,"Longitude":11.6530182}},"Address":{"Label":"Schleißheimer Straße 4, 85748 Garching bei München, Deutschland","Country":"DEU","State":"Bayern","County":"München (Landkreis)","City":"Garching bei München","District":"Garching bei München","Street":"Schleißheimer Straße","HouseNumber":"4","PostalCode":"85748","AdditionalData":[{"value":"Deutschland","key":"CountryName"},{"value":"Bayern","key":"StateName"},{"value":"München (Landkreis)","key":"CountyName"}]},"MapReference":{"ReferenceId":"1200120635","Spot":0.78,"SideOfStreet":"left","CountryId":"20147700","StateId":"20177250","CountyId":"20178646","CityId":"20178664","DistrictId":"20178666","AddressId":"185010023","RoadLinkId":"512353945"}}},{"Relevance":1.0,"Distance":50.1,"MatchLevel":"street","MatchQuality":{"Country":1.0,"State":1.0,"County":1.0,"City":1.0,"District":1.0,"Street":[1.0],"PostalCode":1.0},"Location":{"LocationId":"NT_pn-klfSYQdL2Nyq73o1FwC_l_1190183136_R","LocationType":"point","DisplayPosition":{"Latitude":48.24935,"Longitude":11.65181},"MapView":{"TopLeft":{"Latitude":48.24935,"Longitude":11.65181},"BottomRight":{"Latitude":48.24921,"Longitude":11.65183}},"Address":{"Label":"Bürgerplatz, 85748 Garching bei München, Deutschland","Country":"DEU","State":"Bayern","County":"München (Landkreis)","City":"Garching bei München","District":"Garching bei München","Street":"Bürgerplatz","PostalCode":"85748","AdditionalData":[{"value":"Deutschland","key":"CountryName"},{"value":"Bayern","key":"StateName"},{"value":"München (Landkreis)","key":"CountyName"}]},"MapReference":{"ReferenceId":"1190183136","Spot":1.0,"SideOfStreet":"right","CountryId":"20147700","StateId":"20177250","CountyId":"20178646","CityId":"20178664","DistrictId":"20178666"}}},{"Relevance":1.0,"Distance":50.1,"MatchLevel":"street","MatchQuality":{"Country":1.0,"State":1.0,"County":1.0,"City":1.0,"District":1.0,"Street":[1.0],"PostalCode":1.0},"Location":{"LocationId":"NT_pn-klfSYQdL2Nyq73o1FwC_l_1200120636_L","LocationType":"point","DisplayPosition":{"Latitude":48.24935,"Longitude":11.65181},"MapView":{"TopLeft":{"Latitude":48.24935,"Longitude":11.6515},"BottomRight":{"Latitude":48.24932,"Longitude":11.65181}},"Address":{"Label":"Bürgerplatz, 85748 Garching bei München, Deutschland","Country":"DEU","State":"Bayern","County":"München (Landkreis)","City":"Garching bei München","District":"Garching bei München","Street":"Bürgerplatz","PostalCode":"85748","AdditionalData":[{"value":"Deutschland","key":"CountryName"},{"value":"Bayern","key":"StateName"},{"value":"München (Landkreis)","key":"CountyName"}]},"MapReference":{"ReferenceId":"1200120636","Spot":1.0,"SideOfStreet":"left","CountryId":"20147700","StateId":"20177250","CountyId":"20178646","CityId":"20178664","DistrictId":"20178666"}}},{"Relevance":1.0,"Distance":64.2,"MatchLevel":"houseNumber","MatchQuality":{"Country":1.0,"State":1.0,"County":1.0,"City":1.0,"District":1.0,"Street":[1.0],"HouseNumber":1.0,"PostalCode":1.0},"MatchType":"interpolated","Location":{"LocationId":"NT_pn-klfSYQdL2Nyq73o1FwC_xID","LocationType":"point","DisplayPosition":{"Latitude":48.25024,"Longitude":11.65095},"MapView":{"TopLeft":{"Latitude":48.2513642,"Longitude":11.6492618},"BottomRight":{"Latitude":48.2491158,"Longitude":11.6526382}},"Address":{"Label":"Bürgerplatz 12, 85748 Garching bei München, Deutschland","Country":"DEU","State":"Bayern","County":"München (Landkreis)","City":"Garching bei München","District":"Garching bei München","Street":"Bürgerplatz","HouseNumber":"12","PostalCode":"85748","AdditionalData":[{"value":"Deutschland","key":"CountryName"},{"value":"Bayern","key":"StateName"},{"value":"München (Landkreis)","key":"CountyName"}]},"MapReference":{"ReferenceId":"576272375","Spot":0.91,"SideOfStreet":"right","CountryId":"20147700","StateId":"20177250","CountyId":"20178646","CityId":"20178664","DistrictId":"20178666","AddressId":"182934264","RoadLinkId":"32695619"}}},{"Relevance":1.0,"Distance":65.9,"MatchLevel":"houseNumber","MatchQuality":{"Country":1.0,"State":1.0,"County":1.0,"City":1.0,"District":1.0,"Street":[1.0],"HouseNumber":1.0,"PostalCode":1.0},"MatchType":"interpolated","Location":{"LocationId":"NT_pn-klfSYQdL2Nyq73o1FwC_xQD","LocationType":"point","DisplayPosition":{"Latitude":48.25042,"Longitude":11.65145},"MapView":{"TopLeft":{"Latitude":48.2515442,"Longitude":11.6497618},"BottomRight":{"Latitude":48.2492958,"Longitude":11.6531382}},"Address":{"Label":"Bürgerplatz 14, 85748 Garching bei München, Deutschland","Country":"DEU","State":"Bayern","County":"München (Landkreis)","City":"Garching bei München","District":"Garching bei München","Street":"Bürgerplatz","HouseNumber":"14","PostalCode":"85748","AdditionalData":[{"value":"Deutschland","key":"CountryName"},{"value":"Bayern","key":"StateName"},{"value":"München (Landkreis)","key":"CountyName"}]},"MapReference":{"ReferenceId":"52900993","Spot":0.22,"SideOfStreet":"right","CountryId":"20147700","StateId":"20177250","CountyId":"20178646","CityId":"20178664","DistrictId":"20178666","AddressId":"184904662","RoadLinkId":"33656711"}}}]}]}}