{"Response":{"MetaInfo":{"Timestamp":"2020-03-28T10:14:31.534+0000","NextPageInformation":"2"},"View":[{"_type":"SearchResultsViewType","ViewId":0,"Result":[{"Relevance":1.0,"Distance":0.0,"Direction":0.0,"MatchLevel":"district","MatchQuality":{"Country":1.0,"State":1.0,"County":1.0,"City":1.0,"District":1.0,"PostalCode":1.0},"Location":{"LocationId":"NT_HhiRy4fEg.aLUeVgECtlpB","LocationType":"point","DisplayPosition":{"Latitude":48.2519458,"Longitude":13.2343222},"MapView":{"TopLeft":{"Latitude":48.25841,"Longitude":13.21302},"BottomRight":{"Latitude":48.23763,"Longitude":13.25071}},"Address":{"Label":"Altheim, Oberösterreich, Österreich","Country":"AUT","State":"Oberösterreich","County":"Braunau am Inn","City":"Altheim","District":"Altheim","PostalCode":"4950","AdditionalData":[{"value":"Österreich","key":"CountryName"},{"value":"Oberösterreich","key":"StateName"},{"value":"Braunau am Inn","key":"CountyName"}]},"MapReference":{"ReferenceId":"833075071","SideOfStreet":"neither","CountryId":"20128885","StateId":"20132880","CountyId":"20132896","CityId":"20132897","DistrictId":"20132899"}}},{"Relevance":1.0,"Distance":5.8,"MatchLevel":"houseNumber","MatchQuality":{"Country":1.0,"State":1.0,"County":1.0,"City":1.0,"District":1.0,"Street":[1.0],"HouseNumber":1.0,"PostalCode":1.0},"MatchType":"interpolated","Location":{"LocationId":"NT_GMpnbN-Nyd.EuhvlsldKwD_ycD","LocationType":"point","DisplayPosition":{"Latitude":48.2519,"Longitude":13.23436},"MapView":{"TopLeft":{"Latitude":48.2530242,"Longitude":13.2326717},"BottomRight":{"Latitude":48.2507758,"Longitude":13.2360483}},"Address":{"Label":"Bahnhofstraße 27, 4950 Altheim, Österreich","Country":"AUT","State":"Oberösterreich","County":"Braunau am Inn","City":"Altheim","District":"Altheim","Street":"Bahnhofstraße","HouseNumber":"27","PostalCode":"4950","AdditionalData":[{"value":"Österreich","key":"CountryName"},{"value":"Oberösterreich","key":"StateName"},{"value":"Braunau am Inn","key":"CountyName"}]},"MapReference":{"ReferenceId":"557091153","Spot":0.18,"SideOfStreet":"left","CountryId":"20128885","StateId":"20132880","CountyId":"20132896","CityId":"20132897","DistrictId":"20132899","AddressId":"160806914","RoadLinkId":"27938478"}}},{"Relevance":1.0,"Distance":33.1,"MatchLevel":"houseNumber","MatchQuality":{"Country":1.0,"State":1.0,"County":1.0,"City":1.0,"District":1.0,"Street":[1.0],"HouseNumber":1.0,"PostalCode":1.0},"MatchType":"interpolated","Location":{"LocationId":"NT_GMpnbN-Nyd.EuhvlsldKwD_yUD","LocationType":"point","DisplayPosition":{"Latitude":48.25168,"Longitude":13.23412},"MapView":{"TopLeft":{"Latitude":48.2528042,"Longitude":13.2324317},"BottomRight":{"Latitude":48.2505558,"Longitude":13.2358083}},"Address":{"Label":"Bahnhofstraße 25, 4950 Altheim, Österreich","Country":"AUT","State":"Oberösterreich","County":"Braunau am Inn","City":"Altheim","District":"Altheim","Street":"Bahnhofstraße","HouseNumber":"25","PostalCode":"4950","AdditionalData":[{"value":"Österreich","key":"CountryName"},{"value":"Oberösterreich","key":"StateName"},{"value":"Braunau am Inn","key":"CountyName"}]},"MapReference":{"ReferenceId":"557091155","Spot":0.46,"SideOfStreet":"left","CountryId":"20128885","StateId":"20132880","CountyId":"20132896","CityId":"20132897","DistrictId":"20132899","AddressId":"160806910","RoadLinkId":"28258372"}}},{"Relevance":1.0,"Distance":34.3,"MatchLevel":"houseNumber","MatchQuality":{"Country":1.0,"State":1.0,"County":1.0,"City":1.0,"District":1.0,"Street":[1.0],"HouseNumber":1.0,"PostalCode":1.0},"MatchType":"interpolated","Location":{"LocationId":"NT_Z7vGBt951tlS5fIpUs4gqC_yA","LocationType":"point","DisplayPosition":{"Latitude":48.25206,"Longitude":13.2338},"MapView":{"TopLeft":{"Latitude":48.2531842,"Longitude":13.2321117},"BottomRight":{"Latitude":48.2509358,"Longitude":13.2354883}},"Address":{"Label":"Mühlheimer Straße 2, 4950 Altheim, Österreich","Country":"AUT","State":"Oberösterreich","County":"Braunau am Inn","City":"Altheim","District":"Altheim","Street":"Mühlheimer Straße","HouseNumber":"2","PostalCode":"4950","AdditionalData":[{"value":"Österreich","key":"CountryName"},{"value":"Oberösterreich","key":"StateName"},{"value":"Braunau am Inn","key":"CountyName"}]},"MapReference":{"ReferenceId":"557066838","Spot":0.25,"SideOfStreet":"right","CountryId":"20128885","StateId":"20132880","CountyId":"20132896","CityId":"20132897","DistrictId":"20132899","AddressId":"160809362","RoadLinkId":"28559970"}}},{"Relevance":1.0,"Distance":41.4,"MatchLevel":"houseNumber","MatchQuality":{"Country":1.0,"State":1.0,"County":1.0,"City":1.0,"District":1.0,"Street":[1.0],"HouseNumber":1.0,"PostalCode":1.0},"MatchType":"interpolated","Location":{"LocationId":"NT_GMpnbN-Nyd.EuhvlsldKwD_yMD","LocationType":"point","DisplayPosition":{"Latitude":48.2515,"Longitude":13.2339},"MapView":{"TopLeft":{"Latitude":48.2526242,"Longitude":13.2322117},"BottomRight":{"Latitude":48.2503758,"Longitude":13.2355883}},"Address":{"Label":"Bahnhofstraße 23, 4950 Altheim, Österreich","Country":"AUT","State":"Oberösterreich","County":"Braunau am Inn","City":"Altheim","District":"Altheim","Street":"Bahnhofstraße","HouseNumber":"23","PostalCode":"4950","AdditionalData":[{"value":"Österreich","key":"CountryName"},{"value":"Oberösterreich","key":"StateName"},{"value":"Braunau am Inn","key":"CountyName"}]},"MapReference":{"ReferenceId":"833075073","Spot":0.5,"SideOfStreet":"left","CountryId":"20128885","StateId":"20132880","CountyId":"20132896","CityId":"20132897","DistrictId":"20132899","AddressId":"160806911","RoadLinkId":"216315773"}}},{"Relevance":1.0,"Distance":69.8,"MatchLevel":"houseNumber","MatchQuality":{"Country":1.0,"State":1.0,"County":1.0,"City":1.0,"District":1.0,"Street":[1.0],"HouseNumber":1.0,"PostalCode":1.0},"MatchType":"interpolated","Location":{"LocationId":"NT_je98m8ZVRBgb0fwot6YzED_xA","LocationType":"point","DisplayPosition":{"Latitude":48.25134,"Longitude":13.23457},"MapView":{"TopLeft":{"Latitude":48.2524642,"Longitude":13.2328817},"BottomRight":{"Latitude":48.2502158,"Longitude":13.2362583}},"Address":{"Label":"Linzer Straße 1, 4950 Altheim, Österreich","Country":"AUT","State":"Oberösterreich","County":"Braunau am Inn","City":"Altheim","District":"Altheim","Street":"Linzer Straße","HouseNumber":"1","PostalCode":"4950","AdditionalData":[{"value":"Österreich","key":"CountryName"},{"value":"Oberösterreich","key":"StateName"},{"value":"Braunau am Inn","key":"CountyName"}]},"MapReference":{"ReferenceId":"557066922","Spot":0.56,"SideOfStreet":"right","CountryId":"20128885","StateId":"20132880","CountyId":"20132896","CityId":"20132897","DistrictId":"20132899","AddressId":"160809151","RoadLinkId":"28165096"}}},{"Relevance":1.0,"Distance":73.2,"MatchLevel":"street","MatchQuality":{"Country":1.0,"State":1.0,"County":1.0,"City":1.0,"District":1.0,"Street":[1.0],"PostalCode":1.0},"Location":{"LocationId":"NT_GMpnbN-Nyd.EuhvlsldKwD_l_833075072_L","LocationType":"point","DisplayPosition":{"Latitude":48.2514,"Longitude":13.23377},"MapView":{"TopLeft":{"Latitude":48.2514,"Longitude":13.23365},"BottomRight":{"Latitude":48.25131,"Longitude":13.23377}},"Address":{"Label":"Bahnhofstraße, 4950 Altheim, Österreich","Country":"AUT","State":"Oberösterreich","County":"Braunau am Inn","City":"Altheim","District":"Altheim","Street":"Bahnhofstraße","PostalCode":"4950","AdditionalData":[{"value":"Österreich","key":"CountryName"},{"value":"Oberösterreich","key":"StateName"},{"value":"Braunau am Inn","key":"CountyName"}]},"MapReference":{"ReferenceId":"833075072","Spot":1.0,"SideOfStreet":"left","CountryId":"20128885","StateId":"20132880","CountyId":"20132896","CityId":"20132897","DistrictId":"20132899"}}},{"Relevance":1.0,"Distance":77.7,"MatchLevel":"street","MatchQuality":{"Country":1.0,"State":1.0,"County":1.0,"City":1.0,"District":1.0,"Street":[1.0],"PostalCode":1.0},"Location":{"LocationId":"NT_6WveMKhYQF9Q1uYsjpzxdB_l_557091147_L","LocationType":"point","DisplayPosition":{"Latitude":48.25249,"Longitude":13.23498},"MapView":{"TopLeft":{"Latitude":48.25434,"Longitude":13.23425},"BottomRight":{"Latitude":48.25249,"Longitude":13.23498}},"Address":{"Label":"Hütterweg, 4950 Altheim, Österreich","Country":"AUT","State":"Oberösterreich","County":"Braunau am Inn","City":"Altheim","District":"Altheim","Street":"Hütterweg","PostalCode":"4950","AdditionalData":[{"value":"Österreich","key":"CountryName"},{"value":"Oberösterreich","key":"StateName"},{"value":"Braunau am Inn","key":"CountyName"}]},"MapReference":{"ReferenceId":"557091147","Spot":0.0,"SideOfStreet":"left","CountryId":"20128885","StateId":"20132880","CountyId":"20132896","CityId":"20132897","DistrictId":"20132899"}}},{"Relevance":1.0,"Distance":77.7,"MatchLevel":"street","MatchQuality":{"Country":1.0,"State":1.0,"County":1.0,"City":1.0,"District":1.0,"PostalCode":1.0},"Location":{"LocationId":"NT_jNYtmczvAz8kG.YCMwsYZA_l_557072286_L","LocationType":"point","DisplayPosition":{"Latitude":48.25249,"Longitude":13.23498},"MapView":{"TopLeft":{"Latitude":48.25249,"Longitude":13.23498},"BottomRight":{"Latitude":48.25163,"Longitude":13.23625}},"Address":{"Label":"4950 Altheim, Österreich","Country":"AUT","State":"Oberösterreich","County":"Braunau am Inn","City":"Altheim","District":"Altheim","PostalCode":"4950","AdditionalData":[{"value":"Österreich","key":"CountryName"},{"value":"Oberösterreich","key":"StateName"},{"value":"Braunau am Inn","key":"CountyName"}]},"MapReference":{"ReferenceId":"557072286","Spot":1.0,"SideOfStreet":"left","CountryId":"20128885","StateId":"20132880","CountyId":"20132896","CityId":"20132897","DistrictId":"20132899"}}},{"Relevance":1.0,"Distance":83.0,"MatchLevel":"houseNumber","MatchQuality":{"Country":1.0,"State":1.0,"County":1.0,"City":1.0,"District":1.0,"Street":[1.0],"HouseNumber":1.0,"PostalCode":1.0},"MatchType":"interpolated","Location":{"LocationId":"NT_GMpnbN-Nyd.EuhvlsldKwD_ygD","LocationType":"point","DisplayPosition":{"Latitude":48.25253,"Longitude":13.23502},"MapView":{"TopLeft":{"Latitude":48.2536542,"Longitude":13.2333317},"BottomRight":{"Latitude":48.2514058,"Longitude":13.2367083}},"Address":{"Label":"Bahnhofstraße 28, 4950 Altheim, Österreich","Country":"AUT","State":"Oberösterreich","County":"Braunau am Inn","City":"Altheim","District":"Altheim","Street":"Bahnhofstraße","HouseNumber":"28","PostalCode":"4950","AdditionalData":[{"value":"Österreich","key":"CountryName"},{"value":"Oberösterreich","key":"StateName"},{"value":"Braunau am Inn","key":"CountyName"}]},"MapReference":{"ReferenceId":"917085841","Spot":0.33,"SideOfStreet":"right","CountryId":"20128885","StateId":"20132880","CountyId":"20132896","CityId":"20132897","DistrictId":"20132899","AddressId":"160806949","RoadLinkId":"274590218"}}}]}]}}