{"Response":{"MetaInfo":{"Timestamp":"2020-03-28T11:49:21.423+0000","NextPageInformation":"2"},"View":[{"_type":"SearchResultsViewType","ViewId":0,"Result":[{"Relevance":1.0,"Distance":0.0,"Direction":0.0,"MatchLevel":"city","MatchQuality":{"Country":1.0,"State":1.0,"County":1.0,"City":1.0,"PostalCode":1.0},"Location":{"LocationId":"NT_j.fx8eSjMhEPRkSSaoGBwD","LocationType":"point","DisplayPosition":{"Latitude":48.3599622,"Longitude":7.5824617},"MapView":{"TopLeft":{"Latitude":48.37426,"Longitude":7.53103},"BottomRight":{"Latitude":48.32301,"Longitude":7.60199}},"Address":{"Label":"Huttenheim, Grand Est, France","Country":"FRA","State":"Grand Est","County":"Bas-Rhin","City":"Huttenheim","PostalCode":"67230","AdditionalData":[{"value":"France","key":"CountryName"},{"value":"Grand Est","key":"StateName"},{"value":"Bas-Rhin","key":"CountyName"}]},"MapReference":{"ReferenceId":"545300626","SideOfStreet":"neither","CountryId":"20000001","StateId":"20002047","CountyId":"20002048","CityId":"20033421"}}},{"Relevance":1.0,"Distance":15.4,"MatchLevel":"houseNumber","MatchQuality":{"Country":1.0,"State":1.0,"County":1.0,"City":1.0,"Street":[1.0],"HouseNumber":1.0,"PostalCode":1.0},"MatchType":"interpolated","Location":{"LocationId":"NT_-bU4d37SVj1nAbAjYGn3vC_zED","LocationType":"point","DisplayPosition":{"Latitude":48.35992,"Longitude":7.5828},"MapView":{"TopLeft":{"Latitude":48.3610442,"Longitude":7.5811081},"BottomRight":{"Latitude":48.3587958,"Longitude":7.5844919}},"Address":{"Label":"31 Rue du Général de Gaulle, 67230 Huttenheim, France","Country":"FRA","State":"Grand Est","County":"Bas-Rhin","City":"Huttenheim","Street":"Rue du Général de Gaulle","HouseNumber":"31","PostalCode":"67230","AdditionalData":[{"value":"France","key":"CountryName"},{"value":"Grand Est","key":"StateName"},{"value":"Bas-Rhin","key":"CountyName"}]},"MapReference":{"ReferenceId":"1201001667","Spot":0.42,"SideOfStreet":"left","CountryId":"20000001","StateId":"20002047","CountyId":"20002048","CityId":"20033421","AddressId":"316402223","RoadLinkId":"513467443"}}},{"Relevance":1.0,"Distance":33.0,"MatchLevel":"houseNumber","MatchQuality":{"Country":1.0,"State":1.0,"County":1.0,"City":1.0,"Street":[1.0],"HouseNumber":1.0,"PostalCode":1.0},"MatchType":"interpolated","Location":{"LocationId":"NT_-bU4d37SVj1nAbAjYGn3vC_yAD","LocationType":"point","DisplayPosition":{"Latitude":48.35968,"Longitude":7.58265},"MapView":{"TopLeft":{"Latitude":48.3608042,"Longitude":7.5809582},"BottomRight":{"Latitude":48.3585558,"Longitude":7.5843418}},"Address":{"Label":"20 Rue du Général de Gaulle, 67230 Huttenheim, France","Country":"FRA","State":"Grand Est","County":"Bas-Rhin","City":"Huttenheim","Street":"Rue du Général de Gaulle","HouseNumber":"20","PostalCode":"67230","AdditionalData":[{"value":"France","key":"CountryName"},{"value":"Grand Est","key":"StateName"},{"value":"Bas-Rhin","key":"CountyName"}]},"MapReference":{"ReferenceId":"1201001651","Spot":0.32,"SideOfStreet":"left","CountryId":"20000001","StateId":"20002047","CountyId":"20002048","CityId":"20033421","AddressId":"569803884","RoadLinkId":"513467417"}}},{"Relevance":1.0,"Distance":36.2,"MatchLevel":"street","MatchQuality":{"Country":1.0,"State":1.0,"County":1.0,"City":1.0,"Street":[1.0],"PostalCode":1.0},"Location":{"LocationId":"NT_-bU4d37SVj1nAbAjYGn3vC_l_866204727_L","LocationType":"point","DisplayPosition":{"Latitude":48.36012,"Longitude":7.58289},"MapView":{"TopLeft":{"Latitude":48.36026,"Longitude":7.58289},"BottomRight":{"Latitude":48.36012,"Longitude":7.58295}},"Address":{"Label":"Rue du Général de Gaulle, 67230 Huttenheim, France","Country":"FRA","State":"Grand Est","County":"Bas-Rhin","City":"Huttenheim","Street":"Rue du Général de Gaulle","PostalCode":"67230","AdditionalData":[{"value":"France","key":"CountryName"},{"value":"Grand Est","key":"StateName"},{"value":"Bas-Rhin","key":"CountyName"}]},"MapReference":{"ReferenceId":"866204727","Spot":0.0,"SideOfStreet":"left","CountryId":"20000001","StateId":"20002047","CountyId":"20002048","CityId":"20033421"}}},{"Relevance":1.0,"Distance":42.5,"MatchLevel":"houseNumber","MatchQuality":{"Country":1.0,"State":1.0,"County":1.0,"City":1.0,"Street":[1.0],"HouseNumber":1.0,"PostalCode":1.0},"MatchType":"interpolated","Location":{"LocationId":"NT_-bU4d37SVj1nAbAjYGn3vC_ykD","LocationType":"point","DisplayPosition":{"Latitude":48.35954,"Longitude":7.58255},"MapView":{"TopLeft":{"Latitude":48.3606642,"Longitude":7.5808582},"BottomRight":{"Latitude":48.3584158,"Longitude":7.5842418}},"Address":{"Label":"29 Rue du Général de Gaulle, 67230 Huttenheim, France","Country":"FRA","State":"Grand Est","County":"Bas-Rhin","City":"Huttenheim","Street":"Rue du Général de Gaulle","HouseNumber":"29","PostalCode":"67230","AdditionalData":[{"value":"France","key":"CountryName"},{"value":"Grand Est","key":"StateName"},{"value":"Bas-Rhin","key":"CountyName"}]},"MapReference":{"ReferenceId":"545300666","Spot":0.84,"SideOfStreet":"left","CountryId":"20000001","StateId":"20002047","CountyId":"20002048","CityId":"20033421","AddressId":"569781977","RoadLinkId":"44497754"}}},{"Relevance":1.0,"Distance":43.4,"MatchLevel":"houseNumber","MatchQuality":{"Country":1.0,"State":1.0,"County":1.0,"City":1.0,"Street":[1.0],"HouseNumber":1.0,"PostalCode":1.0},"MatchType":"interpolated","Location":{"LocationId":"NT_Cfm4X2ZZVuSHxWvdUfzcAA_l_545301129_R_xA","LocationType":"point","DisplayPosition":{"Latitude":48.3604773,"Longitude":7.5823488},"MapView":{"TopLeft":{"Latitude":48.3616014,"Longitude":7.5806569},"BottomRight":{"Latitude":48.3593531,"Longitude":7.5840406}},"Address":{"Label":"1 Rue des Petits Champs, 67230 Huttenheim, France","Country":"FRA","State":"Grand Est","County":"Bas-Rhin","City":"Huttenheim","Street":"Rue des Petits Champs","HouseNumber":"1","PostalCode":"67230","AdditionalData":[{"value":"France","key":"CountryName"},{"value":"Grand Est","key":"StateName"},{"value":"Bas-Rhin","key":"CountyName"}]},"MapReference":{"ReferenceId":"545301129","Spot":0.5,"SideOfStreet":"right","CountryId":"20000001","StateId":"20002047","CountyId":"20002048","CityId":"20033421"}}},{"Relevance":1.0,"Distance":50.3,"MatchLevel":"houseNumber","MatchQuality":{"Country":1.0,"State":1.0,"County":1.0,"City":1.0,"Street":[1.0],"HouseNumber":1.0,"PostalCode":1.0},"MatchType":"interpolated","Location":{"LocationId":"NT_Cfm4X2ZZVuSHxWvdUfzcAA_xA","LocationType":"point","DisplayPosition":{"Latitude":48.36018,"Longitude":7.58183},"MapView":{"TopLeft":{"Latitude":48.3613042,"Longitude":7.5801381},"BottomRight":{"Latitude":48.3590558,"Longitude":7.5835219}},"Address":{"Label":"1 Rue des Petits Champs, 67230 Huttenheim, France","Country":"FRA","State":"Grand Est","County":"Bas-Rhin","City":"Huttenheim","Street":"Rue des Petits Champs","HouseNumber":"1","PostalCode":"67230","AdditionalData":[{"value":"France","key":"CountryName"},{"value":"Grand Est","key":"StateName"},{"value":"Bas-Rhin","key":"CountyName"}]},"MapReference":{"ReferenceId":"545300611","Spot":0.97,"SideOfStreet":"right","CountryId":"20000001","StateId":"20002047","CountyId":"20002048","CityId":"20033421","AddressId":"378826563","RoadLinkId":"44389246"}}},{"Relevance":1.0,"Distance":53.1,"MatchLevel":"houseNumber","MatchQuality":{"Country":1.0,"State":1.0,"County":1.0,"City":1.0,"Street":[1.0],"HouseNumber":1.0,"PostalCode":1.0},"MatchType":"interpolated","Location":{"LocationId":"NT_-bU4d37SVj1nAbAjYGn3vC_zUD","LocationType":"point","DisplayPosition":{"Latitude":48.36032,"Longitude":7.58298},"MapView":{"TopLeft":{"Latitude":48.3614442,"Longitude":7.5812881},"BottomRight":{"Latitude":48.3591958,"Longitude":7.5846719}},"Address":{"Label":"35 Rue du Général de Gaulle, 67230 Huttenheim, France","Country":"FRA","State":"Grand Est","County":"Bas-Rhin","City":"Huttenheim","Street":"Rue du Général de Gaulle","HouseNumber":"35","PostalCode":"67230","AdditionalData":[{"value":"France","key":"CountryName"},{"value":"Grand Est","key":"StateName"},{"value":"Bas-Rhin","key":"CountyName"}]},"MapReference":{"ReferenceId":"866204728","Spot":0.09,"SideOfStreet":"left","CountryId":"20000001","StateId":"20002047","CountyId":"20002048","CityId":"20033421","AddressId":"378878528","RoadLinkId":"239272154"}}},{"Relevance":1.0,"Distance":53.2,"MatchLevel":"houseNumber","MatchQuality":{"Country":1.0,"State":1.0,"County":1.0,"City":1.0,"Street":[1.0],"HouseNumber":1.0,"PostalCode":1.0},"MatchType":"interpolated","Location":{"LocationId":"NT_ZIf-l-fL78V.f00hxT9WTB_yA","LocationType":"point","DisplayPosition":{"Latitude":48.36019,"Longitude":7.58316},"MapView":{"TopLeft":{"Latitude":48.3613142,"Longitude":7.5814681},"BottomRight":{"Latitude":48.3590658,"Longitude":7.5848519}},"Address":{"Label":"2 Rue de l'Arbre, 67230 Huttenheim, France","Country":"FRA","State":"Grand Est","County":"Bas-Rhin","City":"Huttenheim","Street":"Rue de l'Arbre","HouseNumber":"2","PostalCode":"67230","AdditionalData":[{"value":"France","key":"CountryName"},{"value":"Grand Est","key":"StateName"},{"value":"Bas-Rhin","key":"CountyName"}]},"MapReference":{"ReferenceId":"545300669","Spot":0.76,"SideOfStreet":"left","CountryId":"20000001","StateId":"20002047","CountyId":"20002048","CityId":"20033421","AddressId":"569775712","RoadLinkId":"43913457"}}},{"Relevance":1.0,"Distance":71.3,"MatchLevel":"houseNumber","MatchQuality":{"Country":1.0,"State":1.0,"County":1.0,"City":1.0,"Street":[1.0],"HouseNumber":1.0,"PostalCode":1.0},"MatchType":"interpolated","Location":{"LocationId":"NT_DAuWoOhZIVyxUQUmi4JPYA_3A","LocationType":"point","DisplayPosition":{"Latitude":48.3595,"Longitude":7.58313},"MapView":{"TopLeft":{"Latitude":48.3606242,"Longitude":7.5814382},"BottomRight":{"Latitude":48.3583758,"Longitude":7.5848218}},"Address":{"Label":"7 Rue du Lavoir, 67230 Huttenheim, France","Country":"FRA","State":"Grand Est","County":"Bas-Rhin","City":"Huttenheim","Street":"Rue du Lavoir","HouseNumber":"7","PostalCode":"67230","AdditionalData":[{"value":"France","key":"CountryName"},{"value":"Grand Est","key":"StateName"},{"value":"Bas-Rhin","key":"CountyName"}]},"MapReference":{"ReferenceId":"545300667","Spot":0.48,"SideOfStreet":"right","CountryId":"20000001","StateId":"20002047","CountyId":"20002048","CityId":"20033421","AddressId":"378883190","RoadLinkId":"44865424"}}}]}]}}