{"Response":{"MetaInfo":{"Timestamp":"2020-03-28T10:04:14.928+0000","NextPageInformation":"2"},"View":[{"_type":"SearchResultsViewType","ViewId":0,"Result":[{"Relevance":1.0,"Distance":-116.7,"MatchLevel":"landmark","MatchQuality":{"Country":1.0,"State":1.0,"County":1.0,"City":1.0,"District":1.0,"PostalCode":1.0,"Name":1.0},"Location":{"LocationId":"NT_r2nSvXoPTJIZuGEqghJEuA","LocationType":"industrialComplex","Name":"Büropark Edisonallee","DisplayPosition":{"Latitude":48.37725,"Longitude":10.01159},"MapView":{"TopLeft":{"Latitude":48.38118,"Longitude":10.00763},"BottomRight":{"Latitude":48.37331,"Longitude":10.01579}},"Address":{"Label":"89231 Neu-Ulm, Deutschland","Country":"DEU","State":"Bayern","County":"Neu-Ulm","City":"Neu-Ulm","District":"Neu-Ulm","PostalCode":"89231","AdditionalData":[{"value":"Deutschland","key":"CountryName"},{"value":"Bayern","key":"StateName"},{"value":"Neu-Ulm","key":"CountyName"}]},"MapReference":{"CountryId":"20147700","StateId":"20177250","CountyId":"20185988","CityId":"20186021","DistrictId":"20186023","PlaceId":"1410203053"}}},{"Relevance":1.0,"Distance":0.0,"Direction":0.0,"MatchLevel":"district","MatchQuality":{"Country":1.0,"State":1.0,"County":1.0,"City":1.0,"District":1.0,"PostalCode":1.0},"Location":{"LocationId":"NT_DMVFtPcRue520dPjHgUK-C","LocationType":"point","DisplayPosition":{"Latitude":48.3791918,"Longitude":10.0096041},"MapView":{"TopLeft":{"Latitude":48.40714,"Longitude":9.98337},"BottomRight":{"Latitude":48.37331,"Longitude":10.04643}},"Address":{"Label":"Neu-Ulm, Bayern, Deutschland","Country":"DEU","State":"Bayern","County":"Neu-Ulm","City":"Neu-Ulm","District":"Neu-Ulm","PostalCode":"89231","AdditionalData":[{"value":"Deutschland","key":"CountryName"},{"value":"Bayern","key":"StateName"},{"value":"Neu-Ulm","key":"CountyName"}]},"MapReference":{"ReferenceId":"67631710","SideOfStreet":"neither","CountryId":"20147700","StateId":"20177250","CountyId":"20185988","CityId":"20186021","DistrictId":"20186023"}}},{"Relevance":1.0,"Distance":16.2,"MatchLevel":"street","MatchQuality":{"Country":1.0,"State":1.0,"County":1.0,"City":1.0,"District":1.0,"PostalCode":1.0},"Location":{"LocationId":"NT_fGffjRNgJ3.Sjqc8EZnmgB_l_1190790115_R","LocationType":"point","DisplayPosition":{"Latitude":48.3793372,"Longitude":10.0095878},"MapView":{"TopLeft":{"Latitude":48.37938,"Longitude":10.00881},"BottomRight":{"Latitude":48.37925,"Longitude":10.00997}},"Address":{"Label":"89231 Neu-Ulm, Deutschland","Country":"DEU","State":"Bayern","County":"Neu-Ulm","City":"Neu-Ulm","District":"Neu-Ulm","PostalCode":"89231","AdditionalData":[{"value":"Deutschland","key":"CountryName"},{"value":"Bayern","key":"StateName"},{"value":"Neu-Ulm","key":"CountyName"}]},"MapReference":{"ReferenceId":"1190790115","Spot":0.67,"SideOfStreet":"right","CountryId":"20147700","StateId":"20177250","CountyId":"20185988","CityId":"20186021","DistrictId":"20186023"}}},{"Relevance":1.0,"Distance":17.2,"MatchLevel":"houseNumber","MatchQuality":{"Country":1.0,"State":1.0,"County":1.0,"City":1.0,"District":1.0,"Street":[1.0],"HouseNumber":1.0,"PostalCode":1.0},"MatchType":"interpolated","Location":{"LocationId":"NT_TZTiyignxN-XmWpCYr0..D_3A","LocationType":"point","DisplayPosition":{"Latitude":48.37955,"Longitude":10.00928},"MapView":{"TopLeft":{"Latitude":48.3806742,"Longitude":10.0075875},"BottomRight":{"Latitude":48.3784258,"Longitude":10.0109725}},"Address":{"Label":"John-F.-Kennedy-Straße 7, 89231 Neu-Ulm, Deutschland","Country":"DEU","State":"Bayern","County":"Neu-Ulm","City":"Neu-Ulm","District":"Neu-Ulm","Street":"John-F.-Kennedy-Straße","HouseNumber":"7","PostalCode":"89231","AdditionalData":[{"value":"Deutschland","key":"CountryName"},{"value":"Bayern","key":"StateName"},{"value":"Neu-Ulm","key":"CountyName"}]},"MapReference":{"ReferenceId":"1215494447","Spot":0.47,"SideOfStreet":"right","CountryId":"20147700","StateId":"20177250","CountyId":"20185988","CityId":"20186021","DistrictId":"20186023","AddressId":"182076589","RoadLinkId":"531648229"}}},{"Relevance":1.0,"Distance":30.4,"MatchLevel":"street","MatchQuality":{"Country":1.0,"State":1.0,"County":1.0,"City":1.0,"District":1.0,"Street":[1.0],"PostalCode":1.0},"Location":{"LocationId":"NT_m8SR9YMrZ4ENl3ouihfStC_l_1187109963_L","LocationType":"point","DisplayPosition":{"Latitude":48.3792815,"Longitude":10.0099927},"MapView":{"TopLeft":{"Latitude":48.37938,"Longitude":10.00997},"BottomRight":{"Latitude":48.37886,"Longitude":10.01009}},"Address":{"Label":"Elsa-Brandström-Straße, 89231 Neu-Ulm, Deutschland","Country":"DEU","State":"Bayern","County":"Neu-Ulm","City":"Neu-Ulm","District":"Neu-Ulm","Street":"Elsa-Brandström-Straße","PostalCode":"89231","AdditionalData":[{"value":"Deutschland","key":"CountryName"},{"value":"Bayern","key":"StateName"},{"value":"Neu-Ulm","key":"CountyName"}]},"MapReference":{"ReferenceId":"1187109963","Spot":0.81,"SideOfStreet":"left","CountryId":"20147700","StateId":"20177250","CountyId":"20185988","CityId":"20186021","DistrictId":"20186023"}}},{"Relevance":1.0,"Distance":34.2,"MatchLevel":"street","MatchQuality":{"Country":1.0,"State":1.0,"County":1.0,"City":1.0,"District":1.0,"Street":[1.0],"PostalCode":1.0},"Location":{"LocationId":"NT_m8SR9YMrZ4ENl3ouihfStC_l_1187109964_L","LocationType":"point","DisplayPosition":{"Latitude":48.37938,"Longitude":10.00997},"MapView":{"TopLeft":{"Latitude":48.37962,"Longitude":10.00991},"BottomRight":{"Latitude":48.37938,"Longitude":10.00997}},"Address":{"Label":"Elsa-Brandström-Straße, 89231 Neu-Ulm, Deutschland","Country":"DEU","State":"Bayern","County":"Neu-Ulm","City":"Neu-Ulm","District":"Neu-Ulm","Street":"Elsa-Brandström-Straße","PostalCode":"89231","AdditionalData":[{"value":"Deutschland","key":"CountryName"},{"value":"Bayern","key":"StateName"},{"value":"Neu-Ulm","key":"CountyName"}]},"MapReference":{"ReferenceId":"1187109964","Spot":0.0,"SideOfStreet":"left","CountryId":"20147700","StateId":"20177250","CountyId":"20185988","CityId":"20186021","DistrictId":"20186023"}}},{"Relevance":1.0,"Distance":34.2,"MatchLevel":"street","MatchQuality":{"Country":1.0,"State":1.0,"County":1.0,"City":1.0,"District":1.0,"PostalCode":1.0},"Location":{"LocationId":"NT_fGffjRNgJ3.Sjqc8EZnmgB_l_1190790105_R","LocationType":"point","DisplayPosition":{"Latitude":48.37938,"Longitude":10.00997},"MapView":{"TopLeft":{"Latitude":48.37948,"Longitude":10.00997},"BottomRight":{"Latitude":48.37938,"Longitude":10.01092}},"Address":{"Label":"89231 Neu-Ulm, Deutschland","Country":"DEU","State":"Bayern","County":"Neu-Ulm","City":"Neu-Ulm","District":"Neu-Ulm","PostalCode":"89231","AdditionalData":[{"value":"Deutschland","key":"CountryName"},{"value":"Bayern","key":"StateName"},{"value":"Neu-Ulm","key":"CountyName"}]},"MapReference":{"ReferenceId":"1190790105","Spot":0.0,"SideOfStreet":"right","CountryId":"20147700","StateId":"20177250","CountyId":"20185988","CityId":"20186021","DistrictId":"20186023"}}},{"Relevance":1.0,"Distance":42.5,"MatchLevel":"houseNumber","MatchQuality":{"Country":1.0,"State":1.0,"County":1.0,"City":1.0,"District":1.0,"Street":[1.0],"HouseNumber":1.0,"PostalCode":1.0},"MatchType":"interpolated","Location":{"LocationId":"NT_DzUWUDcyhewe3WQT5wRsPD_yA","LocationType":"point","DisplayPosition":{"Latitude":48.37883,"Longitude":10.00979},"MapView":{"TopLeft":{"Latitude":48.3799542,"Longitude":10.0080975},"BottomRight":{"Latitude":48.3777058,"Longitude":10.0114825}},"Address":{"Label":"Helen-Keller-Straße 2, 89231 Neu-Ulm, Deutschland","Country":"DEU","State":"Bayern","County":"Neu-Ulm","City":"Neu-Ulm","District":"Neu-Ulm","Street":"Helen-Keller-Straße","HouseNumber":"2","PostalCode":"89231","AdditionalData":[{"value":"Deutschland","key":"CountryName"},{"value":"Bayern","key":"StateName"},{"value":"Neu-Ulm","key":"CountyName"}]},"MapReference":{"ReferenceId":"1190790114","Spot":0.74,"SideOfStreet":"right","CountryId":"20147700","StateId":"20177250","CountyId":"20185988","CityId":"20186021","DistrictId":"20186023","AddressId":"185930840","RoadLinkId":"500216578"}}},{"Relevance":1.0,"Distance":51.5,"MatchLevel":"street","MatchQuality":{"Country":1.0,"State":1.0,"County":1.0,"City":1.0,"District":1.0,"Street":[1.0],"PostalCode":1.0},"Location":{"LocationId":"NT_m8SR9YMrZ4ENl3ouihfStC_l_1187117151_L","LocationType":"point","DisplayPosition":{"Latitude":48.37886,"Longitude":10.01009},"MapView":{"TopLeft":{"Latitude":48.37886,"Longitude":10.01009},"BottomRight":{"Latitude":48.37877,"Longitude":10.01011}},"Address":{"Label":"Elsa-Brandström-Straße, 89231 Neu-Ulm, Deutschland","Country":"DEU","State":"Bayern","County":"Neu-Ulm","City":"Neu-Ulm","District":"Neu-Ulm","Street":"Elsa-Brandström-Straße","PostalCode":"89231","AdditionalData":[{"value":"Deutschland","key":"CountryName"},{"value":"Bayern","key":"StateName"},{"value":"Neu-Ulm","key":"CountyName"}]},"MapReference":{"ReferenceId":"1187117151","Spot":1.0,"SideOfStreet":"left","CountryId":"20147700","StateId":"20177250","CountyId":"20185988","CityId":"20186021","DistrictId":"20186023"}}},{"Relevance":1.0,"Distance":52.7,"MatchLevel":"street","MatchQuality":{"Country":1.0,"State":1.0,"County":1.0,"City":1.0,"District":1.0,"Street":[1.0],"PostalCode":1.0},"Location":{"LocationId":"NT_TZTiyignxN-XmWpCYr0..D_l_562819022_R","LocationType":"point","DisplayPosition":{"Latitude":48.37962,"Longitude":10.00991},"MapView":{"TopLeft":{"Latitude":48.37974,"Longitude":10.00991},"BottomRight":{"Latitude":48.37962,"Longitude":10.01086}},"Address":{"Label":"John-F.-Kennedy-Straße, 89231 Neu-Ulm, Deutschland","Country":"DEU","State":"Bayern","County":"Neu-Ulm","City":"Neu-Ulm","District":"Neu-Ulm","Street":"John-F.-Kennedy-Straße","PostalCode":"89231","AdditionalData":[{"value":"Deutschland","key":"CountryName"},{"value":"Bayern","key":"StateName"},{"value":"Neu-Ulm","key":"CountyName"}]},"MapReference":{"ReferenceId":"562819022","Spot":0.0,"SideOfStreet":"right","CountryId":"20147700","StateId":"20177250","CountyId":"20185988","CityId":"20186021","DistrictId":"20186023"}}}]}]}}