{"Response":{"MetaInfo":{"Timestamp":"2020-03-28T11:37:38.281+0000","NextPageInformation":"2"},"View":[{"_type":"SearchResultsViewType","ViewId":0,"Result":[{"Relevance":1.0,"Distance":0.0,"Direction":0.0,"MatchLevel":"district","MatchQuality":{"Country":1.0,"State":1.0,"County":1.0,"City":1.0,"District":1.0,"PostalCode":1.0},"Location":{"LocationId":"NT_-FYbuYZnQi2H9CSaqTjtRB","LocationType":"point","DisplayPosition":{"Latitude":48.3444053,"Longitude":13.7715562},"MapView":{"TopLeft":{"Latitude":48.35253,"Longitude":13.76237},"BottomRight":{"Latitude":48.33289,"Longitude":13.78789}},"Address":{"Label":"Peuerbach, Oberösterreich, Österreich","Country":"AUT","State":"Oberösterreich","County":"Grieskirchen","City":"Peuerbach","District":"Peuerbach","PostalCode":"4722","AdditionalData":[{"value":"Österreich","key":"CountryName"},{"value":"Oberösterreich","key":"StateName"},{"value":"Grieskirchen","key":"CountyName"}]},"MapReference":{"ReferenceId":"561515211","SideOfStreet":"neither","CountryId":"20128885","StateId":"20132880","CountyId":"20133285","CityId":"20133346","DistrictId":"20427566"}}},{"Relevance":1.0,"Distance":11.1,"MatchLevel":"houseNumber","MatchQuality":{"Country":1.0,"State":1.0,"County":1.0,"City":1.0,"District":1.0,"Street":[1.0],"HouseNumber":1.0,"PostalCode":1.0},"MatchType":"interpolated","Location":{"LocationId":"NT_xUJWj55i9lblRM4lLCzycD_xYD","LocationType":"point","DisplayPosition":{"Latitude":48.34445,"Longitude":13.77141},"MapView":{"TopLeft":{"Latitude":48.3455742,"Longitude":13.7697187},"BottomRight":{"Latitude":48.3433258,"Longitude":13.7731013}},"Address":{"Label":"Hauptstraße 16, 4722 Peuerbach, Österreich","Country":"AUT","State":"Oberösterreich","County":"Grieskirchen","City":"Peuerbach","District":"Peuerbach","Street":"Hauptstraße","HouseNumber":"16","PostalCode":"4722","AdditionalData":[{"value":"Österreich","key":"CountryName"},{"value":"Oberösterreich","key":"StateName"},{"value":"Grieskirchen","key":"CountyName"}]},"MapReference":{"ReferenceId":"561515211","Spot":0.32,"SideOfStreet":"right","CountryId":"20128885","StateId":"20132880","CountyId":"20133285","CityId":"20133346","DistrictId":"20427566","AddressId":"160830524","RoadLinkId":"28029117"}}},{"Relevance":1.0,"Distance":23.0,"MatchLevel":"houseNumber","MatchQuality":{"Country":1.0,"State":1.0,"County":1.0,"City":1.0,"District":1.0,"Street":[1.0],"HouseNumber":1.0,"PostalCode":1.0},"MatchType":"interpolated","Location":{"LocationId":"NT_xUJWj55i9lblRM4lLCzycD_xQD","LocationType":"point","DisplayPosition":{"Latitude":48.34421,"Longitude":13.77166},"MapView":{"TopLeft":{"Latitude":48.3453342,"Longitude":13.7699687},"BottomRight":{"Latitude":48.3430858,"Longitude":13.7733513}},"Address":{"Label":"Hauptstraße 14, 4722 Peuerbach, Österreich","Country":"AUT","State":"Oberösterreich","County":"Grieskirchen","City":"Peuerbach","District":"Peuerbach","Street":"Hauptstraße","HouseNumber":"14","PostalCode":"4722","AdditionalData":[{"value":"Österreich","key":"CountryName"},{"value":"Oberösterreich","key":"StateName"},{"value":"Grieskirchen","key":"CountyName"}]},"MapReference":{"ReferenceId":"561537911","Spot":0.41,"SideOfStreet":"right","CountryId":"20128885","StateId":"20132880","CountyId":"20133285","CityId":"20133346","DistrictId":"20427566","AddressId":"160830528","RoadLinkId":"28161866"}}},{"Relevance":1.0,"Distance":28.1,"MatchLevel":"houseNumber","MatchQuality":{"Country":1.0,"State":1.0,"County":1.0,"City":1.0,"District":1.0,"Street":[1.0],"HouseNumber":1.0,"PostalCode":1.0},"MatchType":"interpolated","Location":{"LocationId":"NT_F15kZ92zcqA0t.EnXWtIUC_zA","LocationType":"point","DisplayPosition":{"Latitude":48.34432,"Longitude":13.77219},"MapView":{"TopLeft":{"Latitude":48.3454442,"Longitude":13.7704987},"BottomRight":{"Latitude":48.3431958,"Longitude":13.7738813}},"Address":{"Label":"Kirchenplatz 3, 4722 Peuerbach, Österreich","Country":"AUT","State":"Oberösterreich","County":"Grieskirchen","City":"Peuerbach","District":"Peuerbach","Street":"Kirchenplatz","HouseNumber":"3","PostalCode":"4722","AdditionalData":[{"value":"Österreich","key":"CountryName"},{"value":"Oberösterreich","key":"StateName"},{"value":"Grieskirchen","key":"CountyName"}]},"MapReference":{"ReferenceId":"561515204","Spot":0.23,"SideOfStreet":"left","CountryId":"20128885","StateId":"20132880","CountyId":"20133285","CityId":"20133346","DistrictId":"20427566","AddressId":"160830230","RoadLinkId":"28048003"}}},{"Relevance":1.0,"Distance":32.6,"MatchLevel":"houseNumber","MatchQuality":{"Country":1.0,"State":1.0,"County":1.0,"City":1.0,"District":1.0,"Street":[1.0],"HouseNumber":1.0,"PostalCode":1.0},"MatchType":"interpolated","Location":{"LocationId":"NT_DBncUqROsBgRVRNFiGawzC_yA","LocationType":"point","DisplayPosition":{"Latitude":48.34415,"Longitude":13.77134},"MapView":{"TopLeft":{"Latitude":48.3452742,"Longitude":13.7696487},"BottomRight":{"Latitude":48.3430258,"Longitude":13.7730313}},"Address":{"Label":"Rathausplatz 2, 4722 Peuerbach, Österreich","Country":"AUT","State":"Oberösterreich","County":"Grieskirchen","City":"Peuerbach","District":"Peuerbach","Street":"Rathausplatz","HouseNumber":"2","PostalCode":"4722","AdditionalData":[{"value":"Österreich","key":"CountryName"},{"value":"Oberösterreich","key":"StateName"},{"value":"Grieskirchen","key":"CountyName"}]},"MapReference":{"ReferenceId":"561515214","Spot":0.72,"SideOfStreet":"left","CountryId":"20128885","StateId":"20132880","CountyId":"20133285","CityId":"20133346","DistrictId":"20427566","AddressId":"161618894","RoadLinkId":"28660939"}}},{"Relevance":1.0,"Distance":33.4,"MatchLevel":"houseNumber","MatchQuality":{"Country":1.0,"State":1.0,"County":1.0,"City":1.0,"District":1.0,"Street":[1.0],"HouseNumber":1.0,"PostalCode":1.0},"MatchType":"interpolated","Location":{"LocationId":"NT_K1yVT5iWVD6c44SlJ1WO2A_yA","LocationType":"point","DisplayPosition":{"Latitude":48.34469,"Longitude":13.7717},"MapView":{"TopLeft":{"Latitude":48.3458142,"Longitude":13.7700087},"BottomRight":{"Latitude":48.3435658,"Longitude":13.7733913}},"Address":{"Label":"Fleischergasse 2, 4722 Peuerbach, Österreich","Country":"AUT","State":"Oberösterreich","County":"Grieskirchen","City":"Peuerbach","District":"Peuerbach","Street":"Fleischergasse","HouseNumber":"2","PostalCode":"4722","AdditionalData":[{"value":"Österreich","key":"CountryName"},{"value":"Oberösterreich","key":"StateName"},{"value":"Grieskirchen","key":"CountyName"}]},"MapReference":{"ReferenceId":"1119277872","Spot":0.67,"SideOfStreet":"right","CountryId":"20128885","StateId":"20132880","CountyId":"20133285","CityId":"20133346","DistrictId":"20427566","AddressId":"160831122","RoadLinkId":"429421014"}}},{"Relevance":1.0,"Distance":38.1,"MatchLevel":"houseNumber","MatchQuality":{"Country":1.0,"State":1.0,"County":1.0,"City":1.0,"District":1.0,"Street":[1.0],"HouseNumber":1.0,"PostalCode":1.0},"MatchType":"interpolated","Location":{"LocationId":"NT_xUJWj55i9lblRM4lLCzycD_xcD","LocationType":"point","DisplayPosition":{"Latitude":48.3441,"Longitude":13.77179},"MapView":{"TopLeft":{"Latitude":48.3452242,"Longitude":13.7700987},"BottomRight":{"Latitude":48.3429758,"Longitude":13.7734813}},"Address":{"Label":"Hauptstraße 17, 4722 Peuerbach, Österreich","Country":"AUT","State":"Oberösterreich","County":"Grieskirchen","City":"Peuerbach","District":"Peuerbach","Street":"Hauptstraße","HouseNumber":"17","PostalCode":"4722","AdditionalData":[{"value":"Österreich","key":"CountryName"},{"value":"Oberösterreich","key":"StateName"},{"value":"Grieskirchen","key":"CountyName"}]},"MapReference":{"ReferenceId":"561537910","Spot":0.21,"SideOfStreet":"left","CountryId":"20128885","StateId":"20132880","CountyId":"20133285","CityId":"20133346","DistrictId":"20427566","AddressId":"160830527","RoadLinkId":"28227199"}}},{"Relevance":1.0,"Distance":40.7,"MatchLevel":"street","MatchQuality":{"Country":1.0,"State":1.0,"County":1.0,"City":1.0,"District":1.0,"Street":[1.0],"PostalCode":1.0},"Location":{"LocationId":"NT_F15kZ92zcqA0t.EnXWtIUC_l_561515201_L","LocationType":"point","DisplayPosition":{"Latitude":48.34408,"Longitude":13.77181},"MapView":{"TopLeft":{"Latitude":48.34423,"Longitude":13.77181},"BottomRight":{"Latitude":48.34408,"Longitude":13.77207}},"Address":{"Label":"Kirchenplatz, 4722 Peuerbach, Österreich","Country":"AUT","State":"Oberösterreich","County":"Grieskirchen","City":"Peuerbach","District":"Peuerbach","Street":"Kirchenplatz","PostalCode":"4722","AdditionalData":[{"value":"Österreich","key":"CountryName"},{"value":"Oberösterreich","key":"StateName"},{"value":"Grieskirchen","key":"CountyName"}]},"MapReference":{"ReferenceId":"561515201","Spot":0.0,"SideOfStreet":"left","CountryId":"20128885","StateId":"20132880","CountyId":"20133285","CityId":"20133346","DistrictId":"20427566"}}},{"Relevance":1.0,"Distance":42.0,"MatchLevel":"houseNumber","MatchQuality":{"Country":1.0,"State":1.0,"County":1.0,"City":1.0,"District":1.0,"Street":[1.0],"HouseNumber":1.0,"PostalCode":1.0},"MatchType":"interpolated","Location":{"LocationId":"NT_xUJWj55i9lblRM4lLCzycD_yAD","LocationType":"point","DisplayPosition":{"Latitude":48.34477,"Longitude":13.77141},"MapView":{"TopLeft":{"Latitude":48.3458942,"Longitude":13.7697186},"BottomRight":{"Latitude":48.3436458,"Longitude":13.7731014}},"Address":{"Label":"Hauptstraße 20, 4722 Peuerbach, Österreich","Country":"AUT","State":"Oberösterreich","County":"Grieskirchen","City":"Peuerbach","District":"Peuerbach","Street":"Hauptstraße","HouseNumber":"20","PostalCode":"4722","AdditionalData":[{"value":"Österreich","key":"CountryName"},{"value":"Oberösterreich","key":"StateName"},{"value":"Grieskirchen","key":"CountyName"}]},"MapReference":{"ReferenceId":"1119277873","Spot":0.14,"SideOfStreet":"right","CountryId":"20128885","StateId":"20132880","CountyId":"20133285","CityId":"20133346","DistrictId":"20427566","AddressId":"160830523","RoadLinkId":"429421013"}}},{"Relevance":1.0,"Distance":51.7,"MatchLevel":"houseNumber","MatchQuality":{"Country":1.0,"State":1.0,"County":1.0,"City":1.0,"District":1.0,"Street":[1.0],"HouseNumber":1.0,"PostalCode":1.0},"MatchType":"interpolated","Location":{"LocationId":"NT_xUJWj55i9lblRM4lLCzycD_xUD","LocationType":"point","DisplayPosition":{"Latitude":48.344,"Longitude":13.7719},"MapView":{"TopLeft":{"Latitude":48.3451242,"Longitude":13.7702087},"BottomRight":{"Latitude":48.3428758,"Longitude":13.7735913}},"Address":{"Label":"Hauptstraße 15, 4722 Peuerbach, Österreich","Country":"AUT","State":"Oberösterreich","County":"Grieskirchen","City":"Peuerbach","District":"Peuerbach","Street":"Hauptstraße","HouseNumber":"15","PostalCode":"4722","AdditionalData":[{"value":"Österreich","key":"CountryName"},{"value":"Oberösterreich","key":"StateName"},{"value":"Grieskirchen","key":"CountyName"}]},"MapReference":{"ReferenceId":"813592855","Spot":0.67,"SideOfStreet":"left","CountryId":"20128885","StateId":"20132880","CountyId":"20133285","CityId":"20133346","DistrictId":"20427566","AddressId":"411909488","RoadLinkId":"200870001"}}}]}]}}