{"Response":{"MetaInfo":{"Timestamp":"2020-03-28T10:01:15.006+0000","NextPageInformation":"2"},"View":[{"_type":"SearchResultsViewType","ViewId":0,"Result":[{"Relevance":1.0,"Distance":0.0,"Direction":0.0,"MatchLevel":"district","MatchQuality":{"Country":1.0,"State":1.0,"County":1.0,"City":1.0,"District":1.0,"PostalCode":1.0},"Location":{"LocationId":"NT_0dOfcEdQG2WCePGDcVgN6C","LocationType":"point","DisplayPosition":{"Latitude":48.3802122,"Longitude":17.5941648},"MapView":{"TopLeft":{"Latitude":48.42029,"Longitude":17.54762},"BottomRight":{"Latitude":48.34907,"Longitude":17.62152}},"Address":{"Label":"Trnava, Trnavský kraj, Slovenská Republika","Country":"SVK","State":"Trnavský kraj","County":"Trnava","City":"Trnava","District":"Trnava","PostalCode":"917 01","AdditionalData":[{"value":"Slovenská Republika","key":"CountryName"},{"value":"Trnavský kraj","key":"StateName"},{"value":"Trnava","key":"CountyName"}]},"MapReference":{"ReferenceId":"576018627","SideOfStreet":"neither","CountryId":"20428682","StateId":"20492134","CountyId":"20492549","CityId":"20492626","DistrictId":"20497535"}}},{"Relevance":1.0,"Distance":7.7,"MatchLevel":"houseNumber","MatchQuality":{"Country":1.0,"State":1.0,"County":1.0,"City":1.0,"District":1.0,"Street":[1.0],"HouseNumber":1.0,"PostalCode":1.0},"MatchType":"interpolated","Location":{"LocationId":"NT_wQN8Tv7Um14lvqpcR50xKA_1cTM08SM3A","LocationType":"point","DisplayPosition":{"Latitude":48.38026,"Longitude":17.59409},"MapView":{"TopLeft":{"Latitude":48.3813842,"Longitude":17.5923975},"BottomRight":{"Latitude":48.3791358,"Longitude":17.5957825}},"Address":{"Label":"Tehelná 5714/17, 917 01 Trnava, Slovenská Republika","Country":"SVK","State":"Trnavský kraj","County":"Trnava","City":"Trnava","District":"Trnava","Street":"Tehelná","HouseNumber":"5714/17","PostalCode":"917 01","AdditionalData":[{"value":"Slovenská Republika","key":"CountryName"},{"value":"Trnavský kraj","key":"StateName"},{"value":"Trnava","key":"CountyName"}]},"MapReference":{"ReferenceId":"1185860203","Spot":0.57,"SideOfStreet":"left","CountryId":"20428682","StateId":"20492134","CountyId":"20492549","CityId":"20492626","DistrictId":"20497535","AddressId":"589748878","RoadLinkId":"494260278"}}},{"Relevance":1.0,"Distance":15.3,"MatchLevel":"street","MatchQuality":{"Country":1.0,"State":1.0,"County":1.0,"City":1.0,"District":1.0,"PostalCode":1.0},"Location":{"LocationId":"NT_CsDomFIZkjD7qvcru3Pq8D_l_737247839_L","LocationType":"point","DisplayPosition":{"Latitude":48.38015,"Longitude":17.59435},"MapView":{"TopLeft":{"Latitude":48.38026,"Longitude":17.59435},"BottomRight":{"Latitude":48.38007,"Longitude":17.59494}},"Address":{"Label":"917 01 Trnava, Slovenská Republika","Country":"SVK","State":"Trnavský kraj","County":"Trnava","City":"Trnava","District":"Trnava","PostalCode":"917 01","AdditionalData":[{"value":"Slovenská Republika","key":"CountryName"},{"value":"Trnavský kraj","key":"StateName"},{"value":"Trnava","key":"CountyName"}]},"MapReference":{"ReferenceId":"737247839","Spot":0.12,"SideOfStreet":"left","CountryId":"20428682","StateId":"20492134","CountyId":"20492549","CityId":"20492626","DistrictId":"20497535"}}},{"Relevance":1.0,"Distance":48.0,"MatchLevel":"houseNumber","MatchQuality":{"Country":1.0,"State":1.0,"County":1.0,"City":1.0,"District":1.0,"Street":[1.0],"HouseNumber":1.0,"PostalCode":1.0},"MatchType":"interpolated","Location":{"LocationId":"NT_wQN8Tv7Um14lvqpcR50xKA_1cjNz8SM5A","LocationType":"point","DisplayPosition":{"Latitude":48.3806,"Longitude":17.5948},"MapView":{"TopLeft":{"Latitude":48.3817242,"Longitude":17.5931075},"BottomRight":{"Latitude":48.3794758,"Longitude":17.5964925}},"Address":{"Label":"Tehelná 5763/19, 917 01 Trnava, Slovenská Republika","Country":"SVK","State":"Trnavský kraj","County":"Trnava","City":"Trnava","District":"Trnava","Street":"Tehelná","HouseNumber":"5763/19","PostalCode":"917 01","AdditionalData":[{"value":"Slovenská Republika","key":"CountryName"},{"value":"Trnavský kraj","key":"StateName"},{"value":"Trnava","key":"CountyName"}]},"MapReference":{"ReferenceId":"708883194","Spot":0.19,"SideOfStreet":"left","CountryId":"20428682","StateId":"20492134","CountyId":"20492549","CityId":"20492626","DistrictId":"20497535","AddressId":"299832808","RoadLinkId":"114165240"}}},{"Relevance":1.0,"Distance":56.7,"MatchLevel":"street","MatchQuality":{"Country":1.0,"State":1.0,"County":1.0,"City":1.0,"District":1.0,"Street":[1.0],"PostalCode":1.0},"Location":{"LocationId":"NT_wQN8Tv7Um14lvqpcR50xKA_l_737247838_L","LocationType":"point","DisplayPosition":{"Latitude":48.38038,"Longitude":17.59489},"MapView":{"TopLeft":{"Latitude":48.38038,"Longitude":17.59489},"BottomRight":{"Latitude":48.38026,"Longitude":17.59494}},"Address":{"Label":"Tehelná, 917 01 Trnava, Slovenská Republika","Country":"SVK","State":"Trnavský kraj","County":"Trnava","City":"Trnava","District":"Trnava","Street":"Tehelná","PostalCode":"917 01","AdditionalData":[{"value":"Slovenská Republika","key":"CountryName"},{"value":"Trnavský kraj","key":"StateName"},{"value":"Trnava","key":"CountyName"}]},"MapReference":{"ReferenceId":"737247838","Spot":1.0,"SideOfStreet":"left","CountryId":"20428682","StateId":"20492134","CountyId":"20492549","CityId":"20492626","DistrictId":"20497535"}}},{"Relevance":1.0,"Distance":56.7,"MatchLevel":"street","MatchQuality":{"Country":1.0,"State":1.0,"County":1.0,"City":1.0,"District":1.0,"PostalCode":1.0},"Location":{"LocationId":"NT_CsDomFIZkjD7qvcru3Pq8D_l_1167329981_L","LocationType":"point","DisplayPosition":{"Latitude":48.38038,"Longitude":17.59489},"MapView":{"TopLeft":{"Latitude":48.38038,"Longitude":17.59489},"BottomRight":{"Latitude":48.37955,"Longitude":17.59531}},"Address":{"Label":"917 01 Trnava, Slovenská Republika","Country":"SVK","State":"Trnavský kraj","County":"Trnava","City":"Trnava","District":"Trnava","PostalCode":"917 01","AdditionalData":[{"value":"Slovenská Republika","key":"CountryName"},{"value":"Trnavský kraj","key":"StateName"},{"value":"Trnava","key":"CountyName"}]},"MapReference":{"ReferenceId":"1167329981","Spot":1.0,"SideOfStreet":"left","CountryId":"20428682","StateId":"20492134","CountyId":"20492549","CityId":"20492626","DistrictId":"20497535"}}},{"Relevance":1.0,"Distance":56.7,"MatchLevel":"street","MatchQuality":{"Country":1.0,"State":1.0,"County":1.0,"City":1.0,"District":1.0,"PostalCode":1.0},"Location":{"LocationId":"NT_CsDomFIZkjD7qvcru3Pq8D_l_1167330345_R","LocationType":"point","DisplayPosition":{"Latitude":48.38038,"Longitude":17.59489},"MapView":{"TopLeft":{"Latitude":48.3806,"Longitude":17.59489},"BottomRight":{"Latitude":48.38037,"Longitude":17.5964}},"Address":{"Label":"917 01 Trnava, Slovenská Republika","Country":"SVK","State":"Trnavský kraj","County":"Trnava","City":"Trnava","District":"Trnava","PostalCode":"917 01","AdditionalData":[{"value":"Slovenská Republika","key":"CountryName"},{"value":"Trnavský kraj","key":"StateName"},{"value":"Trnava","key":"CountyName"}]},"MapReference":{"ReferenceId":"1167330345","Spot":1.0,"SideOfStreet":"right","CountryId":"20428682","StateId":"20492134","CountyId":"20492549","CityId":"20492626","DistrictId":"20497535"}}},{"Relevance":1.0,"Distance":57.1,"MatchLevel":"houseNumber","MatchQuality":{"Country":1.0,"State":1.0,"County":1.0,"City":1.0,"District":1.0,"Street":[1.0],"HouseNumber":1.0,"PostalCode":1.0},"MatchType":"interpolated","Location":{"LocationId":"NT_Fi7deraMlFxSY-RwzOsqlA_1kjN28CO","LocationType":"point","DisplayPosition":{"Latitude":48.3802,"Longitude":17.59267},"MapView":{"TopLeft":{"Latitude":48.3813242,"Longitude":17.5909775},"BottomRight":{"Latitude":48.3790758,"Longitude":17.5943625}},"Address":{"Label":"Hlboká 5966/8, 917 01 Trnava, Slovenská Republika","Country":"SVK","State":"Trnavský kraj","County":"Trnava","City":"Trnava","District":"Trnava","Street":"Hlboká","HouseNumber":"5966/8","PostalCode":"917 01","AdditionalData":[{"value":"Slovenská Republika","key":"CountryName"},{"value":"Trnavský kraj","key":"StateName"},{"value":"Trnava","key":"CountyName"}]},"MapReference":{"ReferenceId":"1183108199","Spot":0.35,"SideOfStreet":"right","CountryId":"20428682","StateId":"20492134","CountyId":"20492549","CityId":"20492626","DistrictId":"20497535","AddressId":"676441595","RoadLinkId":"491434939"}}},{"Relevance":1.0,"Distance":57.5,"MatchLevel":"street","MatchQuality":{"Country":1.0,"State":1.0,"County":1.0,"City":1.0,"District":1.0,"Street":[1.0],"PostalCode":1.0},"Location":{"LocationId":"NT_wQN8Tv7Um14lvqpcR50xKA_l_1230054857_L","LocationType":"point","DisplayPosition":{"Latitude":48.38026,"Longitude":17.59494},"MapView":{"TopLeft":{"Latitude":48.38026,"Longitude":17.59494},"BottomRight":{"Latitude":48.37945,"Longitude":17.59528}},"Address":{"Label":"Tehelná, 917 01 Trnava, Slovenská Republika","Country":"SVK","State":"Trnavský kraj","County":"Trnava","City":"Trnava","District":"Trnava","Street":"Tehelná","PostalCode":"917 01","AdditionalData":[{"value":"Slovenská Republika","key":"CountryName"},{"value":"Trnavský kraj","key":"StateName"},{"value":"Trnava","key":"CountyName"}]},"MapReference":{"ReferenceId":"1230054857","Spot":1.0,"SideOfStreet":"left","CountryId":"20428682","StateId":"20492134","CountyId":"20492549","CityId":"20492626","DistrictId":"20497535"}}},{"Relevance":1.0,"Distance":90.4,"MatchLevel":"street","MatchQuality":{"Country":1.0,"State":1.0,"County":1.0,"City":1.0,"District":1.0,"PostalCode":1.0},"Location":{"LocationId":"NT_CsDomFIZkjD7qvcru3Pq8D_l_1167329979_L","LocationType":"point","DisplayPosition":{"Latitude":48.37943,"Longitude":17.5945},"MapView":{"TopLeft":{"Latitude":48.37955,"Longitude":17.5945},"BottomRight":{"Latitude":48.37943,"Longitude":17.59531}},"Address":{"Label":"917 01 Trnava, Slovenská Republika","Country":"SVK","State":"Trnavský kraj","County":"Trnava","City":"Trnava","District":"Trnava","PostalCode":"917 01","AdditionalData":[{"value":"Slovenská Republika","key":"CountryName"},{"value":"Trnavský kraj","key":"StateName"},{"value":"Trnava","key":"CountyName"}]},"MapReference":{"ReferenceId":"1167329979","Spot":0.0,"SideOfStreet":"left","CountryId":"20428682","StateId":"20492134","CountyId":"20492549","CityId":"20492626","DistrictId":"20497535"}}}]}]}}