{"Response":{"MetaInfo":{"Timestamp":"2020-03-28T10:51:05.082+0000","NextPageInformation":"2"},"View":[{"_type":"SearchResultsViewType","ViewId":0,"Result":[{"Relevance":1.0,"Distance":0.0,"Direction":0.0,"MatchLevel":"district","MatchQuality":{"Country":1.0,"State":1.0,"County":1.0,"City":1.0,"District":1.0,"PostalCode":1.0},"Location":{"LocationId":"NT_DJYET3RwC.2yR5tPOHQunA","LocationType":"point","DisplayPosition":{"Latitude":48.3021918,"Longitude":14.3043075},"MapView":{"TopLeft":{"Latitude":48.32681,"Longitude":14.29364},"BottomRight":{"Latitude":48.28008,"Longitude":14.34288}},"Address":{"Label":"Lustenau, Linz, Oberösterreich, Österreich","Country":"AUT","State":"Oberösterreich","County":"Linz","City":"Linz","District":"Lustenau","PostalCode":"4020","AdditionalData":[{"value":"Österreich","key":"CountryName"},{"value":"Oberösterreich","key":"StateName"},{"value":"Linz","key":"CountyName"}]},"MapReference":{"ReferenceId":"62803686","SideOfStreet":"neither","CountryId":"20128885","StateId":"20132880","CountyId":"20132881","CityId":"20132882"}}},{"Relevance":1.0,"Distance":7.5,"MatchLevel":"street","MatchQuality":{"Country":1.0,"State":1.0,"County":1.0,"City":1.0,"District":1.0,"Street":[1.0],"PostalCode":1.0},"Location":{"LocationId":"NT_0K8c9Kphyxqdk562zXuzCA_l_1228570151_L","LocationType":"point","DisplayPosition":{"Latitude":48.302259,"Longitude":14.3043071},"MapView":{"TopLeft":{"Latitude":48.30232,"Longitude":14.30104},"BottomRight":{"Latitude":48.30224,"Longitude":14.30447}},"Address":{"Label":"Krankenhausstraße, 4020 Linz, Österreich","Country":"AUT","State":"Oberösterreich","County":"Linz","City":"Linz","District":"Linz-City","Street":"Krankenhausstraße","PostalCode":"4020","AdditionalData":[{"value":"Österreich","key":"CountryName"},{"value":"Oberösterreich","key":"StateName"},{"value":"Linz","key":"CountyName"}]},"MapReference":{"ReferenceId":"1228570151","Spot":0.05,"SideOfStreet":"left","CountryId":"20128885","StateId":"20132880","CountyId":"20132881","CityId":"20132882"}}},{"Relevance":1.0,"Distance":14.2,"MatchLevel":"street","MatchQuality":{"Country":1.0,"State":1.0,"County":1.0,"City":1.0,"District":1.0,"Street":[1.0],"PostalCode":1.0},"Location":{"LocationId":"NT_2WsVppwuDZGlEv7fqh8icA_l_1219396992_L","LocationType":"point","DisplayPosition":{"Latitude":48.30226,"Longitude":14.30447},"MapView":{"TopLeft":{"Latitude":48.30234,"Longitude":14.30446},"BottomRight":{"Latitude":48.30226,"Longitude":14.30447}},"Address":{"Label":"Krankenhausstraße, 4020 Linz, Österreich","Country":"AUT","State":"Oberösterreich","County":"Linz","City":"Linz","District":"Lustenau","Street":"Krankenhausstraße","PostalCode":"4020","AdditionalData":[{"value":"Österreich","key":"CountryName"},{"value":"Oberösterreich","key":"StateName"},{"value":"Linz","key":"CountyName"}]},"MapReference":{"ReferenceId":"1219396992","Spot":0.0,"SideOfStreet":"left","CountryId":"20128885","StateId":"20132880","CountyId":"20132881","CityId":"20132882"}}},{"Relevance":1.0,"Distance":14.2,"MatchLevel":"street","MatchQuality":{"Country":1.0,"State":1.0,"County":1.0,"City":1.0,"District":1.0,"Street":[1.0],"PostalCode":1.0},"Location":{"LocationId":"NT_2WsVppwuDZGlEv7fqh8icA_l_1219396991_L","LocationType":"point","DisplayPosition":{"Latitude":48.30226,"Longitude":14.30447},"MapView":{"TopLeft":{"Latitude":48.30226,"Longitude":14.30447},"BottomRight":{"Latitude":48.30224,"Longitude":14.30494}},"Address":{"Label":"Krankenhausstraße, 4020 Linz, Österreich","Country":"AUT","State":"Oberösterreich","County":"Linz","City":"Linz","District":"Lustenau","Street":"Krankenhausstraße","PostalCode":"4020","AdditionalData":[{"value":"Österreich","key":"CountryName"},{"value":"Oberösterreich","key":"StateName"},{"value":"Linz","key":"CountyName"}]},"MapReference":{"ReferenceId":"1219396991","Spot":1.0,"SideOfStreet":"left","CountryId":"20128885","StateId":"20132880","CountyId":"20132881","CityId":"20132882"}}},{"Relevance":1.0,"Distance":16.5,"MatchLevel":"landmark","MatchQuality":{"Country":1.0,"State":1.0,"County":1.0,"City":1.0,"District":1.0,"Street":[1.0],"HouseNumber":1.0,"PostalCode":1.0,"Name":1.0},"Location":{"LocationId":"NT_RzKzGsvTTNxjhrb8UCWgYA_p_uLwn7uTNEQRz40ZVcCQxpA","LocationType":"hospital","Name":"Kepler Universitätsk-Med Campus III","DisplayPosition":{"Latitude":48.30312,"Longitude":14.30553},"MapView":{"TopLeft":{"Latitude":48.3042442,"Longitude":14.30384},"BottomRight":{"Latitude":48.3019958,"Longitude":14.30722}},"Address":{"Label":"Krankenhausstraße 9, 4020 Linz, Österreich","Country":"AUT","State":"Oberösterreich","County":"Linz","City":"Linz","District":"Linz-City","Street":"Krankenhausstraße","HouseNumber":"9","PostalCode":"4020","AdditionalData":[{"value":"Österreich","key":"CountryName"},{"value":"Oberösterreich","key":"StateName"},{"value":"Linz","key":"CountyName"}]},"MapReference":{"CountryId":"20128885","StateId":"20132880","CountyId":"20132881","CityId":"20132882","PlaceId":"51061494"}}},{"Relevance":1.0,"Distance":20.0,"MatchLevel":"street","MatchQuality":{"Country":1.0,"State":1.0,"County":1.0,"City":1.0,"District":1.0,"Street":[1.0],"PostalCode":1.0},"Location":{"LocationId":"NT_0K8c9Kphyxqdk562zXuzCA_l_1193308726_L","LocationType":"point","DisplayPosition":{"Latitude":48.30234,"Longitude":14.30446},"MapView":{"TopLeft":{"Latitude":48.30307,"Longitude":14.30441},"BottomRight":{"Latitude":48.30234,"Longitude":14.30448}},"Address":{"Label":"Krankenhausstraße, 4020 Linz, Österreich","Country":"AUT","State":"Oberösterreich","County":"Linz","City":"Linz","District":"Linz-City","Street":"Krankenhausstraße","PostalCode":"4020","AdditionalData":[{"value":"Österreich","key":"CountryName"},{"value":"Oberösterreich","key":"StateName"},{"value":"Linz","key":"CountyName"}]},"MapReference":{"ReferenceId":"1193308726","Spot":0.0,"SideOfStreet":"left","CountryId":"20128885","StateId":"20132880","CountyId":"20132881","CityId":"20132882"}}},{"Relevance":1.0,"Distance":20.0,"MatchLevel":"street","MatchQuality":{"Country":1.0,"State":1.0,"County":1.0,"City":1.0,"District":1.0,"Street":[1.0],"PostalCode":1.0},"Location":{"LocationId":"NT_0K8c9Kphyxqdk562zXuzCA_l_1193308727_R","LocationType":"point","DisplayPosition":{"Latitude":48.30234,"Longitude":14.30446},"MapView":{"TopLeft":{"Latitude":48.30234,"Longitude":14.30446},"BottomRight":{"Latitude":48.30234,"Longitude":14.3053}},"Address":{"Label":"Krankenhausstraße, 4020 Linz, Österreich","Country":"AUT","State":"Oberösterreich","County":"Linz","City":"Linz","District":"Linz-City","Street":"Krankenhausstraße","PostalCode":"4020","AdditionalData":[{"value":"Österreich","key":"CountryName"},{"value":"Oberösterreich","key":"StateName"},{"value":"Linz","key":"CountyName"}]},"MapReference":{"ReferenceId":"1193308727","Spot":0.0,"SideOfStreet":"right","CountryId":"20128885","StateId":"20132880","CountyId":"20132881","CityId":"20132882"}}},{"Relevance":1.0,"Distance":47.1,"MatchLevel":"houseNumber","MatchQuality":{"Country":1.0,"State":1.0,"County":1.0,"City":1.0,"District":1.0,"Street":[1.0],"HouseNumber":1.0,"PostalCode":1.0},"MatchType":"interpolated","Location":{"LocationId":"NT_0K8c9Kphyxqdk562zXuzCA_l_1228570147_R_ygD","LocationType":"point","DisplayPosition":{"Latitude":48.30224,"Longitude":14.30494},"MapView":{"TopLeft":{"Latitude":48.3033642,"Longitude":14.3032501},"BottomRight":{"Latitude":48.3011158,"Longitude":14.30663}},"Address":{"Label":"Krankenhausstraße 28, 4020 Linz, Österreich","Country":"AUT","State":"Oberösterreich","County":"Linz","City":"Linz","District":"Linz-City","Street":"Krankenhausstraße","HouseNumber":"28","PostalCode":"4020","AdditionalData":[{"value":"Österreich","key":"CountryName"},{"value":"Oberösterreich","key":"StateName"},{"value":"Linz","key":"CountyName"}]},"MapReference":{"ReferenceId":"1228570147","Spot":0.0,"SideOfStreet":"right","CountryId":"20128885","StateId":"20132880","CountyId":"20132881","CityId":"20132882"}}},{"Relevance":1.0,"Distance":60.2,"MatchLevel":"houseNumber","MatchQuality":{"Country":1.0,"State":1.0,"County":1.0,"City":1.0,"District":1.0,"Street":[1.0],"HouseNumber":1.0,"PostalCode":1.0},"MatchType":"interpolated","Location":{"LocationId":"NT_2WsVppwuDZGlEv7fqh8icA_yYTLzAD","LocationType":"point","DisplayPosition":{"Latitude":48.30186,"Longitude":14.30495},"MapView":{"TopLeft":{"Latitude":48.3029842,"Longitude":14.3032601},"BottomRight":{"Latitude":48.3007358,"Longitude":14.3066399}},"Address":{"Label":"Krankenhausstraße 26-30, 4020 Linz, Österreich","Country":"AUT","State":"Oberösterreich","County":"Linz","City":"Linz","District":"Lustenau","Street":"Krankenhausstraße","HouseNumber":"26-30","PostalCode":"4020","AdditionalData":[{"value":"Österreich","key":"CountryName"},{"value":"Oberösterreich","key":"StateName"},{"value":"Linz","key":"CountyName"}]},"MapReference":{"ReferenceId":"62881973","Spot":0.42,"SideOfStreet":"left","CountryId":"20128885","StateId":"20132880","CountyId":"20132881","CityId":"20132882","AddressId":"177029255","RoadLinkId":"28790211"}}},{"Relevance":1.0,"Distance":74.4,"MatchLevel":"street","MatchQuality":{"Country":1.0,"State":1.0,"County":1.0,"City":1.0,"District":1.0,"PostalCode":1.0},"Location":{"LocationId":"NT_87AGArIq16mwHT9OxJOQCD_l_1193308725_L","LocationType":"point","DisplayPosition":{"Latitude":48.3023,"Longitude":14.3053},"MapView":{"TopLeft":{"Latitude":48.30234,"Longitude":14.3053},"BottomRight":{"Latitude":48.30224,"Longitude":14.30537}},"Address":{"Label":"4020 Linz, Österreich","Country":"AUT","State":"Oberösterreich","County":"Linz","City":"Linz","District":"Linz-City","PostalCode":"4020","AdditionalData":[{"value":"Österreich","key":"CountryName"},{"value":"Oberösterreich","key":"StateName"},{"value":"Linz","key":"CountyName"}]},"MapReference":{"ReferenceId":"1193308725","Spot":0.7,"SideOfStreet":"left","CountryId":"20128885","StateId":"20132880","CountyId":"20132881","CityId":"20132882"}}}]}]}}