{"Response":{"MetaInfo":{"Timestamp":"2020-03-28T11:00:22.295+0000","NextPageInformation":"2"},"View":[{"_type":"SearchResultsViewType","ViewId":0,"Result":[{"Relevance":1.0,"Distance":0.0,"Direction":0.0,"MatchLevel":"district","MatchQuality":{"Country":1.0,"State":1.0,"County":1.0,"City":1.0,"District":1.0,"PostalCode":1.0},"Location":{"LocationId":"NT_leLLAmQ3nAz9p3RtVeIaEA","LocationType":"point","DisplayPosition":{"Latitude":48.30284,"Longitude":8.2222093},"MapView":{"TopLeft":{"Latitude":48.31148,"Longitude":8.20939},"BottomRight":{"Latitude":48.28773,"Longitude":8.24504}},"Address":{"Label":"Wolfach, Baden-Württemberg, Deutschland","Country":"DEU","State":"Baden-Württemberg","County":"Ortenaukreis","City":"Wolfach","District":"Wolfach","PostalCode":"77709","AdditionalData":[{"value":"Deutschland","key":"CountryName"},{"value":"Baden-Württemberg","key":"StateName"},{"value":"Ortenaukreis","key":"CountyName"}]},"MapReference":{"ReferenceId":"574401099","SideOfStreet":"neither","CountryId":"20147700","StateId":"20171489","CountyId":"20174699","CityId":"20174924","DistrictId":"20174926"}}},{"Relevance":1.0,"Distance":14.8,"MatchLevel":"houseNumber","MatchQuality":{"Country":1.0,"State":1.0,"County":1.0,"City":1.0,"District":1.0,"Street":[1.0],"HouseNumber":1.0,"PostalCode":1.0},"MatchType":"interpolated","Location":{"LocationId":"NT_iFjMzWe.h0q3hU3tZooG7D_4A","LocationType":"point","DisplayPosition":{"Latitude":48.30292,"Longitude":8.22205},"MapView":{"TopLeft":{"Latitude":48.3040442,"Longitude":8.22036},"BottomRight":{"Latitude":48.3017958,"Longitude":8.22374}},"Address":{"Label":"Oberwolfacher Straße 8, 77709 Wolfach, Deutschland","Country":"DEU","State":"Baden-Württemberg","County":"Ortenaukreis","City":"Wolfach","District":"Wolfach","Street":"Oberwolfacher Straße","HouseNumber":"8","PostalCode":"77709","AdditionalData":[{"value":"Deutschland","key":"CountryName"},{"value":"Baden-Württemberg","key":"StateName"},{"value":"Ortenaukreis","key":"CountyName"}]},"MapReference":{"ReferenceId":"589245558","Spot":0.39,"SideOfStreet":"left","CountryId":"20147700","StateId":"20171489","CountyId":"20174699","CityId":"20174924","DistrictId":"20174926","AddressId":"177943194","RoadLinkId":"38726424"}}},{"Relevance":1.0,"Distance":32.2,"MatchLevel":"houseNumber","MatchQuality":{"Country":1.0,"State":1.0,"County":1.0,"City":1.0,"District":1.0,"Street":[1.0],"HouseNumber":1.0,"PostalCode":1.0},"MatchType":"interpolated","Location":{"LocationId":"NT_gzkoVblbofrw6fxmtxaaXC_4A","LocationType":"point","DisplayPosition":{"Latitude":48.3024,"Longitude":8.22196},"MapView":{"TopLeft":{"Latitude":48.3035242,"Longitude":8.2202701},"BottomRight":{"Latitude":48.3012758,"Longitude":8.2236499}},"Address":{"Label":"Im Kirchenfeld 8, 77709 Wolfach, Deutschland","Country":"DEU","State":"Baden-Württemberg","County":"Ortenaukreis","City":"Wolfach","District":"Wolfach","Street":"Im Kirchenfeld","HouseNumber":"8","PostalCode":"77709","AdditionalData":[{"value":"Deutschland","key":"CountryName"},{"value":"Baden-Württemberg","key":"StateName"},{"value":"Ortenaukreis","key":"CountyName"}]},"MapReference":{"ReferenceId":"769278609","Spot":1.0,"SideOfStreet":"right","CountryId":"20147700","StateId":"20171489","CountyId":"20174699","CityId":"20174924","DistrictId":"20174926","AddressId":"249627558","RoadLinkId":"162864698"}}},{"Relevance":1.0,"Distance":48.1,"MatchLevel":"houseNumber","MatchQuality":{"Country":1.0,"State":1.0,"County":1.0,"City":1.0,"District":1.0,"Street":[1.0],"HouseNumber":1.0,"PostalCode":1.0},"MatchType":"interpolated","Location":{"LocationId":"NT_iFjMzWe.h0q3hU3tZooG7D_xAD","LocationType":"point","DisplayPosition":{"Latitude":48.30317,"Longitude":8.22263},"MapView":{"TopLeft":{"Latitude":48.3042942,"Longitude":8.22094},"BottomRight":{"Latitude":48.3020458,"Longitude":8.22432}},"Address":{"Label":"Oberwolfacher Straße 10, 77709 Wolfach, Deutschland","Country":"DEU","State":"Baden-Württemberg","County":"Ortenaukreis","City":"Wolfach","District":"Wolfach","Street":"Oberwolfacher Straße","HouseNumber":"10","PostalCode":"77709","AdditionalData":[{"value":"Deutschland","key":"CountryName"},{"value":"Baden-Württemberg","key":"StateName"},{"value":"Ortenaukreis","key":"CountyName"}]},"MapReference":{"ReferenceId":"589245560","Spot":1.0,"SideOfStreet":"right","CountryId":"20147700","StateId":"20171489","CountyId":"20174699","CityId":"20174924","DistrictId":"20174926","AddressId":"208770901","RoadLinkId":"38833200"}}},{"Relevance":1.0,"Distance":48.8,"MatchLevel":"houseNumber","MatchQuality":{"Country":1.0,"State":1.0,"County":1.0,"City":1.0,"District":1.0,"Street":[1.0],"HouseNumber":1.0,"PostalCode":1.0},"MatchType":"interpolated","Location":{"LocationId":"NT_iFjMzWe.h0q3hU3tZooG7D_yEE","LocationType":"point","DisplayPosition":{"Latitude":48.30263,"Longitude":8.22084},"MapView":{"TopLeft":{"Latitude":48.3037542,"Longitude":8.21915},"BottomRight":{"Latitude":48.3015058,"Longitude":8.22253}},"Address":{"Label":"Oberwolfacher Straße 2A, 77709 Wolfach, Deutschland","Country":"DEU","State":"Baden-Württemberg","County":"Ortenaukreis","City":"Wolfach","District":"Wolfach","Street":"Oberwolfacher Straße","HouseNumber":"2A","PostalCode":"77709","AdditionalData":[{"value":"Deutschland","key":"CountryName"},{"value":"Baden-Württemberg","key":"StateName"},{"value":"Ortenaukreis","key":"CountyName"}]},"MapReference":{"ReferenceId":"574401099","Spot":0.25,"SideOfStreet":"right","CountryId":"20147700","StateId":"20171489","CountyId":"20174699","CityId":"20174924","DistrictId":"20174926","AddressId":"732528880","RoadLinkId":"38967112"}}},{"Relevance":1.0,"Distance":52.9,"MatchLevel":"houseNumber","MatchQuality":{"Country":1.0,"State":1.0,"County":1.0,"City":1.0,"District":1.0,"Street":[1.0],"HouseNumber":1.0,"PostalCode":1.0},"MatchType":"interpolated","Location":{"LocationId":"NT_iFjMzWe.h0q3hU3tZooG7D_0A","LocationType":"point","DisplayPosition":{"Latitude":48.30344,"Longitude":8.22169},"MapView":{"TopLeft":{"Latitude":48.3045642,"Longitude":8.22},"BottomRight":{"Latitude":48.3023158,"Longitude":8.22338}},"Address":{"Label":"Oberwolfacher Straße 4, 77709 Wolfach, Deutschland","Country":"DEU","State":"Baden-Württemberg","County":"Ortenaukreis","City":"Wolfach","District":"Wolfach","Street":"Oberwolfacher Straße","HouseNumber":"4","PostalCode":"77709","AdditionalData":[{"value":"Deutschland","key":"CountryName"},{"value":"Baden-Württemberg","key":"StateName"},{"value":"Ortenaukreis","key":"CountyName"}]},"MapReference":{"ReferenceId":"76845725","Spot":1.0,"SideOfStreet":"right","CountryId":"20147700","StateId":"20171489","CountyId":"20174699","CityId":"20174924","DistrictId":"20174926","AddressId":"178705193","RoadLinkId":"302773396"}}},{"Relevance":1.0,"Distance":65.0,"MatchLevel":"houseNumber","MatchQuality":{"Country":1.0,"State":1.0,"County":1.0,"City":1.0,"Street":[1.0],"HouseNumber":1.0,"PostalCode":1.0},"MatchType":"interpolated","Location":{"LocationId":"NT_ebEEyoDBRmqwcrVTJqrafD_xMD","LocationType":"point","DisplayPosition":{"Latitude":48.3026,"Longitude":8.22319},"MapView":{"TopLeft":{"Latitude":48.3037242,"Longitude":8.2215},"BottomRight":{"Latitude":48.3014758,"Longitude":8.22488}},"Address":{"Label":"Funkenbadstraße 13, 77709 Wolfach, Deutschland","Country":"DEU","State":"Baden-Württemberg","County":"Ortenaukreis","City":"Wolfach","Street":"Funkenbadstraße","HouseNumber":"13","PostalCode":"77709","AdditionalData":[{"value":"Deutschland","key":"CountryName"},{"value":"Baden-Württemberg","key":"StateName"},{"value":"Ortenaukreis","key":"CountyName"}]},"MapReference":{"ReferenceId":"1231440147","Spot":0.15,"SideOfStreet":"left","CountryId":"20147700","StateId":"20171489","CountyId":"20174699","CityId":"20174924","AddressId":"249652279","RoadLinkId":"551013584"}}},{"Relevance":1.0,"Distance":72.9,"MatchLevel":"houseNumber","MatchQuality":{"Country":1.0,"State":1.0,"County":1.0,"City":1.0,"District":1.0,"Street":[1.0],"HouseNumber":1.0,"PostalCode":1.0},"MatchType":"interpolated","Location":{"LocationId":"NT_iFjMzWe.h0q3hU3tZooG7D_xID","LocationType":"point","DisplayPosition":{"Latitude":48.30342,"Longitude":8.22267},"MapView":{"TopLeft":{"Latitude":48.3045442,"Longitude":8.22098},"BottomRight":{"Latitude":48.3022958,"Longitude":8.22436}},"Address":{"Label":"Oberwolfacher Straße 12, 77709 Wolfach, Deutschland","Country":"DEU","State":"Baden-Württemberg","County":"Ortenaukreis","City":"Wolfach","District":"Wolfach","Street":"Oberwolfacher Straße","HouseNumber":"12","PostalCode":"77709","AdditionalData":[{"value":"Deutschland","key":"CountryName"},{"value":"Baden-Württemberg","key":"StateName"},{"value":"Ortenaukreis","key":"CountyName"}]},"MapReference":{"ReferenceId":"589245559","Spot":1.0,"SideOfStreet":"left","CountryId":"20147700","StateId":"20171489","CountyId":"20174699","CityId":"20174924","DistrictId":"20174926","AddressId":"249631677","RoadLinkId":"38287281"}}},{"Relevance":1.0,"Distance":72.9,"MatchLevel":"street","MatchQuality":{"Country":1.0,"State":1.0,"County":1.0,"City":1.0,"District":1.0,"Street":[1.0],"PostalCode":1.0},"Location":{"LocationId":"NT_YiyHpRC6ItBc8tL3MSWuXA_l_1231440146_R","LocationType":"point","DisplayPosition":{"Latitude":48.30342,"Longitude":8.22267},"MapView":{"TopLeft":{"Latitude":48.30344,"Longitude":8.22267},"BottomRight":{"Latitude":48.30342,"Longitude":8.22282}},"Address":{"Label":"Funkenbadstraße, 77709 Wolfach, Deutschland","Country":"DEU","State":"Baden-Württemberg","County":"Ortenaukreis","City":"Wolfach","District":"Wolfach","Street":"Funkenbadstraße","PostalCode":"77709","AdditionalData":[{"value":"Deutschland","key":"CountryName"},{"value":"Baden-Württemberg","key":"StateName"},{"value":"Ortenaukreis","key":"CountyName"}]},"MapReference":{"ReferenceId":"1231440146","Spot":0.0,"SideOfStreet":"right","CountryId":"20147700","StateId":"20171489","CountyId":"20174699","CityId":"20174924","DistrictId":"20174926"}}},{"Relevance":1.0,"Distance":96.8,"MatchLevel":"houseNumber","MatchQuality":{"Country":1.0,"State":1.0,"County":1.0,"City":1.0,"District":1.0,"Street":[1.0],"HouseNumber":1.0,"PostalCode":1.0},"MatchType":"interpolated","Location":{"LocationId":"NT_uRGqpmkmnj0othaPnKau6C_0A","LocationType":"point","DisplayPosition":{"Latitude":48.30364,"Longitude":8.22165},"MapView":{"TopLeft":{"Latitude":48.3047642,"Longitude":8.21996},"BottomRight":{"Latitude":48.3025158,"Longitude":8.22334}},"Address":{"Label":"Schlößleweg 4, 77709 Wolfach, Deutschland","Country":"DEU","State":"Baden-Württemberg","County":"Ortenaukreis","City":"Wolfach","District":"Wolfach","Street":"Schlößleweg","HouseNumber":"4","PostalCode":"77709","AdditionalData":[{"value":"Deutschland","key":"CountryName"},{"value":"Baden-Württemberg","key":"StateName"},{"value":"Ortenaukreis","key":"CountyName"}]},"MapReference":{"ReferenceId":"76845727","Spot":0.15,"SideOfStreet":"right","CountryId":"20147700","StateId":"20171489","CountyId":"20174699","CityId":"20174924","DistrictId":"20174926","AddressId":"180085775","RoadLinkId":"38271490"}}}]}]}}