{"Response":{"MetaInfo":{"Timestamp":"2020-03-28T11:51:00.363+0000","NextPageInformation":"2"},"View":[{"_type":"SearchResultsViewType","ViewId":0,"Result":[{"Relevance":1.0,"Distance":0.0,"Direction":0.0,"MatchLevel":"city","MatchQuality":{"Country":1.0,"State":1.0,"County":1.0,"City":1.0,"PostalCode":1.0},"Location":{"LocationId":"NT_HBtJrzs8orgmYISWdc4QxA","LocationType":"point","DisplayPosition":{"Latitude":48.3070634,"Longitude":-1.6717291},"MapView":{"TopLeft":{"Latitude":48.32828,"Longitude":-1.70164},"BottomRight":{"Latitude":48.28218,"Longitude":-1.6343}},"Address":{"Label":"Montreuil-sur-Ille, Bretagne, France","Country":"FRA","State":"Bretagne","County":"Ille-et-Vilaine","City":"Montreuil-sur-Ille","PostalCode":"35440","AdditionalData":[{"value":"France","key":"CountryName"},{"value":"Bretagne","key":"StateName"},{"value":"Ille-et-Vilaine","key":"CountyName"}]},"MapReference":{"ReferenceId":"1051508240","SideOfStreet":"neither","CountryId":"20000001","StateId":"20060199","CountyId":"20065458","CityId":"20066023"}}},{"Relevance":1.0,"Distance":5.3,"MatchLevel":"houseNumber","MatchQuality":{"Country":1.0,"State":1.0,"County":1.0,"City":1.0,"Street":[1.0],"HouseNumber":1.0,"PostalCode":1.0},"MatchType":"interpolated","Location":{"LocationId":"NT_BI8MYEaxcSTNI2FrTUMB0B_zYD","LocationType":"point","DisplayPosition":{"Latitude":48.30699,"Longitude":-1.67176},"MapView":{"TopLeft":{"Latitude":48.3081142,"Longitude":-1.6734501},"BottomRight":{"Latitude":48.3058658,"Longitude":-1.6700699}},"Address":{"Label":"36 Avenue Alexis Rey, 35440 Montreuil-sur-Ille, France","Country":"FRA","State":"Bretagne","County":"Ille-et-Vilaine","City":"Montreuil-sur-Ille","Street":"Avenue Alexis Rey","HouseNumber":"36","PostalCode":"35440","AdditionalData":[{"value":"France","key":"CountryName"},{"value":"Bretagne","key":"StateName"},{"value":"Ille-et-Vilaine","key":"CountyName"}]},"MapReference":{"ReferenceId":"1051508240","Spot":0.04,"SideOfStreet":"left","CountryId":"20000001","StateId":"20060199","CountyId":"20065458","CityId":"20066023","AddressId":"375388933","RoadLinkId":"371139498"}}},{"Relevance":1.0,"Distance":12.4,"MatchLevel":"street","MatchQuality":{"Country":1.0,"State":1.0,"County":1.0,"City":1.0,"Street":[1.0],"PostalCode":1.0},"Location":{"LocationId":"NT_BI8MYEaxcSTNI2FrTUMB0B_l_1051508239_L","LocationType":"point","DisplayPosition":{"Latitude":48.30697,"Longitude":-1.67182},"MapView":{"TopLeft":{"Latitude":48.30697,"Longitude":-1.67192},"BottomRight":{"Latitude":48.30694,"Longitude":-1.67182}},"Address":{"Label":"Avenue Alexis Rey, 35440 Montreuil-sur-Ille, France","Country":"FRA","State":"Bretagne","County":"Ille-et-Vilaine","City":"Montreuil-sur-Ille","Street":"Avenue Alexis Rey","PostalCode":"35440","AdditionalData":[{"value":"France","key":"CountryName"},{"value":"Bretagne","key":"StateName"},{"value":"Ille-et-Vilaine","key":"CountyName"}]},"MapReference":{"ReferenceId":"1051508239","Spot":1.0,"SideOfStreet":"left","CountryId":"20000001","StateId":"20060199","CountyId":"20065458","CityId":"20066023"}}},{"Relevance":1.0,"Distance":19.7,"MatchLevel":"street","MatchQuality":{"Country":1.0,"State":1.0,"County":1.0,"City":1.0,"Street":[1.0],"PostalCode":1.0},"Location":{"LocationId":"NT_Mqhq8Ii-lLPyUjJZNAx92C_l_556724153_R","LocationType":"point","DisplayPosition":{"Latitude":48.30694,"Longitude":-1.67192},"MapView":{"TopLeft":{"Latitude":48.30736,"Longitude":-1.67235},"BottomRight":{"Latitude":48.30694,"Longitude":-1.67192}},"Address":{"Label":"Place Rebillard, 35440 Montreuil-sur-Ille, France","Country":"FRA","State":"Bretagne","County":"Ille-et-Vilaine","City":"Montreuil-sur-Ille","Street":"Place Rebillard","PostalCode":"35440","AdditionalData":[{"value":"France","key":"CountryName"},{"value":"Bretagne","key":"StateName"},{"value":"Ille-et-Vilaine","key":"CountyName"}]},"MapReference":{"ReferenceId":"556724153","Spot":0.0,"SideOfStreet":"right","CountryId":"20000001","StateId":"20060199","CountyId":"20065458","CityId":"20066023"}}},{"Relevance":1.0,"Distance":24.7,"MatchLevel":"houseNumber","MatchQuality":{"Country":1.0,"State":1.0,"County":1.0,"City":1.0,"Street":[1.0],"HouseNumber":1.0,"PostalCode":1.0},"MatchType":"interpolated","Location":{"LocationId":"NT_kdLxZ0HJBsnwTQjtHt0TIC_l_556724152_L_zAD","LocationType":"point","DisplayPosition":{"Latitude":48.3069065,"Longitude":-1.6720138},"MapView":{"TopLeft":{"Latitude":48.3080307,"Longitude":-1.6737039},"BottomRight":{"Latitude":48.3057824,"Longitude":-1.6703237}},"Address":{"Label":"30 Avenue Alexis Rey, 35440 Montreuil-sur-Ille, France","Country":"FRA","State":"Bretagne","County":"Ille-et-Vilaine","City":"Montreuil-sur-Ille","Street":"Avenue Alexis Rey","HouseNumber":"30","PostalCode":"35440","AdditionalData":[{"value":"France","key":"CountryName"},{"value":"Bretagne","key":"StateName"},{"value":"Ille-et-Vilaine","key":"CountyName"}]},"MapReference":{"ReferenceId":"556724152","Spot":0.75,"SideOfStreet":"left","CountryId":"20000001","StateId":"20060199","CountyId":"20065458","CityId":"20066023"}}},{"Relevance":1.0,"Distance":50.8,"MatchLevel":"street","MatchQuality":{"Country":1.0,"State":1.0,"County":1.0,"City":1.0,"Street":[1.0],"PostalCode":1.0},"Location":{"LocationId":"NT_Mqhq8Ii-lLPyUjJZNAx92C_l_556724154_R","LocationType":"point","DisplayPosition":{"Latitude":48.3068,"Longitude":-1.67229},"MapView":{"TopLeft":{"Latitude":48.30736,"Longitude":-1.67258},"BottomRight":{"Latitude":48.3068,"Longitude":-1.67229}},"Address":{"Label":"Place Rebillard, 35440 Montreuil-sur-Ille, France","Country":"FRA","State":"Bretagne","County":"Ille-et-Vilaine","City":"Montreuil-sur-Ille","Street":"Place Rebillard","PostalCode":"35440","AdditionalData":[{"value":"France","key":"CountryName"},{"value":"Bretagne","key":"StateName"},{"value":"Ille-et-Vilaine","key":"CountyName"}]},"MapReference":{"ReferenceId":"556724154","Spot":0.0,"SideOfStreet":"right","CountryId":"20000001","StateId":"20060199","CountyId":"20065458","CityId":"20066023"}}},{"Relevance":1.0,"Distance":63.1,"MatchLevel":"houseNumber","MatchQuality":{"Country":1.0,"State":1.0,"County":1.0,"City":1.0,"Street":[1.0],"HouseNumber":1.0,"PostalCode":1.0},"MatchType":"interpolated","Location":{"LocationId":"NT_BI8MYEaxcSTNI2FrTUMB0B_zgD","LocationType":"point","DisplayPosition":{"Latitude":48.30674,"Longitude":-1.67243},"MapView":{"TopLeft":{"Latitude":48.3078642,"Longitude":-1.6741201},"BottomRight":{"Latitude":48.3056158,"Longitude":-1.6707399}},"Address":{"Label":"38 Avenue Alexis Rey, 35440 Montreuil-sur-Ille, France","Country":"FRA","State":"Bretagne","County":"Ille-et-Vilaine","City":"Montreuil-sur-Ille","Street":"Avenue Alexis Rey","HouseNumber":"38","PostalCode":"35440","AdditionalData":[{"value":"France","key":"CountryName"},{"value":"Bretagne","key":"StateName"},{"value":"Ille-et-Vilaine","key":"CountyName"}]},"MapReference":{"ReferenceId":"556724151","Spot":0.37,"SideOfStreet":"left","CountryId":"20000001","StateId":"20060199","CountyId":"20065458","CityId":"20066023","AddressId":"375463996","RoadLinkId":"47939785"}}},{"Relevance":1.0,"Distance":76.6,"MatchLevel":"houseNumber","MatchQuality":{"Country":1.0,"State":1.0,"County":1.0,"City":1.0,"Street":[1.0],"HouseNumber":1.0,"PostalCode":1.0},"MatchType":"interpolated","Location":{"LocationId":"NT_BI8MYEaxcSTNI2FrTUMB0B_0AjQ","LocationType":"point","DisplayPosition":{"Latitude":48.30667,"Longitude":-1.67258},"MapView":{"TopLeft":{"Latitude":48.3077942,"Longitude":-1.6742701},"BottomRight":{"Latitude":48.3055458,"Longitude":-1.6708899}},"Address":{"Label":"40B Avenue Alexis Rey, 35440 Montreuil-sur-Ille, France","Country":"FRA","State":"Bretagne","County":"Ille-et-Vilaine","City":"Montreuil-sur-Ille","Street":"Avenue Alexis Rey","HouseNumber":"40B","PostalCode":"35440","AdditionalData":[{"value":"France","key":"CountryName"},{"value":"Bretagne","key":"StateName"},{"value":"Ille-et-Vilaine","key":"CountyName"}]},"MapReference":{"ReferenceId":"782957247","Spot":0.89,"SideOfStreet":"left","CountryId":"20000001","StateId":"20060199","CountyId":"20065458","CityId":"20066023","AddressId":"399048474","RoadLinkId":"175772622"}}},{"Relevance":1.0,"Distance":84.4,"MatchLevel":"houseNumber","MatchQuality":{"Country":1.0,"State":1.0,"County":1.0,"City":1.0,"Street":[1.0],"HouseNumber":1.0,"PostalCode":1.0},"MatchType":"interpolated","Location":{"LocationId":"NT_iGIlWacTGLAF8GX9eHKmQC_zA","LocationType":"point","DisplayPosition":{"Latitude":48.30632,"Longitude":-1.67196},"MapView":{"TopLeft":{"Latitude":48.3074442,"Longitude":-1.6736501},"BottomRight":{"Latitude":48.3051958,"Longitude":-1.6702699}},"Address":{"Label":"3 Rue de Gras d'Eve, 35440 Montreuil-sur-Ille, France","Country":"FRA","State":"Bretagne","County":"Ille-et-Vilaine","City":"Montreuil-sur-Ille","Street":"Rue de Gras d'Eve","HouseNumber":"3","PostalCode":"35440","AdditionalData":[{"value":"France","key":"CountryName"},{"value":"Bretagne","key":"StateName"},{"value":"Ille-et-Vilaine","key":"CountyName"}]},"MapReference":{"ReferenceId":"773311076","Spot":0.16,"SideOfStreet":"right","CountryId":"20000001","StateId":"20060199","CountyId":"20065458","CityId":"20066023","AddressId":"320627643","RoadLinkId":"167001946"}}},{"Relevance":1.0,"Distance":87.8,"MatchLevel":"houseNumber","MatchQuality":{"Country":1.0,"State":1.0,"County":1.0,"City":1.0,"Street":[1.0],"HouseNumber":1.0,"PostalCode":1.0},"MatchType":"interpolated","Location":{"LocationId":"NT_iGIlWacTGLAF8GX9eHKmQC_xA","LocationType":"point","DisplayPosition":{"Latitude":48.30632,"Longitude":-1.67219},"MapView":{"TopLeft":{"Latitude":48.3074442,"Longitude":-1.6738801},"BottomRight":{"Latitude":48.3051958,"Longitude":-1.6704999}},"Address":{"Label":"1 Rue de Gras d'Eve, 35440 Montreuil-sur-Ille, France","Country":"FRA","State":"Bretagne","County":"Ille-et-Vilaine","City":"Montreuil-sur-Ille","Street":"Rue de Gras d'Eve","HouseNumber":"1","PostalCode":"35440","AdditionalData":[{"value":"France","key":"CountryName"},{"value":"Bretagne","key":"StateName"},{"value":"Ille-et-Vilaine","key":"CountyName"}]},"MapReference":{"ReferenceId":"773311075","Spot":0.2,"SideOfStreet":"right","CountryId":"20000001","StateId":"20060199","CountyId":"20065458","CityId":"20066023","AddressId":"375386723","RoadLinkId":"167001945"}}}]}]}}