{"Response":{"MetaInfo":{"Timestamp":"2020-03-28T10:15:05.251+0000","NextPageInformation":"2"},"View":[{"_type":"SearchResultsViewType","ViewId":0,"Result":[{"Relevance":1.0,"Distance":0.0,"Direction":0.0,"MatchLevel":"district","MatchQuality":{"Country":1.0,"State":1.0,"County":1.0,"City":1.0,"District":1.0,"PostalCode":1.0},"Location":{"LocationId":"NT_IGLE1Rw-CsHkfutQqfdTbB","LocationType":"point","DisplayPosition":{"Latitude":48.3171196,"Longitude":16.6404556},"MapView":{"TopLeft":{"Latitude":48.33154,"Longitude":16.60619},"BottomRight":{"Latitude":48.30708,"Longitude":16.6822}},"Address":{"Label":"Strasshof an der Nordbahn, Niederösterreich, Österreich","Country":"AUT","State":"Niederösterreich","County":"Gänserndorf","City":"Strasshof an der Nordbahn","District":"Strasshof an der Nordbahn","PostalCode":"2231","AdditionalData":[{"value":"Österreich","key":"CountryName"},{"value":"Niederösterreich","key":"StateName"},{"value":"Gänserndorf","key":"CountyName"}]},"MapReference":{"ReferenceId":"65833025","SideOfStreet":"neither","CountryId":"20128885","StateId":"20130295","CountyId":"20130657","CityId":"20130804","DistrictId":"20130806"}}},{"Relevance":1.0,"Distance":14.0,"MatchLevel":"houseNumber","MatchQuality":{"Country":1.0,"State":1.0,"County":1.0,"City":1.0,"District":1.0,"Street":[1.0],"HouseNumber":1.0,"PostalCode":1.0},"MatchType":"interpolated","Location":{"LocationId":"NT_PY4IeKfm.f-Qd9ygjWTDLC_yITO","LocationType":"point","DisplayPosition":{"Latitude":48.31688,"Longitude":16.6407},"MapView":{"TopLeft":{"Latitude":48.3180042,"Longitude":16.6390096},"BottomRight":{"Latitude":48.3157558,"Longitude":16.6423904}},"Address":{"Label":"Hauptstraße 229, 2231 Strasshof an der Nordbahn, Österreich","Country":"AUT","State":"Niederösterreich","County":"Gänserndorf","City":"Strasshof an der Nordbahn","District":"Strasshof an der Nordbahn","Street":"Hauptstraße","HouseNumber":"229","PostalCode":"2231","AdditionalData":[{"value":"Österreich","key":"CountryName"},{"value":"Niederösterreich","key":"StateName"},{"value":"Gänserndorf","key":"CountyName"}]},"MapReference":{"ReferenceId":"65822702","Spot":0.74,"SideOfStreet":"left","CountryId":"20128885","StateId":"20130295","CountyId":"20130657","CityId":"20130804","DistrictId":"20130806","AddressId":"160613916","RoadLinkId":"28992928"}}},{"Relevance":1.0,"Distance":24.9,"MatchLevel":"houseNumber","MatchQuality":{"Country":1.0,"State":1.0,"County":1.0,"City":1.0,"District":1.0,"Street":[1.0],"HouseNumber":1.0,"PostalCode":1.0},"MatchType":"interpolated","Location":{"LocationId":"NT_Rfu2x4xHWPxaR1BgMl1mtB_1A","LocationType":"point","DisplayPosition":{"Latitude":48.31737,"Longitude":16.64079},"MapView":{"TopLeft":{"Latitude":48.3184942,"Longitude":16.6390996},"BottomRight":{"Latitude":48.3162458,"Longitude":16.6424804}},"Address":{"Label":"Pernerstorfer Straße 5, 2231 Strasshof an der Nordbahn, Österreich","Country":"AUT","State":"Niederösterreich","County":"Gänserndorf","City":"Strasshof an der Nordbahn","District":"Strasshof an der Nordbahn","Street":"Pernerstorfer Straße","HouseNumber":"5","PostalCode":"2231","AdditionalData":[{"value":"Österreich","key":"CountryName"},{"value":"Niederösterreich","key":"StateName"},{"value":"Gänserndorf","key":"CountyName"}]},"MapReference":{"ReferenceId":"65822688","Spot":0.53,"SideOfStreet":"left","CountryId":"20128885","StateId":"20130295","CountyId":"20130657","CityId":"20130804","DistrictId":"20130806","AddressId":"160614689","RoadLinkId":"28313504"}}},{"Relevance":1.0,"Distance":37.3,"MatchLevel":"houseNumber","MatchQuality":{"Country":1.0,"State":1.0,"County":1.0,"City":1.0,"District":1.0,"Street":[1.0],"HouseNumber":1.0,"PostalCode":1.0},"MatchType":"interpolated","Location":{"LocationId":"NT_JL7cpYxI3t9YtoW7O6ZBcD_yA","LocationType":"point","DisplayPosition":{"Latitude":48.31688,"Longitude":16.63966},"MapView":{"TopLeft":{"Latitude":48.3180042,"Longitude":16.6379696},"BottomRight":{"Latitude":48.3157558,"Longitude":16.6413504}},"Address":{"Label":"Dr.-Viktor-Adler-Gasse 2, 2231 Strasshof an der Nordbahn, Österreich","Country":"AUT","State":"Niederösterreich","County":"Gänserndorf","City":"Strasshof an der Nordbahn","District":"Strasshof an der Nordbahn","Street":"Dr.-Viktor-Adler-Gasse","HouseNumber":"2","PostalCode":"2231","AdditionalData":[{"value":"Österreich","key":"CountryName"},{"value":"Niederösterreich","key":"StateName"},{"value":"Gänserndorf","key":"CountyName"}]},"MapReference":{"ReferenceId":"65822707","Spot":0.22,"SideOfStreet":"right","CountryId":"20128885","StateId":"20130295","CountyId":"20130657","CityId":"20130804","DistrictId":"20130806","AddressId":"160532277","RoadLinkId":"28044568"}}},{"Relevance":1.0,"Distance":45.4,"MatchLevel":"street","MatchQuality":{"Country":1.0,"State":1.0,"County":1.0,"City":1.0,"District":1.0,"Street":[1.0],"PostalCode":1.0},"Location":{"LocationId":"NT_bjQRE7T4CHM462oDDd-JBD_l_65822687_L","LocationType":"point","DisplayPosition":{"Latitude":48.31693,"Longitude":16.641},"MapView":{"TopLeft":{"Latitude":48.31695,"Longitude":16.641},"BottomRight":{"Latitude":48.31693,"Longitude":16.6411}},"Address":{"Label":"Hauptstraße, 2231 Strasshof an der Nordbahn, Österreich","Country":"AUT","State":"Niederösterreich","County":"Gänserndorf","City":"Strasshof an der Nordbahn","District":"Strasshof an der Nordbahn","Street":"Hauptstraße","PostalCode":"2231","AdditionalData":[{"value":"Österreich","key":"CountryName"},{"value":"Niederösterreich","key":"StateName"},{"value":"Gänserndorf","key":"CountyName"}]},"MapReference":{"ReferenceId":"65822687","Spot":0.0,"SideOfStreet":"left","CountryId":"20128885","StateId":"20130295","CountyId":"20130657","CityId":"20130804","DistrictId":"20130806"}}},{"Relevance":1.0,"Distance":45.7,"MatchLevel":"houseNumber","MatchQuality":{"Country":1.0,"State":1.0,"County":1.0,"City":1.0,"District":1.0,"Street":[1.0],"HouseNumber":1.0,"PostalCode":1.0},"MatchType":"interpolated","Location":{"LocationId":"NT_PY4IeKfm.f-Qd9ygjWTDLC_yMTM","LocationType":"point","DisplayPosition":{"Latitude":48.31695,"Longitude":16.64115},"MapView":{"TopLeft":{"Latitude":48.3180742,"Longitude":16.6394596},"BottomRight":{"Latitude":48.3158258,"Longitude":16.6428404}},"Address":{"Label":"Hauptstraße 231, 2231 Strasshof an der Nordbahn, Österreich","Country":"AUT","State":"Niederösterreich","County":"Gänserndorf","City":"Strasshof an der Nordbahn","District":"Strasshof an der Nordbahn","Street":"Hauptstraße","HouseNumber":"231","PostalCode":"2231","AdditionalData":[{"value":"Österreich","key":"CountryName"},{"value":"Niederösterreich","key":"StateName"},{"value":"Gänserndorf","key":"CountyName"}]},"MapReference":{"ReferenceId":"65822682","Spot":0.03,"SideOfStreet":"left","CountryId":"20128885","StateId":"20130295","CountyId":"20130657","CityId":"20130804","DistrictId":"20130806","AddressId":"729515347","RoadLinkId":"29083805"}}},{"Relevance":1.0,"Distance":49.0,"MatchLevel":"houseNumber","MatchQuality":{"Country":1.0,"State":1.0,"County":1.0,"City":1.0,"District":1.0,"Street":[1.0],"HouseNumber":1.0,"PostalCode":1.0},"MatchType":"interpolated","Location":{"LocationId":"NT_-G4aZYKMgDw3S.Vj1pkUKB_yAD","LocationType":"point","DisplayPosition":{"Latitude":48.31771,"Longitude":16.64036},"MapView":{"TopLeft":{"Latitude":48.3188342,"Longitude":16.6386695},"BottomRight":{"Latitude":48.3165858,"Longitude":16.6420505}},"Address":{"Label":"Amundsenstraße 20, 2231 Strasshof an der Nordbahn, Österreich","Country":"AUT","State":"Niederösterreich","County":"Gänserndorf","City":"Strasshof an der Nordbahn","District":"Strasshof an der Nordbahn","Street":"Amundsenstraße","HouseNumber":"20","PostalCode":"2231","AdditionalData":[{"value":"Österreich","key":"CountryName"},{"value":"Niederösterreich","key":"StateName"},{"value":"Gänserndorf","key":"CountyName"}]},"MapReference":{"ReferenceId":"65822634","Spot":0.79,"SideOfStreet":"right","CountryId":"20128885","StateId":"20130295","CountyId":"20130657","CityId":"20130804","DistrictId":"20130806","AddressId":"729552008","RoadLinkId":"28040436"}}},{"Relevance":1.0,"Distance":61.8,"MatchLevel":"street","MatchQuality":{"Country":1.0,"State":1.0,"County":1.0,"City":1.0,"District":1.0,"Street":[1.0],"PostalCode":1.0},"Location":{"LocationId":"NT_bjQRE7T4CHM462oDDd-JBD_l_65822706_L","LocationType":"point","DisplayPosition":{"Latitude":48.31673,"Longitude":16.63986},"MapView":{"TopLeft":{"Latitude":48.31673,"Longitude":16.63974},"BottomRight":{"Latitude":48.31671,"Longitude":16.63986}},"Address":{"Label":"Hauptstraße, 2231 Strasshof an der Nordbahn, Österreich","Country":"AUT","State":"Niederösterreich","County":"Gänserndorf","City":"Strasshof an der Nordbahn","District":"Strasshof an der Nordbahn","Street":"Hauptstraße","PostalCode":"2231","AdditionalData":[{"value":"Österreich","key":"CountryName"},{"value":"Niederösterreich","key":"StateName"},{"value":"Gänserndorf","key":"CountyName"}]},"MapReference":{"ReferenceId":"65822706","Spot":1.0,"SideOfStreet":"left","CountryId":"20128885","StateId":"20130295","CountyId":"20130657","CityId":"20130804","DistrictId":"20130806"}}},{"Relevance":1.0,"Distance":63.6,"MatchLevel":"houseNumber","MatchQuality":{"Country":1.0,"State":1.0,"County":1.0,"City":1.0,"District":1.0,"Street":[1.0],"HouseNumber":1.0,"PostalCode":1.0},"MatchType":"interpolated","Location":{"LocationId":"NT_8EhbMLERjjY4.vVhqDgqzC_yA","LocationType":"point","DisplayPosition":{"Latitude":48.31672,"Longitude":16.64119},"MapView":{"TopLeft":{"Latitude":48.3178442,"Longitude":16.6394996},"BottomRight":{"Latitude":48.3155958,"Longitude":16.6428804}},"Address":{"Label":"Heidestraße 2, 2231 Strasshof an der Nordbahn, Österreich","Country":"AUT","State":"Niederösterreich","County":"Gänserndorf","City":"Strasshof an der Nordbahn","District":"Strasshof an der Nordbahn","Street":"Heidestraße","HouseNumber":"2","PostalCode":"2231","AdditionalData":[{"value":"Österreich","key":"CountryName"},{"value":"Niederösterreich","key":"StateName"},{"value":"Gänserndorf","key":"CountyName"}]},"MapReference":{"ReferenceId":"65822826","Spot":0.89,"SideOfStreet":"left","CountryId":"20128885","StateId":"20130295","CountyId":"20130657","CityId":"20130804","DistrictId":"20130806","AddressId":"729073326","RoadLinkId":"28367681"}}},{"Relevance":1.0,"Distance":65.1,"MatchLevel":"houseNumber","MatchQuality":{"Country":1.0,"State":1.0,"County":1.0,"City":1.0,"District":1.0,"Street":[1.0],"HouseNumber":1.0,"PostalCode":1.0},"MatchType":"interpolated","Location":{"LocationId":"NT_-G4aZYKMgDw3S.Vj1pkUKB_yID","LocationType":"point","DisplayPosition":{"Latitude":48.3178,"Longitude":16.64078},"MapView":{"TopLeft":{"Latitude":48.3189242,"Longitude":16.6390895},"BottomRight":{"Latitude":48.3166758,"Longitude":16.6424705}},"Address":{"Label":"Amundsenstraße 22, 2231 Strasshof an der Nordbahn, Österreich","Country":"AUT","State":"Niederösterreich","County":"Gänserndorf","City":"Strasshof an der Nordbahn","District":"Strasshof an der Nordbahn","Street":"Amundsenstraße","HouseNumber":"22","PostalCode":"2231","AdditionalData":[{"value":"Österreich","key":"CountryName"},{"value":"Niederösterreich","key":"StateName"},{"value":"Gänserndorf","key":"CountyName"}]},"MapReference":{"ReferenceId":"65822618","Spot":0.06,"SideOfStreet":"right","CountryId":"20128885","StateId":"20130295","CountyId":"20130657","CityId":"20130804","DistrictId":"20130806","AddressId":"160619761","RoadLinkId":"28472385"}}}]}]}}