{"Response":{"MetaInfo":{"Timestamp":"2020-03-28T10:25:14.759+0000","NextPageInformation":"2"},"View":[{"_type":"SearchResultsViewType","ViewId":0,"Result":[{"Relevance":1.0,"Distance":0.0,"Direction":0.0,"MatchLevel":"district","MatchQuality":{"Country":1.0,"State":1.0,"County":1.0,"City":1.0,"District":1.0,"PostalCode":1.0},"Location":{"LocationId":"NT_lRdajODXFNJMhHQxLFTUEC","LocationType":"point","DisplayPosition":{"Latitude":48.3108048,"Longitude":11.1950281},"MapView":{"TopLeft":{"Latitude":48.31568,"Longitude":11.19193},"BottomRight":{"Latitude":48.30013,"Longitude":11.21169}},"Address":{"Label":"Odelzhausen, Bayern, Deutschland","Country":"DEU","State":"Bayern","County":"Dachau","City":"Odelzhausen","District":"Odelzhausen","PostalCode":"85235","AdditionalData":[{"value":"Deutschland","key":"CountryName"},{"value":"Bayern","key":"StateName"},{"value":"Dachau","key":"CountyName"}]},"MapReference":{"ReferenceId":"541557458","SideOfStreet":"neither","CountryId":"20147700","StateId":"20177250","CountyId":"20177550","CityId":"20177598","DistrictId":"20177600"}}},{"Relevance":1.0,"Distance":11.6,"MatchLevel":"houseNumber","MatchQuality":{"Country":1.0,"State":1.0,"County":1.0,"City":1.0,"District":1.0,"Street":[1.0],"HouseNumber":1.0,"PostalCode":1.0},"MatchType":"interpolated","Location":{"LocationId":"NT_dkHmhWu9s29I-07VQX6HhC_5A","LocationType":"point","DisplayPosition":{"Latitude":48.31075,"Longitude":11.19547},"MapView":{"TopLeft":{"Latitude":48.3118742,"Longitude":11.1937798},"BottomRight":{"Latitude":48.3096258,"Longitude":11.1971602}},"Address":{"Label":"Marktstraße 9, 85235 Odelzhausen, Deutschland","Country":"DEU","State":"Bayern","County":"Dachau","City":"Odelzhausen","District":"Odelzhausen","Street":"Marktstraße","HouseNumber":"9","PostalCode":"85235","AdditionalData":[{"value":"Deutschland","key":"CountryName"},{"value":"Bayern","key":"StateName"},{"value":"Dachau","key":"CountyName"}]},"MapReference":{"ReferenceId":"545141138","Spot":0.27,"SideOfStreet":"left","CountryId":"20147700","StateId":"20177250","CountyId":"20177550","CityId":"20177598","DistrictId":"20177600","AddressId":"249166654","RoadLinkId":"32784035"}}},{"Relevance":1.0,"Distance":12.4,"MatchLevel":"street","MatchQuality":{"Country":1.0,"State":1.0,"County":1.0,"City":1.0,"District":1.0,"PostalCode":1.0},"Location":{"LocationId":"NT_n2DRCVGyI1RFZ5piXDQlnB_l_1190494746_R","LocationType":"point","DisplayPosition":{"Latitude":48.3108048,"Longitude":11.19486},"MapView":{"TopLeft":{"Latitude":48.31106,"Longitude":11.19486},"BottomRight":{"Latitude":48.31077,"Longitude":11.19486}},"Address":{"Label":"85235 Odelzhausen, Deutschland","Country":"DEU","State":"Bayern","County":"Dachau","City":"Odelzhausen","District":"Odelzhausen","PostalCode":"85235","AdditionalData":[{"value":"Deutschland","key":"CountryName"},{"value":"Bayern","key":"StateName"},{"value":"Dachau","key":"CountyName"}]},"MapReference":{"ReferenceId":"1190494746","Spot":0.12,"SideOfStreet":"right","CountryId":"20147700","StateId":"20177250","CountyId":"20177550","CityId":"20177598","DistrictId":"20177600"}}},{"Relevance":1.0,"Distance":13.0,"MatchLevel":"street","MatchQuality":{"Country":1.0,"State":1.0,"County":1.0,"City":1.0,"District":1.0,"PostalCode":1.0},"Location":{"LocationId":"NT_n2DRCVGyI1RFZ5piXDQlnB_l_1190495542_R","LocationType":"point","DisplayPosition":{"Latitude":48.31077,"Longitude":11.19486},"MapView":{"TopLeft":{"Latitude":48.31092,"Longitude":11.19384},"BottomRight":{"Latitude":48.31077,"Longitude":11.19486}},"Address":{"Label":"85235 Odelzhausen, Deutschland","Country":"DEU","State":"Bayern","County":"Dachau","City":"Odelzhausen","District":"Odelzhausen","PostalCode":"85235","AdditionalData":[{"value":"Deutschland","key":"CountryName"},{"value":"Bayern","key":"StateName"},{"value":"Dachau","key":"CountyName"}]},"MapReference":{"ReferenceId":"1190495542","Spot":0.0,"SideOfStreet":"right","CountryId":"20147700","StateId":"20177250","CountyId":"20177550","CityId":"20177598","DistrictId":"20177600"}}},{"Relevance":1.0,"Distance":39.5,"MatchLevel":"houseNumber","MatchQuality":{"Country":1.0,"State":1.0,"County":1.0,"City":1.0,"District":1.0,"Street":[1.0],"HouseNumber":1.0,"PostalCode":1.0},"MatchType":"interpolated","Location":{"LocationId":"NT_dkHmhWu9s29I-07VQX6HhC_3A","LocationType":"point","DisplayPosition":{"Latitude":48.31035,"Longitude":11.19529},"MapView":{"TopLeft":{"Latitude":48.3114742,"Longitude":11.1935998},"BottomRight":{"Latitude":48.3092258,"Longitude":11.1969802}},"Address":{"Label":"Marktstraße 7, 85235 Odelzhausen, Deutschland","Country":"DEU","State":"Bayern","County":"Dachau","City":"Odelzhausen","District":"Odelzhausen","Street":"Marktstraße","HouseNumber":"7","PostalCode":"85235","AdditionalData":[{"value":"Deutschland","key":"CountryName"},{"value":"Bayern","key":"StateName"},{"value":"Dachau","key":"CountyName"}]},"MapReference":{"ReferenceId":"541557130","Spot":0.29,"SideOfStreet":"left","CountryId":"20147700","StateId":"20177250","CountyId":"20177550","CityId":"20177598","DistrictId":"20177600","AddressId":"184979857","RoadLinkId":"33185455"}}},{"Relevance":1.0,"Distance":40.8,"MatchLevel":"houseNumber","MatchQuality":{"Country":1.0,"State":1.0,"County":1.0,"City":1.0,"District":1.0,"Street":[1.0],"HouseNumber":1.0,"PostalCode":1.0},"MatchType":"interpolated","Location":{"LocationId":"NT_ShCuBfnC3Y7oslVdpaIhfC_yA","LocationType":"point","DisplayPosition":{"Latitude":48.31036,"Longitude":11.19451},"MapView":{"TopLeft":{"Latitude":48.3114842,"Longitude":11.1928198},"BottomRight":{"Latitude":48.3092358,"Longitude":11.1962002}},"Address":{"Label":"Am Steg 2, 85235 Odelzhausen, Deutschland","Country":"DEU","State":"Bayern","County":"Dachau","City":"Odelzhausen","District":"Odelzhausen","Street":"Am Steg","HouseNumber":"2","PostalCode":"85235","AdditionalData":[{"value":"Deutschland","key":"CountryName"},{"value":"Bayern","key":"StateName"},{"value":"Dachau","key":"CountyName"}]},"MapReference":{"ReferenceId":"541557128","Spot":0.45,"SideOfStreet":"right","CountryId":"20147700","StateId":"20177250","CountyId":"20177550","CityId":"20177598","DistrictId":"20177600","AddressId":"183472415","RoadLinkId":"32927972"}}},{"Relevance":1.0,"Distance":45.9,"MatchLevel":"street","MatchQuality":{"Country":1.0,"State":1.0,"County":1.0,"City":1.0,"District":1.0,"Street":[1.0],"PostalCode":1.0},"Location":{"LocationId":"NT_0xJDPZnUZw1NfHTfjFn.zA_l_1191740522_L","LocationType":"point","DisplayPosition":{"Latitude":48.31047,"Longitude":11.19539},"MapView":{"TopLeft":{"Latitude":48.31048,"Longitude":11.19539},"BottomRight":{"Latitude":48.31047,"Longitude":11.19559}},"Address":{"Label":"Gartenstraße, 85235 Odelzhausen, Deutschland","Country":"DEU","State":"Bayern","County":"Dachau","City":"Odelzhausen","District":"Odelzhausen","Street":"Gartenstraße","PostalCode":"85235","AdditionalData":[{"value":"Deutschland","key":"CountryName"},{"value":"Bayern","key":"StateName"},{"value":"Dachau","key":"CountyName"}]},"MapReference":{"ReferenceId":"1191740522","Spot":0.0,"SideOfStreet":"left","CountryId":"20147700","StateId":"20177250","CountyId":"20177550","CityId":"20177598","DistrictId":"20177600"}}},{"Relevance":1.0,"Distance":55.1,"MatchLevel":"street","MatchQuality":{"Country":1.0,"State":1.0,"County":1.0,"City":1.0,"District":1.0,"PostalCode":1.0},"Location":{"LocationId":"NT_n2DRCVGyI1RFZ5piXDQlnB_l_1191740524_L","LocationType":"point","DisplayPosition":{"Latitude":48.31048,"Longitude":11.19559},"MapView":{"TopLeft":{"Latitude":48.31048,"Longitude":11.19554},"BottomRight":{"Latitude":48.30907,"Longitude":11.19559}},"Address":{"Label":"85235 Odelzhausen, Deutschland","Country":"DEU","State":"Bayern","County":"Dachau","City":"Odelzhausen","District":"Odelzhausen","PostalCode":"85235","AdditionalData":[{"value":"Deutschland","key":"CountryName"},{"value":"Bayern","key":"StateName"},{"value":"Dachau","key":"CountyName"}]},"MapReference":{"ReferenceId":"1191740524","Spot":1.0,"SideOfStreet":"left","CountryId":"20147700","StateId":"20177250","CountyId":"20177550","CityId":"20177598","DistrictId":"20177600"}}},{"Relevance":1.0,"Distance":89.0,"MatchLevel":"houseNumber","MatchQuality":{"Country":1.0,"State":1.0,"County":1.0,"City":1.0,"District":1.0,"Street":[1.0],"HouseNumber":1.0,"PostalCode":1.0},"MatchType":"interpolated","Location":{"LocationId":"NT_dkHmhWu9s29I-07VQX6HhC_xkD","LocationType":"point","DisplayPosition":{"Latitude":48.31144,"Longitude":11.19594},"MapView":{"TopLeft":{"Latitude":48.3125642,"Longitude":11.1942498},"BottomRight":{"Latitude":48.3103158,"Longitude":11.1976302}},"Address":{"Label":"Marktstraße 19, 85235 Odelzhausen, Deutschland","Country":"DEU","State":"Bayern","County":"Dachau","City":"Odelzhausen","District":"Odelzhausen","Street":"Marktstraße","HouseNumber":"19","PostalCode":"85235","AdditionalData":[{"value":"Deutschland","key":"CountryName"},{"value":"Bayern","key":"StateName"},{"value":"Dachau","key":"CountyName"}]},"MapReference":{"ReferenceId":"545141129","Spot":0.38,"SideOfStreet":"left","CountryId":"20147700","StateId":"20177250","CountyId":"20177550","CityId":"20177598","DistrictId":"20177600","AddressId":"182921078","RoadLinkId":"32749905"}}},{"Relevance":1.0,"Distance":89.4,"MatchLevel":"houseNumber","MatchQuality":{"Country":1.0,"State":1.0,"County":1.0,"City":1.0,"District":1.0,"Street":[1.0],"HouseNumber":1.0,"PostalCode":1.0},"MatchType":"interpolated","Location":{"LocationId":"NT_dkHmhWu9s29I-07VQX6HhC_xQD","LocationType":"point","DisplayPosition":{"Latitude":48.31123,"Longitude":11.19615},"MapView":{"TopLeft":{"Latitude":48.3123542,"Longitude":11.1944598},"BottomRight":{"Latitude":48.3101058,"Longitude":11.1978402}},"Address":{"Label":"Marktstraße 14, 85235 Odelzhausen, Deutschland","Country":"DEU","State":"Bayern","County":"Dachau","City":"Odelzhausen","District":"Odelzhausen","Street":"Marktstraße","HouseNumber":"14","PostalCode":"85235","AdditionalData":[{"value":"Deutschland","key":"CountryName"},{"value":"Bayern","key":"StateName"},{"value":"Dachau","key":"CountyName"}]},"MapReference":{"ReferenceId":"545141126","Spot":0.94,"SideOfStreet":"left","CountryId":"20147700","StateId":"20177250","CountyId":"20177550","CityId":"20177598","DistrictId":"20177600","AddressId":"184196246","RoadLinkId":"33688307"}}}]}]}}