{"Response":{"MetaInfo":{"Timestamp":"2020-03-28T10:18:29.673+0000","NextPageInformation":"2"},"View":[{"_type":"SearchResultsViewType","ViewId":0,"Result":[{"Relevance":1.0,"Distance":0.0,"Direction":0.0,"MatchLevel":"district","MatchQuality":{"Country":1.0,"State":1.0,"County":1.0,"City":1.0,"District":1.0,"PostalCode":1.0},"Location":{"LocationId":"NT_tg2K3vXr77nCl3McCSMT7A","LocationType":"point","DisplayPosition":{"Latitude":48.3986112,"Longitude":8.0775084},"MapView":{"TopLeft":{"Latitude":48.40475,"Longitude":8.07469},"BottomRight":{"Latitude":48.39506,"Longitude":8.09394}},"Address":{"Label":"Nordrach, Baden-Württemberg, Deutschland","Country":"DEU","State":"Baden-Württemberg","County":"Ortenaukreis","City":"Nordrach","District":"Nordrach","PostalCode":"77787","AdditionalData":[{"value":"Deutschland","key":"CountryName"},{"value":"Baden-Württemberg","key":"StateName"},{"value":"Ortenaukreis","key":"CountyName"}]},"MapReference":{"ReferenceId":"574405138","SideOfStreet":"neither","CountryId":"20147700","StateId":"20171489","CountyId":"20174699","CityId":"20174831","DistrictId":"20174833"}}},{"Relevance":1.0,"Distance":10.1,"MatchLevel":"houseNumber","MatchQuality":{"Country":1.0,"State":1.0,"County":1.0,"City":1.0,"District":1.0,"Street":[1.0],"HouseNumber":1.0,"PostalCode":1.0},"MatchType":"interpolated","Location":{"LocationId":"NT_qX5aoMa2EGYWhMCJwkKcJC_yED","LocationType":"point","DisplayPosition":{"Latitude":48.39847,"Longitude":8.07755},"MapView":{"TopLeft":{"Latitude":48.3995942,"Longitude":8.0758569},"BottomRight":{"Latitude":48.3973458,"Longitude":8.0792431}},"Address":{"Label":"Im Dorf 21, 77787 Nordrach, Deutschland","Country":"DEU","State":"Baden-Württemberg","County":"Ortenaukreis","City":"Nordrach","District":"Nordrach","Street":"Im Dorf","HouseNumber":"21","PostalCode":"77787","AdditionalData":[{"value":"Deutschland","key":"CountryName"},{"value":"Baden-Württemberg","key":"StateName"},{"value":"Ortenaukreis","key":"CountyName"}]},"MapReference":{"ReferenceId":"76820631","Spot":0.42,"SideOfStreet":"left","CountryId":"20147700","StateId":"20171489","CountyId":"20174699","CityId":"20174831","DistrictId":"20174833","AddressId":"180226799","RoadLinkId":"38077229"}}},{"Relevance":1.0,"Distance":54.1,"MatchLevel":"houseNumber","MatchQuality":{"Country":1.0,"State":1.0,"County":1.0,"City":1.0,"District":1.0,"Street":[1.0],"HouseNumber":1.0,"PostalCode":1.0},"MatchType":"interpolated","Location":{"LocationId":"NT_qX5aoMa2EGYWhMCJwkKcJC_zED","LocationType":"point","DisplayPosition":{"Latitude":48.39896,"Longitude":8.07825},"MapView":{"TopLeft":{"Latitude":48.4000842,"Longitude":8.0765568},"BottomRight":{"Latitude":48.3978358,"Longitude":8.0799432}},"Address":{"Label":"Im Dorf 31, 77787 Nordrach, Deutschland","Country":"DEU","State":"Baden-Württemberg","County":"Ortenaukreis","City":"Nordrach","District":"Nordrach","Street":"Im Dorf","HouseNumber":"31","PostalCode":"77787","AdditionalData":[{"value":"Deutschland","key":"CountryName"},{"value":"Baden-Württemberg","key":"StateName"},{"value":"Ortenaukreis","key":"CountyName"}]},"MapReference":{"ReferenceId":"73547328","Spot":0.5,"SideOfStreet":"left","CountryId":"20147700","StateId":"20171489","CountyId":"20174699","CityId":"20174831","DistrictId":"20174833","AddressId":"178062717","RoadLinkId":"38719419"}}},{"Relevance":1.0,"Distance":134.7,"MatchLevel":"houseNumber","MatchQuality":{"Country":1.0,"State":1.0,"County":1.0,"City":1.0,"District":1.0,"Street":[1.0],"HouseNumber":1.0,"PostalCode":1.0},"MatchType":"interpolated","Location":{"LocationId":"NT_qX5aoMa2EGYWhMCJwkKcJC_yUD","LocationType":"point","DisplayPosition":{"Latitude":48.39711,"Longitude":8.07819},"MapView":{"TopLeft":{"Latitude":48.3982342,"Longitude":8.0764969},"BottomRight":{"Latitude":48.3959858,"Longitude":8.0798831}},"Address":{"Label":"Im Dorf 25, 77787 Nordrach, Deutschland","Country":"DEU","State":"Baden-Württemberg","County":"Ortenaukreis","City":"Nordrach","District":"Nordrach","Street":"Im Dorf","HouseNumber":"25","PostalCode":"77787","AdditionalData":[{"value":"Deutschland","key":"CountryName"},{"value":"Baden-Württemberg","key":"StateName"},{"value":"Ortenaukreis","key":"CountyName"}]},"MapReference":{"ReferenceId":"76820632","Spot":0.14,"SideOfStreet":"left","CountryId":"20147700","StateId":"20171489","CountyId":"20174699","CityId":"20174831","DistrictId":"20174833","AddressId":"208743367","RoadLinkId":"38064685"}}},{"Relevance":1.0,"Distance":139.8,"MatchLevel":"houseNumber","MatchQuality":{"Country":1.0,"State":1.0,"County":1.0,"City":1.0,"District":1.0,"Street":[1.0],"HouseNumber":1.0,"PostalCode":1.0},"MatchType":"interpolated","Location":{"LocationId":"NT_qX5aoMa2EGYWhMCJwkKcJC_ykD","LocationType":"point","DisplayPosition":{"Latitude":48.39847,"Longitude":8.07939},"MapView":{"TopLeft":{"Latitude":48.3995942,"Longitude":8.0776969},"BottomRight":{"Latitude":48.3973458,"Longitude":8.0810831}},"Address":{"Label":"Im Dorf 29, 77787 Nordrach, Deutschland","Country":"DEU","State":"Baden-Württemberg","County":"Ortenaukreis","City":"Nordrach","District":"Nordrach","Street":"Im Dorf","HouseNumber":"29","PostalCode":"77787","AdditionalData":[{"value":"Deutschland","key":"CountryName"},{"value":"Baden-Württemberg","key":"StateName"},{"value":"Ortenaukreis","key":"CountyName"}]},"MapReference":{"ReferenceId":"73549219","Spot":0.91,"SideOfStreet":"right","CountryId":"20147700","StateId":"20171489","CountyId":"20174699","CityId":"20174831","DistrictId":"20174833","AddressId":"179948392","RoadLinkId":"38258614"}}},{"Relevance":1.0,"Distance":155.5,"MatchLevel":"houseNumber","MatchQuality":{"Country":1.0,"State":1.0,"County":1.0,"City":1.0,"District":1.0,"Street":[1.0],"HouseNumber":1.0,"PostalCode":1.0},"MatchType":"interpolated","Location":{"LocationId":"NT_qX5aoMa2EGYWhMCJwkKcJC_ycD","LocationType":"point","DisplayPosition":{"Latitude":48.39789,"Longitude":8.07957},"MapView":{"TopLeft":{"Latitude":48.3990142,"Longitude":8.0778769},"BottomRight":{"Latitude":48.3967658,"Longitude":8.0812631}},"Address":{"Label":"Im Dorf 27, 77787 Nordrach, Deutschland","Country":"DEU","State":"Baden-Württemberg","County":"Ortenaukreis","City":"Nordrach","District":"Nordrach","Street":"Im Dorf","HouseNumber":"27","PostalCode":"77787","AdditionalData":[{"value":"Deutschland","key":"CountryName"},{"value":"Baden-Württemberg","key":"StateName"},{"value":"Ortenaukreis","key":"CountyName"}]},"MapReference":{"ReferenceId":"983954519","Spot":0.27,"SideOfStreet":"left","CountryId":"20147700","StateId":"20171489","CountyId":"20174699","CityId":"20174831","DistrictId":"20174833","AddressId":"178556239","RoadLinkId":"315204642"}}},{"Relevance":1.0,"Distance":166.9,"MatchLevel":"street","MatchQuality":{"Country":1.0,"State":1.0,"County":1.0,"City":1.0,"District":1.0,"Street":[1.0],"PostalCode":1.0},"Location":{"LocationId":"NT_qX5aoMa2EGYWhMCJwkKcJC_l_983954518_L","LocationType":"point","DisplayPosition":{"Latitude":48.39776,"Longitude":8.07937},"MapView":{"TopLeft":{"Latitude":48.39782,"Longitude":8.07937},"BottomRight":{"Latitude":48.39776,"Longitude":8.07947}},"Address":{"Label":"Im Dorf, 77787 Nordrach, Deutschland","Country":"DEU","State":"Baden-Württemberg","County":"Ortenaukreis","City":"Nordrach","District":"Nordrach","Street":"Im Dorf","PostalCode":"77787","AdditionalData":[{"value":"Deutschland","key":"CountryName"},{"value":"Baden-Württemberg","key":"StateName"},{"value":"Ortenaukreis","key":"CountyName"}]},"MapReference":{"ReferenceId":"983954518","Spot":0.0,"SideOfStreet":"left","CountryId":"20147700","StateId":"20171489","CountyId":"20174699","CityId":"20174831","DistrictId":"20174833"}}},{"Relevance":1.0,"Distance":166.9,"MatchLevel":"street","MatchQuality":{"Country":1.0,"State":1.0,"County":1.0,"City":1.0,"District":1.0,"Street":[1.0],"PostalCode":1.0},"Location":{"LocationId":"NT_3W1wVBAMvyeDtclJaKtwOD_l_1074003051_L","LocationType":"point","DisplayPosition":{"Latitude":48.39776,"Longitude":8.07937},"MapView":{"TopLeft":{"Latitude":48.39776,"Longitude":8.07937},"BottomRight":{"Latitude":48.39731,"Longitude":8.07981}},"Address":{"Label":"Schanzbachstraße, 77787 Nordrach, Deutschland","Country":"DEU","State":"Baden-Württemberg","County":"Ortenaukreis","City":"Nordrach","District":"Nordrach","Street":"Schanzbachstraße","PostalCode":"77787","AdditionalData":[{"value":"Deutschland","key":"CountryName"},{"value":"Baden-Württemberg","key":"StateName"},{"value":"Ortenaukreis","key":"CountyName"}]},"MapReference":{"ReferenceId":"1074003051","Spot":1.0,"SideOfStreet":"left","CountryId":"20147700","StateId":"20171489","CountyId":"20174699","CityId":"20174831","DistrictId":"20174833"}}},{"Relevance":1.0,"Distance":199.1,"MatchLevel":"houseNumber","MatchQuality":{"Country":1.0,"State":1.0,"County":1.0,"City":1.0,"District":1.0,"Street":[1.0],"HouseNumber":1.0,"PostalCode":1.0},"MatchType":"interpolated","Location":{"LocationId":"NT_qX5aoMa2EGYWhMCJwkKcJC_xQD","LocationType":"point","DisplayPosition":{"Latitude":48.39684,"Longitude":8.0779},"MapView":{"TopLeft":{"Latitude":48.3979642,"Longitude":8.0762069},"BottomRight":{"Latitude":48.3957158,"Longitude":8.0795931}},"Address":{"Label":"Im Dorf 14, 77787 Nordrach, Deutschland","Country":"DEU","State":"Baden-Württemberg","County":"Ortenaukreis","City":"Nordrach","District":"Nordrach","Street":"Im Dorf","HouseNumber":"14","PostalCode":"77787","AdditionalData":[{"value":"Deutschland","key":"CountryName"},{"value":"Baden-Württemberg","key":"StateName"},{"value":"Ortenaukreis","key":"CountyName"}]},"MapReference":{"ReferenceId":"983954517","Spot":0.59,"SideOfStreet":"right","CountryId":"20147700","StateId":"20171489","CountyId":"20174699","CityId":"20174831","DistrictId":"20174833","AddressId":"208810971","RoadLinkId":"315204640"}}},{"Relevance":1.0,"Distance":211.2,"MatchLevel":"houseNumber","MatchQuality":{"Country":1.0,"State":1.0,"County":1.0,"City":1.0,"District":1.0,"Street":[1.0],"HouseNumber":1.0,"PostalCode":1.0},"MatchType":"interpolated","Location":{"LocationId":"NT_YqKNc-xiBmJ1eOUbhInG1A_xA","LocationType":"point","DisplayPosition":{"Latitude":48.39707,"Longitude":8.07918},"MapView":{"TopLeft":{"Latitude":48.3981942,"Longitude":8.0774869},"BottomRight":{"Latitude":48.3959458,"Longitude":8.0808731}},"Address":{"Label":"Hans-Georg-Kluckert-Platz 1, 77787 Nordrach, Deutschland","Country":"DEU","State":"Baden-Württemberg","County":"Ortenaukreis","City":"Nordrach","District":"Nordrach","Street":"Hans-Georg-Kluckert-Platz","HouseNumber":"1","PostalCode":"77787","AdditionalData":[{"value":"Deutschland","key":"CountryName"},{"value":"Baden-Württemberg","key":"StateName"},{"value":"Ortenaukreis","key":"CountyName"}]},"MapReference":{"ReferenceId":"1074003052","Spot":0.25,"SideOfStreet":"right","CountryId":"20147700","StateId":"20171489","CountyId":"20174699","CityId":"20174831","DistrictId":"20174833","AddressId":"732505543","RoadLinkId":"394293590"}}}]}]}}