{"Response":{"MetaInfo":{"Timestamp":"2020-03-28T11:37:52.921+0000","NextPageInformation":"2"},"View":[{"_type":"SearchResultsViewType","ViewId":0,"Result":[{"Relevance":1.0,"Distance":0.0,"Direction":0.0,"MatchLevel":"district","MatchQuality":{"Country":1.0,"State":1.0,"County":1.0,"City":1.0,"District":1.0,"PostalCode":1.0},"Location":{"LocationId":"NT_X0WFVFHULa4wYXMCpZAqmB","LocationType":"point","DisplayPosition":{"Latitude":48.368404,"Longitude":14.0262033},"MapView":{"TopLeft":{"Latitude":48.38059,"Longitude":14.00624},"BottomRight":{"Latitude":48.36229,"Longitude":14.02903}},"Address":{"Label":"Aschach an der Donau, Oberösterreich, Österreich","Country":"AUT","State":"Oberösterreich","County":"Eferding","City":"Aschach an der Donau","District":"Aschach an der Donau","PostalCode":"4082","AdditionalData":[{"value":"Österreich","key":"CountryName"},{"value":"Oberösterreich","key":"StateName"},{"value":"Eferding","key":"CountyName"}]},"MapReference":{"ReferenceId":"1262633722","SideOfStreet":"neither","CountryId":"20128885","StateId":"20132880","CountyId":"20133069","CityId":"20133078","DistrictId":"20133080"}}},{"Relevance":1.0,"Distance":4.2,"MatchLevel":"houseNumber","MatchQuality":{"Country":1.0,"State":1.0,"County":1.0,"City":1.0,"District":1.0,"Street":[1.0],"HouseNumber":1.0,"PostalCode":1.0},"MatchType":"interpolated","Location":{"LocationId":"NT_-1sMg0XUfIsuVjH9ByGjJC_xED","LocationType":"point","DisplayPosition":{"Latitude":48.36836,"Longitude":14.02624},"MapView":{"TopLeft":{"Latitude":48.3694842,"Longitude":14.0245479},"BottomRight":{"Latitude":48.3672358,"Longitude":14.0279321}},"Address":{"Label":"Kurzwernhartplatz 11, 4082 Aschach an der Donau, Österreich","Country":"AUT","State":"Oberösterreich","County":"Eferding","City":"Aschach an der Donau","District":"Aschach an der Donau","Street":"Kurzwernhartplatz","HouseNumber":"11","PostalCode":"4082","AdditionalData":[{"value":"Österreich","key":"CountryName"},{"value":"Oberösterreich","key":"StateName"},{"value":"Eferding","key":"CountyName"}]},"MapReference":{"ReferenceId":"1262633722","Spot":0.95,"SideOfStreet":"left","CountryId":"20128885","StateId":"20132880","CountyId":"20133069","CityId":"20133078","DistrictId":"20133080","AddressId":"160815848","RoadLinkId":"588390546"}}},{"Relevance":1.0,"Distance":12.1,"MatchLevel":"houseNumber","MatchQuality":{"Country":1.0,"State":1.0,"County":1.0,"City":1.0,"District":1.0,"Street":[1.0],"HouseNumber":1.0,"PostalCode":1.0},"MatchType":"interpolated","Location":{"LocationId":"NT_-1sMg0XUfIsuVjH9ByGjJC_xID","LocationType":"point","DisplayPosition":{"Latitude":48.36848,"Longitude":14.02632},"MapView":{"TopLeft":{"Latitude":48.3696042,"Longitude":14.0246279},"BottomRight":{"Latitude":48.3673558,"Longitude":14.0280121}},"Address":{"Label":"Kurzwernhartplatz 12, 4082 Aschach an der Donau, Österreich","Country":"AUT","State":"Oberösterreich","County":"Eferding","City":"Aschach an der Donau","District":"Aschach an der Donau","Street":"Kurzwernhartplatz","HouseNumber":"12","PostalCode":"4082","AdditionalData":[{"value":"Österreich","key":"CountryName"},{"value":"Oberösterreich","key":"StateName"},{"value":"Eferding","key":"CountyName"}]},"MapReference":{"ReferenceId":"561519728","Spot":0.57,"SideOfStreet":"left","CountryId":"20128885","StateId":"20132880","CountyId":"20133069","CityId":"20133078","DistrictId":"20133080","AddressId":"214890390","RoadLinkId":"212746259"}}},{"Relevance":1.0,"Distance":28.7,"MatchLevel":"houseNumber","MatchQuality":{"Country":1.0,"State":1.0,"County":1.0,"City":1.0,"District":1.0,"Street":[1.0],"HouseNumber":1.0,"PostalCode":1.0},"MatchType":"interpolated","Location":{"LocationId":"NT_Rg9jfMOLBThIaovqw9A9NB_xA","LocationType":"point","DisplayPosition":{"Latitude":48.36865,"Longitude":14.026},"MapView":{"TopLeft":{"Latitude":48.3697742,"Longitude":14.0243079},"BottomRight":{"Latitude":48.3675258,"Longitude":14.0276921}},"Address":{"Label":"Reitingerstraße 1, 4082 Aschach an der Donau, Österreich","Country":"AUT","State":"Oberösterreich","County":"Eferding","City":"Aschach an der Donau","District":"Aschach an der Donau","Street":"Reitingerstraße","HouseNumber":"1","PostalCode":"4082","AdditionalData":[{"value":"Österreich","key":"CountryName"},{"value":"Oberösterreich","key":"StateName"},{"value":"Eferding","key":"CountyName"}]},"MapReference":{"ReferenceId":"561519713","Spot":0.2,"SideOfStreet":"left","CountryId":"20128885","StateId":"20132880","CountyId":"20133069","CityId":"20133078","DistrictId":"20133080","AddressId":"214890395","RoadLinkId":"28075364"}}},{"Relevance":1.0,"Distance":31.8,"MatchLevel":"houseNumber","MatchQuality":{"Country":1.0,"State":1.0,"County":1.0,"City":1.0,"District":1.0,"Street":[1.0],"HouseNumber":1.0,"PostalCode":1.0},"MatchType":"interpolated","Location":{"LocationId":"NT_kkKWOJ1.8KzDDn3fQQmqoA_xA","LocationType":"point","DisplayPosition":{"Latitude":48.36862,"Longitude":14.02641},"MapView":{"TopLeft":{"Latitude":48.3697442,"Longitude":14.0247179},"BottomRight":{"Latitude":48.3674958,"Longitude":14.0281021}},"Address":{"Label":"Ritzbergerstraße 1, 4082 Aschach an der Donau, Österreich","Country":"AUT","State":"Oberösterreich","County":"Eferding","City":"Aschach an der Donau","District":"Aschach an der Donau","Street":"Ritzbergerstraße","HouseNumber":"1","PostalCode":"4082","AdditionalData":[{"value":"Österreich","key":"CountryName"},{"value":"Oberösterreich","key":"StateName"},{"value":"Eferding","key":"CountyName"}]},"MapReference":{"ReferenceId":"561519726","Spot":0.09,"SideOfStreet":"left","CountryId":"20128885","StateId":"20132880","CountyId":"20133069","CityId":"20133078","DistrictId":"20133080","AddressId":"160815682","RoadLinkId":"28182681"}}},{"Relevance":1.0,"Distance":32.4,"MatchLevel":"street","MatchQuality":{"Country":1.0,"State":1.0,"County":1.0,"City":1.0,"District":1.0,"PostalCode":1.0},"Location":{"LocationId":"NT_x7AVGfgfaLxCXIXZi2MQXA_l_1042064767_L","LocationType":"point","DisplayPosition":{"Latitude":48.3682259,"Longitude":14.0265496},"MapView":{"TopLeft":{"Latitude":48.37414,"Longitude":14.02394},"BottomRight":{"Latitude":48.36323,"Longitude":14.02862}},"Address":{"Label":"4082 Aschach an der Donau, Österreich","Country":"AUT","State":"Oberösterreich","County":"Eferding","City":"Aschach an der Donau","District":"Aschach an der Donau","PostalCode":"4082","AdditionalData":[{"value":"Österreich","key":"CountryName"},{"value":"Oberösterreich","key":"StateName"},{"value":"Eferding","key":"CountyName"}]},"MapReference":{"ReferenceId":"1042064767","Spot":0.46,"SideOfStreet":"left","CountryId":"20128885","StateId":"20132880","CountyId":"20133069","CityId":"20133078","DistrictId":"20133080"}}},{"Relevance":1.0,"Distance":65.1,"MatchLevel":"landmark","MatchQuality":{"Country":1.0,"State":1.0,"Name":1.0},"Location":{"LocationId":"NT_2qfJFNhwYqlU7lsF9CnWXC","LocationType":"river","Name":"Donau","DisplayPosition":{"Latitude":48.372,"Longitude":14.03031},"MapView":{"TopLeft":{"Latitude":48.42565,"Longitude":13.97473},"BottomRight":{"Latitude":48.31835,"Longitude":14.07177}},"Address":{"Label":"Österreich","Country":"AUT","State":"Oberösterreich","AdditionalData":[{"value":"Österreich","key":"CountryName"},{"value":"Oberösterreich","key":"StateName"}]},"MapReference":{"CountryId":"20128885","StateId":"20132880","PlaceId":"51083030"}}},{"Relevance":1.0,"Distance":112.2,"MatchLevel":"street","MatchQuality":{"Country":1.0,"State":1.0,"County":1.0,"City":1.0,"District":1.0,"PostalCode":1.0},"Location":{"LocationId":"NT_x7AVGfgfaLxCXIXZi2MQXA_l_1262633723_R","LocationType":"point","DisplayPosition":{"Latitude":48.36745,"Longitude":14.02571},"MapView":{"TopLeft":{"Latitude":48.36745,"Longitude":14.02547},"BottomRight":{"Latitude":48.36677,"Longitude":14.02587}},"Address":{"Label":"4082 Aschach an der Donau, Österreich","Country":"AUT","State":"Oberösterreich","County":"Eferding","City":"Aschach an der Donau","District":"Aschach an der Donau","PostalCode":"4082","AdditionalData":[{"value":"Österreich","key":"CountryName"},{"value":"Oberösterreich","key":"StateName"},{"value":"Eferding","key":"CountyName"}]},"MapReference":{"ReferenceId":"1262633723","Spot":1.0,"SideOfStreet":"right","CountryId":"20128885","StateId":"20132880","CountyId":"20133069","CityId":"20133078","DistrictId":"20133080"}}},{"Relevance":1.0,"Distance":120.5,"MatchLevel":"houseNumber","MatchQuality":{"Country":1.0,"State":1.0,"County":1.0,"City":1.0,"District":1.0,"Street":[1.0],"HouseNumber":1.0,"PostalCode":1.0},"MatchType":"interpolated","Location":{"LocationId":"NT_-1sMg0XUfIsuVjH9ByGjJC_xA","LocationType":"point","DisplayPosition":{"Latitude":48.36738,"Longitude":14.02567},"MapView":{"TopLeft":{"Latitude":48.3685042,"Longitude":14.0239779},"BottomRight":{"Latitude":48.3662558,"Longitude":14.0273621}},"Address":{"Label":"Kurzwernhartplatz 1, 4082 Aschach an der Donau, Österreich","Country":"AUT","State":"Oberösterreich","County":"Eferding","City":"Aschach an der Donau","District":"Aschach an der Donau","Street":"Kurzwernhartplatz","HouseNumber":"1","PostalCode":"4082","AdditionalData":[{"value":"Österreich","key":"CountryName"},{"value":"Oberösterreich","key":"StateName"},{"value":"Eferding","key":"CountyName"}]},"MapReference":{"ReferenceId":"1262633721","Spot":0.47,"SideOfStreet":"left","CountryId":"20128885","StateId":"20132880","CountyId":"20133069","CityId":"20133078","DistrictId":"20133080","AddressId":"160815858","RoadLinkId":"588390545"}}},{"Relevance":1.0,"Distance":127.8,"MatchLevel":"street","MatchQuality":{"Country":1.0,"State":1.0,"County":1.0,"City":1.0,"District":1.0,"Street":[1.0],"PostalCode":1.0},"Location":{"LocationId":"NT_pGKQsN2Py1psjxVoVIS3PD_l_1262633720_R","LocationType":"point","DisplayPosition":{"Latitude":48.36732,"Longitude":14.02563},"MapView":{"TopLeft":{"Latitude":48.36732,"Longitude":14.02547},"BottomRight":{"Latitude":48.36677,"Longitude":14.02563}},"Address":{"Label":"Kirchenplatz, 4082 Aschach an der Donau, Österreich","Country":"AUT","State":"Oberösterreich","County":"Eferding","City":"Aschach an der Donau","District":"Aschach an der Donau","Street":"Kirchenplatz","PostalCode":"4082","AdditionalData":[{"value":"Österreich","key":"CountryName"},{"value":"Oberösterreich","key":"StateName"},{"value":"Eferding","key":"CountyName"}]},"MapReference":{"ReferenceId":"1262633720","Spot":1.0,"SideOfStreet":"right","CountryId":"20128885","StateId":"20132880","CountyId":"20133069","CityId":"20133078","DistrictId":"20133080"}}}]}]}}