{"Response":{"MetaInfo":{"Timestamp":"2020-03-28T11:00:21.824+0000","NextPageInformation":"2"},"View":[{"_type":"SearchResultsViewType","ViewId":0,"Result":[{"Relevance":1.0,"Distance":0.0,"Direction":0.0,"MatchLevel":"district","MatchQuality":{"Country":1.0,"State":1.0,"County":1.0,"City":1.0,"District":1.0,"PostalCode":1.0},"Location":{"LocationId":"NT_p7R5nakUpbjNcJn4G3Q4ID","LocationType":"point","DisplayPosition":{"Latitude":48.344898,"Longitude":7.8869042},"MapView":{"TopLeft":{"Latitude":48.36189,"Longitude":7.81657},"BottomRight":{"Latitude":48.32394,"Longitude":7.90093}},"Address":{"Label":"Lahr/Schwarzwald, Baden-Württemberg, Deutschland","Country":"DEU","State":"Baden-Württemberg","County":"Ortenaukreis","City":"Lahr/Schwarzwald","District":"Lahr/Schwarzwald","PostalCode":"77933","AdditionalData":[{"value":"Deutschland","key":"CountryName"},{"value":"Baden-Württemberg","key":"StateName"},{"value":"Ortenaukreis","key":"CountyName"}]},"MapReference":{"ReferenceId":"1194529276","SideOfStreet":"neither","CountryId":"20147700","StateId":"20171489","CountyId":"20174699","CityId":"20174803","DistrictId":"20174809"}}},{"Relevance":1.0,"Distance":23.2,"MatchLevel":"houseNumber","MatchQuality":{"Country":1.0,"State":1.0,"County":1.0,"City":1.0,"District":1.0,"Street":[1.0],"HouseNumber":1.0,"PostalCode":1.0},"MatchType":"interpolated","Location":{"LocationId":"NT_n9S8AjLv7f7nPUBj55bupC_xgD","LocationType":"point","DisplayPosition":{"Latitude":48.34502,"Longitude":7.88665},"MapView":{"TopLeft":{"Latitude":48.3461442,"Longitude":7.8849586},"BottomRight":{"Latitude":48.3438958,"Longitude":7.8883414}},"Address":{"Label":"Klostenstraße 18, 77933 Lahr/Schwarzwald, Deutschland","Country":"DEU","State":"Baden-Württemberg","County":"Ortenaukreis","City":"Lahr/Schwarzwald","District":"Lahr/Schwarzwald","Street":"Klostenstraße","HouseNumber":"18","PostalCode":"77933","AdditionalData":[{"value":"Deutschland","key":"CountryName"},{"value":"Baden-Württemberg","key":"StateName"},{"value":"Ortenaukreis","key":"CountyName"}]},"MapReference":{"ReferenceId":"589246203","Spot":0.39,"SideOfStreet":"right","CountryId":"20147700","StateId":"20171489","CountyId":"20174699","CityId":"20174803","DistrictId":"20174809","AddressId":"208785555","RoadLinkId":"38975424"}}},{"Relevance":1.0,"Distance":39.8,"MatchLevel":"street","MatchQuality":{"Country":1.0,"State":1.0,"County":1.0,"City":1.0,"District":1.0,"Street":[1.0],"PostalCode":1.0},"Location":{"LocationId":"NT_n9S8AjLv7f7nPUBj55bupC_l_589246096_L","LocationType":"point","DisplayPosition":{"Latitude":48.34482,"Longitude":7.88743},"MapView":{"TopLeft":{"Latitude":48.34482,"Longitude":7.88743},"BottomRight":{"Latitude":48.34418,"Longitude":7.88808}},"Address":{"Label":"Klostenstraße, 77933 Lahr/Schwarzwald, Deutschland","Country":"DEU","State":"Baden-Württemberg","County":"Ortenaukreis","City":"Lahr/Schwarzwald","District":"Lahr/Schwarzwald","Street":"Klostenstraße","PostalCode":"77933","AdditionalData":[{"value":"Deutschland","key":"CountryName"},{"value":"Baden-Württemberg","key":"StateName"},{"value":"Ortenaukreis","key":"CountyName"}]},"MapReference":{"ReferenceId":"589246096","Spot":1.0,"SideOfStreet":"left","CountryId":"20147700","StateId":"20171489","CountyId":"20174699","CityId":"20174803","DistrictId":"20174809"}}},{"Relevance":1.0,"Distance":43.3,"MatchLevel":"houseNumber","MatchQuality":{"Country":1.0,"State":1.0,"County":1.0,"City":1.0,"District":1.0,"Street":[1.0],"HouseNumber":1.0,"PostalCode":1.0},"MatchType":"interpolated","Location":{"LocationId":"NT_W-L7JRsbKbyrpsqVP09aDD_2ID","LocationType":"point","DisplayPosition":{"Latitude":48.34515,"Longitude":7.88754},"MapView":{"TopLeft":{"Latitude":48.3462742,"Longitude":7.8858486},"BottomRight":{"Latitude":48.3440258,"Longitude":7.8892314}},"Address":{"Label":"Merzengasse 62, 77933 Lahr/Schwarzwald, Deutschland","Country":"DEU","State":"Baden-Württemberg","County":"Ortenaukreis","City":"Lahr/Schwarzwald","District":"Lahr/Schwarzwald","Street":"Merzengasse","HouseNumber":"62","PostalCode":"77933","AdditionalData":[{"value":"Deutschland","key":"CountryName"},{"value":"Baden-Württemberg","key":"StateName"},{"value":"Ortenaukreis","key":"CountyName"}]},"MapReference":{"ReferenceId":"540910245","Spot":0.0,"SideOfStreet":"left","CountryId":"20147700","StateId":"20171489","CountyId":"20174699","CityId":"20174803","DistrictId":"20174809","AddressId":"621631220","RoadLinkId":"38092929"}}},{"Relevance":1.0,"Distance":54.0,"MatchLevel":"houseNumber","MatchQuality":{"Country":1.0,"State":1.0,"County":1.0,"City":1.0,"District":1.0,"Street":[1.0],"HouseNumber":1.0,"PostalCode":1.0},"MatchType":"interpolated","Location":{"LocationId":"NT_W-L7JRsbKbyrpsqVP09aDD_1AzLxA","LocationType":"point","DisplayPosition":{"Latitude":48.34548,"Longitude":7.88717},"MapView":{"TopLeft":{"Latitude":48.3466042,"Longitude":7.8854786},"BottomRight":{"Latitude":48.3443558,"Longitude":7.8888614}},"Address":{"Label":"Merzengasse 50/1, 77933 Lahr/Schwarzwald, Deutschland","Country":"DEU","State":"Baden-Württemberg","County":"Ortenaukreis","City":"Lahr/Schwarzwald","District":"Lahr/Schwarzwald","Street":"Merzengasse","HouseNumber":"50/1","PostalCode":"77933","AdditionalData":[{"value":"Deutschland","key":"CountryName"},{"value":"Baden-Württemberg","key":"StateName"},{"value":"Ortenaukreis","key":"CountyName"}]},"MapReference":{"ReferenceId":"540910247","Spot":0.0,"SideOfStreet":"left","CountryId":"20147700","StateId":"20171489","CountyId":"20174699","CityId":"20174803","DistrictId":"20174809","AddressId":"208810504","RoadLinkId":"38364134"}}},{"Relevance":1.0,"Distance":84.7,"MatchLevel":"houseNumber","MatchQuality":{"Country":1.0,"State":1.0,"County":1.0,"City":1.0,"District":1.0,"Street":[1.0],"HouseNumber":1.0,"PostalCode":1.0},"MatchType":"interpolated","Location":{"LocationId":"NT_W-L7JRsbKbyrpsqVP09aDD_0ID","LocationType":"point","DisplayPosition":{"Latitude":48.34565,"Longitude":7.88672},"MapView":{"TopLeft":{"Latitude":48.3467742,"Longitude":7.8850286},"BottomRight":{"Latitude":48.3445258,"Longitude":7.8884114}},"Address":{"Label":"Merzengasse 42, 77933 Lahr/Schwarzwald, Deutschland","Country":"DEU","State":"Baden-Württemberg","County":"Ortenaukreis","City":"Lahr/Schwarzwald","District":"Lahr/Schwarzwald","Street":"Merzengasse","HouseNumber":"42","PostalCode":"77933","AdditionalData":[{"value":"Deutschland","key":"CountryName"},{"value":"Baden-Württemberg","key":"StateName"},{"value":"Ortenaukreis","key":"CountyName"}]},"MapReference":{"ReferenceId":"540910249","Spot":0.0,"SideOfStreet":"left","CountryId":"20147700","StateId":"20171489","CountyId":"20174699","CityId":"20174803","DistrictId":"20174809","AddressId":"208802434","RoadLinkId":"38217495"}}},{"Relevance":1.0,"Distance":91.9,"MatchLevel":"houseNumber","MatchQuality":{"Country":1.0,"State":1.0,"County":1.0,"City":1.0,"District":1.0,"Street":[1.0],"HouseNumber":1.0,"PostalCode":1.0},"MatchType":"interpolated","Location":{"LocationId":"NT_n9S8AjLv7f7nPUBj55bupC_xkD","LocationType":"point","DisplayPosition":{"Latitude":48.34456,"Longitude":7.88577},"MapView":{"TopLeft":{"Latitude":48.3456842,"Longitude":7.8840787},"BottomRight":{"Latitude":48.3434358,"Longitude":7.8874613}},"Address":{"Label":"Klostenstraße 19, 77933 Lahr/Schwarzwald, Deutschland","Country":"DEU","State":"Baden-Württemberg","County":"Ortenaukreis","City":"Lahr/Schwarzwald","District":"Lahr/Schwarzwald","Street":"Klostenstraße","HouseNumber":"19","PostalCode":"77933","AdditionalData":[{"value":"Deutschland","key":"CountryName"},{"value":"Baden-Württemberg","key":"StateName"},{"value":"Ortenaukreis","key":"CountyName"}]},"MapReference":{"ReferenceId":"589246204","Spot":0.0,"SideOfStreet":"left","CountryId":"20147700","StateId":"20171489","CountyId":"20174699","CityId":"20174803","DistrictId":"20174809","AddressId":"208772384","RoadLinkId":"38433035"}}},{"Relevance":1.0,"Distance":103.0,"MatchLevel":"houseNumber","MatchQuality":{"Country":1.0,"State":1.0,"County":1.0,"City":1.0,"District":1.0,"Street":[1.0],"HouseNumber":1.0,"PostalCode":1.0},"MatchType":"interpolated","Location":{"LocationId":"NT_I7jTHfBbwNqazj-ExyBxuB_y8iM","LocationType":"point","DisplayPosition":{"Latitude":48.34578,"Longitude":7.8854},"MapView":{"TopLeft":{"Latitude":48.3469042,"Longitude":7.8837086},"BottomRight":{"Latitude":48.3446558,"Longitude":7.8870914}},"Address":{"Label":"Hosenmattenweg 2/2, 77933 Lahr/Schwarzwald, Deutschland","Country":"DEU","State":"Baden-Württemberg","County":"Ortenaukreis","City":"Lahr/Schwarzwald","District":"Lahr/Schwarzwald","Street":"Hosenmattenweg","HouseNumber":"2/2","PostalCode":"77933","AdditionalData":[{"value":"Deutschland","key":"CountryName"},{"value":"Baden-Württemberg","key":"StateName"},{"value":"Ortenaukreis","key":"CountyName"}]},"MapReference":{"ReferenceId":"73473756","Spot":0.44,"SideOfStreet":"right","CountryId":"20147700","StateId":"20171489","CountyId":"20174699","CityId":"20174803","DistrictId":"20174809","AddressId":"179704421","RoadLinkId":"38716205"}}},{"Relevance":1.0,"Distance":118.0,"MatchLevel":"street","MatchQuality":{"Country":1.0,"State":1.0,"County":1.0,"City":1.0,"District":1.0,"Street":[1.0],"PostalCode":1.0},"Location":{"LocationId":"NT_W49aLS0F-RVnyOm.nenopA_l_73507374_L","LocationType":"point","DisplayPosition":{"Latitude":48.34418,"Longitude":7.88808},"MapView":{"TopLeft":{"Latitude":48.34418,"Longitude":7.88802},"BottomRight":{"Latitude":48.34335,"Longitude":7.88852}},"Address":{"Label":"Hegweg, 77933 Lahr/Schwarzwald, Deutschland","Country":"DEU","State":"Baden-Württemberg","County":"Ortenaukreis","City":"Lahr/Schwarzwald","District":"Lahr/Schwarzwald","Street":"Hegweg","PostalCode":"77933","AdditionalData":[{"value":"Deutschland","key":"CountryName"},{"value":"Baden-Württemberg","key":"StateName"},{"value":"Ortenaukreis","key":"CountyName"}]},"MapReference":{"ReferenceId":"73507374","Spot":1.0,"SideOfStreet":"left","CountryId":"20147700","StateId":"20171489","CountyId":"20174699","CityId":"20174803","DistrictId":"20174809"}}},{"Relevance":1.0,"Distance":118.0,"MatchLevel":"street","MatchQuality":{"Country":1.0,"State":1.0,"County":1.0,"City":1.0,"Street":[1.0],"PostalCode":1.0},"Location":{"LocationId":"NT_JnsNNVs48PhXOdM105-xMD_l_73507371_L","LocationType":"point","DisplayPosition":{"Latitude":48.34418,"Longitude":7.88808},"MapView":{"TopLeft":{"Latitude":48.34586,"Longitude":7.88808},"BottomRight":{"Latitude":48.34418,"Longitude":7.89033}},"Address":{"Label":"Hegweg, 77933 Lahr/Schwarzwald, Deutschland","Country":"DEU","State":"Baden-Württemberg","County":"Ortenaukreis","City":"Lahr/Schwarzwald","Street":"Hegweg","PostalCode":"77933","AdditionalData":[{"value":"Deutschland","key":"CountryName"},{"value":"Baden-Württemberg","key":"StateName"},{"value":"Ortenaukreis","key":"CountyName"}]},"MapReference":{"ReferenceId":"73507371","Spot":0.0,"SideOfStreet":"left","CountryId":"20147700","StateId":"20171489","CountyId":"20174699","CityId":"20174803"}}}]}]}}