{"Response":{"MetaInfo":{"Timestamp":"2020-03-28T09:36:16.156+0000","NextPageInformation":"2"},"View":[{"_type":"SearchResultsViewType","ViewId":0,"Result":[{"Relevance":1.0,"Distance":0.0,"Direction":0.0,"MatchLevel":"district","MatchQuality":{"Country":1.0,"State":1.0,"County":1.0,"City":1.0,"District":1.0,"PostalCode":1.0},"Location":{"LocationId":"NT_p7R5nakUpbjNcJn4G3Q4ID","LocationType":"point","DisplayPosition":{"Latitude":48.3431052,"Longitude":7.869816},"MapView":{"TopLeft":{"Latitude":48.36189,"Longitude":7.81657},"BottomRight":{"Latitude":48.32394,"Longitude":7.90093}},"Address":{"Label":"Lahr/Schwarzwald, Baden-Württemberg, Deutschland","Country":"DEU","State":"Baden-Württemberg","County":"Ortenaukreis","City":"Lahr/Schwarzwald","District":"Lahr/Schwarzwald","PostalCode":"77933","AdditionalData":[{"value":"Deutschland","key":"CountryName"},{"value":"Baden-Württemberg","key":"StateName"},{"value":"Ortenaukreis","key":"CountyName"}]},"MapReference":{"ReferenceId":"1194529276","SideOfStreet":"neither","CountryId":"20147700","StateId":"20171489","CountyId":"20174699","CityId":"20174803","DistrictId":"20174809"}}},{"Relevance":1.0,"Distance":4.4,"MatchLevel":"houseNumber","MatchQuality":{"Country":1.0,"State":1.0,"County":1.0,"City":1.0,"District":1.0,"Street":[1.0],"HouseNumber":1.0,"PostalCode":1.0},"MatchType":"interpolated","Location":{"LocationId":"NT_JzW0MsZolykCWT24spEoAA_ygD","LocationType":"point","DisplayPosition":{"Latitude":48.34302,"Longitude":7.86994},"MapView":{"TopLeft":{"Latitude":48.3441442,"Longitude":7.8682487},"BottomRight":{"Latitude":48.3418958,"Longitude":7.8716313}},"Address":{"Label":"Obere Bergstraße 28, 77933 Lahr/Schwarzwald, Deutschland","Country":"DEU","State":"Baden-Württemberg","County":"Ortenaukreis","City":"Lahr/Schwarzwald","District":"Lahr/Schwarzwald","Street":"Obere Bergstraße","HouseNumber":"28","PostalCode":"77933","AdditionalData":[{"value":"Deutschland","key":"CountryName"},{"value":"Baden-Württemberg","key":"StateName"},{"value":"Ortenaukreis","key":"CountyName"}]},"MapReference":{"ReferenceId":"73473486","Spot":0.5,"SideOfStreet":"left","CountryId":"20147700","StateId":"20171489","CountyId":"20174699","CityId":"20174803","DistrictId":"20174809","AddressId":"179954674","RoadLinkId":"38870398"}}},{"Relevance":1.0,"Distance":47.5,"MatchLevel":"houseNumber","MatchQuality":{"Country":1.0,"State":1.0,"County":1.0,"City":1.0,"District":1.0,"Street":[1.0],"HouseNumber":1.0,"PostalCode":1.0},"MatchType":"interpolated","Location":{"LocationId":"NT_suCwiXc.5thxnp9uYH2qkD_yA","LocationType":"point","DisplayPosition":{"Latitude":48.34323,"Longitude":7.87043},"MapView":{"TopLeft":{"Latitude":48.3443542,"Longitude":7.8687387},"BottomRight":{"Latitude":48.3421058,"Longitude":7.8721213}},"Address":{"Label":"Emil-Gött-Straße 2, 77933 Lahr/Schwarzwald, Deutschland","Country":"DEU","State":"Baden-Württemberg","County":"Ortenaukreis","City":"Lahr/Schwarzwald","District":"Lahr/Schwarzwald","Street":"Emil-Gött-Straße","HouseNumber":"2","PostalCode":"77933","AdditionalData":[{"value":"Deutschland","key":"CountryName"},{"value":"Baden-Württemberg","key":"StateName"},{"value":"Ortenaukreis","key":"CountyName"}]},"MapReference":{"ReferenceId":"960301752","Spot":0.28,"SideOfStreet":"right","CountryId":"20147700","StateId":"20171489","CountyId":"20174699","CityId":"20174803","DistrictId":"20174809","AddressId":"179045307","RoadLinkId":"302400466"}}},{"Relevance":1.0,"Distance":55.0,"MatchLevel":"houseNumber","MatchQuality":{"Country":1.0,"State":1.0,"County":1.0,"City":1.0,"District":1.0,"Street":[1.0],"HouseNumber":1.0,"PostalCode":1.0},"MatchType":"interpolated","Location":{"LocationId":"NT_SmxgsS3.bkT5E.03RnL60A_xA","LocationType":"point","DisplayPosition":{"Latitude":48.34374,"Longitude":7.86995},"MapView":{"TopLeft":{"Latitude":48.3448642,"Longitude":7.8682587},"BottomRight":{"Latitude":48.3426158,"Longitude":7.8716413}},"Address":{"Label":"Mauergäßchen 1, 77933 Lahr/Schwarzwald, Deutschland","Country":"DEU","State":"Baden-Württemberg","County":"Ortenaukreis","City":"Lahr/Schwarzwald","District":"Lahr/Schwarzwald","Street":"Mauergäßchen","HouseNumber":"1","PostalCode":"77933","AdditionalData":[{"value":"Deutschland","key":"CountryName"},{"value":"Baden-Württemberg","key":"StateName"},{"value":"Ortenaukreis","key":"CountyName"}]},"MapReference":{"ReferenceId":"960301754","Spot":0.34,"SideOfStreet":"left","CountryId":"20147700","StateId":"20171489","CountyId":"20174699","CityId":"20174803","DistrictId":"20174809","AddressId":"414568474","RoadLinkId":"302400468"}}},{"Relevance":1.0,"Distance":61.9,"MatchLevel":"street","MatchQuality":{"Country":1.0,"State":1.0,"County":1.0,"City":1.0,"District":1.0,"Street":[1.0],"PostalCode":1.0},"Location":{"LocationId":"NT_Xjd1zr-tSxhOzr632VeumD_l_983944128_L","LocationType":"point","DisplayPosition":{"Latitude":48.34255,"Longitude":7.86988},"MapView":{"TopLeft":{"Latitude":48.34255,"Longitude":7.86988},"BottomRight":{"Latitude":48.34255,"Longitude":7.87007}},"Address":{"Label":"Turmstraße, 77933 Lahr/Schwarzwald, Deutschland","Country":"DEU","State":"Baden-Württemberg","County":"Ortenaukreis","City":"Lahr/Schwarzwald","District":"Lahr/Schwarzwald","Street":"Turmstraße","PostalCode":"77933","AdditionalData":[{"value":"Deutschland","key":"CountryName"},{"value":"Baden-Württemberg","key":"StateName"},{"value":"Ortenaukreis","key":"CountyName"}]},"MapReference":{"ReferenceId":"983944128","Spot":0.0,"SideOfStreet":"left","CountryId":"20147700","StateId":"20171489","CountyId":"20174699","CityId":"20174803","DistrictId":"20174809"}}},{"Relevance":1.0,"Distance":63.9,"MatchLevel":"houseNumber","MatchQuality":{"Country":1.0,"State":1.0,"County":1.0,"City":1.0,"District":1.0,"Street":[1.0],"HouseNumber":1.0,"PostalCode":1.0},"MatchType":"interpolated","Location":{"LocationId":"NT_52AgzHHpHFFjptUs-2uMVC_zYD","LocationType":"point","DisplayPosition":{"Latitude":48.34256,"Longitude":7.86927},"MapView":{"TopLeft":{"Latitude":48.3436842,"Longitude":7.8675787},"BottomRight":{"Latitude":48.3414358,"Longitude":7.8709613}},"Address":{"Label":"Bergstraße 36, 77933 Lahr/Schwarzwald, Deutschland","Country":"DEU","State":"Baden-Württemberg","County":"Ortenaukreis","City":"Lahr/Schwarzwald","District":"Lahr/Schwarzwald","Street":"Bergstraße","HouseNumber":"36","PostalCode":"77933","AdditionalData":[{"value":"Deutschland","key":"CountryName"},{"value":"Baden-Württemberg","key":"StateName"},{"value":"Ortenaukreis","key":"CountyName"}]},"MapReference":{"ReferenceId":"73474047","Spot":0.54,"SideOfStreet":"left","CountryId":"20147700","StateId":"20171489","CountyId":"20174699","CityId":"20174803","DistrictId":"20174809","AddressId":"179619066","RoadLinkId":"38597990"}}},{"Relevance":1.0,"Distance":69.3,"MatchLevel":"houseNumber","MatchQuality":{"Country":1.0,"State":1.0,"County":1.0,"City":1.0,"District":1.0,"Street":[1.0],"HouseNumber":1.0,"PostalCode":1.0},"MatchType":"interpolated","Location":{"LocationId":"NT_E9VflMqNo2SopbomKiEffC_08iM","LocationType":"point","DisplayPosition":{"Latitude":48.34354,"Longitude":7.86857},"MapView":{"TopLeft":{"Latitude":48.3446642,"Longitude":7.8668787},"BottomRight":{"Latitude":48.3424158,"Longitude":7.8702613}},"Address":{"Label":"Voelckerstraße 4/2, 77933 Lahr/Schwarzwald, Deutschland","Country":"DEU","State":"Baden-Württemberg","County":"Ortenaukreis","City":"Lahr/Schwarzwald","District":"Lahr/Schwarzwald","Street":"Voelckerstraße","HouseNumber":"4/2","PostalCode":"77933","AdditionalData":[{"value":"Deutschland","key":"CountryName"},{"value":"Baden-Württemberg","key":"StateName"},{"value":"Ortenaukreis","key":"CountyName"}]},"MapReference":{"ReferenceId":"73473337","Spot":0.33,"SideOfStreet":"right","CountryId":"20147700","StateId":"20171489","CountyId":"20174699","CityId":"20174803","DistrictId":"20174809","AddressId":"179120136","RoadLinkId":"38771062"}}},{"Relevance":1.0,"Distance":75.1,"MatchLevel":"houseNumber","MatchQuality":{"Country":1.0,"State":1.0,"County":1.0,"City":1.0,"District":1.0,"Street":[1.0],"HouseNumber":1.0,"PostalCode":1.0},"MatchType":"interpolated","Location":{"LocationId":"NT_OLsoxWWnIx3MCIGhGak5TB_xAD","LocationType":"point","DisplayPosition":{"Latitude":48.34243,"Longitude":7.86988},"MapView":{"TopLeft":{"Latitude":48.3435542,"Longitude":7.8681887},"BottomRight":{"Latitude":48.3413058,"Longitude":7.8715713}},"Address":{"Label":"Liebensteinstraße 10, 77933 Lahr/Schwarzwald, Deutschland","Country":"DEU","State":"Baden-Württemberg","County":"Ortenaukreis","City":"Lahr/Schwarzwald","District":"Lahr/Schwarzwald","Street":"Liebensteinstraße","HouseNumber":"10","PostalCode":"77933","AdditionalData":[{"value":"Deutschland","key":"CountryName"},{"value":"Baden-Württemberg","key":"StateName"},{"value":"Ortenaukreis","key":"CountyName"}]},"MapReference":{"ReferenceId":"73473410","Spot":0.88,"SideOfStreet":"left","CountryId":"20147700","StateId":"20171489","CountyId":"20174699","CityId":"20174803","DistrictId":"20174809","AddressId":"180452695","RoadLinkId":"38164724"}}},{"Relevance":1.0,"Distance":82.6,"MatchLevel":"houseNumber","MatchQuality":{"Country":1.0,"State":1.0,"County":1.0,"City":1.0,"District":1.0,"Street":[1.0],"HouseNumber":1.0,"PostalCode":1.0},"MatchType":"interpolated","Location":{"LocationId":"NT_JzW0MsZolykCWT24spEoAA_yAD","LocationType":"point","DisplayPosition":{"Latitude":48.34305,"Longitude":7.87093},"MapView":{"TopLeft":{"Latitude":48.3441742,"Longitude":7.8692387},"BottomRight":{"Latitude":48.3419258,"Longitude":7.8726213}},"Address":{"Label":"Obere Bergstraße 20, 77933 Lahr/Schwarzwald, Deutschland","Country":"DEU","State":"Baden-Württemberg","County":"Ortenaukreis","City":"Lahr/Schwarzwald","District":"Lahr/Schwarzwald","Street":"Obere Bergstraße","HouseNumber":"20","PostalCode":"77933","AdditionalData":[{"value":"Deutschland","key":"CountryName"},{"value":"Baden-Württemberg","key":"StateName"},{"value":"Ortenaukreis","key":"CountyName"}]},"MapReference":{"ReferenceId":"540910212","Spot":0.31,"SideOfStreet":"right","CountryId":"20147700","StateId":"20171489","CountyId":"20174699","CityId":"20174803","DistrictId":"20174809","AddressId":"178111134","RoadLinkId":"38953832"}}},{"Relevance":1.0,"Distance":92.8,"MatchLevel":"houseNumber","MatchQuality":{"Country":1.0,"State":1.0,"County":1.0,"City":1.0,"District":1.0,"Street":[1.0],"HouseNumber":1.0,"PostalCode":1.0},"MatchType":"interpolated","Location":{"LocationId":"NT_suCwiXc.5thxnp9uYH2qkD_xA","LocationType":"point","DisplayPosition":{"Latitude":48.34386,"Longitude":7.87051},"MapView":{"TopLeft":{"Latitude":48.3449842,"Longitude":7.8688187},"BottomRight":{"Latitude":48.3427358,"Longitude":7.8722013}},"Address":{"Label":"Emil-Gött-Straße 1, 77933 Lahr/Schwarzwald, Deutschland","Country":"DEU","State":"Baden-Württemberg","County":"Ortenaukreis","City":"Lahr/Schwarzwald","District":"Lahr/Schwarzwald","Street":"Emil-Gött-Straße","HouseNumber":"1","PostalCode":"77933","AdditionalData":[{"value":"Deutschland","key":"CountryName"},{"value":"Baden-Württemberg","key":"StateName"},{"value":"Ortenaukreis","key":"CountyName"}]},"MapReference":{"ReferenceId":"960301753","Spot":0.09,"SideOfStreet":"left","CountryId":"20147700","StateId":"20171489","CountyId":"20174699","CityId":"20174803","DistrictId":"20174809","AddressId":"178874874","RoadLinkId":"302400467"}}}]}]}}