{"Response":{"MetaInfo":{"Timestamp":"2020-03-28T11:37:24.212+0000","NextPageInformation":"2"},"View":[{"_type":"SearchResultsViewType","ViewId":0,"Result":[{"Relevance":1.0,"Distance":0.0,"Direction":0.0,"MatchLevel":"city","MatchQuality":{"Country":1.0,"State":1.0,"County":1.0,"City":1.0,"PostalCode":1.0},"Location":{"LocationId":"NT_ExbybJJFzGsNKUqb4Yk-IC","LocationType":"point","DisplayPosition":{"Latitude":48.3588197,"Longitude":14.1381034},"MapView":{"TopLeft":{"Latitude":48.37511,"Longitude":14.10692},"BottomRight":{"Latitude":48.32507,"Longitude":14.17932}},"Address":{"Label":"Walding, Oberösterreich, Österreich","Country":"AUT","State":"Oberösterreich","County":"Urfahr-Umgebung","City":"Walding","PostalCode":"4111","AdditionalData":[{"value":"Österreich","key":"CountryName"},{"value":"Oberösterreich","key":"StateName"},{"value":"Urfahr-Umgebung","key":"CountyName"}]},"MapReference":{"ReferenceId":"842389135","SideOfStreet":"neither","CountryId":"20128885","StateId":"20132880","CountyId":"20134061","CityId":"20134145"}}},{"Relevance":1.0,"Distance":13.4,"MatchLevel":"houseNumber","MatchQuality":{"Country":1.0,"State":1.0,"County":1.0,"City":1.0,"Street":[1.0],"HouseNumber":1.0,"PostalCode":1.0},"MatchType":"interpolated","Location":{"LocationId":"NT_qF87Ux0HThQ0RwFASXskiD_xA","LocationType":"point","DisplayPosition":{"Latitude":48.35914,"Longitude":14.13841},"MapView":{"TopLeft":{"Latitude":48.3602642,"Longitude":14.1367182},"BottomRight":{"Latitude":48.3580158,"Longitude":14.1401018}},"Address":{"Label":"Rohrbacher Straße 1, 4111 Walding, Österreich","Country":"AUT","State":"Oberösterreich","County":"Urfahr-Umgebung","City":"Walding","Street":"Rohrbacher Straße","HouseNumber":"1","PostalCode":"4111","AdditionalData":[{"value":"Österreich","key":"CountryName"},{"value":"Oberösterreich","key":"StateName"},{"value":"Urfahr-Umgebung","key":"CountyName"}]},"MapReference":{"ReferenceId":"62793290","Spot":0.1,"SideOfStreet":"left","CountryId":"20128885","StateId":"20132880","CountyId":"20134061","CityId":"20134145","AddressId":"161292125","RoadLinkId":"28513794"}}},{"Relevance":1.0,"Distance":14.5,"MatchLevel":"street","MatchQuality":{"Country":1.0,"State":1.0,"County":1.0,"City":1.0,"Street":[1.0],"PostalCode":1.0},"Location":{"LocationId":"NT_cC.IiiQYUtYTNADzVYWoKD_l_917097171_L","LocationType":"point","DisplayPosition":{"Latitude":48.3587045,"Longitude":14.1381956},"MapView":{"TopLeft":{"Latitude":48.35902,"Longitude":14.13744},"BottomRight":{"Latitude":48.35828,"Longitude":14.13859}},"Address":{"Label":"Güterweg Mursberg, 4111 Walding, Österreich","Country":"AUT","State":"Oberösterreich","County":"Urfahr-Umgebung","City":"Walding","Street":"Güterweg Mursberg","PostalCode":"4111","AdditionalData":[{"value":"Österreich","key":"CountryName"},{"value":"Oberösterreich","key":"StateName"},{"value":"Urfahr-Umgebung","key":"CountyName"}]},"MapReference":{"ReferenceId":"917097171","Spot":0.63,"SideOfStreet":"left","CountryId":"20128885","StateId":"20132880","CountyId":"20134061","CityId":"20134145"}}},{"Relevance":1.0,"Distance":35.3,"MatchLevel":"houseNumber","MatchQuality":{"Country":1.0,"State":1.0,"County":1.0,"City":1.0,"Street":[1.0],"HouseNumber":1.0,"PostalCode":1.0},"MatchType":"interpolated","Location":{"LocationId":"NT_fANpSP5FQeF8ueIt64QXNB_1A","LocationType":"point","DisplayPosition":{"Latitude":48.35842,"Longitude":14.13843},"MapView":{"TopLeft":{"Latitude":48.3595442,"Longitude":14.1367382},"BottomRight":{"Latitude":48.3572958,"Longitude":14.1401218}},"Address":{"Label":"Gartenweg 5, 4111 Walding, Österreich","Country":"AUT","State":"Oberösterreich","County":"Urfahr-Umgebung","City":"Walding","Street":"Gartenweg","HouseNumber":"5","PostalCode":"4111","AdditionalData":[{"value":"Österreich","key":"CountryName"},{"value":"Oberösterreich","key":"StateName"},{"value":"Urfahr-Umgebung","key":"CountyName"}]},"MapReference":{"ReferenceId":"567685982","Spot":0.42,"SideOfStreet":"left","CountryId":"20128885","StateId":"20132880","CountyId":"20134061","CityId":"20134145","AddressId":"161292171","RoadLinkId":"28564290"}}},{"Relevance":1.0,"Distance":42.3,"MatchLevel":"street","MatchQuality":{"Country":1.0,"State":1.0,"County":1.0,"City":1.0,"Street":[1.0],"PostalCode":1.0},"Location":{"LocationId":"NT_fANpSP5FQeF8ueIt64QXNB_l_567685988_L","LocationType":"point","DisplayPosition":{"Latitude":48.35902,"Longitude":14.13859},"MapView":{"TopLeft":{"Latitude":48.35902,"Longitude":14.13859},"BottomRight":{"Latitude":48.35879,"Longitude":14.13894}},"Address":{"Label":"Gartenweg, 4111 Walding, Österreich","Country":"AUT","State":"Oberösterreich","County":"Urfahr-Umgebung","City":"Walding","Street":"Gartenweg","PostalCode":"4111","AdditionalData":[{"value":"Österreich","key":"CountryName"},{"value":"Oberösterreich","key":"StateName"},{"value":"Urfahr-Umgebung","key":"CountyName"}]},"MapReference":{"ReferenceId":"567685988","Spot":1.0,"SideOfStreet":"left","CountryId":"20128885","StateId":"20132880","CountyId":"20134061","CityId":"20134145"}}},{"Relevance":1.0,"Distance":61.9,"MatchLevel":"street","MatchQuality":{"Country":1.0,"State":1.0,"County":1.0,"City":1.0,"Street":[1.0],"PostalCode":1.0},"Location":{"LocationId":"NT_fANpSP5FQeF8ueIt64QXNB_l_1130780553_L","LocationType":"point","DisplayPosition":{"Latitude":48.35879,"Longitude":14.13894},"MapView":{"TopLeft":{"Latitude":48.35879,"Longitude":14.13894},"BottomRight":{"Latitude":48.35869,"Longitude":14.13909}},"Address":{"Label":"Gartenweg, 4111 Walding, Österreich","Country":"AUT","State":"Oberösterreich","County":"Urfahr-Umgebung","City":"Walding","Street":"Gartenweg","PostalCode":"4111","AdditionalData":[{"value":"Österreich","key":"CountryName"},{"value":"Oberösterreich","key":"StateName"},{"value":"Urfahr-Umgebung","key":"CountyName"}]},"MapReference":{"ReferenceId":"1130780553","Spot":1.0,"SideOfStreet":"left","CountryId":"20128885","StateId":"20132880","CountyId":"20134061","CityId":"20134145"}}},{"Relevance":1.0,"Distance":77.5,"MatchLevel":"street","MatchQuality":{"Country":1.0,"State":1.0,"County":1.0,"City":1.0,"Street":[1.0],"PostalCode":1.0},"Location":{"LocationId":"NT_cC.IiiQYUtYTNADzVYWoKD_l_917097180_L","LocationType":"point","DisplayPosition":{"Latitude":48.35828,"Longitude":14.13744},"MapView":{"TopLeft":{"Latitude":48.35828,"Longitude":14.13713},"BottomRight":{"Latitude":48.3582,"Longitude":14.13744}},"Address":{"Label":"Güterweg Mursberg, 4111 Walding, Österreich","Country":"AUT","State":"Oberösterreich","County":"Urfahr-Umgebung","City":"Walding","Street":"Güterweg Mursberg","PostalCode":"4111","AdditionalData":[{"value":"Österreich","key":"CountryName"},{"value":"Oberösterreich","key":"StateName"},{"value":"Urfahr-Umgebung","key":"CountyName"}]},"MapReference":{"ReferenceId":"917097180","Spot":1.0,"SideOfStreet":"left","CountryId":"20128885","StateId":"20132880","CountyId":"20134061","CityId":"20134145"}}},{"Relevance":1.0,"Distance":97.9,"MatchLevel":"landmark","MatchQuality":{"Country":1.0,"State":1.0,"County":1.0,"Name":1.0},"Location":{"LocationId":"NT_pWjgRQqF2uqNHv84Um8-6D","LocationType":"river","Name":"Große Rodl","DisplayPosition":{"Latitude":48.35359,"Longitude":14.1448},"MapView":{"TopLeft":{"Latitude":48.37737,"Longitude":14.13063},"BottomRight":{"Latitude":48.3298,"Longitude":14.16779}},"Address":{"Label":"Österreich","Country":"AUT","State":"Oberösterreich","County":"Urfahr-Umgebung","AdditionalData":[{"value":"Österreich","key":"CountryName"},{"value":"Oberösterreich","key":"StateName"},{"value":"Urfahr-Umgebung","key":"CountyName"}]},"MapReference":{"CountryId":"20128885","StateId":"20132880","CountyId":"20134061","PlaceId":"1444078872"}}},{"Relevance":1.0,"Distance":99.6,"MatchLevel":"street","MatchQuality":{"Country":1.0,"State":1.0,"County":1.0,"City":1.0,"Street":[1.0],"PostalCode":1.0},"Location":{"LocationId":"NT_cC.IiiQYUtYTNADzVYWoKD_l_917097179_L","LocationType":"point","DisplayPosition":{"Latitude":48.3582,"Longitude":14.13713},"MapView":{"TopLeft":{"Latitude":48.3582,"Longitude":14.13631},"BottomRight":{"Latitude":48.35793,"Longitude":14.13713}},"Address":{"Label":"Güterweg Mursberg, 4111 Walding, Österreich","Country":"AUT","State":"Oberösterreich","County":"Urfahr-Umgebung","City":"Walding","Street":"Güterweg Mursberg","PostalCode":"4111","AdditionalData":[{"value":"Österreich","key":"CountryName"},{"value":"Oberösterreich","key":"StateName"},{"value":"Urfahr-Umgebung","key":"CountyName"}]},"MapReference":{"ReferenceId":"917097179","Spot":1.0,"SideOfStreet":"left","CountryId":"20128885","StateId":"20132880","CountyId":"20134061","CityId":"20134145"}}},{"Relevance":1.0,"Distance":120.0,"MatchLevel":"houseNumber","MatchQuality":{"Country":1.0,"State":1.0,"County":1.0,"City":1.0,"District":1.0,"Street":[1.0],"HouseNumber":1.0,"PostalCode":1.0},"MatchType":"interpolated","Location":{"LocationId":"NT_tO3P1dBSwx-teJFZM-TIDA_zgD","LocationType":"point","DisplayPosition":{"Latitude":48.35856,"Longitude":14.13968},"MapView":{"TopLeft":{"Latitude":48.3596842,"Longitude":14.1379882},"BottomRight":{"Latitude":48.3574358,"Longitude":14.1413718}},"Address":{"Label":"Mühlkreisbahnstraße 38, 4111 Walding, Österreich","Country":"AUT","State":"Oberösterreich","County":"Urfahr-Umgebung","City":"Walding","District":"Semleiten","Street":"Mühlkreisbahnstraße","HouseNumber":"38","PostalCode":"4111","AdditionalData":[{"value":"Österreich","key":"CountryName"},{"value":"Oberösterreich","key":"StateName"},{"value":"Urfahr-Umgebung","key":"CountyName"}]},"MapReference":{"ReferenceId":"567699443","Spot":0.92,"SideOfStreet":"right","CountryId":"20128885","StateId":"20132880","CountyId":"20134061","CityId":"20134145","DistrictId":"20449730","AddressId":"161289878","RoadLinkId":"29048761"}}}]}]}}