{"Response":{"MetaInfo":{"Timestamp":"2020-03-28T11:10:49.667+0000","NextPageInformation":"2"},"View":[{"_type":"SearchResultsViewType","ViewId":0,"Result":[{"Relevance":1.0,"Distance":0.0,"Direction":0.0,"MatchLevel":"city","MatchQuality":{"Country":1.0,"State":1.0,"County":1.0,"City":1.0,"PostalCode":1.0},"Location":{"LocationId":"NT_DdSLIg3t08XT-BPi4QG77C","LocationType":"point","DisplayPosition":{"Latitude":48.3076889,"Longitude":3.123231},"MapView":{"TopLeft":{"Latitude":48.33814,"Longitude":3.09616},"BottomRight":{"Latitude":48.27065,"Longitude":3.17484}},"Address":{"Label":"Champigny, Bourgogne-Franche-Comté, France","Country":"FRA","State":"Bourgogne-Franche-Comté","County":"Yonne","City":"Champigny","PostalCode":"89340","AdditionalData":[{"value":"France","key":"CountryName"},{"value":"Bourgogne-Franche-Comté","key":"StateName"},{"value":"Yonne","key":"CountyName"}]},"MapReference":{"ReferenceId":"762925262","SideOfStreet":"neither","CountryId":"20000001","StateId":"20013306","CountyId":"20004500","CityId":"20043058"}}},{"Relevance":1.0,"Distance":9.8,"MatchLevel":"street","MatchQuality":{"Country":1.0,"State":1.0,"County":1.0,"City":1.0,"Street":[1.0],"PostalCode":1.0},"Location":{"LocationId":"NT_p1wsXaNWZZxQP8p4aWrmZB_l_763042758_L","LocationType":"point","DisplayPosition":{"Latitude":48.30776,"Longitude":3.12331},"MapView":{"TopLeft":{"Latitude":48.31066,"Longitude":3.12273},"BottomRight":{"Latitude":48.30629,"Longitude":3.12616}},"Address":{"Label":"D70, 89340 Champigny, France","Country":"FRA","State":"Bourgogne-Franche-Comté","County":"Yonne","City":"Champigny","Street":"D70","PostalCode":"89340","AdditionalData":[{"value":"France","key":"CountryName"},{"value":"Bourgogne-Franche-Comté","key":"StateName"},{"value":"Yonne","key":"CountyName"}]},"MapReference":{"ReferenceId":"763042758","Spot":0.51,"SideOfStreet":"left","CountryId":"20000001","StateId":"20013306","CountyId":"20004500","CityId":"20043058"}}},{"Relevance":1.0,"Distance":215.2,"MatchLevel":"street","MatchQuality":{"Country":1.0,"State":1.0,"County":1.0,"City":1.0,"Street":[1.0],"PostalCode":1.0},"Location":{"LocationId":"NT_y892Jc7swiLtDZn3bKFA6B_l_926234155_R","LocationType":"point","DisplayPosition":{"Latitude":48.3090384,"Longitude":3.1211454},"MapView":{"TopLeft":{"Latitude":48.31245,"Longitude":3.10652},"BottomRight":{"Latitude":48.29014,"Longitude":3.12214}},"Address":{"Label":"Route de Rachais, 89340 Champigny, France","Country":"FRA","State":"Bourgogne-Franche-Comté","County":"Yonne","City":"Champigny","Street":"Route de Rachais","PostalCode":"89340","AdditionalData":[{"value":"France","key":"CountryName"},{"value":"Bourgogne-Franche-Comté","key":"StateName"},{"value":"Yonne","key":"CountyName"}]},"MapReference":{"ReferenceId":"926234155","Spot":0.88,"SideOfStreet":"right","CountryId":"20000001","StateId":"20013306","CountyId":"20004500","CityId":"20043058"}}},{"Relevance":1.0,"Distance":266.7,"MatchLevel":"street","MatchQuality":{"Country":1.0,"State":1.0,"County":1.0,"City":1.0,"Street":[1.0],"PostalCode":1.0},"Location":{"LocationId":"NT_p1wsXaNWZZxQP8p4aWrmZB_l_1052226597_R","LocationType":"point","DisplayPosition":{"Latitude":48.30629,"Longitude":3.12616},"MapView":{"TopLeft":{"Latitude":48.30629,"Longitude":3.12616},"BottomRight":{"Latitude":48.30342,"Longitude":3.1281}},"Address":{"Label":"D70, 89340 Champigny, France","Country":"FRA","State":"Bourgogne-Franche-Comté","County":"Yonne","City":"Champigny","Street":"D70","PostalCode":"89340","AdditionalData":[{"value":"France","key":"CountryName"},{"value":"Bourgogne-Franche-Comté","key":"StateName"},{"value":"Yonne","key":"CountyName"}]},"MapReference":{"ReferenceId":"1052226597","Spot":1.0,"SideOfStreet":"right","CountryId":"20000001","StateId":"20013306","CountyId":"20004500","CityId":"20043058"}}},{"Relevance":1.0,"Distance":331.2,"MatchLevel":"street","MatchQuality":{"Country":1.0,"State":1.0,"County":1.0,"City":1.0,"Street":[1.0],"PostalCode":1.0},"Location":{"LocationId":"NT_p1wsXaNWZZxQP8p4aWrmZB_l_763042759_R","LocationType":"point","DisplayPosition":{"Latitude":48.31066,"Longitude":3.12291},"MapView":{"TopLeft":{"Latitude":48.31088,"Longitude":3.1229},"BottomRight":{"Latitude":48.31066,"Longitude":3.12291}},"Address":{"Label":"D70, 89340 Champigny, France","Country":"FRA","State":"Bourgogne-Franche-Comté","County":"Yonne","City":"Champigny","Street":"D70","PostalCode":"89340","AdditionalData":[{"value":"France","key":"CountryName"},{"value":"Bourgogne-Franche-Comté","key":"StateName"},{"value":"Yonne","key":"CountyName"}]},"MapReference":{"ReferenceId":"763042759","Spot":0.0,"SideOfStreet":"right","CountryId":"20000001","StateId":"20013306","CountyId":"20004500","CityId":"20043058"}}},{"Relevance":1.0,"Distance":355.7,"MatchLevel":"street","MatchQuality":{"Country":1.0,"State":1.0,"County":1.0,"City":1.0,"Street":[1.0],"PostalCode":1.0},"Location":{"LocationId":"NT_W-N4KYoI6VTSCqr7O.hNQB_l_548662346_R","LocationType":"point","DisplayPosition":{"Latitude":48.31088,"Longitude":3.1229},"MapView":{"TopLeft":{"Latitude":48.31441,"Longitude":3.1229},"BottomRight":{"Latitude":48.31088,"Longitude":3.12508}},"Address":{"Label":"Rue des Fours, 89340 Champigny, France","Country":"FRA","State":"Bourgogne-Franche-Comté","County":"Yonne","City":"Champigny","Street":"Rue des Fours","PostalCode":"89340","AdditionalData":[{"value":"France","key":"CountryName"},{"value":"Bourgogne-Franche-Comté","key":"StateName"},{"value":"Yonne","key":"CountyName"}]},"MapReference":{"ReferenceId":"548662346","Spot":0.0,"SideOfStreet":"right","CountryId":"20000001","StateId":"20013306","CountyId":"20004500","CityId":"20043058"}}},{"Relevance":1.0,"Distance":355.7,"MatchLevel":"street","MatchQuality":{"Country":1.0,"State":1.0,"County":1.0,"City":1.0,"Street":[1.0],"PostalCode":1.0},"Location":{"LocationId":"NT_HGBfll.JQ5ZlsRFu9axFqB_l_762925237_L","LocationType":"point","DisplayPosition":{"Latitude":48.31088,"Longitude":3.1229},"MapView":{"TopLeft":{"Latitude":48.31184,"Longitude":3.12255},"BottomRight":{"Latitude":48.31088,"Longitude":3.1229}},"Address":{"Label":"Rue des Caves, 89340 Champigny, France","Country":"FRA","State":"Bourgogne-Franche-Comté","County":"Yonne","City":"Champigny","Street":"Rue des Caves","PostalCode":"89340","AdditionalData":[{"value":"France","key":"CountryName"},{"value":"Bourgogne-Franche-Comté","key":"StateName"},{"value":"Yonne","key":"CountyName"}]},"MapReference":{"ReferenceId":"762925237","Spot":0.0,"SideOfStreet":"left","CountryId":"20000001","StateId":"20013306","CountyId":"20004500","CityId":"20043058"}}},{"Relevance":1.0,"Distance":536.2,"MatchLevel":"street","MatchQuality":{"Country":1.0,"State":1.0,"County":1.0,"City":1.0,"Street":[1.0],"PostalCode":1.0},"Location":{"LocationId":"NT_j2L1RExe4DVt-jY4K59itB_l_548662353_R","LocationType":"point","DisplayPosition":{"Latitude":48.3124616,"Longitude":3.1221935},"MapView":{"TopLeft":{"Latitude":48.3125,"Longitude":3.12214},"BottomRight":{"Latitude":48.31245,"Longitude":3.12237}},"Address":{"Label":"Avenue du Ravillon, 89340 Champigny, France","Country":"FRA","State":"Bourgogne-Franche-Comté","County":"Yonne","City":"Champigny","Street":"Avenue du Ravillon","PostalCode":"89340","AdditionalData":[{"value":"France","key":"CountryName"},{"value":"Bourgogne-Franche-Comté","key":"StateName"},{"value":"Yonne","key":"CountyName"}]},"MapReference":{"ReferenceId":"548662353","Spot":0.23,"SideOfStreet":"right","CountryId":"20000001","StateId":"20013306","CountyId":"20004500","CityId":"20043058"}}},{"Relevance":1.0,"Distance":538.2,"MatchLevel":"houseNumber","MatchQuality":{"Country":1.0,"State":1.0,"County":1.0,"City":1.0,"Street":[1.0],"HouseNumber":1.0,"PostalCode":1.0},"MatchType":"interpolated","Location":{"LocationId":"NT_HGBfll.JQ5ZlsRFu9axFqB_0UD","LocationType":"point","DisplayPosition":{"Latitude":48.3125,"Longitude":3.12237},"MapView":{"TopLeft":{"Latitude":48.3136242,"Longitude":3.1206797},"BottomRight":{"Latitude":48.3113758,"Longitude":3.1240603}},"Address":{"Label":"45 Rue des Caves, 89340 Champigny, France","Country":"FRA","State":"Bourgogne-Franche-Comté","County":"Yonne","City":"Champigny","Street":"Rue des Caves","HouseNumber":"45","PostalCode":"89340","AdditionalData":[{"value":"France","key":"CountryName"},{"value":"Bourgogne-Franche-Comté","key":"StateName"},{"value":"Yonne","key":"CountyName"}]},"MapReference":{"ReferenceId":"762925238","Spot":1.0,"SideOfStreet":"right","CountryId":"20000001","StateId":"20013306","CountyId":"20004500","CityId":"20043058","AddressId":"696839217","RoadLinkId":"157193272"}}},{"Relevance":1.0,"Distance":541.3,"MatchLevel":"houseNumber","MatchQuality":{"Country":1.0,"State":1.0,"County":1.0,"City":1.0,"Street":[1.0],"HouseNumber":1.0,"PostalCode":1.0},"MatchType":"interpolated","Location":{"LocationId":"NT_j2L1RExe4DVt-jY4K59itB_2ITMBB","LocationType":"point","DisplayPosition":{"Latitude":48.31249,"Longitude":3.12182},"MapView":{"TopLeft":{"Latitude":48.3136142,"Longitude":3.1201297},"BottomRight":{"Latitude":48.3113658,"Longitude":3.1235103}},"Address":{"Label":"621A Avenue du Ravillon, 89340 Champigny, France","Country":"FRA","State":"Bourgogne-Franche-Comté","County":"Yonne","City":"Champigny","Street":"Avenue du Ravillon","HouseNumber":"621A","PostalCode":"89340","AdditionalData":[{"value":"France","key":"CountryName"},{"value":"Bourgogne-Franche-Comté","key":"StateName"},{"value":"Yonne","key":"CountyName"}]},"MapReference":{"ReferenceId":"548662354","Spot":0.19,"SideOfStreet":"left","CountryId":"20000001","StateId":"20013306","CountyId":"20004500","CityId":"20043058","AddressId":"570229588","RoadLinkId":"53268724"}}}]}]}}