{"Response":{"MetaInfo":{"Timestamp":"2020-03-28T09:50:02.047+0000","NextPageInformation":"2"},"View":[{"_type":"SearchResultsViewType","ViewId":0,"Result":[{"Relevance":1.0,"Distance":0.0,"Direction":0.0,"MatchLevel":"city","MatchQuality":{"Country":1.0,"State":1.0,"County":1.0,"City":1.0,"PostalCode":1.0},"Location":{"LocationId":"NT_M1RMsIB90bUE23b-GrKW0B","LocationType":"point","DisplayPosition":{"Latitude":48.3398824,"Longitude":3.065305},"MapView":{"TopLeft":{"Latitude":48.36103,"Longitude":3.01501},"BottomRight":{"Latitude":48.30051,"Longitude":3.10148}},"Address":{"Label":"Villeneuve-la-Guyard, Bourgogne-Franche-Comté, France","Country":"FRA","State":"Bourgogne-Franche-Comté","County":"Yonne","City":"Villeneuve-la-Guyard","PostalCode":"89340","AdditionalData":[{"value":"France","key":"CountryName"},{"value":"Bourgogne-Franche-Comté","key":"StateName"},{"value":"Yonne","key":"CountyName"}]},"MapReference":{"ReferenceId":"548678032","SideOfStreet":"neither","CountryId":"20000001","StateId":"20013306","CountyId":"20004500","CityId":"20044138"}}},{"Relevance":1.0,"Distance":11.6,"MatchLevel":"houseNumber","MatchQuality":{"Country":1.0,"State":1.0,"County":1.0,"City":1.0,"Street":[1.0],"HouseNumber":1.0,"PostalCode":1.0},"MatchType":"interpolated","Location":{"LocationId":"NT_jjHPHkyAz7cdX7oCjWyMoB_3A","LocationType":"point","DisplayPosition":{"Latitude":48.33981,"Longitude":3.06548},"MapView":{"TopLeft":{"Latitude":48.3409342,"Longitude":3.0637888},"BottomRight":{"Latitude":48.3386858,"Longitude":3.0671712}},"Address":{"Label":"7 Rue de l'Hôtel de Ville, 89340 Villeneuve-la-Guyard, France","Country":"FRA","State":"Bourgogne-Franche-Comté","County":"Yonne","City":"Villeneuve-la-Guyard","Street":"Rue de l'Hôtel de Ville","HouseNumber":"7","PostalCode":"89340","AdditionalData":[{"value":"France","key":"CountryName"},{"value":"Bourgogne-Franche-Comté","key":"StateName"},{"value":"Yonne","key":"CountyName"}]},"MapReference":{"ReferenceId":"548677423","Spot":0.41,"SideOfStreet":"left","CountryId":"20000001","StateId":"20013306","CountyId":"20004500","CityId":"20044138","AddressId":"370834686","RoadLinkId":"53086536"}}},{"Relevance":1.0,"Distance":16.7,"MatchLevel":"houseNumber","MatchQuality":{"Country":1.0,"State":1.0,"County":1.0,"City":1.0,"Street":[1.0],"HouseNumber":1.0,"PostalCode":1.0},"MatchType":"interpolated","Location":{"LocationId":"NT_lWrFCz1X3rEO78lkbYk.DC_2A","LocationType":"point","DisplayPosition":{"Latitude":48.33992,"Longitude":3.06502},"MapView":{"TopLeft":{"Latitude":48.3410442,"Longitude":3.0633288},"BottomRight":{"Latitude":48.3387958,"Longitude":3.0667112}},"Address":{"Label":"6 Rue du Housset, 89340 Villeneuve-la-Guyard, France","Country":"FRA","State":"Bourgogne-Franche-Comté","County":"Yonne","City":"Villeneuve-la-Guyard","Street":"Rue du Housset","HouseNumber":"6","PostalCode":"89340","AdditionalData":[{"value":"France","key":"CountryName"},{"value":"Bourgogne-Franche-Comté","key":"StateName"},{"value":"Yonne","key":"CountyName"}]},"MapReference":{"ReferenceId":"548677427","Spot":0.48,"SideOfStreet":"right","CountryId":"20000001","StateId":"20013306","CountyId":"20004500","CityId":"20044138","AddressId":"370813404","RoadLinkId":"52859434"}}},{"Relevance":1.0,"Distance":34.3,"MatchLevel":"houseNumber","MatchQuality":{"Country":1.0,"State":1.0,"County":1.0,"City":1.0,"Street":[1.0],"HouseNumber":1.0,"PostalCode":1.0},"MatchType":"interpolated","Location":{"LocationId":"NT_nKW91UVKikcC8tBYL1VYsA_3A","LocationType":"point","DisplayPosition":{"Latitude":48.34021,"Longitude":3.06584},"MapView":{"TopLeft":{"Latitude":48.3413342,"Longitude":3.0641488},"BottomRight":{"Latitude":48.3390858,"Longitude":3.0675312}},"Address":{"Label":"7 Place de l'Hôtel de Ville, 89340 Villeneuve-la-Guyard, France","Country":"FRA","State":"Bourgogne-Franche-Comté","County":"Yonne","City":"Villeneuve-la-Guyard","Street":"Place de l'Hôtel de Ville","HouseNumber":"7","PostalCode":"89340","AdditionalData":[{"value":"France","key":"CountryName"},{"value":"Bourgogne-Franche-Comté","key":"StateName"},{"value":"Yonne","key":"CountyName"}]},"MapReference":{"ReferenceId":"957385869","Spot":0.5,"SideOfStreet":"left","CountryId":"20000001","StateId":"20013306","CountyId":"20004500","CityId":"20044138","AddressId":"370824179","RoadLinkId":"300353654"}}},{"Relevance":1.0,"Distance":34.5,"MatchLevel":"houseNumber","MatchQuality":{"Country":1.0,"State":1.0,"County":1.0,"City":1.0,"Street":[1.0],"HouseNumber":1.0,"PostalCode":1.0},"MatchType":"interpolated","Location":{"LocationId":"NT_e8-fEird.-6HgalEPjAFkD_zA","LocationType":"point","DisplayPosition":{"Latitude":48.34023,"Longitude":3.06538},"MapView":{"TopLeft":{"Latitude":48.3413542,"Longitude":3.0636888},"BottomRight":{"Latitude":48.3391058,"Longitude":3.0670712}},"Address":{"Label":"3 Rue Douet, 89340 Villeneuve-la-Guyard, France","Country":"FRA","State":"Bourgogne-Franche-Comté","County":"Yonne","City":"Villeneuve-la-Guyard","Street":"Rue Douet","HouseNumber":"3","PostalCode":"89340","AdditionalData":[{"value":"France","key":"CountryName"},{"value":"Bourgogne-Franche-Comté","key":"StateName"},{"value":"Yonne","key":"CountyName"}]},"MapReference":{"ReferenceId":"548677426","Spot":0.35,"SideOfStreet":"right","CountryId":"20000001","StateId":"20013306","CountyId":"20004500","CityId":"20044138","AddressId":"370857689","RoadLinkId":"52857324"}}},{"Relevance":1.0,"Distance":35.2,"MatchLevel":"houseNumber","MatchQuality":{"Country":1.0,"State":1.0,"County":1.0,"City":1.0,"Street":[1.0],"HouseNumber":1.0,"PostalCode":1.0},"MatchType":"interpolated","Location":{"LocationId":"NT_hWxgjqFRE4b7HE7YSG89cC_zID","LocationType":"point","DisplayPosition":{"Latitude":48.33954,"Longitude":3.06521},"MapView":{"TopLeft":{"Latitude":48.3406642,"Longitude":3.0635188},"BottomRight":{"Latitude":48.3384158,"Longitude":3.0669012}},"Address":{"Label":"32 Grande Rue, 89340 Villeneuve-la-Guyard, France","Country":"FRA","State":"Bourgogne-Franche-Comté","County":"Yonne","City":"Villeneuve-la-Guyard","Street":"Grande Rue","HouseNumber":"32","PostalCode":"89340","AdditionalData":[{"value":"France","key":"CountryName"},{"value":"Bourgogne-Franche-Comté","key":"StateName"},{"value":"Yonne","key":"CountyName"}]},"MapReference":{"ReferenceId":"548677424","Spot":0.3,"SideOfStreet":"right","CountryId":"20000001","StateId":"20013306","CountyId":"20004500","CityId":"20044138","AddressId":"379201525","RoadLinkId":"313002387"}}},{"Relevance":1.0,"Distance":36.8,"MatchLevel":"houseNumber","MatchQuality":{"Country":1.0,"State":1.0,"County":1.0,"City":1.0,"Street":[1.0],"HouseNumber":1.0,"PostalCode":1.0},"MatchType":"interpolated","Location":{"LocationId":"NT_e8-fEird.-6HgalEPjAFkD_3A","LocationType":"point","DisplayPosition":{"Latitude":48.34024,"Longitude":3.06515},"MapView":{"TopLeft":{"Latitude":48.3413642,"Longitude":3.0634588},"BottomRight":{"Latitude":48.3391158,"Longitude":3.0668412}},"Address":{"Label":"7 Rue Douet, 89340 Villeneuve-la-Guyard, France","Country":"FRA","State":"Bourgogne-Franche-Comté","County":"Yonne","City":"Villeneuve-la-Guyard","Street":"Rue Douet","HouseNumber":"7","PostalCode":"89340","AdditionalData":[{"value":"France","key":"CountryName"},{"value":"Bourgogne-Franche-Comté","key":"StateName"},{"value":"Yonne","key":"CountyName"}]},"MapReference":{"ReferenceId":"548677429","Spot":0.2,"SideOfStreet":"left","CountryId":"20000001","StateId":"20013306","CountyId":"20004500","CityId":"20044138","AddressId":"370844913","RoadLinkId":"52757743"}}},{"Relevance":1.0,"Distance":41.5,"MatchLevel":"houseNumber","MatchQuality":{"Country":1.0,"State":1.0,"County":1.0,"City":1.0,"Street":[1.0],"HouseNumber":1.0,"PostalCode":1.0},"MatchType":"interpolated","Location":{"LocationId":"NT_hWxgjqFRE4b7HE7YSG89cC_ygDW","LocationType":"point","DisplayPosition":{"Latitude":48.33949,"Longitude":3.06542},"MapView":{"TopLeft":{"Latitude":48.3406142,"Longitude":3.0637288},"BottomRight":{"Latitude":48.3383658,"Longitude":3.0671112}},"Address":{"Label":"28X Grande Rue, 89340 Villeneuve-la-Guyard, France","Country":"FRA","State":"Bourgogne-Franche-Comté","County":"Yonne","City":"Villeneuve-la-Guyard","Street":"Grande Rue","HouseNumber":"28X","PostalCode":"89340","AdditionalData":[{"value":"France","key":"CountryName"},{"value":"Bourgogne-Franche-Comté","key":"StateName"},{"value":"Yonne","key":"CountyName"}]},"MapReference":{"ReferenceId":"548677449","Spot":0.89,"SideOfStreet":"right","CountryId":"20000001","StateId":"20013306","CountyId":"20004500","CityId":"20044138","AddressId":"570217967","RoadLinkId":"151825030"}}},{"Relevance":1.0,"Distance":47.5,"MatchLevel":"houseNumber","MatchQuality":{"Country":1.0,"State":1.0,"County":1.0,"City":1.0,"Street":[1.0],"HouseNumber":1.0,"PostalCode":1.0},"MatchType":"interpolated","Location":{"LocationId":"NT_c4BCXx7kbE1ZmGmcof9gSD_xAD","LocationType":"point","DisplayPosition":{"Latitude":48.34018,"Longitude":3.06478},"MapView":{"TopLeft":{"Latitude":48.3413042,"Longitude":3.0630888},"BottomRight":{"Latitude":48.3390558,"Longitude":3.0664712}},"Address":{"Label":"10 Rue de l'Église, 89340 Villeneuve-la-Guyard, France","Country":"FRA","State":"Bourgogne-Franche-Comté","County":"Yonne","City":"Villeneuve-la-Guyard","Street":"Rue de l'Église","HouseNumber":"10","PostalCode":"89340","AdditionalData":[{"value":"France","key":"CountryName"},{"value":"Bourgogne-Franche-Comté","key":"StateName"},{"value":"Yonne","key":"CountyName"}]},"MapReference":{"ReferenceId":"548677430","Spot":0.76,"SideOfStreet":"right","CountryId":"20000001","StateId":"20013306","CountyId":"20004500","CityId":"20044138","AddressId":"370840003","RoadLinkId":"52656233"}}},{"Relevance":1.0,"Distance":53.4,"MatchLevel":"houseNumber","MatchQuality":{"Country":1.0,"State":1.0,"County":1.0,"City":1.0,"Street":[1.0],"HouseNumber":1.0,"PostalCode":1.0},"MatchType":"interpolated","Location":{"LocationId":"NT_hWxgjqFRE4b7HE7YSG89cC_0AD","LocationType":"point","DisplayPosition":{"Latitude":48.33967,"Longitude":3.06464},"MapView":{"TopLeft":{"Latitude":48.3407942,"Longitude":3.0629488},"BottomRight":{"Latitude":48.3385458,"Longitude":3.0663312}},"Address":{"Label":"40 Grande Rue, 89340 Villeneuve-la-Guyard, France","Country":"FRA","State":"Bourgogne-Franche-Comté","County":"Yonne","City":"Villeneuve-la-Guyard","Street":"Grande Rue","HouseNumber":"40","PostalCode":"89340","AdditionalData":[{"value":"France","key":"CountryName"},{"value":"Bourgogne-Franche-Comté","key":"StateName"},{"value":"Yonne","key":"CountyName"}]},"MapReference":{"ReferenceId":"548677425","Spot":0.87,"SideOfStreet":"right","CountryId":"20000001","StateId":"20013306","CountyId":"20004500","CityId":"20044138","AddressId":"370833523","RoadLinkId":"313002388"}}}]}]}}