{"Response":{"MetaInfo":{"Timestamp":"2020-03-28T11:09:24.467+0000","NextPageInformation":"2"},"View":[{"_type":"SearchResultsViewType","ViewId":0,"Result":[{"Relevance":1.0,"Distance":-0.8,"MatchLevel":"landmark","MatchQuality":{"Country":1.0,"State":1.0,"County":1.0,"City":1.0,"Street":[1.0],"HouseNumber":1.0,"PostalCode":1.0,"Name":1.0},"Location":{"LocationId":"NT_hIYBY1Vj0bykFuB40zxdcB_p_Wa86qzm1eLW7PjkMeStmrA","LocationType":"hospital","Name":"CH d'Étampes","DisplayPosition":{"Latitude":48.42112,"Longitude":2.15153},"MapView":{"TopLeft":{"Latitude":48.4222442,"Longitude":2.1498361},"BottomRight":{"Latitude":48.4199958,"Longitude":2.1532239}},"Address":{"Label":"26 Avenue Charles de Gaulle, 91150 Étampes, France","Country":"FRA","State":"Île-de-France","County":"Essonne","City":"Étampes","Street":"Avenue Charles de Gaulle","HouseNumber":"26","PostalCode":"91150","AdditionalData":[{"value":"France","key":"CountryName"},{"value":"Île-de-France","key":"StateName"},{"value":"Essonne","key":"CountyName"}]},"MapReference":{"CountryId":"20000001","StateId":"20002126","CountyId":"20004503","CityId":"20004708","PlaceId":"56298704"}}},{"Relevance":1.0,"Distance":0.0,"Direction":0.0,"MatchLevel":"city","MatchQuality":{"Country":1.0,"State":1.0,"County":1.0,"City":1.0,"PostalCode":1.0},"Location":{"LocationId":"NT_zT3gX5R7CREy7MkIloHieA","LocationType":"point","DisplayPosition":{"Latitude":48.4200853,"Longitude":2.1509242},"MapView":{"TopLeft":{"Latitude":48.46325,"Longitude":2.0714},"BottomRight":{"Latitude":48.38243,"Longitude":2.23298}},"Address":{"Label":"Étampes, Île-de-France, France","Country":"FRA","State":"Île-de-France","County":"Essonne","City":"Étampes","PostalCode":"91150","AdditionalData":[{"value":"France","key":"CountryName"},{"value":"Île-de-France","key":"StateName"},{"value":"Essonne","key":"CountyName"}]},"MapReference":{"ReferenceId":"71303842","SideOfStreet":"neither","CountryId":"20000001","StateId":"20002126","CountyId":"20004503","CityId":"20004708"}}},{"Relevance":1.0,"Distance":18.4,"MatchLevel":"street","MatchQuality":{"Country":1.0,"State":1.0,"County":1.0,"City":1.0,"PostalCode":1.0},"Location":{"LocationId":"NT_Zicq4yqkV0z1cLi.sfaVJD_l_68855342_R","LocationType":"point","DisplayPosition":{"Latitude":48.4202427,"Longitude":2.1508455},"MapView":{"TopLeft":{"Latitude":48.42118,"Longitude":2.14998},"BottomRight":{"Latitude":48.42015,"Longitude":2.15128}},"Address":{"Label":"91150 Étampes, France","Country":"FRA","State":"Île-de-France","County":"Essonne","City":"Étampes","PostalCode":"91150","AdditionalData":[{"value":"France","key":"CountryName"},{"value":"Île-de-France","key":"StateName"},{"value":"Essonne","key":"CountyName"}]},"MapReference":{"ReferenceId":"68855342","Spot":0.45,"SideOfStreet":"right","CountryId":"20000001","StateId":"20002126","CountyId":"20004503","CityId":"20004708"}}},{"Relevance":1.0,"Distance":21.6,"MatchLevel":"houseNumber","MatchQuality":{"Country":1.0,"State":1.0,"County":1.0,"City":1.0,"Street":[1.0],"HouseNumber":1.0,"PostalCode":1.0},"MatchType":"interpolated","Location":{"LocationId":"NT_5QAHG-1BIIit5IPfyheI2D_yYD","LocationType":"point","DisplayPosition":{"Latitude":48.42023,"Longitude":2.15113},"MapView":{"TopLeft":{"Latitude":48.4213542,"Longitude":2.1494361},"BottomRight":{"Latitude":48.4191058,"Longitude":2.1528239}},"Address":{"Label":"26 Avenue Charles de Gaulle, 91150 Étampes, France","Country":"FRA","State":"Île-de-France","County":"Essonne","City":"Étampes","Street":"Avenue Charles de Gaulle","HouseNumber":"26","PostalCode":"91150","AdditionalData":[{"value":"France","key":"CountryName"},{"value":"Île-de-France","key":"StateName"},{"value":"Essonne","key":"CountyName"}]},"MapReference":{"ReferenceId":"71305961","Spot":0.65,"SideOfStreet":"left","CountryId":"20000001","StateId":"20002126","CountyId":"20004503","CityId":"20004708","AddressId":"322349895","RoadLinkId":"43325684"}}},{"Relevance":1.0,"Distance":23.1,"MatchLevel":"houseNumber","MatchQuality":{"Country":1.0,"State":1.0,"County":1.0,"City":1.0,"Street":[1.0],"HouseNumber":1.0,"PostalCode":1.0},"MatchType":"interpolated","Location":{"LocationId":"NT_5QAHG-1BIIit5IPfyheI2D_ygD","LocationType":"point","DisplayPosition":{"Latitude":48.41988,"Longitude":2.15088},"MapView":{"TopLeft":{"Latitude":48.4210042,"Longitude":2.1491861},"BottomRight":{"Latitude":48.4187558,"Longitude":2.1525739}},"Address":{"Label":"28 Avenue Charles de Gaulle, 91150 Étampes, France","Country":"FRA","State":"Île-de-France","County":"Essonne","City":"Étampes","Street":"Avenue Charles de Gaulle","HouseNumber":"28","PostalCode":"91150","AdditionalData":[{"value":"France","key":"CountryName"},{"value":"Île-de-France","key":"StateName"},{"value":"Essonne","key":"CountyName"}]},"MapReference":{"ReferenceId":"71304343","Spot":0.0,"SideOfStreet":"left","CountryId":"20000001","StateId":"20002126","CountyId":"20004503","CityId":"20004708","AddressId":"322094078","RoadLinkId":"43432005"}}},{"Relevance":1.0,"Distance":33.4,"MatchLevel":"landmark","MatchQuality":{"Country":1.0,"State":1.0,"County":1.0,"City":1.0,"PostalCode":1.0,"Name":1.0},"Location":{"LocationId":"NT_96x5WucJCiQCgieIa6f3TD","LocationType":"woodland","Name":"Bois de Bouraine","DisplayPosition":{"Latitude":48.42037,"Longitude":2.15751},"MapView":{"TopLeft":{"Latitude":48.42574,"Longitude":2.14776},"BottomRight":{"Latitude":48.41499,"Longitude":2.17406}},"Address":{"Label":"91150 Étampes, France","Country":"FRA","State":"Île-de-France","County":"Essonne","City":"Étampes","PostalCode":"91150","AdditionalData":[{"value":"France","key":"CountryName"},{"value":"Île-de-France","key":"StateName"},{"value":"Essonne","key":"CountyName"}]},"MapReference":{"CountryId":"20000001","StateId":"20002126","CountyId":"20004503","CityId":"20004708","PlaceId":"56166439"}}},{"Relevance":1.0,"Distance":46.2,"MatchLevel":"houseNumber","MatchQuality":{"Country":1.0,"State":1.0,"County":1.0,"City":1.0,"Street":[1.0],"HouseNumber":1.0,"PostalCode":1.0},"MatchType":"interpolated","Location":{"LocationId":"NT_1XmQXqMyMPalTzFKctPyTB_l_71305960_L_zQD","LocationType":"point","DisplayPosition":{"Latitude":48.419647,"Longitude":2.1506965},"MapView":{"TopLeft":{"Latitude":48.4207711,"Longitude":2.1490026},"BottomRight":{"Latitude":48.4185228,"Longitude":2.1523903}},"Address":{"Label":"34 Avenue Charles de Gaulle, 91150 Étampes, France","Country":"FRA","State":"Île-de-France","County":"Essonne","City":"Étampes","Street":"Avenue Charles de Gaulle","HouseNumber":"34","PostalCode":"91150","AdditionalData":[{"value":"France","key":"CountryName"},{"value":"Île-de-France","key":"StateName"},{"value":"Essonne","key":"CountyName"}]},"MapReference":{"ReferenceId":"71305960","Spot":0.49,"SideOfStreet":"left","CountryId":"20000001","StateId":"20002126","CountyId":"20004503","CityId":"20004708"}}},{"Relevance":1.0,"Distance":65.9,"MatchLevel":"houseNumber","MatchQuality":{"Country":1.0,"State":1.0,"County":1.0,"City":1.0,"Street":[1.0],"HouseNumber":1.0,"PostalCode":1.0},"MatchType":"interpolated","Location":{"LocationId":"NT_5QAHG-1BIIit5IPfyheI2D_yYjQ","LocationType":"point","DisplayPosition":{"Latitude":48.42059,"Longitude":2.15138},"MapView":{"TopLeft":{"Latitude":48.4217142,"Longitude":2.1496861},"BottomRight":{"Latitude":48.4194658,"Longitude":2.1530739}},"Address":{"Label":"26B Avenue Charles de Gaulle, 91150 Étampes, France","Country":"FRA","State":"Île-de-France","County":"Essonne","City":"Étampes","Street":"Avenue Charles de Gaulle","HouseNumber":"26B","PostalCode":"91150","AdditionalData":[{"value":"France","key":"CountryName"},{"value":"Île-de-France","key":"StateName"},{"value":"Essonne","key":"CountyName"}]},"MapReference":{"ReferenceId":"1219735919","Spot":0.96,"SideOfStreet":"left","CountryId":"20000001","StateId":"20002126","CountyId":"20004503","CityId":"20004708","AddressId":"590474567","RoadLinkId":"536719815"}}},{"Relevance":1.0,"Distance":70.8,"MatchLevel":"street","MatchQuality":{"Country":1.0,"State":1.0,"County":1.0,"City":1.0,"PostalCode":1.0},"Location":{"LocationId":"NT_Zicq4yqkV0z1cLi.sfaVJD_l_68855341_R","LocationType":"point","DisplayPosition":{"Latitude":48.4202,"Longitude":2.14998},"MapView":{"TopLeft":{"Latitude":48.42137,"Longitude":2.14742},"BottomRight":{"Latitude":48.4202,"Longitude":2.14998}},"Address":{"Label":"91150 Étampes, France","Country":"FRA","State":"Île-de-France","County":"Essonne","City":"Étampes","PostalCode":"91150","AdditionalData":[{"value":"France","key":"CountryName"},{"value":"Île-de-France","key":"StateName"},{"value":"Essonne","key":"CountyName"}]},"MapReference":{"ReferenceId":"68855341","Spot":0.0,"SideOfStreet":"right","CountryId":"20000001","StateId":"20002126","CountyId":"20004503","CityId":"20004708"}}},{"Relevance":1.0,"Distance":106.8,"MatchLevel":"houseNumber","MatchQuality":{"Country":1.0,"State":1.0,"County":1.0,"City":1.0,"Street":[1.0],"HouseNumber":1.0,"PostalCode":1.0},"MatchType":"interpolated","Location":{"LocationId":"NT_5QAHG-1BIIit5IPfyheI2D_l_71305963_L_yYD","LocationType":"point","DisplayPosition":{"Latitude":48.4210813,"Longitude":2.1516074},"MapView":{"TopLeft":{"Latitude":48.4222055,"Longitude":2.1499135},"BottomRight":{"Latitude":48.4199571,"Longitude":2.1533013}},"Address":{"Label":"26 Avenue Charles de Gaulle, 91150 Étampes, France","Country":"FRA","State":"Île-de-France","County":"Essonne","City":"Étampes","Street":"Avenue Charles de Gaulle","HouseNumber":"26","PostalCode":"91150","AdditionalData":[{"value":"France","key":"CountryName"},{"value":"Île-de-France","key":"StateName"},{"value":"Essonne","key":"CountyName"}]},"MapReference":{"ReferenceId":"71305963","Spot":0.5,"SideOfStreet":"left","CountryId":"20000001","StateId":"20002126","CountyId":"20004503","CityId":"20004708"}}}]}]}}