{"Response":{"MetaInfo":{"Timestamp":"2020-03-28T10:13:59.606+0000","NextPageInformation":"2"},"View":[{"_type":"SearchResultsViewType","ViewId":0,"Result":[{"Relevance":1.0,"Distance":0.0,"Direction":0.0,"MatchLevel":"district","MatchQuality":{"Country":1.0,"State":1.0,"County":1.0,"City":1.0,"District":1.0,"PostalCode":1.0},"Location":{"LocationId":"NT_h0oLAcGqcpfR2ixdm6p7GD","LocationType":"point","DisplayPosition":{"Latitude":48.478057,"Longitude":14.7278381},"MapView":{"TopLeft":{"Latitude":48.47988,"Longitude":14.71895},"BottomRight":{"Latitude":48.47467,"Longitude":14.73323}},"Address":{"Label":"Weitersfelden, Oberösterreich, Österreich","Country":"AUT","State":"Oberösterreich","County":"Freistadt","City":"Weitersfelden","District":"Weitersfelden","PostalCode":"4272","AdditionalData":[{"value":"Österreich","key":"CountryName"},{"value":"Oberösterreich","key":"StateName"},{"value":"Freistadt","key":"CountyName"}]},"MapReference":{"ReferenceId":"1058210742","SideOfStreet":"neither","CountryId":"20128885","StateId":"20132880","CountyId":"20133118","CityId":"20133201","DistrictId":"20133203"}}},{"Relevance":1.0,"Distance":11.0,"MatchLevel":"houseNumber","MatchQuality":{"Country":1.0,"State":1.0,"County":1.0,"City":1.0,"District":1.0,"Street":[1.0],"HouseNumber":1.0,"PostalCode":1.0},"MatchType":"interpolated","Location":{"LocationId":"NT_Jsp5GM4NDyaFEWG-3PAWzA_zYD","LocationType":"point","DisplayPosition":{"Latitude":48.478,"Longitude":14.72796},"MapView":{"TopLeft":{"Latitude":48.4791242,"Longitude":14.7262642},"BottomRight":{"Latitude":48.4768758,"Longitude":14.7296558}},"Address":{"Label":"Weitersfelden 36, 4272 Weitersfelden, Österreich","Country":"AUT","State":"Oberösterreich","County":"Freistadt","City":"Weitersfelden","District":"Weitersfelden","Street":"Weitersfelden","HouseNumber":"36","PostalCode":"4272","AdditionalData":[{"value":"Österreich","key":"CountryName"},{"value":"Oberösterreich","key":"StateName"},{"value":"Freistadt","key":"CountyName"}]},"MapReference":{"ReferenceId":"569706434","Spot":0.37,"SideOfStreet":"right","CountryId":"20128885","StateId":"20132880","CountyId":"20133118","CityId":"20133201","DistrictId":"20133203","AddressId":"161744795","RoadLinkId":"28817414"}}},{"Relevance":1.0,"Distance":56.1,"MatchLevel":"houseNumber","MatchQuality":{"Country":1.0,"State":1.0,"County":1.0,"City":1.0,"District":1.0,"Street":[1.0],"HouseNumber":1.0,"PostalCode":1.0},"MatchType":"interpolated","Location":{"LocationId":"NT_Jsp5GM4NDyaFEWG-3PAWzA_xQD","LocationType":"point","DisplayPosition":{"Latitude":48.4774,"Longitude":14.72759},"MapView":{"TopLeft":{"Latitude":48.4785242,"Longitude":14.7258942},"BottomRight":{"Latitude":48.4762758,"Longitude":14.7292858}},"Address":{"Label":"Weitersfelden 14, 4272 Weitersfelden, Österreich","Country":"AUT","State":"Oberösterreich","County":"Freistadt","City":"Weitersfelden","District":"Weitersfelden","Street":"Weitersfelden","HouseNumber":"14","PostalCode":"4272","AdditionalData":[{"value":"Österreich","key":"CountryName"},{"value":"Oberösterreich","key":"StateName"},{"value":"Freistadt","key":"CountyName"}]},"MapReference":{"ReferenceId":"569725518","Spot":0.86,"SideOfStreet":"left","CountryId":"20128885","StateId":"20132880","CountyId":"20133118","CityId":"20133201","DistrictId":"20133203","AddressId":"161745998","RoadLinkId":"27778233"}}},{"Relevance":1.0,"Distance":61.5,"MatchLevel":"houseNumber","MatchQuality":{"Country":1.0,"State":1.0,"County":1.0,"City":1.0,"District":1.0,"Street":[1.0],"HouseNumber":1.0,"PostalCode":1.0},"MatchType":"interpolated","Location":{"LocationId":"NT_Jsp5GM4NDyaFEWG-3PAWzA_xUD","LocationType":"point","DisplayPosition":{"Latitude":48.4774,"Longitude":14.72793},"MapView":{"TopLeft":{"Latitude":48.4785242,"Longitude":14.7262342},"BottomRight":{"Latitude":48.4762758,"Longitude":14.7296258}},"Address":{"Label":"Weitersfelden 15, 4272 Weitersfelden, Österreich","Country":"AUT","State":"Oberösterreich","County":"Freistadt","City":"Weitersfelden","District":"Weitersfelden","Street":"Weitersfelden","HouseNumber":"15","PostalCode":"4272","AdditionalData":[{"value":"Österreich","key":"CountryName"},{"value":"Oberösterreich","key":"StateName"},{"value":"Freistadt","key":"CountyName"}]},"MapReference":{"ReferenceId":"569725517","Spot":0.59,"SideOfStreet":"right","CountryId":"20128885","StateId":"20132880","CountyId":"20133118","CityId":"20133201","DistrictId":"20133203","AddressId":"161745989","RoadLinkId":"28288651"}}},{"Relevance":1.0,"Distance":65.0,"MatchLevel":"houseNumber","MatchQuality":{"Country":1.0,"State":1.0,"County":1.0,"City":1.0,"District":1.0,"Street":[1.0],"HouseNumber":1.0,"PostalCode":1.0},"MatchType":"interpolated","Location":{"LocationId":"NT_Jsp5GM4NDyaFEWG-3PAWzA_xEjM","LocationType":"point","DisplayPosition":{"Latitude":48.47877,"Longitude":14.72791},"MapView":{"TopLeft":{"Latitude":48.4798942,"Longitude":14.7262142},"BottomRight":{"Latitude":48.4776458,"Longitude":14.7296058}},"Address":{"Label":"Weitersfelden 112, 4272 Weitersfelden, Österreich","Country":"AUT","State":"Oberösterreich","County":"Freistadt","City":"Weitersfelden","District":"Weitersfelden","Street":"Weitersfelden","HouseNumber":"112","PostalCode":"4272","AdditionalData":[{"value":"Österreich","key":"CountryName"},{"value":"Oberösterreich","key":"StateName"},{"value":"Freistadt","key":"CountyName"}]},"MapReference":{"ReferenceId":"569725433","Spot":0.73,"SideOfStreet":"left","CountryId":"20128885","StateId":"20132880","CountyId":"20133118","CityId":"20133201","DistrictId":"20133203","AddressId":"161744807","RoadLinkId":"29128507"}}},{"Relevance":1.0,"Distance":72.5,"MatchLevel":"houseNumber","MatchQuality":{"Country":1.0,"State":1.0,"County":1.0,"City":1.0,"District":1.0,"Street":[1.0],"HouseNumber":1.0,"PostalCode":1.0},"MatchType":"interpolated","Location":{"LocationId":"NT_Jsp5GM4NDyaFEWG-3PAWzA_xIjM","LocationType":"point","DisplayPosition":{"Latitude":48.47821,"Longitude":14.72886},"MapView":{"TopLeft":{"Latitude":48.4793342,"Longitude":14.7271642},"BottomRight":{"Latitude":48.4770858,"Longitude":14.7305558}},"Address":{"Label":"Weitersfelden 122, 4272 Weitersfelden, Österreich","Country":"AUT","State":"Oberösterreich","County":"Freistadt","City":"Weitersfelden","District":"Weitersfelden","Street":"Weitersfelden","HouseNumber":"122","PostalCode":"4272","AdditionalData":[{"value":"Österreich","key":"CountryName"},{"value":"Oberösterreich","key":"StateName"},{"value":"Freistadt","key":"CountyName"}]},"MapReference":{"ReferenceId":"569725563","Spot":0.95,"SideOfStreet":"left","CountryId":"20128885","StateId":"20132880","CountyId":"20133118","CityId":"20133201","DistrictId":"20133203","AddressId":"161744803","RoadLinkId":"28502552"}}},{"Relevance":1.0,"Distance":75.2,"MatchLevel":"street","MatchQuality":{"Country":1.0,"State":1.0,"County":1.0,"City":1.0,"District":1.0,"PostalCode":1.0},"Location":{"LocationId":"NT_ueHWRvtxilapV.gtb64sSA_l_569725514_R","LocationType":"point","DisplayPosition":{"Latitude":48.47739,"Longitude":14.72767},"MapView":{"TopLeft":{"Latitude":48.47739,"Longitude":14.72767},"BottomRight":{"Latitude":48.47734,"Longitude":14.72768}},"Address":{"Label":"4272 Weitersfelden, Österreich","Country":"AUT","State":"Oberösterreich","County":"Freistadt","City":"Weitersfelden","District":"Weitersfelden","PostalCode":"4272","AdditionalData":[{"value":"Österreich","key":"CountryName"},{"value":"Oberösterreich","key":"StateName"},{"value":"Freistadt","key":"CountyName"}]},"MapReference":{"ReferenceId":"569725514","Spot":1.0,"SideOfStreet":"right","CountryId":"20128885","StateId":"20132880","CountyId":"20133118","CityId":"20133201","DistrictId":"20133203"}}},{"Relevance":1.0,"Distance":79.1,"MatchLevel":"houseNumber","MatchQuality":{"Country":1.0,"State":1.0,"County":1.0,"City":1.0,"District":1.0,"Street":[1.0],"HouseNumber":1.0,"PostalCode":1.0},"MatchType":"interpolated","Location":{"LocationId":"NT_Jsp5GM4NDyaFEWG-3PAWzA_2UD","LocationType":"point","DisplayPosition":{"Latitude":48.4787,"Longitude":14.72704},"MapView":{"TopLeft":{"Latitude":48.4798242,"Longitude":14.7253442},"BottomRight":{"Latitude":48.4775758,"Longitude":14.7287358}},"Address":{"Label":"Weitersfelden 65, 4272 Weitersfelden, Österreich","Country":"AUT","State":"Oberösterreich","County":"Freistadt","City":"Weitersfelden","District":"Weitersfelden","Street":"Weitersfelden","HouseNumber":"65","PostalCode":"4272","AdditionalData":[{"value":"Österreich","key":"CountryName"},{"value":"Oberösterreich","key":"StateName"},{"value":"Freistadt","key":"CountyName"}]},"MapReference":{"ReferenceId":"569725436","Spot":0.72,"SideOfStreet":"right","CountryId":"20128885","StateId":"20132880","CountyId":"20133118","CityId":"20133201","DistrictId":"20133203","AddressId":"161744810","RoadLinkId":"28035914"}}},{"Relevance":1.0,"Distance":80.6,"MatchLevel":"houseNumber","MatchQuality":{"Country":1.0,"State":1.0,"County":1.0,"City":1.0,"District":1.0,"Street":[1.0],"HouseNumber":1.0,"PostalCode":1.0},"MatchType":"interpolated","Location":{"LocationId":"NT_Jsp5GM4NDyaFEWG-3PAWzA_xcD","LocationType":"point","DisplayPosition":{"Latitude":48.47735,"Longitude":14.72849},"MapView":{"TopLeft":{"Latitude":48.4784742,"Longitude":14.7267942},"BottomRight":{"Latitude":48.4762258,"Longitude":14.7301858}},"Address":{"Label":"Weitersfelden 17, 4272 Weitersfelden, Österreich","Country":"AUT","State":"Oberösterreich","County":"Freistadt","City":"Weitersfelden","District":"Weitersfelden","Street":"Weitersfelden","HouseNumber":"17","PostalCode":"4272","AdditionalData":[{"value":"Österreich","key":"CountryName"},{"value":"Oberösterreich","key":"StateName"},{"value":"Freistadt","key":"CountyName"}]},"MapReference":{"ReferenceId":"1058210742","Spot":0.5,"SideOfStreet":"left","CountryId":"20128885","StateId":"20132880","CountyId":"20133118","CityId":"20133201","DistrictId":"20133203","AddressId":"161745992","RoadLinkId":"381114602"}}},{"Relevance":1.0,"Distance":80.9,"MatchLevel":"street","MatchQuality":{"Country":1.0,"State":1.0,"County":1.0,"City":1.0,"District":1.0,"Street":[1.0],"PostalCode":1.0},"Location":{"LocationId":"NT_Jsp5GM4NDyaFEWG-3PAWzA_l_569725513_R","LocationType":"point","DisplayPosition":{"Latitude":48.4773314,"Longitude":14.7277575},"MapView":{"TopLeft":{"Latitude":48.47734,"Longitude":14.72768},"BottomRight":{"Latitude":48.47732,"Longitude":14.72786}},"Address":{"Label":"Weitersfelden, 4272 Weitersfelden, Österreich","Country":"AUT","State":"Oberösterreich","County":"Freistadt","City":"Weitersfelden","District":"Weitersfelden","Street":"Weitersfelden","PostalCode":"4272","AdditionalData":[{"value":"Österreich","key":"CountryName"},{"value":"Oberösterreich","key":"StateName"},{"value":"Freistadt","key":"CountyName"}]},"MapReference":{"ReferenceId":"569725513","Spot":0.57,"SideOfStreet":"right","CountryId":"20128885","StateId":"20132880","CountyId":"20133118","CityId":"20133201","DistrictId":"20133203"}}}]}]}}