{"Response":{"MetaInfo":{"Timestamp":"2020-03-28T09:34:56.670+0000","NextPageInformation":"2"},"View":[{"_type":"SearchResultsViewType","ViewId":0,"Result":[{"Relevance":1.0,"Distance":-34.3,"MatchLevel":"landmark","MatchQuality":{"Country":1.0,"State":1.0,"County":1.0,"City":1.0,"District":1.0,"Street":[1.0],"HouseNumber":1.0,"PostalCode":1.0,"Name":1.0},"Location":{"LocationId":"NT_sqoTKreayreZcwV7rkt6nC_p_RwEzsuHir1lhCJ-TYirZDB","LocationType":"hospital","Name":"Uniklinik Ulm-Michelsberg","DisplayPosition":{"Latitude":48.41023,"Longitude":9.99434},"MapView":{"TopLeft":{"Latitude":48.4113542,"Longitude":9.9926465},"BottomRight":{"Latitude":48.4091058,"Longitude":9.9960335}},"Address":{"Label":"Prittwitzstraße 43, 89075 Ulm, Deutschland","Country":"DEU","State":"Baden-Württemberg","County":"Ulm","City":"Ulm","District":"Ulm","Street":"Prittwitzstraße","HouseNumber":"43","PostalCode":"89075","AdditionalData":[{"value":"Deutschland","key":"CountryName"},{"value":"Baden-Württemberg","key":"StateName"},{"value":"Ulm","key":"CountyName"}]},"MapReference":{"CountryId":"20147700","StateId":"20171489","CountyId":"20176238","CityId":"20176239","DistrictId":"20176249","PlaceId":"50613443"}}},{"Relevance":1.0,"Distance":0.0,"Direction":0.0,"MatchLevel":"district","MatchQuality":{"Country":1.0,"State":1.0,"County":1.0,"City":1.0,"District":1.0,"PostalCode":1.0},"Location":{"LocationId":"NT_mAWbKUiQAB9kGvrYaH81PB","LocationType":"point","DisplayPosition":{"Latitude":48.4100029,"Longitude":9.9929249},"MapView":{"TopLeft":{"Latitude":48.43029,"Longitude":9.92987},"BottomRight":{"Latitude":48.37353,"Longitude":10.01028}},"Address":{"Label":"Ulm, Baden-Württemberg, Deutschland","Country":"DEU","State":"Baden-Württemberg","County":"Ulm","City":"Ulm","District":"Ulm","PostalCode":"89073","AdditionalData":[{"value":"Deutschland","key":"CountryName"},{"value":"Baden-Württemberg","key":"StateName"},{"value":"Ulm","key":"CountyName"}]},"MapReference":{"ReferenceId":"1203934511","SideOfStreet":"neither","CountryId":"20147700","StateId":"20171489","CountyId":"20176238","CityId":"20176239","DistrictId":"20176249"}}},{"Relevance":1.0,"Distance":34.4,"MatchLevel":"street","MatchQuality":{"Country":1.0,"State":1.0,"County":1.0,"City":1.0,"District":1.0,"Street":[1.0],"PostalCode":1.0},"Location":{"LocationId":"NT_lFSDGHfzufLxq7XU.7n5qA_l_53150113_R","LocationType":"point","DisplayPosition":{"Latitude":48.4097,"Longitude":9.99283},"MapView":{"TopLeft":{"Latitude":48.4097,"Longitude":9.99283},"BottomRight":{"Latitude":48.4091,"Longitude":9.99316}},"Address":{"Label":"Frauensteige, 89075 Ulm, Deutschland","Country":"DEU","State":"Baden-Württemberg","County":"Ulm","City":"Ulm","District":"Ulm","Street":"Frauensteige","PostalCode":"89075","AdditionalData":[{"value":"Deutschland","key":"CountryName"},{"value":"Baden-Württemberg","key":"StateName"},{"value":"Ulm","key":"CountyName"}]},"MapReference":{"ReferenceId":"53150113","Spot":1.0,"SideOfStreet":"right","CountryId":"20147700","StateId":"20171489","CountyId":"20176238","CityId":"20176239","DistrictId":"20176249"}}},{"Relevance":1.0,"Distance":49.3,"MatchLevel":"houseNumber","MatchQuality":{"Country":1.0,"State":1.0,"County":1.0,"City":1.0,"District":1.0,"Street":[1.0],"HouseNumber":1.0,"PostalCode":1.0},"MatchType":"interpolated","Location":{"LocationId":"NT_lFSDGHfzufLxq7XU.7n5qA_xID","LocationType":"point","DisplayPosition":{"Latitude":48.40965,"Longitude":9.99252},"MapView":{"TopLeft":{"Latitude":48.4107742,"Longitude":9.9908265},"BottomRight":{"Latitude":48.4085258,"Longitude":9.9942135}},"Address":{"Label":"Frauensteige 12, 89075 Ulm, Deutschland","Country":"DEU","State":"Baden-Württemberg","County":"Ulm","City":"Ulm","District":"Ulm","Street":"Frauensteige","HouseNumber":"12","PostalCode":"89075","AdditionalData":[{"value":"Deutschland","key":"CountryName"},{"value":"Baden-Württemberg","key":"StateName"},{"value":"Ulm","key":"CountyName"}]},"MapReference":{"ReferenceId":"53150986","Spot":0.79,"SideOfStreet":"right","CountryId":"20147700","StateId":"20171489","CountyId":"20176238","CityId":"20176239","DistrictId":"20176249","AddressId":"177887201","RoadLinkId":"38640479"}}},{"Relevance":1.0,"Distance":77.1,"MatchLevel":"houseNumber","MatchQuality":{"Country":1.0,"State":1.0,"County":1.0,"City":1.0,"District":1.0,"Street":[1.0],"HouseNumber":1.0,"PostalCode":1.0},"MatchType":"interpolated","Location":{"LocationId":"NT_g8HuBtrDDtfUUhQP-r-6KC_0MD","LocationType":"point","DisplayPosition":{"Latitude":48.41061,"Longitude":9.99375},"MapView":{"TopLeft":{"Latitude":48.4117342,"Longitude":9.9920565},"BottomRight":{"Latitude":48.4094858,"Longitude":9.9954435}},"Address":{"Label":"Prittwitzstraße 43, 89075 Ulm, Deutschland","Country":"DEU","State":"Baden-Württemberg","County":"Ulm","City":"Ulm","District":"Ulm","Street":"Prittwitzstraße","HouseNumber":"43","PostalCode":"89075","AdditionalData":[{"value":"Deutschland","key":"CountryName"},{"value":"Baden-Württemberg","key":"StateName"},{"value":"Ulm","key":"CountyName"}]},"MapReference":{"ReferenceId":"53150117","Spot":0.95,"SideOfStreet":"left","CountryId":"20147700","StateId":"20171489","CountyId":"20176238","CityId":"20176239","DistrictId":"20176249","AddressId":"180450531","RoadLinkId":"38642633"}}},{"Relevance":1.0,"Distance":84.4,"MatchLevel":"houseNumber","MatchQuality":{"Country":1.0,"State":1.0,"County":1.0,"City":1.0,"District":1.0,"Street":[1.0],"HouseNumber":1.0,"PostalCode":1.0},"MatchType":"interpolated","Location":{"LocationId":"NT_wZGwq3ZJM10LqvzvKxXPKD_yAzLxA","LocationType":"point","DisplayPosition":{"Latitude":48.41017,"Longitude":9.99168},"MapView":{"TopLeft":{"Latitude":48.4112942,"Longitude":9.9899865},"BottomRight":{"Latitude":48.4090458,"Longitude":9.9933735}},"Address":{"Label":"Eythstraße 20/1, 89075 Ulm, Deutschland","Country":"DEU","State":"Baden-Württemberg","County":"Ulm","City":"Ulm","District":"Ulm","Street":"Eythstraße","HouseNumber":"20/1","PostalCode":"89075","AdditionalData":[{"value":"Deutschland","key":"CountryName"},{"value":"Baden-Württemberg","key":"StateName"},{"value":"Ulm","key":"CountyName"}]},"MapReference":{"ReferenceId":"906739222","Spot":0.78,"SideOfStreet":"right","CountryId":"20147700","StateId":"20171489","CountyId":"20176238","CityId":"20176239","DistrictId":"20176249","AddressId":"179191364","RoadLinkId":"267372927"}}},{"Relevance":1.0,"Distance":91.5,"MatchLevel":"street","MatchQuality":{"Country":1.0,"State":1.0,"County":1.0,"City":1.0,"District":1.0,"Street":[1.0],"PostalCode":1.0},"Location":{"LocationId":"NT_g8HuBtrDDtfUUhQP-r-6KC_l_53149721_L","LocationType":"point","DisplayPosition":{"Latitude":48.41065,"Longitude":9.99369},"MapView":{"TopLeft":{"Latitude":48.41073,"Longitude":9.99369},"BottomRight":{"Latitude":48.41065,"Longitude":9.99378}},"Address":{"Label":"Prittwitzstraße, 89075 Ulm, Deutschland","Country":"DEU","State":"Baden-Württemberg","County":"Ulm","City":"Ulm","District":"Ulm","Street":"Prittwitzstraße","PostalCode":"89075","AdditionalData":[{"value":"Deutschland","key":"CountryName"},{"value":"Baden-Württemberg","key":"StateName"},{"value":"Ulm","key":"CountyName"}]},"MapReference":{"ReferenceId":"53149721","Spot":0.0,"SideOfStreet":"left","CountryId":"20147700","StateId":"20171489","CountyId":"20176238","CityId":"20176239","DistrictId":"20176249"}}},{"Relevance":1.0,"Distance":101.6,"MatchLevel":"street","MatchQuality":{"Country":1.0,"State":1.0,"County":1.0,"City":1.0,"District":1.0,"Street":[1.0],"PostalCode":1.0},"Location":{"LocationId":"NT_wZGwq3ZJM10LqvzvKxXPKD_l_906737445_R","LocationType":"point","DisplayPosition":{"Latitude":48.41059,"Longitude":9.99187},"MapView":{"TopLeft":{"Latitude":48.41083,"Longitude":9.99187},"BottomRight":{"Latitude":48.41059,"Longitude":9.992}},"Address":{"Label":"Eythstraße, 89075 Ulm, Deutschland","Country":"DEU","State":"Baden-Württemberg","County":"Ulm","City":"Ulm","District":"Ulm","Street":"Eythstraße","PostalCode":"89075","AdditionalData":[{"value":"Deutschland","key":"CountryName"},{"value":"Baden-Württemberg","key":"StateName"},{"value":"Ulm","key":"CountyName"}]},"MapReference":{"ReferenceId":"906737445","Spot":0.0,"SideOfStreet":"right","CountryId":"20147700","StateId":"20171489","CountyId":"20176238","CityId":"20176239","DistrictId":"20176249"}}},{"Relevance":1.0,"Distance":111.4,"MatchLevel":"houseNumber","MatchQuality":{"Country":1.0,"State":1.0,"County":1.0,"City":1.0,"District":1.0,"Street":[1.0],"HouseNumber":1.0,"PostalCode":1.0},"MatchType":"interpolated","Location":{"LocationId":"NT_g8HuBtrDDtfUUhQP-r-6KC_0gD","LocationType":"point","DisplayPosition":{"Latitude":48.41099,"Longitude":9.99318},"MapView":{"TopLeft":{"Latitude":48.4121142,"Longitude":9.9914864},"BottomRight":{"Latitude":48.4098658,"Longitude":9.9948736}},"Address":{"Label":"Prittwitzstraße 48, 89075 Ulm, Deutschland","Country":"DEU","State":"Baden-Württemberg","County":"Ulm","City":"Ulm","District":"Ulm","Street":"Prittwitzstraße","HouseNumber":"48","PostalCode":"89075","AdditionalData":[{"value":"Deutschland","key":"CountryName"},{"value":"Baden-Württemberg","key":"StateName"},{"value":"Ulm","key":"CountyName"}]},"MapReference":{"ReferenceId":"589244443","Spot":0.45,"SideOfStreet":"right","CountryId":"20147700","StateId":"20171489","CountyId":"20176238","CityId":"20176239","DistrictId":"20176249","AddressId":"178649458","RoadLinkId":"38300631"}}},{"Relevance":1.0,"Distance":113.9,"MatchLevel":"houseNumber","MatchQuality":{"Country":1.0,"State":1.0,"County":1.0,"City":1.0,"District":1.0,"Street":[1.0],"HouseNumber":1.0,"PostalCode":1.0},"MatchType":"interpolated","Location":{"LocationId":"NT_wZGwq3ZJM10LqvzvKxXPKD_yQD","LocationType":"point","DisplayPosition":{"Latitude":48.41106,"Longitude":9.99206},"MapView":{"TopLeft":{"Latitude":48.4121842,"Longitude":9.9903664},"BottomRight":{"Latitude":48.4099358,"Longitude":9.9937536}},"Address":{"Label":"Eythstraße 24, 89075 Ulm, Deutschland","Country":"DEU","State":"Baden-Württemberg","County":"Ulm","City":"Ulm","District":"Ulm","Street":"Eythstraße","HouseNumber":"24","PostalCode":"89075","AdditionalData":[{"value":"Deutschland","key":"CountryName"},{"value":"Baden-Württemberg","key":"StateName"},{"value":"Ulm","key":"CountyName"}]},"MapReference":{"ReferenceId":"589244446","Spot":0.65,"SideOfStreet":"right","CountryId":"20147700","StateId":"20171489","CountyId":"20176238","CityId":"20176239","DistrictId":"20176249","AddressId":"177525882","RoadLinkId":"38577790"}}}]}]}}