{"Response":{"MetaInfo":{"Timestamp":"2020-03-28T09:33:39.765+0000","NextPageInformation":"2"},"View":[{"_type":"SearchResultsViewType","ViewId":0,"Result":[{"Relevance":1.0,"Distance":0.0,"Direction":0.0,"MatchLevel":"city","MatchQuality":{"Country":1.0,"State":1.0,"County":1.0,"City":1.0,"PostalCode":1.0},"Location":{"LocationId":"NT_nYzefXZjfWrH-bapkrud8A","LocationType":"point","DisplayPosition":{"Latitude":48.4922983,"Longitude":14.4987935},"MapView":{"TopLeft":{"Latitude":48.53079,"Longitude":14.4583},"BottomRight":{"Latitude":48.47915,"Longitude":14.52548}},"Address":{"Label":"Freistadt, Oberösterreich, Österreich","Country":"AUT","State":"Oberösterreich","County":"Freistadt","City":"Freistadt","PostalCode":"4240","AdditionalData":[{"value":"Österreich","key":"CountryName"},{"value":"Oberösterreich","key":"StateName"},{"value":"Freistadt","key":"CountyName"}]},"MapReference":{"ReferenceId":"569726210","SideOfStreet":"neither","CountryId":"20128885","StateId":"20132880","CountyId":"20133118","CityId":"20133119"}}},{"Relevance":1.0,"Distance":55.6,"MatchLevel":"houseNumber","MatchQuality":{"Country":1.0,"State":1.0,"County":1.0,"City":1.0,"Street":[1.0],"HouseNumber":1.0,"PostalCode":1.0},"MatchType":"interpolated","Location":{"LocationId":"NT_R3xH3Y3nJbjwCfjC.2wA4B_xA","LocationType":"point","DisplayPosition":{"Latitude":48.49163,"Longitude":14.49803},"MapView":{"TopLeft":{"Latitude":48.4927542,"Longitude":14.4963338},"BottomRight":{"Latitude":48.4905058,"Longitude":14.4997262}},"Address":{"Label":"Krankenhausstraße 1, 4240 Freistadt, Österreich","Country":"AUT","State":"Oberösterreich","County":"Freistadt","City":"Freistadt","Street":"Krankenhausstraße","HouseNumber":"1","PostalCode":"4240","AdditionalData":[{"value":"Österreich","key":"CountryName"},{"value":"Oberösterreich","key":"StateName"},{"value":"Freistadt","key":"CountyName"}]},"MapReference":{"ReferenceId":"1209801093","Spot":1.0,"SideOfStreet":"right","CountryId":"20128885","StateId":"20132880","CountyId":"20133118","CityId":"20133119","AddressId":"161503459","RoadLinkId":"524553716"}}},{"Relevance":1.0,"Distance":113.1,"MatchLevel":"street","MatchQuality":{"Country":1.0,"State":1.0,"County":1.0,"City":1.0,"Street":[1.0],"PostalCode":1.0},"Location":{"LocationId":"NT_R3xH3Y3nJbjwCfjC.2wA4B_l_569728319_R","LocationType":"point","DisplayPosition":{"Latitude":48.49173,"Longitude":14.49752},"MapView":{"TopLeft":{"Latitude":48.49173,"Longitude":14.49723},"BottomRight":{"Latitude":48.4914,"Longitude":14.49752}},"Address":{"Label":"Krankenhausstraße, 4240 Freistadt, Österreich","Country":"AUT","State":"Oberösterreich","County":"Freistadt","City":"Freistadt","Street":"Krankenhausstraße","PostalCode":"4240","AdditionalData":[{"value":"Österreich","key":"CountryName"},{"value":"Oberösterreich","key":"StateName"},{"value":"Freistadt","key":"CountyName"}]},"MapReference":{"ReferenceId":"569728319","Spot":1.0,"SideOfStreet":"right","CountryId":"20128885","StateId":"20132880","CountyId":"20133118","CityId":"20133119"}}},{"Relevance":1.0,"Distance":143.7,"MatchLevel":"street","MatchQuality":{"Country":1.0,"State":1.0,"County":1.0,"City":1.0,"PostalCode":1.0},"Location":{"LocationId":"NT_tyvK6FJzvmmieBVzR6DYiD_l_62865234_R","LocationType":"point","DisplayPosition":{"Latitude":48.49172,"Longitude":14.49705},"MapView":{"TopLeft":{"Latitude":48.49172,"Longitude":14.49704},"BottomRight":{"Latitude":48.49141,"Longitude":14.49705}},"Address":{"Label":"4240 Freistadt, Österreich","Country":"AUT","State":"Oberösterreich","County":"Freistadt","City":"Freistadt","PostalCode":"4240","AdditionalData":[{"value":"Österreich","key":"CountryName"},{"value":"Oberösterreich","key":"StateName"},{"value":"Freistadt","key":"CountyName"}]},"MapReference":{"ReferenceId":"62865234","Spot":1.0,"SideOfStreet":"right","CountryId":"20128885","StateId":"20132880","CountyId":"20133118","CityId":"20133119"}}},{"Relevance":1.0,"Distance":151.3,"MatchLevel":"street","MatchQuality":{"Country":1.0,"State":1.0,"County":1.0,"City":1.0,"District":1.0,"PostalCode":1.0},"Location":{"LocationId":"NT_6whJC69cJv4.1PwD0hU1sD_l_569716072_L","LocationType":"point","DisplayPosition":{"Latitude":48.49338,"Longitude":14.50004},"MapView":{"TopLeft":{"Latitude":48.49408,"Longitude":14.50004},"BottomRight":{"Latitude":48.49338,"Longitude":14.5003}},"Address":{"Label":"4240 Freistadt, Österreich","Country":"AUT","State":"Oberösterreich","County":"Freistadt","City":"Freistadt","District":"Freistadt","PostalCode":"4240","AdditionalData":[{"value":"Österreich","key":"CountryName"},{"value":"Oberösterreich","key":"StateName"},{"value":"Freistadt","key":"CountyName"}]},"MapReference":{"ReferenceId":"569716072","Spot":0.0,"SideOfStreet":"left","CountryId":"20128885","StateId":"20132880","CountyId":"20133118","CityId":"20133119","DistrictId":"20133121"}}},{"Relevance":1.0,"Distance":152.5,"MatchLevel":"street","MatchQuality":{"Country":1.0,"State":1.0,"County":1.0,"City":1.0,"Street":[1.0],"PostalCode":1.0},"Location":{"LocationId":"NT_R3xH3Y3nJbjwCfjC.2wA4B_l_1209801091_R","LocationType":"point","DisplayPosition":{"Latitude":48.4914,"Longitude":14.49723},"MapView":{"TopLeft":{"Latitude":48.4914,"Longitude":14.49709},"BottomRight":{"Latitude":48.49055,"Longitude":14.49764}},"Address":{"Label":"Krankenhausstraße, 4240 Freistadt, Österreich","Country":"AUT","State":"Oberösterreich","County":"Freistadt","City":"Freistadt","Street":"Krankenhausstraße","PostalCode":"4240","AdditionalData":[{"value":"Österreich","key":"CountryName"},{"value":"Oberösterreich","key":"StateName"},{"value":"Freistadt","key":"CountyName"}]},"MapReference":{"ReferenceId":"1209801091","Spot":1.0,"SideOfStreet":"right","CountryId":"20128885","StateId":"20132880","CountyId":"20133118","CityId":"20133119"}}},{"Relevance":1.0,"Distance":152.5,"MatchLevel":"street","MatchQuality":{"Country":1.0,"State":1.0,"County":1.0,"City":1.0,"PostalCode":1.0},"Location":{"LocationId":"NT_tyvK6FJzvmmieBVzR6DYiD_l_569728318_R","LocationType":"point","DisplayPosition":{"Latitude":48.4914,"Longitude":14.49723},"MapView":{"TopLeft":{"Latitude":48.49141,"Longitude":14.49704},"BottomRight":{"Latitude":48.4914,"Longitude":14.49723}},"Address":{"Label":"4240 Freistadt, Österreich","Country":"AUT","State":"Oberösterreich","County":"Freistadt","City":"Freistadt","PostalCode":"4240","AdditionalData":[{"value":"Österreich","key":"CountryName"},{"value":"Oberösterreich","key":"StateName"},{"value":"Freistadt","key":"CountyName"}]},"MapReference":{"ReferenceId":"569728318","Spot":0.0,"SideOfStreet":"right","CountryId":"20128885","StateId":"20132880","CountyId":"20133118","CityId":"20133119"}}},{"Relevance":1.0,"Distance":156.8,"MatchLevel":"houseNumber","MatchQuality":{"Country":1.0,"State":1.0,"County":1.0,"City":1.0,"District":1.0,"Street":[1.0],"HouseNumber":1.0,"PostalCode":1.0},"MatchType":"interpolated","Location":{"LocationId":"NT_p-nbtzFjs5C8UbQMu8u6SB_yID","LocationType":"point","DisplayPosition":{"Latitude":48.4937,"Longitude":14.49903},"MapView":{"TopLeft":{"Latitude":48.4948242,"Longitude":14.4973337},"BottomRight":{"Latitude":48.4925758,"Longitude":14.5007263}},"Address":{"Label":"Jaunitzstraße 22, 4240 Freistadt, Österreich","Country":"AUT","State":"Oberösterreich","County":"Freistadt","City":"Freistadt","District":"Freistadt","Street":"Jaunitzstraße","HouseNumber":"22","PostalCode":"4240","AdditionalData":[{"value":"Österreich","key":"CountryName"},{"value":"Oberösterreich","key":"StateName"},{"value":"Freistadt","key":"CountyName"}]},"MapReference":{"ReferenceId":"569716073","Spot":0.43,"SideOfStreet":"right","CountryId":"20128885","StateId":"20132880","CountyId":"20133118","CityId":"20133119","DistrictId":"20133121","AddressId":"160817746","RoadLinkId":"28047899"}}},{"Relevance":1.0,"Distance":162.6,"MatchLevel":"street","MatchQuality":{"Country":1.0,"State":1.0,"County":1.0,"City":1.0,"PostalCode":1.0},"Location":{"LocationId":"NT_tyvK6FJzvmmieBVzR6DYiD_l_569728317_R","LocationType":"point","DisplayPosition":{"Latitude":48.49141,"Longitude":14.49704},"MapView":{"TopLeft":{"Latitude":48.49141,"Longitude":14.49698},"BottomRight":{"Latitude":48.49058,"Longitude":14.49704}},"Address":{"Label":"4240 Freistadt, Österreich","Country":"AUT","State":"Oberösterreich","County":"Freistadt","City":"Freistadt","PostalCode":"4240","AdditionalData":[{"value":"Österreich","key":"CountryName"},{"value":"Oberösterreich","key":"StateName"},{"value":"Freistadt","key":"CountyName"}]},"MapReference":{"ReferenceId":"569728317","Spot":1.0,"SideOfStreet":"right","CountryId":"20128885","StateId":"20132880","CountyId":"20133118","CityId":"20133119"}}},{"Relevance":1.0,"Distance":189.0,"MatchLevel":"houseNumber","MatchQuality":{"Country":1.0,"State":1.0,"County":1.0,"City":1.0,"District":1.0,"Street":[1.0],"HouseNumber":1.0,"PostalCode":1.0},"MatchType":"interpolated","Location":{"LocationId":"NT_p-nbtzFjs5C8UbQMu8u6SB_1A","LocationType":"point","DisplayPosition":{"Latitude":48.49284,"Longitude":14.50132},"MapView":{"TopLeft":{"Latitude":48.4939642,"Longitude":14.4996237},"BottomRight":{"Latitude":48.4917158,"Longitude":14.5030163}},"Address":{"Label":"Jaunitzstraße 5, 4240 Freistadt, Österreich","Country":"AUT","State":"Oberösterreich","County":"Freistadt","City":"Freistadt","District":"Freistadt","Street":"Jaunitzstraße","HouseNumber":"5","PostalCode":"4240","AdditionalData":[{"value":"Österreich","key":"CountryName"},{"value":"Oberösterreich","key":"StateName"},{"value":"Freistadt","key":"CountyName"}]},"MapReference":{"ReferenceId":"569716074","Spot":0.31,"SideOfStreet":"left","CountryId":"20128885","StateId":"20132880","CountyId":"20133118","CityId":"20133119","DistrictId":"20133121","AddressId":"160817759","RoadLinkId":"27997389"}}}]}]}}