{"Response":{"MetaInfo":{"Timestamp":"2020-03-28T09:54:41.991+0000","NextPageInformation":"2"},"View":[{"_type":"SearchResultsViewType","ViewId":0,"Result":[{"Relevance":1.0,"Distance":0.0,"Direction":0.0,"MatchLevel":"city","MatchQuality":{"Country":1.0,"State":1.0,"County":1.0,"City":1.0,"PostalCode":1.0},"Location":{"LocationId":"NT_dwZdVHEhLsxD-xEkcpd57D","LocationType":"point","DisplayPosition":{"Latitude":48.4604931,"Longitude":21.6012299},"MapView":{"TopLeft":{"Latitude":48.4758,"Longitude":21.54378},"BottomRight":{"Latitude":48.39688,"Longitude":21.60887}},"Address":{"Label":"Mikóháza, Borsod-Abaúj-Zemplén, Magyarország","Country":"HUN","State":"Borsod-Abaúj-Zemplén","County":"Sátoraljaújhelyi Járás","City":"Mikóháza","PostalCode":"3989","AdditionalData":[{"value":"Magyarország","key":"CountryName"},{"value":"Borsod-Abaúj-Zemplén","key":"StateName"},{"value":"Sátoraljaújhelyi Járás","key":"CountyName"}]},"MapReference":{"ReferenceId":"1114735770","SideOfStreet":"neither","CountryId":"20613038","StateId":"20615191","CountyId":"26679277","CityId":"22700628"}}},{"Relevance":1.0,"Distance":7.6,"MatchLevel":"houseNumber","MatchQuality":{"Country":1.0,"State":1.0,"County":1.0,"City":1.0,"District":1.0,"Street":[1.0],"HouseNumber":1.0,"PostalCode":1.0},"MatchType":"interpolated","Location":{"LocationId":"NT_dbs.RCIbtmDxgscCMkXQAB_xA","LocationType":"point","DisplayPosition":{"Latitude":48.46042,"Longitude":21.60099},"MapView":{"TopLeft":{"Latitude":48.4615442,"Longitude":21.5992948},"BottomRight":{"Latitude":48.4592958,"Longitude":21.6026852}},"Address":{"Label":"Szabadság utca 1, Mikóháza 3989, Magyarország","Country":"HUN","State":"Borsod-Abaúj-Zemplén","County":"Sátoraljaújhelyi Járás","City":"Mikóháza","District":"Mikóháza","Street":"Szabadság utca","HouseNumber":"1","PostalCode":"3989","AdditionalData":[{"value":"Magyarország","key":"CountryName"},{"value":"Borsod-Abaúj-Zemplén","key":"StateName"},{"value":"Sátoraljaújhelyi Járás","key":"CountyName"}]},"MapReference":{"ReferenceId":"1114898384","Spot":0.64,"SideOfStreet":"right","CountryId":"20613038","StateId":"20615191","CountyId":"26679277","CityId":"22700628","DistrictId":"26679686","AddressId":"355854659","RoadLinkId":"424848572"}}},{"Relevance":1.0,"Distance":29.1,"MatchLevel":"houseNumber","MatchQuality":{"Country":1.0,"State":1.0,"County":1.0,"City":1.0,"District":1.0,"Street":[1.0],"HouseNumber":1.0,"PostalCode":1.0},"MatchType":"interpolated","Location":{"LocationId":"NT_dbs.RCIbtmDxgscCMkXQAB_0A","LocationType":"point","DisplayPosition":{"Latitude":48.4606,"Longitude":21.60087},"MapView":{"TopLeft":{"Latitude":48.4617242,"Longitude":21.5991748},"BottomRight":{"Latitude":48.4594758,"Longitude":21.6025652}},"Address":{"Label":"Szabadság utca 4, Mikóháza 3989, Magyarország","Country":"HUN","State":"Borsod-Abaúj-Zemplén","County":"Sátoraljaújhelyi Járás","City":"Mikóháza","District":"Mikóháza","Street":"Szabadság utca","HouseNumber":"4","PostalCode":"3989","AdditionalData":[{"value":"Magyarország","key":"CountryName"},{"value":"Borsod-Abaúj-Zemplén","key":"StateName"},{"value":"Sátoraljaújhelyi Járás","key":"CountyName"}]},"MapReference":{"ReferenceId":"1114735775","Spot":0.24,"SideOfStreet":"left","CountryId":"20613038","StateId":"20615191","CountyId":"26679277","CityId":"22700628","DistrictId":"26679686","AddressId":"355854656","RoadLinkId":"424682206"}}},{"Relevance":1.0,"Distance":33.4,"MatchLevel":"street","MatchQuality":{"Country":1.0,"State":1.0,"County":1.0,"City":1.0,"District":1.0,"Street":[1.0],"PostalCode":1.0},"Location":{"LocationId":"NT_dbs.RCIbtmDxgscCMkXQAB_l_1114898383_R","LocationType":"point","DisplayPosition":{"Latitude":48.4602,"Longitude":21.60113},"MapView":{"TopLeft":{"Latitude":48.4602,"Longitude":21.60113},"BottomRight":{"Latitude":48.46007,"Longitude":21.60121}},"Address":{"Label":"Szabadság utca, Mikóháza 3989, Magyarország","Country":"HUN","State":"Borsod-Abaúj-Zemplén","County":"Sátoraljaújhelyi Járás","City":"Mikóháza","District":"Mikóháza","Street":"Szabadság utca","PostalCode":"3989","AdditionalData":[{"value":"Magyarország","key":"CountryName"},{"value":"Borsod-Abaúj-Zemplén","key":"StateName"},{"value":"Sátoraljaújhelyi Járás","key":"CountyName"}]},"MapReference":{"ReferenceId":"1114898383","Spot":1.0,"SideOfStreet":"right","CountryId":"20613038","StateId":"20615191","CountyId":"26679277","CityId":"22700628","DistrictId":"26679686"}}},{"Relevance":1.0,"Distance":47.1,"MatchLevel":"houseNumber","MatchQuality":{"Country":1.0,"State":1.0,"County":1.0,"City":1.0,"District":1.0,"Street":[1.0],"HouseNumber":1.0,"PostalCode":1.0},"MatchType":"interpolated","Location":{"LocationId":"NT_vqX38E2lmEtD2LFKU3EkfA_yA","LocationType":"point","DisplayPosition":{"Latitude":48.46007,"Longitude":21.60121},"MapView":{"TopLeft":{"Latitude":48.4611942,"Longitude":21.5995148},"BottomRight":{"Latitude":48.4589458,"Longitude":21.6029052}},"Address":{"Label":"Gábor Áron utca 2, Mikóháza 3989, Magyarország","Country":"HUN","State":"Borsod-Abaúj-Zemplén","County":"Sátoraljaújhelyi Járás","City":"Mikóháza","District":"Mikóháza","Street":"Gábor Áron utca","HouseNumber":"2","PostalCode":"3989","AdditionalData":[{"value":"Magyarország","key":"CountryName"},{"value":"Borsod-Abaúj-Zemplén","key":"StateName"},{"value":"Sátoraljaújhelyi Járás","key":"CountyName"}]},"MapReference":{"ReferenceId":"709079366","Spot":0.0,"SideOfStreet":"left","CountryId":"20613038","StateId":"20615191","CountyId":"26679277","CityId":"22700628","DistrictId":"26679686","AddressId":"357442878","RoadLinkId":"114385897"}}},{"Relevance":1.0,"Distance":47.1,"MatchLevel":"street","MatchQuality":{"Country":1.0,"State":1.0,"County":1.0,"City":1.0,"District":1.0,"Street":[1.0],"PostalCode":1.0},"Location":{"LocationId":"NT_n0rwluODS2kukBQNflQSEC_l_1114738862_R","LocationType":"point","DisplayPosition":{"Latitude":48.46007,"Longitude":21.60121},"MapView":{"TopLeft":{"Latitude":48.46007,"Longitude":21.60121},"BottomRight":{"Latitude":48.45931,"Longitude":21.60198}},"Address":{"Label":"3719, Mikóháza 3989, Magyarország","Country":"HUN","State":"Borsod-Abaúj-Zemplén","County":"Sátoraljaújhelyi Járás","City":"Mikóháza","District":"Mikóháza","Street":"3719","PostalCode":"3989","AdditionalData":[{"value":"Magyarország","key":"CountryName"},{"value":"Borsod-Abaúj-Zemplén","key":"StateName"},{"value":"Sátoraljaújhelyi Járás","key":"CountyName"}]},"MapReference":{"ReferenceId":"1114738862","Spot":1.0,"SideOfStreet":"right","CountryId":"20613038","StateId":"20615191","CountyId":"26679277","CityId":"22700628","DistrictId":"26679686"}}},{"Relevance":1.0,"Distance":56.3,"MatchLevel":"houseNumber","MatchQuality":{"Country":1.0,"State":1.0,"County":1.0,"City":1.0,"District":1.0,"Street":[1.0],"HouseNumber":1.0,"PostalCode":1.0},"MatchType":"interpolated","Location":{"LocationId":"NT_dbs.RCIbtmDxgscCMkXQAB_zA","LocationType":"point","DisplayPosition":{"Latitude":48.46088,"Longitude":21.60068},"MapView":{"TopLeft":{"Latitude":48.4620042,"Longitude":21.5989848},"BottomRight":{"Latitude":48.4597558,"Longitude":21.6023752}},"Address":{"Label":"Szabadság utca 3, Mikóháza 3989, Magyarország","Country":"HUN","State":"Borsod-Abaúj-Zemplén","County":"Sátoraljaújhelyi Járás","City":"Mikóháza","District":"Mikóháza","Street":"Szabadság utca","HouseNumber":"3","PostalCode":"3989","AdditionalData":[{"value":"Magyarország","key":"CountryName"},{"value":"Borsod-Abaúj-Zemplén","key":"StateName"},{"value":"Sátoraljaújhelyi Járás","key":"CountyName"}]},"MapReference":{"ReferenceId":"1114735773","Spot":0.08,"SideOfStreet":"right","CountryId":"20613038","StateId":"20615191","CountyId":"26679277","CityId":"22700628","DistrictId":"26679686","AddressId":"355854657","RoadLinkId":"424682203"}}},{"Relevance":1.0,"Distance":121.5,"MatchLevel":"houseNumber","MatchQuality":{"Country":1.0,"State":1.0,"County":1.0,"City":1.0,"District":1.0,"Street":[1.0],"HouseNumber":1.0,"PostalCode":1.0},"MatchType":"interpolated","Location":{"LocationId":"NT_vqX38E2lmEtD2LFKU3EkfA_xA","LocationType":"point","DisplayPosition":{"Latitude":48.46082,"Longitude":21.59958},"MapView":{"TopLeft":{"Latitude":48.4619442,"Longitude":21.5978848},"BottomRight":{"Latitude":48.4596958,"Longitude":21.6012752}},"Address":{"Label":"Gábor Áron utca 1, Mikóháza 3989, Magyarország","Country":"HUN","State":"Borsod-Abaúj-Zemplén","County":"Sátoraljaújhelyi Járás","City":"Mikóháza","District":"Mikóháza","Street":"Gábor Áron utca","HouseNumber":"1","PostalCode":"3989","AdditionalData":[{"value":"Magyarország","key":"CountryName"},{"value":"Borsod-Abaúj-Zemplén","key":"StateName"},{"value":"Sátoraljaújhelyi Járás","key":"CountyName"}]},"MapReference":{"ReferenceId":"709079356","Spot":0.1,"SideOfStreet":"right","CountryId":"20613038","StateId":"20615191","CountyId":"26679277","CityId":"22700628","DistrictId":"26679686","AddressId":"354893715","RoadLinkId":"114385886"}}},{"Relevance":1.0,"Distance":142.7,"MatchLevel":"street","MatchQuality":{"Country":1.0,"State":1.0,"County":1.0,"City":1.0,"District":1.0,"Street":[1.0],"PostalCode":1.0},"Location":{"LocationId":"NT_n0rwluODS2kukBQNflQSEC_l_1114738861_R","LocationType":"point","DisplayPosition":{"Latitude":48.45931,"Longitude":21.60198},"MapView":{"TopLeft":{"Latitude":48.45931,"Longitude":21.60198},"BottomRight":{"Latitude":48.45849,"Longitude":21.60411}},"Address":{"Label":"3719, Mikóháza 3989, Magyarország","Country":"HUN","State":"Borsod-Abaúj-Zemplén","County":"Sátoraljaújhelyi Járás","City":"Mikóháza","District":"Mikóháza","Street":"3719","PostalCode":"3989","AdditionalData":[{"value":"Magyarország","key":"CountryName"},{"value":"Borsod-Abaúj-Zemplén","key":"StateName"},{"value":"Sátoraljaújhelyi Járás","key":"CountyName"}]},"MapReference":{"ReferenceId":"1114738861","Spot":1.0,"SideOfStreet":"right","CountryId":"20613038","StateId":"20615191","CountyId":"26679277","CityId":"22700628","DistrictId":"26679686"}}},{"Relevance":1.0,"Distance":183.8,"MatchLevel":"street","MatchQuality":{"Country":1.0,"State":1.0,"County":1.0,"City":1.0,"PostalCode":1.0},"Location":{"LocationId":"NT_jsnHl.f7SQ0T4l54CH3hzD_l_994554344_L","LocationType":"point","DisplayPosition":{"Latitude":48.46198,"Longitude":21.60232},"MapView":{"TopLeft":{"Latitude":48.46321,"Longitude":21.60204},"BottomRight":{"Latitude":48.46198,"Longitude":21.60232}},"Address":{"Label":"Mikóháza 3989, Magyarország","Country":"HUN","State":"Borsod-Abaúj-Zemplén","County":"Sátoraljaújhelyi Járás","City":"Mikóháza","PostalCode":"3989","AdditionalData":[{"value":"Magyarország","key":"CountryName"},{"value":"Borsod-Abaúj-Zemplén","key":"StateName"},{"value":"Sátoraljaújhelyi Járás","key":"CountyName"}]},"MapReference":{"ReferenceId":"994554344","Spot":0.0,"SideOfStreet":"left","CountryId":"20613038","StateId":"20615191","CountyId":"26679277","CityId":"22700628"}}}]}]}}