{"Response":{"MetaInfo":{"Timestamp":"2020-03-28T10:31:25.441+0000","NextPageInformation":"2"},"View":[{"_type":"SearchResultsViewType","ViewId":0,"Result":[{"Relevance":1.0,"Distance":-1700.1,"MatchLevel":"landmark","MatchQuality":{"Country":1.0,"State":1.0,"Name":1.0},"Location":{"LocationId":"NT_YH91ApBjsDWhduaKXWYBFA","LocationType":"park","Name":"P.N.R. d'Armorique","DisplayPosition":{"Latitude":48.36397,"Longitude":-3.92539},"MapView":{"TopLeft":{"Latitude":48.56727,"Longitude":-4.63054},"BottomRight":{"Latitude":48.16067,"Longitude":-3.5394}},"Address":{"Label":"France","Country":"FRA","State":"Bretagne","AdditionalData":[{"value":"France","key":"CountryName"},{"value":"Bretagne","key":"StateName"}]},"MapReference":{"CountryId":"20000001","StateId":"20060199","PlaceId":"1512264509"}}},{"Relevance":1.0,"Distance":0.0,"Direction":0.0,"MatchLevel":"city","MatchQuality":{"Country":1.0,"State":1.0,"County":1.0,"City":1.0,"PostalCode":1.0},"Location":{"LocationId":"NT_MAvI9ifHNGERSwkRuNxmFA","LocationType":"point","DisplayPosition":{"Latitude":48.4057919,"Longitude":-4.0798655},"MapView":{"TopLeft":{"Latitude":48.44165,"Longitude":-4.10638},"BottomRight":{"Latitude":48.3516,"Longitude":-3.94355}},"Address":{"Label":"Sizun, Bretagne, France","Country":"FRA","State":"Bretagne","County":"Finistère","City":"Sizun","PostalCode":"29450","AdditionalData":[{"value":"France","key":"CountryName"},{"value":"Bretagne","key":"StateName"},{"value":"Finistère","key":"CountyName"}]},"MapReference":{"ReferenceId":"558008495","SideOfStreet":"neither","CountryId":"20000001","StateId":"20060199","CountyId":"20064592","CityId":"20065382"}}},{"Relevance":1.0,"Distance":8.0,"MatchLevel":"houseNumber","MatchQuality":{"Country":1.0,"State":1.0,"County":1.0,"City":1.0,"Street":[1.0],"HouseNumber":1.0,"PostalCode":1.0},"MatchType":"interpolated","Location":{"LocationId":"NT_b6kq2fAFxL.LoqQQ0B6v6C_xMD","LocationType":"point","DisplayPosition":{"Latitude":48.40585,"Longitude":-4.07993},"MapView":{"TopLeft":{"Latitude":48.4069742,"Longitude":-4.0816234},"BottomRight":{"Latitude":48.4047258,"Longitude":-4.0782366}},"Address":{"Label":"13 Rue de la Paix, 29450 Sizun, France","Country":"FRA","State":"Bretagne","County":"Finistère","City":"Sizun","Street":"Rue de la Paix","HouseNumber":"13","PostalCode":"29450","AdditionalData":[{"value":"France","key":"CountryName"},{"value":"Bretagne","key":"StateName"},{"value":"Finistère","key":"CountyName"}]},"MapReference":{"ReferenceId":"558008618","Spot":0.35,"SideOfStreet":"right","CountryId":"20000001","StateId":"20060199","CountyId":"20064592","CityId":"20065382","AddressId":"320655417","RoadLinkId":"47987465"}}},{"Relevance":1.0,"Distance":20.4,"MatchLevel":"houseNumber","MatchQuality":{"Country":1.0,"State":1.0,"County":1.0,"City":1.0,"Street":[1.0],"HouseNumber":1.0,"PostalCode":1.0},"MatchType":"interpolated","Location":{"LocationId":"NT_TPWCt1h3nhCuK63sjfBoTA_l_850344719_L_zA","LocationType":"point","DisplayPosition":{"Latitude":48.4055786,"Longitude":-4.080108},"MapView":{"TopLeft":{"Latitude":48.4067028,"Longitude":-4.0818014},"BottomRight":{"Latitude":48.4044544,"Longitude":-4.0784146}},"Address":{"Label":"3 Rue de Brest, 29450 Sizun, France","Country":"FRA","State":"Bretagne","County":"Finistère","City":"Sizun","Street":"Rue de Brest","HouseNumber":"3","PostalCode":"29450","AdditionalData":[{"value":"France","key":"CountryName"},{"value":"Bretagne","key":"StateName"},{"value":"Finistère","key":"CountyName"}]},"MapReference":{"ReferenceId":"850344719","Spot":0.54,"SideOfStreet":"left","CountryId":"20000001","StateId":"20060199","CountyId":"20064592","CityId":"20065382"}}},{"Relevance":1.0,"Distance":22.6,"MatchLevel":"houseNumber","MatchQuality":{"Country":1.0,"State":1.0,"County":1.0,"City":1.0,"Street":[1.0],"HouseNumber":1.0,"PostalCode":1.0},"MatchType":"interpolated","Location":{"LocationId":"NT_4UdCmw3Z-xBzBSmba6VZqA_yA","LocationType":"point","DisplayPosition":{"Latitude":48.40561,"Longitude":-4.07973},"MapView":{"TopLeft":{"Latitude":48.4067342,"Longitude":-4.0814234},"BottomRight":{"Latitude":48.4044858,"Longitude":-4.0780366}},"Address":{"Label":"2 Rue de Brest, 29450 Sizun, France","Country":"FRA","State":"Bretagne","County":"Finistère","City":"Sizun","Street":"Rue de Brest","HouseNumber":"2","PostalCode":"29450","AdditionalData":[{"value":"France","key":"CountryName"},{"value":"Bretagne","key":"StateName"},{"value":"Finistère","key":"CountyName"}]},"MapReference":{"ReferenceId":"558008621","Spot":0.52,"SideOfStreet":"right","CountryId":"20000001","StateId":"20060199","CountyId":"20064592","CityId":"20065382","AddressId":"320750288","RoadLinkId":"47158216"}}},{"Relevance":1.0,"Distance":30.3,"MatchLevel":"houseNumber","MatchQuality":{"Country":1.0,"State":1.0,"County":1.0,"City":1.0,"Street":[1.0],"HouseNumber":1.0,"PostalCode":1.0},"MatchType":"interpolated","Location":{"LocationId":"NT_0SIkrxC7Zr4ar28D90Q0mB_xIE","LocationType":"point","DisplayPosition":{"Latitude":48.40551,"Longitude":-4.07994},"MapView":{"TopLeft":{"Latitude":48.4066342,"Longitude":-4.0816334},"BottomRight":{"Latitude":48.4043858,"Longitude":-4.0782466}},"Address":{"Label":"1B Route de Pont de Bodivy, 29450 Sizun, France","Country":"FRA","State":"Bretagne","County":"Finistère","City":"Sizun","Street":"Route de Pont de Bodivy","HouseNumber":"1B","PostalCode":"29450","AdditionalData":[{"value":"France","key":"CountryName"},{"value":"Bretagne","key":"StateName"},{"value":"Finistère","key":"CountyName"}]},"MapReference":{"ReferenceId":"551974657","Spot":0.97,"SideOfStreet":"right","CountryId":"20000001","StateId":"20060199","CountyId":"20064592","CityId":"20065382","AddressId":"590816140","RoadLinkId":"46927076"}}},{"Relevance":1.0,"Distance":40.2,"MatchLevel":"houseNumber","MatchQuality":{"Country":1.0,"State":1.0,"County":1.0,"City":1.0,"Street":[1.0],"HouseNumber":1.0,"PostalCode":1.0},"MatchType":"interpolated","Location":{"LocationId":"NT_4UdCmw3Z-xBzBSmba6VZqA_yQDNBB","LocationType":"point","DisplayPosition":{"Latitude":48.40557,"Longitude":-4.08041},"MapView":{"TopLeft":{"Latitude":48.4066942,"Longitude":-4.0821034},"BottomRight":{"Latitude":48.4044458,"Longitude":-4.0787166}},"Address":{"Label":"244A Rue de Brest, 29450 Sizun, France","Country":"FRA","State":"Bretagne","County":"Finistère","City":"Sizun","Street":"Rue de Brest","HouseNumber":"244A","PostalCode":"29450","AdditionalData":[{"value":"France","key":"CountryName"},{"value":"Bretagne","key":"StateName"},{"value":"Finistère","key":"CountyName"}]},"MapReference":{"ReferenceId":"850344720","Spot":0.1,"SideOfStreet":"right","CountryId":"20000001","StateId":"20060199","CountyId":"20064592","CityId":"20065382","AddressId":"399021553","RoadLinkId":"229819629"}}},{"Relevance":1.0,"Distance":64.9,"MatchLevel":"houseNumber","MatchQuality":{"Country":1.0,"State":1.0,"County":1.0,"City":1.0,"Street":[1.0],"HouseNumber":1.0,"PostalCode":1.0},"MatchType":"interpolated","Location":{"LocationId":"NT_-zk86aYO5vNT2mfeeW0vKA_xA","LocationType":"point","DisplayPosition":{"Latitude":48.40567,"Longitude":-4.07899},"MapView":{"TopLeft":{"Latitude":48.4067942,"Longitude":-4.0806834},"BottomRight":{"Latitude":48.4045458,"Longitude":-4.0772966}},"Address":{"Label":"1 Place Charles de Gaulle, 29450 Sizun, France","Country":"FRA","State":"Bretagne","County":"Finistère","City":"Sizun","Street":"Place Charles de Gaulle","HouseNumber":"1","PostalCode":"29450","AdditionalData":[{"value":"France","key":"CountryName"},{"value":"Bretagne","key":"StateName"},{"value":"Finistère","key":"CountyName"}]},"MapReference":{"ReferenceId":"558008622","Spot":0.49,"SideOfStreet":"left","CountryId":"20000001","StateId":"20060199","CountyId":"20064592","CityId":"20065382","AddressId":"320620396","RoadLinkId":"47195308"}}},{"Relevance":1.0,"Distance":75.6,"MatchLevel":"houseNumber","MatchQuality":{"Country":1.0,"State":1.0,"County":1.0,"City":1.0,"Street":[1.0],"HouseNumber":1.0,"PostalCode":1.0},"MatchType":"interpolated","Location":{"LocationId":"NT_TZVKcn0KNh1JnLx8IqbV-D_0A","LocationType":"point","DisplayPosition":{"Latitude":48.40664,"Longitude":-4.07976},"MapView":{"TopLeft":{"Latitude":48.4077642,"Longitude":-4.0814534},"BottomRight":{"Latitude":48.4055158,"Longitude":-4.0780666}},"Address":{"Label":"4 Rue Poul Ar Ranet, 29450 Sizun, France","Country":"FRA","State":"Bretagne","County":"Finistère","City":"Sizun","Street":"Rue Poul Ar Ranet","HouseNumber":"4","PostalCode":"29450","AdditionalData":[{"value":"France","key":"CountryName"},{"value":"Bretagne","key":"StateName"},{"value":"Finistère","key":"CountyName"}]},"MapReference":{"ReferenceId":"558008620","Spot":0.71,"SideOfStreet":"right","CountryId":"20000001","StateId":"20060199","CountyId":"20064592","CityId":"20065382","AddressId":"320533987","RoadLinkId":"47609688"}}},{"Relevance":1.0,"Distance":81.2,"MatchLevel":"houseNumber","MatchQuality":{"Country":1.0,"State":1.0,"County":1.0,"City":1.0,"Street":[1.0],"HouseNumber":1.0,"PostalCode":1.0},"MatchType":"interpolated","Location":{"LocationId":"NT_JL7uERZZ.W75Kx7rnGyecB_4A","LocationType":"point","DisplayPosition":{"Latitude":48.40643,"Longitude":-4.07921},"MapView":{"TopLeft":{"Latitude":48.4075542,"Longitude":-4.0809034},"BottomRight":{"Latitude":48.4053058,"Longitude":-4.0775166}},"Address":{"Label":"8 Rue du Léon, 29450 Sizun, France","Country":"FRA","State":"Bretagne","County":"Finistère","City":"Sizun","Street":"Rue du Léon","HouseNumber":"8","PostalCode":"29450","AdditionalData":[{"value":"France","key":"CountryName"},{"value":"Bretagne","key":"StateName"},{"value":"Finistère","key":"CountyName"}]},"MapReference":{"ReferenceId":"558008583","Spot":0.24,"SideOfStreet":"left","CountryId":"20000001","StateId":"20060199","CountyId":"20064592","CityId":"20065382","AddressId":"320729289","RoadLinkId":"47580793"}}}]}]}}