{"Response":{"MetaInfo":{"Timestamp":"2020-03-28T10:01:27.650+0000","NextPageInformation":"2"},"View":[{"_type":"SearchResultsViewType","ViewId":0,"Result":[{"Relevance":1.0,"Distance":0.0,"Direction":0.0,"MatchLevel":"district","MatchQuality":{"Country":1.0,"State":1.0,"County":1.0,"City":1.0,"District":1.0,"PostalCode":1.0},"Location":{"LocationId":"NT_5ektNZsHQOTnsCL9X7fAvA","LocationType":"point","DisplayPosition":{"Latitude":48.4602306,"Longitude":15.7188767},"MapView":{"TopLeft":{"Latitude":48.4622,"Longitude":15.71117},"BottomRight":{"Latitude":48.44421,"Longitude":15.72826}},"Address":{"Label":"Hadersdorf am Kamp, Hadersdorf-Kammern, Niederösterreich, Österreich","Country":"AUT","State":"Niederösterreich","County":"Krems-Land","City":"Hadersdorf-Kammern","District":"Hadersdorf am Kamp","PostalCode":"3493","AdditionalData":[{"value":"Österreich","key":"CountryName"},{"value":"Niederösterreich","key":"StateName"},{"value":"Krems-Land","key":"CountyName"}]},"MapReference":{"ReferenceId":"69032552","SideOfStreet":"neither","CountryId":"20128885","StateId":"20130295","CountyId":"20131325","CityId":"20131370","DistrictId":"20131372"}}},{"Relevance":1.0,"Distance":15.2,"MatchLevel":"houseNumber","MatchQuality":{"Country":1.0,"State":1.0,"County":1.0,"City":1.0,"District":1.0,"Street":[1.0],"HouseNumber":1.0,"PostalCode":1.0},"MatchType":"interpolated","Location":{"LocationId":"NT_giPt.b6IjclW0VyjEleHMC_0gD","LocationType":"point","DisplayPosition":{"Latitude":48.46023,"Longitude":15.71867},"MapView":{"TopLeft":{"Latitude":48.4613542,"Longitude":15.7169748},"BottomRight":{"Latitude":48.4591058,"Longitude":15.7203652}},"Address":{"Label":"Pfarrsiedlung 48, 3493 Hadersdorf-Kammern, Österreich","Country":"AUT","State":"Niederösterreich","County":"Krems-Land","City":"Hadersdorf-Kammern","District":"Hadersdorf am Kamp","Street":"Pfarrsiedlung","HouseNumber":"48","PostalCode":"3493","AdditionalData":[{"value":"Österreich","key":"CountryName"},{"value":"Niederösterreich","key":"StateName"},{"value":"Krems-Land","key":"CountyName"}]},"MapReference":{"ReferenceId":"69022539","Spot":0.41,"SideOfStreet":"right","CountryId":"20128885","StateId":"20130295","CountyId":"20131325","CityId":"20131370","DistrictId":"20131372","AddressId":"160641460","RoadLinkId":"28935551"}}},{"Relevance":1.0,"Distance":54.1,"MatchLevel":"houseNumber","MatchQuality":{"Country":1.0,"State":1.0,"County":1.0,"City":1.0,"District":1.0,"Street":[1.0],"HouseNumber":1.0,"PostalCode":1.0},"MatchType":"interpolated","Location":{"LocationId":"NT_giPt.b6IjclW0VyjEleHMC_zA","LocationType":"point","DisplayPosition":{"Latitude":48.46021,"Longitude":15.71982},"MapView":{"TopLeft":{"Latitude":48.4613342,"Longitude":15.7181248},"BottomRight":{"Latitude":48.4590858,"Longitude":15.7215152}},"Address":{"Label":"Pfarrsiedlung 3, 3493 Hadersdorf-Kammern, Österreich","Country":"AUT","State":"Niederösterreich","County":"Krems-Land","City":"Hadersdorf-Kammern","District":"Hadersdorf am Kamp","Street":"Pfarrsiedlung","HouseNumber":"3","PostalCode":"3493","AdditionalData":[{"value":"Österreich","key":"CountryName"},{"value":"Niederösterreich","key":"StateName"},{"value":"Krems-Land","key":"CountyName"}]},"MapReference":{"ReferenceId":"69022537","Spot":1.0,"SideOfStreet":"left","CountryId":"20128885","StateId":"20130295","CountyId":"20131325","CityId":"20131370","DistrictId":"20131372","AddressId":"729478840","RoadLinkId":"215979966"}}},{"Relevance":1.0,"Distance":56.2,"MatchLevel":"houseNumber","MatchQuality":{"Country":1.0,"State":1.0,"County":1.0,"City":1.0,"District":1.0,"Street":[1.0],"HouseNumber":1.0,"PostalCode":1.0},"MatchType":"interpolated","Location":{"LocationId":"NT_giPt.b6IjclW0VyjEleHMC_xA","LocationType":"point","DisplayPosition":{"Latitude":48.45992,"Longitude":15.71969},"MapView":{"TopLeft":{"Latitude":48.4610442,"Longitude":15.7179948},"BottomRight":{"Latitude":48.4587958,"Longitude":15.7213852}},"Address":{"Label":"Pfarrsiedlung 1, 3493 Hadersdorf-Kammern, Österreich","Country":"AUT","State":"Niederösterreich","County":"Krems-Land","City":"Hadersdorf-Kammern","District":"Hadersdorf am Kamp","Street":"Pfarrsiedlung","HouseNumber":"1","PostalCode":"3493","AdditionalData":[{"value":"Österreich","key":"CountryName"},{"value":"Niederösterreich","key":"StateName"},{"value":"Krems-Land","key":"CountyName"}]},"MapReference":{"ReferenceId":"69022538","Spot":0.8,"SideOfStreet":"left","CountryId":"20128885","StateId":"20130295","CountyId":"20131325","CityId":"20131370","DistrictId":"20131372","AddressId":"160641522","RoadLinkId":"28422429"}}},{"Relevance":1.0,"Distance":70.8,"MatchLevel":"houseNumber","MatchQuality":{"Country":1.0,"State":1.0,"County":1.0,"City":1.0,"District":1.0,"Street":[1.0],"HouseNumber":1.0,"PostalCode":1.0},"MatchType":"interpolated","Location":{"LocationId":"NT_kgtuShArGo0tbQUK6NBDVA_1A","LocationType":"point","DisplayPosition":{"Latitude":48.46058,"Longitude":15.71968},"MapView":{"TopLeft":{"Latitude":48.4617042,"Longitude":15.7179848},"BottomRight":{"Latitude":48.4594558,"Longitude":15.7213752}},"Address":{"Label":"Leuthnersiedlung 5, 3493 Hadersdorf-Kammern, Österreich","Country":"AUT","State":"Niederösterreich","County":"Krems-Land","City":"Hadersdorf-Kammern","District":"Hadersdorf am Kamp","Street":"Leuthnersiedlung","HouseNumber":"5","PostalCode":"3493","AdditionalData":[{"value":"Österreich","key":"CountryName"},{"value":"Niederösterreich","key":"StateName"},{"value":"Krems-Land","key":"CountyName"}]},"MapReference":{"ReferenceId":"69022527","Spot":0.3,"SideOfStreet":"right","CountryId":"20128885","StateId":"20130295","CountyId":"20131325","CityId":"20131370","DistrictId":"20131372","AddressId":"160641234","RoadLinkId":"28297594"}}},{"Relevance":1.0,"Distance":73.1,"MatchLevel":"houseNumber","MatchQuality":{"Country":1.0,"State":1.0,"County":1.0,"City":1.0,"District":1.0,"Street":[1.0],"HouseNumber":1.0,"PostalCode":1.0},"MatchType":"interpolated","Location":{"LocationId":"NT_giPt.b6IjclW0VyjEleHMC_3A","LocationType":"point","DisplayPosition":{"Latitude":48.46125,"Longitude":15.71886},"MapView":{"TopLeft":{"Latitude":48.4623742,"Longitude":15.7171648},"BottomRight":{"Latitude":48.4601258,"Longitude":15.7205552}},"Address":{"Label":"Pfarrsiedlung 7, 3493 Hadersdorf-Kammern, Österreich","Country":"AUT","State":"Niederösterreich","County":"Krems-Land","City":"Hadersdorf-Kammern","District":"Hadersdorf am Kamp","Street":"Pfarrsiedlung","HouseNumber":"7","PostalCode":"3493","AdditionalData":[{"value":"Österreich","key":"CountryName"},{"value":"Niederösterreich","key":"StateName"},{"value":"Krems-Land","key":"CountyName"}]},"MapReference":{"ReferenceId":"69022514","Spot":0.65,"SideOfStreet":"right","CountryId":"20128885","StateId":"20130295","CountyId":"20131325","CityId":"20131370","DistrictId":"20131372","AddressId":"160641473","RoadLinkId":"28245019"}}},{"Relevance":1.0,"Distance":75.3,"MatchLevel":"houseNumber","MatchQuality":{"Country":1.0,"State":1.0,"County":1.0,"City":1.0,"District":1.0,"Street":[1.0],"HouseNumber":1.0,"PostalCode":1.0},"MatchType":"interpolated","Location":{"LocationId":"NT_giPt.b6IjclW0VyjEleHMC_zkD","LocationType":"point","DisplayPosition":{"Latitude":48.45951,"Longitude":15.71885},"MapView":{"TopLeft":{"Latitude":48.4606342,"Longitude":15.7171548},"BottomRight":{"Latitude":48.4583858,"Longitude":15.7205452}},"Address":{"Label":"Pfarrsiedlung 39, 3493 Hadersdorf-Kammern, Österreich","Country":"AUT","State":"Niederösterreich","County":"Krems-Land","City":"Hadersdorf-Kammern","District":"Hadersdorf am Kamp","Street":"Pfarrsiedlung","HouseNumber":"39","PostalCode":"3493","AdditionalData":[{"value":"Österreich","key":"CountryName"},{"value":"Niederösterreich","key":"StateName"},{"value":"Krems-Land","key":"CountyName"}]},"MapReference":{"ReferenceId":"69028807","Spot":0.77,"SideOfStreet":"left","CountryId":"20128885","StateId":"20130295","CountyId":"20131325","CityId":"20131370","DistrictId":"20131372","AddressId":"160641477","RoadLinkId":"28409056"}}},{"Relevance":1.0,"Distance":76.6,"MatchLevel":"houseNumber","MatchQuality":{"Country":1.0,"State":1.0,"County":1.0,"City":1.0,"District":1.0,"Street":[1.0],"HouseNumber":1.0,"PostalCode":1.0},"MatchType":"interpolated","Location":{"LocationId":"NT_giPt.b6IjclW0VyjEleHMC_xkD","LocationType":"point","DisplayPosition":{"Latitude":48.46072,"Longitude":15.71782},"MapView":{"TopLeft":{"Latitude":48.4618442,"Longitude":15.7161248},"BottomRight":{"Latitude":48.4595958,"Longitude":15.7195152}},"Address":{"Label":"Pfarrsiedlung 19, 3493 Hadersdorf-Kammern, Österreich","Country":"AUT","State":"Niederösterreich","County":"Krems-Land","City":"Hadersdorf-Kammern","District":"Hadersdorf am Kamp","Street":"Pfarrsiedlung","HouseNumber":"19","PostalCode":"3493","AdditionalData":[{"value":"Österreich","key":"CountryName"},{"value":"Niederösterreich","key":"StateName"},{"value":"Krems-Land","key":"CountyName"}]},"MapReference":{"ReferenceId":"69028808","Spot":0.9,"SideOfStreet":"right","CountryId":"20128885","StateId":"20130295","CountyId":"20131325","CityId":"20131370","DistrictId":"20131372","AddressId":"160641458","RoadLinkId":"28468954"}}},{"Relevance":1.0,"Distance":88.4,"MatchLevel":"houseNumber","MatchQuality":{"Country":1.0,"State":1.0,"County":1.0,"City":1.0,"District":1.0,"Street":[1.0],"HouseNumber":1.0,"PostalCode":1.0},"MatchType":"interpolated","Location":{"LocationId":"NT_M5Yy6sj8FPmKTwzMrnV7fC_l_69032549_L_xAD","LocationType":"point","DisplayPosition":{"Latitude":48.4596056,"Longitude":15.7197804},"MapView":{"TopLeft":{"Latitude":48.4607297,"Longitude":15.7180852},"BottomRight":{"Latitude":48.4584814,"Longitude":15.7214756}},"Address":{"Label":"Hauptplatz 10, 3493 Hadersdorf-Kammern, Österreich","Country":"AUT","State":"Niederösterreich","County":"Krems-Land","City":"Hadersdorf-Kammern","District":"Hadersdorf am Kamp","Street":"Hauptplatz","HouseNumber":"10","PostalCode":"3493","AdditionalData":[{"value":"Österreich","key":"CountryName"},{"value":"Niederösterreich","key":"StateName"},{"value":"Krems-Land","key":"CountyName"}]},"MapReference":{"ReferenceId":"69032549","Spot":0.5,"SideOfStreet":"left","CountryId":"20128885","StateId":"20130295","CountyId":"20131325","CityId":"20131370","DistrictId":"20131372"}}},{"Relevance":1.0,"Distance":98.0,"MatchLevel":"houseNumber","MatchQuality":{"Country":1.0,"State":1.0,"County":1.0,"City":1.0,"District":1.0,"Street":[1.0],"HouseNumber":1.0,"PostalCode":1.0},"MatchType":"interpolated","Location":{"LocationId":"NT_kgtuShArGo0tbQUK6NBDVA_zEG","LocationType":"point","DisplayPosition":{"Latitude":48.46016,"Longitude":15.72022},"MapView":{"TopLeft":{"Latitude":48.4612842,"Longitude":15.7185248},"BottomRight":{"Latitude":48.4590358,"Longitude":15.7219152}},"Address":{"Label":"Leuthnersiedlung 3a, 3493 Hadersdorf-Kammern, Österreich","Country":"AUT","State":"Niederösterreich","County":"Krems-Land","City":"Hadersdorf-Kammern","District":"Hadersdorf am Kamp","Street":"Leuthnersiedlung","HouseNumber":"3a","PostalCode":"3493","AdditionalData":[{"value":"Österreich","key":"CountryName"},{"value":"Niederösterreich","key":"StateName"},{"value":"Krems-Land","key":"CountyName"}]},"MapReference":{"ReferenceId":"69022529","Spot":0.48,"SideOfStreet":"left","CountryId":"20128885","StateId":"20130295","CountyId":"20131325","CityId":"20131370","DistrictId":"20131372","AddressId":"177039136","RoadLinkId":"28452989"}}}]}]}}