{"Response":{"MetaInfo":{"Timestamp":"2020-03-28T10:19:53.965+0000","NextPageInformation":"2"},"View":[{"_type":"SearchResultsViewType","ViewId":0,"Result":[{"Relevance":1.0,"Distance":0.0,"Direction":0.0,"MatchLevel":"district","MatchQuality":{"Country":1.0,"State":1.0,"County":1.0,"City":1.0,"District":1.0,"PostalCode":1.0},"Location":{"LocationId":"NT_oW.RhQ3aDODSOXXfitvPZA","LocationType":"point","DisplayPosition":{"Latitude":48.4059028,"Longitude":11.6218067},"MapView":{"TopLeft":{"Latitude":48.41225,"Longitude":11.59814},"BottomRight":{"Latitude":48.40031,"Longitude":11.62843}},"Address":{"Label":"Kranzberg, Bayern, Deutschland","Country":"DEU","State":"Bayern","County":"Freising","City":"Kranzberg","District":"Kranzberg","PostalCode":"85402","AdditionalData":[{"value":"Deutschland","key":"CountryName"},{"value":"Bayern","key":"StateName"},{"value":"Freising","key":"CountyName"}]},"MapReference":{"ReferenceId":"541513636","SideOfStreet":"neither","CountryId":"20147700","StateId":"20177250","CountyId":"20178011","CityId":"20178082","DistrictId":"20178084"}}},{"Relevance":1.0,"Distance":10.6,"MatchLevel":"houseNumber","MatchQuality":{"Country":1.0,"State":1.0,"County":1.0,"City":1.0,"District":1.0,"Street":[1.0],"HouseNumber":1.0,"PostalCode":1.0},"MatchType":"interpolated","Location":{"LocationId":"NT_I-C14qXP7BjrIRuNB5SJxD_ycD","LocationType":"point","DisplayPosition":{"Latitude":48.40576,"Longitude":11.62155},"MapView":{"TopLeft":{"Latitude":48.4068842,"Longitude":11.6198566},"BottomRight":{"Latitude":48.4046358,"Longitude":11.6232434}},"Address":{"Label":"Kirchbergstraße 27, 85402 Kranzberg, Deutschland","Country":"DEU","State":"Bayern","County":"Freising","City":"Kranzberg","District":"Kranzberg","Street":"Kirchbergstraße","HouseNumber":"27","PostalCode":"85402","AdditionalData":[{"value":"Deutschland","key":"CountryName"},{"value":"Bayern","key":"StateName"},{"value":"Freising","key":"CountyName"}]},"MapReference":{"ReferenceId":"541513630","Spot":0.97,"SideOfStreet":"right","CountryId":"20147700","StateId":"20177250","CountyId":"20178011","CityId":"20178082","DistrictId":"20178084","AddressId":"255748457","RoadLinkId":"32442665"}}},{"Relevance":1.0,"Distance":24.1,"MatchLevel":"houseNumber","MatchQuality":{"Country":1.0,"State":1.0,"County":1.0,"City":1.0,"District":1.0,"Street":[1.0],"HouseNumber":1.0,"PostalCode":1.0},"MatchType":"interpolated","Location":{"LocationId":"NT_nVl870yJa9oG48eX3aa3sD_2A","LocationType":"point","DisplayPosition":{"Latitude":48.4063,"Longitude":11.62159},"MapView":{"TopLeft":{"Latitude":48.4074242,"Longitude":11.6198966},"BottomRight":{"Latitude":48.4051758,"Longitude":11.6232834}},"Address":{"Label":"Eschenweg 6, 85402 Kranzberg, Deutschland","Country":"DEU","State":"Bayern","County":"Freising","City":"Kranzberg","District":"Kranzberg","Street":"Eschenweg","HouseNumber":"6","PostalCode":"85402","AdditionalData":[{"value":"Deutschland","key":"CountryName"},{"value":"Bayern","key":"StateName"},{"value":"Freising","key":"CountyName"}]},"MapReference":{"ReferenceId":"1233818895","Spot":1.0,"SideOfStreet":"right","CountryId":"20147700","StateId":"20177250","CountyId":"20178011","CityId":"20178082","DistrictId":"20178084","AddressId":"249139253","RoadLinkId":"554088756"}}},{"Relevance":1.0,"Distance":63.3,"MatchLevel":"houseNumber","MatchQuality":{"Country":1.0,"State":1.0,"County":1.0,"City":1.0,"District":1.0,"Street":[1.0],"HouseNumber":1.0,"PostalCode":1.0},"MatchType":"interpolated","Location":{"LocationId":"NT_RLszsjyjJ.Aqp3gMho7R7B_xQD","LocationType":"point","DisplayPosition":{"Latitude":48.40566,"Longitude":11.62062},"MapView":{"TopLeft":{"Latitude":48.4067842,"Longitude":11.6189266},"BottomRight":{"Latitude":48.4045358,"Longitude":11.6223134}},"Address":{"Label":"Buchenstraße 14, 85402 Kranzberg, Deutschland","Country":"DEU","State":"Bayern","County":"Freising","City":"Kranzberg","District":"Kranzberg","Street":"Buchenstraße","HouseNumber":"14","PostalCode":"85402","AdditionalData":[{"value":"Deutschland","key":"CountryName"},{"value":"Bayern","key":"StateName"},{"value":"Freising","key":"CountyName"}]},"MapReference":{"ReferenceId":"541513610","Spot":0.43,"SideOfStreet":"right","CountryId":"20147700","StateId":"20177250","CountyId":"20178011","CityId":"20178082","DistrictId":"20178084","AddressId":"184846477","RoadLinkId":"32463749"}}},{"Relevance":1.0,"Distance":64.8,"MatchLevel":"houseNumber","MatchQuality":{"Country":1.0,"State":1.0,"County":1.0,"City":1.0,"District":1.0,"Street":[1.0],"HouseNumber":1.0,"PostalCode":1.0},"MatchType":"interpolated","Location":{"LocationId":"NT_I-C14qXP7BjrIRuNB5SJxD_yMjQ","LocationType":"point","DisplayPosition":{"Latitude":48.40532,"Longitude":11.62182},"MapView":{"TopLeft":{"Latitude":48.4064442,"Longitude":11.6201266},"BottomRight":{"Latitude":48.4041958,"Longitude":11.6235134}},"Address":{"Label":"Kirchbergstraße 23B, 85402 Kranzberg, Deutschland","Country":"DEU","State":"Bayern","County":"Freising","City":"Kranzberg","District":"Kranzberg","Street":"Kirchbergstraße","HouseNumber":"23B","PostalCode":"85402","AdditionalData":[{"value":"Deutschland","key":"CountryName"},{"value":"Bayern","key":"StateName"},{"value":"Freising","key":"CountyName"}]},"MapReference":{"ReferenceId":"541513622","Spot":0.11,"SideOfStreet":"right","CountryId":"20147700","StateId":"20177250","CountyId":"20178011","CityId":"20178082","DistrictId":"20178084","AddressId":"255727646","RoadLinkId":"33480339"}}},{"Relevance":1.0,"Distance":65.7,"MatchLevel":"street","MatchQuality":{"Country":1.0,"State":1.0,"County":1.0,"City":1.0,"PostalCode":1.0},"Location":{"LocationId":"NT_J68EyTW8EgcIWyVS9kQL6C_l_541514028_L","LocationType":"point","DisplayPosition":{"Latitude":48.40544,"Longitude":11.62236},"MapView":{"TopLeft":{"Latitude":48.40773,"Longitude":11.62236},"BottomRight":{"Latitude":48.40544,"Longitude":11.62801}},"Address":{"Label":"85402 Kranzberg, Deutschland","Country":"DEU","State":"Bayern","County":"Freising","City":"Kranzberg","PostalCode":"85402","AdditionalData":[{"value":"Deutschland","key":"CountryName"},{"value":"Bayern","key":"StateName"},{"value":"Freising","key":"CountyName"}]},"MapReference":{"ReferenceId":"541514028","Spot":0.0,"SideOfStreet":"left","CountryId":"20147700","StateId":"20177250","CountyId":"20178011","CityId":"20178082"}}},{"Relevance":1.0,"Distance":67.3,"MatchLevel":"houseNumber","MatchQuality":{"Country":1.0,"State":1.0,"County":1.0,"City":1.0,"District":1.0,"Street":[1.0],"HouseNumber":1.0,"PostalCode":1.0},"MatchType":"interpolated","Location":{"LocationId":"NT_I-C14qXP7BjrIRuNB5SJxD_yMTQ","LocationType":"point","DisplayPosition":{"Latitude":48.4053,"Longitude":11.62172},"MapView":{"TopLeft":{"Latitude":48.4064242,"Longitude":11.6200266},"BottomRight":{"Latitude":48.4041758,"Longitude":11.6234134}},"Address":{"Label":"Kirchbergstraße 23A, 85402 Kranzberg, Deutschland","Country":"DEU","State":"Bayern","County":"Freising","City":"Kranzberg","District":"Kranzberg","Street":"Kirchbergstraße","HouseNumber":"23A","PostalCode":"85402","AdditionalData":[{"value":"Deutschland","key":"CountryName"},{"value":"Bayern","key":"StateName"},{"value":"Freising","key":"CountyName"}]},"MapReference":{"ReferenceId":"541513611","Spot":0.96,"SideOfStreet":"right","CountryId":"20147700","StateId":"20177250","CountyId":"20178011","CityId":"20178082","DistrictId":"20178084","AddressId":"255723463","RoadLinkId":"32573435"}}},{"Relevance":1.0,"Distance":70.8,"MatchLevel":"houseNumber","MatchQuality":{"Country":1.0,"State":1.0,"County":1.0,"City":1.0,"District":1.0,"Street":[1.0],"HouseNumber":1.0,"PostalCode":1.0},"MatchType":"interpolated","Location":{"LocationId":"NT_RLszsjyjJ.Aqp3gMho7R7B_xMD","LocationType":"point","DisplayPosition":{"Latitude":48.40608,"Longitude":11.62077},"MapView":{"TopLeft":{"Latitude":48.4072042,"Longitude":11.6190766},"BottomRight":{"Latitude":48.4049558,"Longitude":11.6224634}},"Address":{"Label":"Buchenstraße 13, 85402 Kranzberg, Deutschland","Country":"DEU","State":"Bayern","County":"Freising","City":"Kranzberg","District":"Kranzberg","Street":"Buchenstraße","HouseNumber":"13","PostalCode":"85402","AdditionalData":[{"value":"Deutschland","key":"CountryName"},{"value":"Bayern","key":"StateName"},{"value":"Freising","key":"CountyName"}]},"MapReference":{"ReferenceId":"1233818894","Spot":0.84,"SideOfStreet":"right","CountryId":"20147700","StateId":"20177250","CountyId":"20178011","CityId":"20178082","DistrictId":"20178084","AddressId":"184646681","RoadLinkId":"554088755"}}},{"Relevance":1.0,"Distance":78.3,"MatchLevel":"houseNumber","MatchQuality":{"Country":1.0,"State":1.0,"County":1.0,"City":1.0,"District":1.0,"Street":[1.0],"HouseNumber":1.0,"PostalCode":1.0},"MatchType":"interpolated","Location":{"LocationId":"NT_fLT7oLafNAkjIERqMalfFD_xEE","LocationType":"point","DisplayPosition":{"Latitude":48.40527,"Longitude":11.62081},"MapView":{"TopLeft":{"Latitude":48.4063942,"Longitude":11.6191166},"BottomRight":{"Latitude":48.4041458,"Longitude":11.6225034}},"Address":{"Label":"Birkenstraße 1A, 85402 Kranzberg, Deutschland","Country":"DEU","State":"Bayern","County":"Freising","City":"Kranzberg","District":"Kranzberg","Street":"Birkenstraße","HouseNumber":"1A","PostalCode":"85402","AdditionalData":[{"value":"Deutschland","key":"CountryName"},{"value":"Bayern","key":"StateName"},{"value":"Freising","key":"CountyName"}]},"MapReference":{"ReferenceId":"541513612","Spot":0.57,"SideOfStreet":"right","CountryId":"20147700","StateId":"20177250","CountyId":"20178011","CityId":"20178082","DistrictId":"20178084","AddressId":"182823659","RoadLinkId":"33260796"}}},{"Relevance":1.0,"Distance":108.2,"MatchLevel":"houseNumber","MatchQuality":{"Country":1.0,"State":1.0,"County":1.0,"City":1.0,"District":1.0,"Street":[1.0],"HouseNumber":1.0,"PostalCode":1.0},"MatchType":"interpolated","Location":{"LocationId":"NT_fLT7oLafNAkjIERqMalfFD_zA","LocationType":"point","DisplayPosition":{"Latitude":48.40536,"Longitude":11.62059},"MapView":{"TopLeft":{"Latitude":48.4064842,"Longitude":11.6188966},"BottomRight":{"Latitude":48.4042358,"Longitude":11.6222834}},"Address":{"Label":"Birkenstraße 3, 85402 Kranzberg, Deutschland","Country":"DEU","State":"Bayern","County":"Freising","City":"Kranzberg","District":"Kranzberg","Street":"Birkenstraße","HouseNumber":"3","PostalCode":"85402","AdditionalData":[{"value":"Deutschland","key":"CountryName"},{"value":"Bayern","key":"StateName"},{"value":"Freising","key":"CountyName"}]},"MapReference":{"ReferenceId":"541513619","Spot":0.09,"SideOfStreet":"right","CountryId":"20147700","StateId":"20177250","CountyId":"20178011","CityId":"20178082","DistrictId":"20178084","AddressId":"182439364","RoadLinkId":"32697483"}}}]}]}}