{"Response":{"MetaInfo":{"Timestamp":"2020-03-28T11:11:28.559+0000","NextPageInformation":"2"},"View":[{"_type":"SearchResultsViewType","ViewId":0,"Result":[{"Relevance":1.0,"Distance":0.0,"Direction":0.0,"MatchLevel":"city","MatchQuality":{"Country":1.0,"State":1.0,"County":1.0,"City":1.0,"PostalCode":1.0},"Location":{"LocationId":"NT_uz3mGJxfqsKEGrTZF0uFXD","LocationType":"point","DisplayPosition":{"Latitude":48.4365652,"Longitude":-4.5028251},"MapView":{"TopLeft":{"Latitude":48.44926,"Longitude":-4.54228},"BottomRight":{"Latitude":48.40942,"Longitude":-4.50037}},"Address":{"Label":"Bohars, Bretagne, France","Country":"FRA","State":"Bretagne","County":"Finistère","City":"Bohars","PostalCode":"29820","AdditionalData":[{"value":"France","key":"CountryName"},{"value":"Bretagne","key":"StateName"},{"value":"Finistère","key":"CountyName"}]},"MapReference":{"ReferenceId":"57489267","SideOfStreet":"neither","CountryId":"20000001","StateId":"20060199","CountyId":"20064592","CityId":"20064622"}}},{"Relevance":1.0,"Distance":68.9,"MatchLevel":"street","MatchQuality":{"Country":1.0,"State":1.0,"County":1.0,"City":1.0,"PostalCode":1.0},"Location":{"LocationId":"NT_agVhxwuGvM0w-jexuhz0JD_l_1074414647_L","LocationType":"point","DisplayPosition":{"Latitude":48.4364348,"Longitude":-4.5019122},"MapView":{"TopLeft":{"Latitude":48.43702,"Longitude":-4.50199},"BottomRight":{"Latitude":48.4354,"Longitude":-4.50177}},"Address":{"Label":"29820 Bohars, France","Country":"FRA","State":"Bretagne","County":"Finistère","City":"Bohars","PostalCode":"29820","AdditionalData":[{"value":"France","key":"CountryName"},{"value":"Bretagne","key":"StateName"},{"value":"Finistère","key":"CountyName"}]},"MapReference":{"ReferenceId":"1074414647","Spot":0.65,"SideOfStreet":"left","CountryId":"20000001","StateId":"20060199","CountyId":"20064592","CityId":"20064622"}}},{"Relevance":1.0,"Distance":86.7,"MatchLevel":"street","MatchQuality":{"Country":1.0,"State":1.0,"County":1.0,"City":1.0,"PostalCode":1.0},"Location":{"LocationId":"NT_agVhxwuGvM0w-jexuhz0JD_l_1074414648_L","LocationType":"point","DisplayPosition":{"Latitude":48.43702,"Longitude":-4.50187},"MapView":{"TopLeft":{"Latitude":48.43726,"Longitude":-4.50193},"BottomRight":{"Latitude":48.43702,"Longitude":-4.50187}},"Address":{"Label":"29820 Bohars, France","Country":"FRA","State":"Bretagne","County":"Finistère","City":"Bohars","PostalCode":"29820","AdditionalData":[{"value":"France","key":"CountryName"},{"value":"Bretagne","key":"StateName"},{"value":"Finistère","key":"CountyName"}]},"MapReference":{"ReferenceId":"1074414648","Spot":0.0,"SideOfStreet":"left","CountryId":"20000001","StateId":"20060199","CountyId":"20064592","CityId":"20064622"}}},{"Relevance":1.0,"Distance":114.4,"MatchLevel":"houseNumber","MatchQuality":{"Country":1.0,"State":1.0,"County":1.0,"City":1.0,"Street":[1.0],"HouseNumber":1.0,"PostalCode":1.0},"MatchType":"interpolated","Location":{"LocationId":"NT_zUL7eMK9cUpiQ9nCJX-vFD_xYjN1A","LocationType":"point","DisplayPosition":{"Latitude":48.43559,"Longitude":-4.50348},"MapView":{"TopLeft":{"Latitude":48.4367142,"Longitude":-4.5051744},"BottomRight":{"Latitude":48.4344658,"Longitude":-4.5017856}},"Address":{"Label":"1665 Rue du Tromeur, 29820 Bohars, France","Country":"FRA","State":"Bretagne","County":"Finistère","City":"Bohars","Street":"Rue du Tromeur","HouseNumber":"1665","PostalCode":"29820","AdditionalData":[{"value":"France","key":"CountryName"},{"value":"Bretagne","key":"StateName"},{"value":"Finistère","key":"CountyName"}]},"MapReference":{"ReferenceId":"569962264","Spot":0.86,"SideOfStreet":"right","CountryId":"20000001","StateId":"20060199","CountyId":"20064592","CityId":"20064622","AddressId":"570411843","RoadLinkId":"47690641"}}},{"Relevance":1.0,"Distance":118.4,"MatchLevel":"houseNumber","MatchQuality":{"Country":1.0,"State":1.0,"County":1.0,"City":1.0,"Street":[1.0],"HouseNumber":1.0,"PostalCode":1.0},"MatchType":"interpolated","Location":{"LocationId":"NT_zUL7eMK9cUpiQ9nCJX-vFD_xYDO1A","LocationType":"point","DisplayPosition":{"Latitude":48.43562,"Longitude":-4.50374},"MapView":{"TopLeft":{"Latitude":48.4367442,"Longitude":-4.5054344},"BottomRight":{"Latitude":48.4344958,"Longitude":-4.5020456}},"Address":{"Label":"1685 Rue du Tromeur, 29820 Bohars, France","Country":"FRA","State":"Bretagne","County":"Finistère","City":"Bohars","Street":"Rue du Tromeur","HouseNumber":"1685","PostalCode":"29820","AdditionalData":[{"value":"France","key":"CountryName"},{"value":"Bretagne","key":"StateName"},{"value":"Finistère","key":"CountyName"}]},"MapReference":{"ReferenceId":"569962265","Spot":0.01,"SideOfStreet":"right","CountryId":"20000001","StateId":"20060199","CountyId":"20064592","CityId":"20064622","AddressId":"320560007","RoadLinkId":"46379735"}}},{"Relevance":1.0,"Distance":144.9,"MatchLevel":"houseNumber","MatchQuality":{"Country":1.0,"State":1.0,"County":1.0,"City":1.0,"Street":[1.0],"HouseNumber":1.0,"PostalCode":1.0},"MatchType":"interpolated","Location":{"LocationId":"NT_5m5vaAEgrf6aWL4dHE0A.D_2AD","LocationType":"point","DisplayPosition":{"Latitude":48.43782,"Longitude":-4.50231},"MapView":{"TopLeft":{"Latitude":48.4389442,"Longitude":-4.5040044},"BottomRight":{"Latitude":48.4366958,"Longitude":-4.5006156}},"Address":{"Label":"60 Chemin de Douric Ar Gwen, 29200 Brest, France","Country":"FRA","State":"Bretagne","County":"Finistère","City":"Brest","Street":"Chemin de Douric Ar Gwen","HouseNumber":"60","PostalCode":"29200","AdditionalData":[{"value":"France","key":"CountryName"},{"value":"Bretagne","key":"StateName"},{"value":"Finistère","key":"CountyName"}]},"MapReference":{"ReferenceId":"57495265","Spot":0.48,"SideOfStreet":"left","CountryId":"20000001","StateId":"20060199","CountyId":"20064592","CityId":"20064646","AddressId":"605549360","RoadLinkId":"46345104"}}},{"Relevance":1.0,"Distance":151.1,"MatchLevel":"street","MatchQuality":{"Country":1.0,"State":1.0,"County":1.0,"City":1.0,"PostalCode":1.0},"Location":{"LocationId":"NT_agVhxwuGvM0w-jexuhz0JD_l_57489157_L","LocationType":"point","DisplayPosition":{"Latitude":48.4354,"Longitude":-4.50177},"MapView":{"TopLeft":{"Latitude":48.4354,"Longitude":-4.50192},"BottomRight":{"Latitude":48.43523,"Longitude":-4.50177}},"Address":{"Label":"29820 Bohars, France","Country":"FRA","State":"Bretagne","County":"Finistère","City":"Bohars","PostalCode":"29820","AdditionalData":[{"value":"France","key":"CountryName"},{"value":"Bretagne","key":"StateName"},{"value":"Finistère","key":"CountyName"}]},"MapReference":{"ReferenceId":"57489157","Spot":1.0,"SideOfStreet":"left","CountryId":"20000001","StateId":"20060199","CountyId":"20064592","CityId":"20064622"}}},{"Relevance":1.0,"Distance":151.1,"MatchLevel":"street","MatchQuality":{"Country":1.0,"State":1.0,"County":1.0,"City":1.0,"PostalCode":1.0},"Location":{"LocationId":"NT_agVhxwuGvM0w-jexuhz0JD_l_57489164_L","LocationType":"point","DisplayPosition":{"Latitude":48.4354,"Longitude":-4.50177},"MapView":{"TopLeft":{"Latitude":48.4354,"Longitude":-4.50177},"BottomRight":{"Latitude":48.43486,"Longitude":-4.50144}},"Address":{"Label":"29820 Bohars, France","Country":"FRA","State":"Bretagne","County":"Finistère","City":"Bohars","PostalCode":"29820","AdditionalData":[{"value":"France","key":"CountryName"},{"value":"Bretagne","key":"StateName"},{"value":"Finistère","key":"CountyName"}]},"MapReference":{"ReferenceId":"57489164","Spot":1.0,"SideOfStreet":"left","CountryId":"20000001","StateId":"20060199","CountyId":"20064592","CityId":"20064622"}}},{"Relevance":1.0,"Distance":162.8,"MatchLevel":"street","MatchQuality":{"Country":1.0,"State":1.0,"County":1.0,"City":1.0,"Street":[1.0],"PostalCode":1.0},"Location":{"LocationId":"NT_kuPkfy9HwwVra6tCHXPK1C_l_57489165_R","LocationType":"point","DisplayPosition":{"Latitude":48.43523,"Longitude":-4.50192},"MapView":{"TopLeft":{"Latitude":48.43523,"Longitude":-4.50192},"BottomRight":{"Latitude":48.43486,"Longitude":-4.50144}},"Address":{"Label":"Rue du Tromeur, 29820 Bohars, France","Country":"FRA","State":"Bretagne","County":"Finistère","City":"Bohars","Street":"Rue du Tromeur","PostalCode":"29820","AdditionalData":[{"value":"France","key":"CountryName"},{"value":"Bretagne","key":"StateName"},{"value":"Finistère","key":"CountyName"}]},"MapReference":{"ReferenceId":"57489165","Spot":1.0,"SideOfStreet":"right","CountryId":"20000001","StateId":"20060199","CountyId":"20064592","CityId":"20064622"}}},{"Relevance":1.0,"Distance":168.8,"MatchLevel":"street","MatchQuality":{"Country":1.0,"State":1.0,"County":1.0,"City":1.0,"PostalCode":1.0},"Location":{"LocationId":"NT_agVhxwuGvM0w-jexuhz0JD_l_59340350_R","LocationType":"point","DisplayPosition":{"Latitude":48.43549,"Longitude":-4.50444},"MapView":{"TopLeft":{"Latitude":48.43549,"Longitude":-4.50444},"BottomRight":{"Latitude":48.43541,"Longitude":-4.50439}},"Address":{"Label":"29820 Bohars, France","Country":"FRA","State":"Bretagne","County":"Finistère","City":"Bohars","PostalCode":"29820","AdditionalData":[{"value":"France","key":"CountryName"},{"value":"Bretagne","key":"StateName"},{"value":"Finistère","key":"CountyName"}]},"MapReference":{"ReferenceId":"59340350","Spot":1.0,"SideOfStreet":"right","CountryId":"20000001","StateId":"20060199","CountyId":"20064592","CityId":"20064622"}}}]}]}}