{"Response":{"MetaInfo":{"Timestamp":"2020-03-28T11:02:25.519+0000","NextPageInformation":"2"},"View":[{"_type":"SearchResultsViewType","ViewId":0,"Result":[{"Relevance":1.0,"Distance":-70.0,"MatchLevel":"landmark","MatchQuality":{"Country":1.0,"State":1.0,"County":1.0,"City":1.0,"District":1.0,"Street":[1.0],"HouseNumber":1.0,"PostalCode":1.0,"Name":1.0},"Location":{"LocationId":"NT_sqoTKreayreZcwV7rkt6nC_p_RwEzsuHir1lhCJ-TYirZDB","LocationType":"hospital","Name":"Uniklinik Ulm-Michelsberg","DisplayPosition":{"Latitude":48.41023,"Longitude":9.99434},"MapView":{"TopLeft":{"Latitude":48.4113542,"Longitude":9.9926465},"BottomRight":{"Latitude":48.4091058,"Longitude":9.9960335}},"Address":{"Label":"Prittwitzstraße 43, 89075 Ulm, Deutschland","Country":"DEU","State":"Baden-Württemberg","County":"Ulm","City":"Ulm","District":"Ulm","Street":"Prittwitzstraße","HouseNumber":"43","PostalCode":"89075","AdditionalData":[{"value":"Deutschland","key":"CountryName"},{"value":"Baden-Württemberg","key":"StateName"},{"value":"Ulm","key":"CountyName"}]},"MapReference":{"CountryId":"20147700","StateId":"20171489","CountyId":"20176238","CityId":"20176239","DistrictId":"20176249","PlaceId":"50613443"}}},{"Relevance":1.0,"Distance":0.0,"Direction":0.0,"MatchLevel":"district","MatchQuality":{"Country":1.0,"State":1.0,"County":1.0,"City":1.0,"District":1.0,"PostalCode":1.0},"Location":{"LocationId":"NT_mAWbKUiQAB9kGvrYaH81PB","LocationType":"point","DisplayPosition":{"Latitude":48.4096696,"Longitude":9.9936975},"MapView":{"TopLeft":{"Latitude":48.43029,"Longitude":9.92987},"BottomRight":{"Latitude":48.37353,"Longitude":10.01028}},"Address":{"Label":"Ulm, Baden-Württemberg, Deutschland","Country":"DEU","State":"Baden-Württemberg","County":"Ulm","City":"Ulm","District":"Ulm","PostalCode":"89073","AdditionalData":[{"value":"Deutschland","key":"CountryName"},{"value":"Baden-Württemberg","key":"StateName"},{"value":"Ulm","key":"CountyName"}]},"MapReference":{"ReferenceId":"1203934511","SideOfStreet":"neither","CountryId":"20147700","StateId":"20171489","CountyId":"20176238","CityId":"20176239","DistrictId":"20176249"}}},{"Relevance":1.0,"Distance":62.6,"MatchLevel":"street","MatchQuality":{"Country":1.0,"State":1.0,"County":1.0,"City":1.0,"District":1.0,"Street":[1.0],"PostalCode":1.0},"Location":{"LocationId":"NT_lFSDGHfzufLxq7XU.7n5qA_l_53150113_R","LocationType":"point","DisplayPosition":{"Latitude":48.4093103,"Longitude":9.9930443},"MapView":{"TopLeft":{"Latitude":48.4097,"Longitude":9.99283},"BottomRight":{"Latitude":48.4091,"Longitude":9.99316}},"Address":{"Label":"Frauensteige, 89075 Ulm, Deutschland","Country":"DEU","State":"Baden-Württemberg","County":"Ulm","City":"Ulm","District":"Ulm","Street":"Frauensteige","PostalCode":"89075","AdditionalData":[{"value":"Deutschland","key":"CountryName"},{"value":"Baden-Württemberg","key":"StateName"},{"value":"Ulm","key":"CountyName"}]},"MapReference":{"ReferenceId":"53150113","Spot":0.35,"SideOfStreet":"right","CountryId":"20147700","StateId":"20171489","CountyId":"20176238","CityId":"20176239","DistrictId":"20176249"}}},{"Relevance":1.0,"Distance":66.3,"MatchLevel":"street","MatchQuality":{"Country":1.0,"State":1.0,"County":1.0,"City":1.0,"District":1.0,"PostalCode":1.0},"Location":{"LocationId":"NT_aeekUksOfE2yAq.ceRucXA_l_53149887_L","LocationType":"point","DisplayPosition":{"Latitude":48.40918,"Longitude":9.99421},"MapView":{"TopLeft":{"Latitude":48.40977,"Longitude":9.99421},"BottomRight":{"Latitude":48.40918,"Longitude":9.99493}},"Address":{"Label":"89075 Ulm, Deutschland","Country":"DEU","State":"Baden-Württemberg","County":"Ulm","City":"Ulm","District":"Ulm","PostalCode":"89075","AdditionalData":[{"value":"Deutschland","key":"CountryName"},{"value":"Baden-Württemberg","key":"StateName"},{"value":"Ulm","key":"CountyName"}]},"MapReference":{"ReferenceId":"53149887","Spot":0.0,"SideOfStreet":"left","CountryId":"20147700","StateId":"20171489","CountyId":"20176238","CityId":"20176239","DistrictId":"20176249"}}},{"Relevance":1.0,"Distance":66.9,"MatchLevel":"houseNumber","MatchQuality":{"Country":1.0,"State":1.0,"County":1.0,"City":1.0,"District":1.0,"Street":[1.0],"HouseNumber":1.0,"PostalCode":1.0},"MatchType":"interpolated","Location":{"LocationId":"NT_g8HuBtrDDtfUUhQP-r-6KC_0ED","LocationType":"point","DisplayPosition":{"Latitude":48.41002,"Longitude":9.99462},"MapView":{"TopLeft":{"Latitude":48.4111442,"Longitude":9.9929265},"BottomRight":{"Latitude":48.4088958,"Longitude":9.9963135}},"Address":{"Label":"Prittwitzstraße 41, 89075 Ulm, Deutschland","Country":"DEU","State":"Baden-Württemberg","County":"Ulm","City":"Ulm","District":"Ulm","Street":"Prittwitzstraße","HouseNumber":"41","PostalCode":"89075","AdditionalData":[{"value":"Deutschland","key":"CountryName"},{"value":"Baden-Württemberg","key":"StateName"},{"value":"Ulm","key":"CountyName"}]},"MapReference":{"ReferenceId":"53150117","Spot":0.26,"SideOfStreet":"left","CountryId":"20147700","StateId":"20171489","CountyId":"20176238","CityId":"20176239","DistrictId":"20176249","AddressId":"180450532","RoadLinkId":"38642633"}}},{"Relevance":1.0,"Distance":80.0,"MatchLevel":"houseNumber","MatchQuality":{"Country":1.0,"State":1.0,"County":1.0,"City":1.0,"District":1.0,"Street":[1.0],"HouseNumber":1.0,"PostalCode":1.0},"MatchType":"interpolated","Location":{"LocationId":"NT_9Eo-LK.z71gUnlrX5-KWqC_yED","LocationType":"point","DisplayPosition":{"Latitude":48.40889,"Longitude":9.99374},"MapView":{"TopLeft":{"Latitude":48.4100142,"Longitude":9.9920465},"BottomRight":{"Latitude":48.4077658,"Longitude":9.9954335}},"Address":{"Label":"Schwabstraße 21, 89075 Ulm, Deutschland","Country":"DEU","State":"Baden-Württemberg","County":"Ulm","City":"Ulm","District":"Ulm","Street":"Schwabstraße","HouseNumber":"21","PostalCode":"89075","AdditionalData":[{"value":"Deutschland","key":"CountryName"},{"value":"Baden-Württemberg","key":"StateName"},{"value":"Ulm","key":"CountyName"}]},"MapReference":{"ReferenceId":"53149331","Spot":0.46,"SideOfStreet":"left","CountryId":"20147700","StateId":"20171489","CountyId":"20176238","CityId":"20176239","DistrictId":"20176249","AddressId":"180407690","RoadLinkId":"38151400"}}},{"Relevance":1.0,"Distance":84.9,"MatchLevel":"houseNumber","MatchQuality":{"Country":1.0,"State":1.0,"County":1.0,"City":1.0,"District":1.0,"Street":[1.0],"HouseNumber":1.0,"PostalCode":1.0},"MatchType":"interpolated","Location":{"LocationId":"NT_lFSDGHfzufLxq7XU.7n5qA_xID","LocationType":"point","DisplayPosition":{"Latitude":48.40965,"Longitude":9.99252},"MapView":{"TopLeft":{"Latitude":48.4107742,"Longitude":9.9908265},"BottomRight":{"Latitude":48.4085258,"Longitude":9.9942135}},"Address":{"Label":"Frauensteige 12, 89075 Ulm, Deutschland","Country":"DEU","State":"Baden-Württemberg","County":"Ulm","City":"Ulm","District":"Ulm","Street":"Frauensteige","HouseNumber":"12","PostalCode":"89075","AdditionalData":[{"value":"Deutschland","key":"CountryName"},{"value":"Baden-Württemberg","key":"StateName"},{"value":"Ulm","key":"CountyName"}]},"MapReference":{"ReferenceId":"53150986","Spot":0.79,"SideOfStreet":"right","CountryId":"20147700","StateId":"20171489","CountyId":"20176238","CityId":"20176239","DistrictId":"20176249","AddressId":"177887201","RoadLinkId":"38640479"}}},{"Relevance":1.0,"Distance":91.7,"MatchLevel":"street","MatchQuality":{"Country":1.0,"State":1.0,"County":1.0,"City":1.0,"District":1.0,"Street":[1.0],"PostalCode":1.0},"Location":{"LocationId":"NT_g8HuBtrDDtfUUhQP-r-6KC_l_53149886_L","LocationType":"point","DisplayPosition":{"Latitude":48.40977,"Longitude":9.99493},"MapView":{"TopLeft":{"Latitude":48.40977,"Longitude":9.99493},"BottomRight":{"Latitude":48.40949,"Longitude":9.99527}},"Address":{"Label":"Prittwitzstraße, 89075 Ulm, Deutschland","Country":"DEU","State":"Baden-Württemberg","County":"Ulm","City":"Ulm","District":"Ulm","Street":"Prittwitzstraße","PostalCode":"89075","AdditionalData":[{"value":"Deutschland","key":"CountryName"},{"value":"Baden-Württemberg","key":"StateName"},{"value":"Ulm","key":"CountyName"}]},"MapReference":{"ReferenceId":"53149886","Spot":1.0,"SideOfStreet":"left","CountryId":"20147700","StateId":"20171489","CountyId":"20176238","CityId":"20176239","DistrictId":"20176249"}}},{"Relevance":1.0,"Distance":109.0,"MatchLevel":"street","MatchQuality":{"Country":1.0,"State":1.0,"County":1.0,"City":1.0,"District":1.0,"Street":[1.0],"PostalCode":1.0},"Location":{"LocationId":"NT_g8HuBtrDDtfUUhQP-r-6KC_l_53149721_R","LocationType":"point","DisplayPosition":{"Latitude":48.41065,"Longitude":9.99369},"MapView":{"TopLeft":{"Latitude":48.41073,"Longitude":9.99369},"BottomRight":{"Latitude":48.41065,"Longitude":9.99378}},"Address":{"Label":"Prittwitzstraße, 89075 Ulm, Deutschland","Country":"DEU","State":"Baden-Württemberg","County":"Ulm","City":"Ulm","District":"Ulm","Street":"Prittwitzstraße","PostalCode":"89075","AdditionalData":[{"value":"Deutschland","key":"CountryName"},{"value":"Baden-Württemberg","key":"StateName"},{"value":"Ulm","key":"CountyName"}]},"MapReference":{"ReferenceId":"53149721","Spot":0.0,"SideOfStreet":"right","CountryId":"20147700","StateId":"20171489","CountyId":"20176238","CityId":"20176239","DistrictId":"20176249"}}},{"Relevance":1.0,"Distance":112.0,"MatchLevel":"houseNumber","MatchQuality":{"Country":1.0,"State":1.0,"County":1.0,"City":1.0,"District":1.0,"Street":[1.0],"HouseNumber":1.0,"PostalCode":1.0},"MatchType":"interpolated","Location":{"LocationId":"NT_1Rsln1C2C3792Fdl2SbSfD_2A","LocationType":"point","DisplayPosition":{"Latitude":48.4089,"Longitude":9.99479},"MapView":{"TopLeft":{"Latitude":48.4100242,"Longitude":9.9930965},"BottomRight":{"Latitude":48.4077758,"Longitude":9.9964835}},"Address":{"Label":"Johann-Strauß-Weg 6, 89075 Ulm, Deutschland","Country":"DEU","State":"Baden-Württemberg","County":"Ulm","City":"Ulm","District":"Ulm","Street":"Johann-Strauß-Weg","HouseNumber":"6","PostalCode":"89075","AdditionalData":[{"value":"Deutschland","key":"CountryName"},{"value":"Baden-Württemberg","key":"StateName"},{"value":"Ulm","key":"CountyName"}]},"MapReference":{"ReferenceId":"53149888","Spot":0.22,"SideOfStreet":"left","CountryId":"20147700","StateId":"20171489","CountyId":"20176238","CityId":"20176239","DistrictId":"20176249","AddressId":"177486956","RoadLinkId":"38038997"}}}]}]}}