{"Response":{"MetaInfo":{"Timestamp":"2020-03-28T11:09:53.709+0000","NextPageInformation":"2"},"View":[{"_type":"SearchResultsViewType","ViewId":0,"Result":[{"Relevance":1.0,"Distance":-8.6,"MatchLevel":"landmark","MatchQuality":{"Country":1.0,"State":1.0,"County":1.0,"City":1.0,"PostalCode":1.0,"Name":1.0},"Location":{"LocationId":"NT_idI.Giwfdi3cwZEedP.ScB_p_p11ZQV3NRq4OPFwaczp8bB","LocationType":"hospital","Name":"Nouvel Hôpital de Melun-Sénart","DisplayPosition":{"Latitude":48.5567,"Longitude":2.64306},"MapView":{"TopLeft":{"Latitude":48.55901,"Longitude":2.6385},"BottomRight":{"Latitude":48.55524,"Longitude":2.64518}},"Address":{"Label":"77000 Melun, France","Country":"FRA","State":"Île-de-France","County":"Seine-et-Marne","City":"Melun","PostalCode":"77000","AdditionalData":[{"value":"France","key":"CountryName"},{"value":"Île-de-France","key":"StateName"},{"value":"Seine-et-Marne","key":"CountyName"}]},"MapReference":{"CountryId":"20000001","StateId":"20002126","CountyId":"20002151","CityId":"20002993","PlaceId":"1203122052"}}},{"Relevance":1.0,"Distance":0.0,"Direction":0.0,"MatchLevel":"city","MatchQuality":{"Country":1.0,"State":1.0,"County":1.0,"City":1.0,"PostalCode":1.0},"Location":{"LocationId":"NT_HIgj33V.MTl90Gv3wWhbPB","LocationType":"point","DisplayPosition":{"Latitude":48.5561925,"Longitude":2.6425633},"MapView":{"TopLeft":{"Latitude":48.5607,"Longitude":2.62897},"BottomRight":{"Latitude":48.52351,"Longitude":2.68281}},"Address":{"Label":"Melun, Île-de-France, France","Country":"FRA","State":"Île-de-France","County":"Seine-et-Marne","City":"Melun","PostalCode":"77000","AdditionalData":[{"value":"France","key":"CountryName"},{"value":"Île-de-France","key":"StateName"},{"value":"Seine-et-Marne","key":"CountyName"}]},"MapReference":{"ReferenceId":"68832635","SideOfStreet":"neither","CountryId":"20000001","StateId":"20002126","CountyId":"20002151","CityId":"20002993"}}},{"Relevance":1.0,"Distance":8.7,"MatchLevel":"street","MatchQuality":{"Country":1.0,"State":1.0,"County":1.0,"City":1.0,"PostalCode":1.0},"Location":{"LocationId":"NT_jDrblv1JLOHnXlnvjL6ytB_l_1223153193_L","LocationType":"point","DisplayPosition":{"Latitude":48.5561187,"Longitude":2.642602},"MapView":{"TopLeft":{"Latitude":48.55617,"Longitude":2.64249},"BottomRight":{"Latitude":48.55606,"Longitude":2.6427}},"Address":{"Label":"77000 Melun, France","Country":"FRA","State":"Île-de-France","County":"Seine-et-Marne","City":"Melun","PostalCode":"77000","AdditionalData":[{"value":"France","key":"CountryName"},{"value":"Île-de-France","key":"StateName"},{"value":"Seine-et-Marne","key":"CountyName"}]},"MapReference":{"ReferenceId":"1223153193","Spot":0.53,"SideOfStreet":"left","CountryId":"20000001","StateId":"20002126","CountyId":"20002151","CityId":"20002993"}}},{"Relevance":1.0,"Distance":8.8,"MatchLevel":"street","MatchQuality":{"Country":1.0,"State":1.0,"County":1.0,"City":1.0,"PostalCode":1.0},"Location":{"LocationId":"NT_jDrblv1JLOHnXlnvjL6ytB_l_1181835624_L","LocationType":"point","DisplayPosition":{"Latitude":48.5562489,"Longitude":2.6426463},"MapView":{"TopLeft":{"Latitude":48.55642,"Longitude":2.64253},"BottomRight":{"Latitude":48.55617,"Longitude":2.6427}},"Address":{"Label":"77000 Melun, France","Country":"FRA","State":"Île-de-France","County":"Seine-et-Marne","City":"Melun","PostalCode":"77000","AdditionalData":[{"value":"France","key":"CountryName"},{"value":"Île-de-France","key":"StateName"},{"value":"Seine-et-Marne","key":"CountyName"}]},"MapReference":{"ReferenceId":"1181835624","Spot":0.32,"SideOfStreet":"left","CountryId":"20000001","StateId":"20002126","CountyId":"20002151","CityId":"20002993"}}},{"Relevance":1.0,"Distance":10.4,"MatchLevel":"street","MatchQuality":{"Country":1.0,"State":1.0,"County":1.0,"City":1.0,"PostalCode":1.0},"Location":{"LocationId":"NT_jDrblv1JLOHnXlnvjL6ytB_l_1223042210_L","LocationType":"point","DisplayPosition":{"Latitude":48.55617,"Longitude":2.6427},"MapView":{"TopLeft":{"Latitude":48.55627,"Longitude":2.6427},"BottomRight":{"Latitude":48.55617,"Longitude":2.64291}},"Address":{"Label":"77000 Melun, France","Country":"FRA","State":"Île-de-France","County":"Seine-et-Marne","City":"Melun","PostalCode":"77000","AdditionalData":[{"value":"France","key":"CountryName"},{"value":"Île-de-France","key":"StateName"},{"value":"Seine-et-Marne","key":"CountyName"}]},"MapReference":{"ReferenceId":"1223042210","Spot":0.0,"SideOfStreet":"left","CountryId":"20000001","StateId":"20002126","CountyId":"20002151","CityId":"20002993"}}},{"Relevance":1.0,"Distance":15.5,"MatchLevel":"street","MatchQuality":{"Country":1.0,"State":1.0,"County":1.0,"City":1.0,"PostalCode":1.0},"Location":{"LocationId":"NT_jDrblv1JLOHnXlnvjL6ytB_l_1223153195_R","LocationType":"point","DisplayPosition":{"Latitude":48.5560533,"Longitude":2.6425469},"MapView":{"TopLeft":{"Latitude":48.55606,"Longitude":2.64249},"BottomRight":{"Latitude":48.55601,"Longitude":2.64279}},"Address":{"Label":"77000 Melun, France","Country":"FRA","State":"Île-de-France","County":"Seine-et-Marne","City":"Melun","PostalCode":"77000","AdditionalData":[{"value":"France","key":"CountryName"},{"value":"Île-de-France","key":"StateName"},{"value":"Seine-et-Marne","key":"CountyName"}]},"MapReference":{"ReferenceId":"1223153195","Spot":0.81,"SideOfStreet":"right","CountryId":"20000001","StateId":"20002126","CountyId":"20002151","CityId":"20002993"}}},{"Relevance":1.0,"Distance":15.7,"MatchLevel":"street","MatchQuality":{"Country":1.0,"State":1.0,"County":1.0,"City":1.0,"PostalCode":1.0},"Location":{"LocationId":"NT_jDrblv1JLOHnXlnvjL6ytB_l_1223153192_L","LocationType":"point","DisplayPosition":{"Latitude":48.55606,"Longitude":2.64249},"MapView":{"TopLeft":{"Latitude":48.55606,"Longitude":2.64174},"BottomRight":{"Latitude":48.55571,"Longitude":2.64249}},"Address":{"Label":"77000 Melun, France","Country":"FRA","State":"Île-de-France","County":"Seine-et-Marne","City":"Melun","PostalCode":"77000","AdditionalData":[{"value":"France","key":"CountryName"},{"value":"Île-de-France","key":"StateName"},{"value":"Seine-et-Marne","key":"CountyName"}]},"MapReference":{"ReferenceId":"1223153192","Spot":1.0,"SideOfStreet":"left","CountryId":"20000001","StateId":"20002126","CountyId":"20002151","CityId":"20002993"}}},{"Relevance":1.0,"Distance":24.9,"MatchLevel":"street","MatchQuality":{"Country":1.0,"State":1.0,"County":1.0,"City":1.0,"PostalCode":1.0},"Location":{"LocationId":"NT_jDrblv1JLOHnXlnvjL6ytB_l_1223042235_R","LocationType":"point","DisplayPosition":{"Latitude":48.5564135,"Longitude":2.6425052},"MapView":{"TopLeft":{"Latitude":48.55642,"Longitude":2.64222},"BottomRight":{"Latitude":48.55627,"Longitude":2.64253}},"Address":{"Label":"77000 Melun, France","Country":"FRA","State":"Île-de-France","County":"Seine-et-Marne","City":"Melun","PostalCode":"77000","AdditionalData":[{"value":"France","key":"CountryName"},{"value":"Île-de-France","key":"StateName"},{"value":"Seine-et-Marne","key":"CountyName"}]},"MapReference":{"ReferenceId":"1223042235","Spot":0.93,"SideOfStreet":"right","CountryId":"20000001","StateId":"20002126","CountyId":"20002151","CityId":"20002993"}}},{"Relevance":1.0,"Distance":25.4,"MatchLevel":"street","MatchQuality":{"Country":1.0,"State":1.0,"County":1.0,"City":1.0,"PostalCode":1.0},"Location":{"LocationId":"NT_jDrblv1JLOHnXlnvjL6ytB_l_1215460298_R","LocationType":"point","DisplayPosition":{"Latitude":48.55642,"Longitude":2.64253},"MapView":{"TopLeft":{"Latitude":48.55664,"Longitude":2.64253},"BottomRight":{"Latitude":48.55642,"Longitude":2.6431}},"Address":{"Label":"77000 Melun, France","Country":"FRA","State":"Île-de-France","County":"Seine-et-Marne","City":"Melun","PostalCode":"77000","AdditionalData":[{"value":"France","key":"CountryName"},{"value":"Île-de-France","key":"StateName"},{"value":"Seine-et-Marne","key":"CountyName"}]},"MapReference":{"ReferenceId":"1215460298","Spot":0.0,"SideOfStreet":"right","CountryId":"20000001","StateId":"20002126","CountyId":"20002151","CityId":"20002993"}}},{"Relevance":1.0,"Distance":25.8,"MatchLevel":"street","MatchQuality":{"Country":1.0,"State":1.0,"County":1.0,"City":1.0,"PostalCode":1.0},"Location":{"LocationId":"NT_jDrblv1JLOHnXlnvjL6ytB_l_1223153186_L","LocationType":"point","DisplayPosition":{"Latitude":48.5562091,"Longitude":2.6429129},"MapView":{"TopLeft":{"Latitude":48.55627,"Longitude":2.64291},"BottomRight":{"Latitude":48.55606,"Longitude":2.64292}},"Address":{"Label":"77000 Melun, France","Country":"FRA","State":"Île-de-France","County":"Seine-et-Marne","City":"Melun","PostalCode":"77000","AdditionalData":[{"value":"France","key":"CountryName"},{"value":"Île-de-France","key":"StateName"},{"value":"Seine-et-Marne","key":"CountyName"}]},"MapReference":{"ReferenceId":"1223153186","Spot":0.71,"SideOfStreet":"left","CountryId":"20000001","StateId":"20002126","CountyId":"20002151","CityId":"20002993"}}}]}]}}