{"Response":{"MetaInfo":{"Timestamp":"2020-03-28T11:12:38.977+0000","NextPageInformation":"2"},"View":[{"_type":"SearchResultsViewType","ViewId":0,"Result":[{"Relevance":1.0,"Distance":-1270.1,"MatchLevel":"landmark","MatchQuality":{"Country":1.0,"State":1.0,"Name":1.0},"Location":{"LocationId":"NT_Ki8nZHP-XF4.Slycp2unRC","LocationType":"park","Name":"P.N.R. du Gâtinais Français","DisplayPosition":{"Latitude":48.39403,"Longitude":2.35501},"MapView":{"TopLeft":{"Latitude":48.57386,"Longitude":2.1932},"BottomRight":{"Latitude":48.2142,"Longitude":2.67423}},"Address":{"Label":"France","Country":"FRA","State":"Île-de-France","AdditionalData":[{"value":"France","key":"CountryName"},{"value":"Île-de-France","key":"StateName"}]},"MapReference":{"CountryId":"20000001","StateId":"20002126","PlaceId":"1509231898"}}},{"Relevance":1.0,"Distance":0.0,"Direction":0.0,"MatchLevel":"city","MatchQuality":{"Country":1.0,"State":1.0,"County":1.0,"City":1.0,"PostalCode":1.0},"Location":{"LocationId":"NT_CavlAcA6udgnqO7cG6DCAB","LocationType":"point","DisplayPosition":{"Latitude":48.5230635,"Longitude":2.4311898},"MapView":{"TopLeft":{"Latitude":48.52791,"Longitude":2.40511},"BottomRight":{"Latitude":48.48252,"Longitude":2.48321}},"Address":{"Label":"Champcueil, Île-de-France, France","Country":"FRA","State":"Île-de-France","County":"Essonne","City":"Champcueil","PostalCode":"91750","AdditionalData":[{"value":"France","key":"CountryName"},{"value":"Île-de-France","key":"StateName"},{"value":"Essonne","key":"CountyName"}]},"MapReference":{"ReferenceId":"64933005","SideOfStreet":"neither","CountryId":"20000001","StateId":"20002126","CountyId":"20004503","CityId":"20004633"}}},{"Relevance":1.0,"Distance":32.5,"MatchLevel":"street","MatchQuality":{"Country":1.0,"State":1.0,"County":1.0,"City":1.0,"Street":[1.0],"PostalCode":1.0},"Location":{"LocationId":"NT_lemynnQpSTTGp7quwFLcFB_l_834302431_L","LocationType":"point","DisplayPosition":{"Latitude":48.52304,"Longitude":2.43163},"MapView":{"TopLeft":{"Latitude":48.52304,"Longitude":2.43163},"BottomRight":{"Latitude":48.52298,"Longitude":2.43186}},"Address":{"Label":"Rue Clemenceau, 91750 Champcueil, France","Country":"FRA","State":"Île-de-France","County":"Essonne","City":"Champcueil","Street":"Rue Clemenceau","PostalCode":"91750","AdditionalData":[{"value":"France","key":"CountryName"},{"value":"Île-de-France","key":"StateName"},{"value":"Essonne","key":"CountyName"}]},"MapReference":{"ReferenceId":"834302431","Spot":1.0,"SideOfStreet":"left","CountryId":"20000001","StateId":"20002126","CountyId":"20004503","CityId":"20004633"}}},{"Relevance":1.0,"Distance":50.2,"MatchLevel":"street","MatchQuality":{"Country":1.0,"State":1.0,"County":1.0,"City":1.0,"Street":[1.0],"PostalCode":1.0},"Location":{"LocationId":"NT_W1jMXTG3tyB5JgYvZKKpeB_l_834302432_L","LocationType":"point","DisplayPosition":{"Latitude":48.52298,"Longitude":2.43186},"MapView":{"TopLeft":{"Latitude":48.52388,"Longitude":2.43186},"BottomRight":{"Latitude":48.52298,"Longitude":2.43294}},"Address":{"Label":"Cité Clemenceau, 91750 Champcueil, France","Country":"FRA","State":"Île-de-France","County":"Essonne","City":"Champcueil","Street":"Cité Clemenceau","PostalCode":"91750","AdditionalData":[{"value":"France","key":"CountryName"},{"value":"Île-de-France","key":"StateName"},{"value":"Essonne","key":"CountyName"}]},"MapReference":{"ReferenceId":"834302432","Spot":0.0,"SideOfStreet":"left","CountryId":"20000001","StateId":"20002126","CountyId":"20004503","CityId":"20004633"}}},{"Relevance":1.0,"Distance":50.2,"MatchLevel":"street","MatchQuality":{"Country":1.0,"State":1.0,"County":1.0,"City":1.0,"Street":[1.0],"PostalCode":1.0},"Location":{"LocationId":"NT_lemynnQpSTTGp7quwFLcFB_l_834302429_L","LocationType":"point","DisplayPosition":{"Latitude":48.52298,"Longitude":2.43186},"MapView":{"TopLeft":{"Latitude":48.52298,"Longitude":2.43186},"BottomRight":{"Latitude":48.52289,"Longitude":2.43214}},"Address":{"Label":"Rue Clemenceau, 91750 Champcueil, France","Country":"FRA","State":"Île-de-France","County":"Essonne","City":"Champcueil","Street":"Rue Clemenceau","PostalCode":"91750","AdditionalData":[{"value":"France","key":"CountryName"},{"value":"Île-de-France","key":"StateName"},{"value":"Essonne","key":"CountyName"}]},"MapReference":{"ReferenceId":"834302429","Spot":1.0,"SideOfStreet":"left","CountryId":"20000001","StateId":"20002126","CountyId":"20004503","CityId":"20004633"}}},{"Relevance":1.0,"Distance":72.6,"MatchLevel":"street","MatchQuality":{"Country":1.0,"State":1.0,"County":1.0,"City":1.0,"Street":[1.0],"PostalCode":1.0},"Location":{"LocationId":"NT_lemynnQpSTTGp7quwFLcFB_l_834302428_L","LocationType":"point","DisplayPosition":{"Latitude":48.52289,"Longitude":2.43214},"MapView":{"TopLeft":{"Latitude":48.52289,"Longitude":2.43214},"BottomRight":{"Latitude":48.52283,"Longitude":2.43229}},"Address":{"Label":"Rue Clemenceau, 91750 Champcueil, France","Country":"FRA","State":"Île-de-France","County":"Essonne","City":"Champcueil","Street":"Rue Clemenceau","PostalCode":"91750","AdditionalData":[{"value":"France","key":"CountryName"},{"value":"Île-de-France","key":"StateName"},{"value":"Essonne","key":"CountyName"}]},"MapReference":{"ReferenceId":"834302428","Spot":1.0,"SideOfStreet":"left","CountryId":"20000001","StateId":"20002126","CountyId":"20004503","CityId":"20004633"}}},{"Relevance":1.0,"Distance":76.5,"MatchLevel":"street","MatchQuality":{"Country":1.0,"State":1.0,"County":1.0,"City":1.0,"PostalCode":1.0},"Location":{"LocationId":"NT_pKG2O-fgxb9mE6S1h09.gD_l_834302430_L","LocationType":"point","DisplayPosition":{"Latitude":48.5226487,"Longitude":2.4320194},"MapView":{"TopLeft":{"Latitude":48.52289,"Longitude":2.4319},"BottomRight":{"Latitude":48.52241,"Longitude":2.43214}},"Address":{"Label":"91750 Champcueil, France","Country":"FRA","State":"Île-de-France","County":"Essonne","City":"Champcueil","PostalCode":"91750","AdditionalData":[{"value":"France","key":"CountryName"},{"value":"Île-de-France","key":"StateName"},{"value":"Essonne","key":"CountyName"}]},"MapReference":{"ReferenceId":"834302430","Spot":0.5,"SideOfStreet":"left","CountryId":"20000001","StateId":"20002126","CountyId":"20004503","CityId":"20004633"}}},{"Relevance":1.0,"Distance":85.1,"MatchLevel":"street","MatchQuality":{"Country":1.0,"State":1.0,"County":1.0,"City":1.0,"Street":[1.0],"PostalCode":1.0},"Location":{"LocationId":"NT_W1jMXTG3tyB5JgYvZKKpeB_l_834302433_L","LocationType":"point","DisplayPosition":{"Latitude":48.52283,"Longitude":2.43229},"MapView":{"TopLeft":{"Latitude":48.52336,"Longitude":2.43229},"BottomRight":{"Latitude":48.52283,"Longitude":2.43272}},"Address":{"Label":"Cité Clemenceau, 91750 Champcueil, France","Country":"FRA","State":"Île-de-France","County":"Essonne","City":"Champcueil","Street":"Cité Clemenceau","PostalCode":"91750","AdditionalData":[{"value":"France","key":"CountryName"},{"value":"Île-de-France","key":"StateName"},{"value":"Essonne","key":"CountyName"}]},"MapReference":{"ReferenceId":"834302433","Spot":0.0,"SideOfStreet":"left","CountryId":"20000001","StateId":"20002126","CountyId":"20004503","CityId":"20004633"}}},{"Relevance":1.0,"Distance":85.1,"MatchLevel":"street","MatchQuality":{"Country":1.0,"State":1.0,"County":1.0,"City":1.0,"Street":[1.0],"PostalCode":1.0},"Location":{"LocationId":"NT_lemynnQpSTTGp7quwFLcFB_l_834302427_L","LocationType":"point","DisplayPosition":{"Latitude":48.52283,"Longitude":2.43229},"MapView":{"TopLeft":{"Latitude":48.52283,"Longitude":2.43229},"BottomRight":{"Latitude":48.52184,"Longitude":2.43652}},"Address":{"Label":"Rue Clemenceau, 91750 Champcueil, France","Country":"FRA","State":"Île-de-France","County":"Essonne","City":"Champcueil","Street":"Rue Clemenceau","PostalCode":"91750","AdditionalData":[{"value":"France","key":"CountryName"},{"value":"Île-de-France","key":"StateName"},{"value":"Essonne","key":"CountyName"}]},"MapReference":{"ReferenceId":"834302427","Spot":1.0,"SideOfStreet":"left","CountryId":"20000001","StateId":"20002126","CountyId":"20004503","CityId":"20004633"}}},{"Relevance":1.0,"Distance":117.4,"MatchLevel":"street","MatchQuality":{"Country":1.0,"State":1.0,"County":1.0,"City":1.0,"Street":[1.0],"PostalCode":1.0},"Location":{"LocationId":"NT_W1jMXTG3tyB5JgYvZKKpeB_l_834302437_L","LocationType":"point","DisplayPosition":{"Latitude":48.52336,"Longitude":2.43272},"MapView":{"TopLeft":{"Latitude":48.52336,"Longitude":2.43272},"BottomRight":{"Latitude":48.52323,"Longitude":2.43332}},"Address":{"Label":"Cité Clemenceau, 91750 Champcueil, France","Country":"FRA","State":"Île-de-France","County":"Essonne","City":"Champcueil","Street":"Cité Clemenceau","PostalCode":"91750","AdditionalData":[{"value":"France","key":"CountryName"},{"value":"Île-de-France","key":"StateName"},{"value":"Essonne","key":"CountyName"}]},"MapReference":{"ReferenceId":"834302437","Spot":1.0,"SideOfStreet":"left","CountryId":"20000001","StateId":"20002126","CountyId":"20004503","CityId":"20004633"}}}]}]}}