{"Response":{"MetaInfo":{"Timestamp":"2020-03-28T11:46:31.916+0000","NextPageInformation":"2"},"View":[{"_type":"SearchResultsViewType","ViewId":0,"Result":[{"Relevance":1.0,"Distance":0.0,"Direction":0.0,"MatchLevel":"city","MatchQuality":{"Country":1.0,"State":1.0,"County":1.0,"City":1.0,"PostalCode":1.0},"Location":{"LocationId":"NT_K1RagN0csOxM2-wTrt0rAD","LocationType":"point","DisplayPosition":{"Latitude":48.509599,"Longitude":-4.086909},"MapView":{"TopLeft":{"Latitude":48.53841,"Longitude":-4.10175},"BottomRight":{"Latitude":48.49427,"Longitude":-4.02159}},"Address":{"Label":"Landivisiau, Bretagne, France","Country":"FRA","State":"Bretagne","County":"Finistère","City":"Landivisiau","PostalCode":"29400","AdditionalData":[{"value":"France","key":"CountryName"},{"value":"Bretagne","key":"StateName"},{"value":"Finistère","key":"CountyName"}]},"MapReference":{"ReferenceId":"557989425","SideOfStreet":"neither","CountryId":"20000001","StateId":"20060199","CountyId":"20064592","CityId":"20064896"}}},{"Relevance":1.0,"Distance":33.1,"MatchLevel":"houseNumber","MatchQuality":{"Country":1.0,"State":1.0,"County":1.0,"City":1.0,"Street":[1.0],"HouseNumber":1.0,"PostalCode":1.0},"MatchType":"interpolated","Location":{"LocationId":"NT_jSwpZt0ztfrzaySIK9PLwA_yA","LocationType":"point","DisplayPosition":{"Latitude":48.50951,"Longitude":-4.08741},"MapView":{"TopLeft":{"Latitude":48.5106342,"Longitude":-4.0891068},"BottomRight":{"Latitude":48.5083858,"Longitude":-4.0857132}},"Address":{"Label":"2 Boulevard André Malraux, 29400 Landivisiau, France","Country":"FRA","State":"Bretagne","County":"Finistère","City":"Landivisiau","Street":"Boulevard André Malraux","HouseNumber":"2","PostalCode":"29400","AdditionalData":[{"value":"France","key":"CountryName"},{"value":"Bretagne","key":"StateName"},{"value":"Finistère","key":"CountyName"}]},"MapReference":{"ReferenceId":"940822908","Spot":0.66,"SideOfStreet":"right","CountryId":"20000001","StateId":"20060199","CountyId":"20064592","CityId":"20064896","AddressId":"570414530","RoadLinkId":"290861663"}}},{"Relevance":1.0,"Distance":40.7,"MatchLevel":"street","MatchQuality":{"Country":1.0,"State":1.0,"County":1.0,"City":1.0,"Street":[1.0],"PostalCode":1.0},"Location":{"LocationId":"NT_jSwpZt0ztfrzaySIK9PLwA_l_940650180_R","LocationType":"point","DisplayPosition":{"Latitude":48.50963,"Longitude":-4.08746},"MapView":{"TopLeft":{"Latitude":48.51011,"Longitude":-4.08749},"BottomRight":{"Latitude":48.50963,"Longitude":-4.08738}},"Address":{"Label":"Boulevard André Malraux, 29400 Landivisiau, France","Country":"FRA","State":"Bretagne","County":"Finistère","City":"Landivisiau","Street":"Boulevard André Malraux","PostalCode":"29400","AdditionalData":[{"value":"France","key":"CountryName"},{"value":"Bretagne","key":"StateName"},{"value":"Finistère","key":"CountyName"}]},"MapReference":{"ReferenceId":"940650180","Spot":0.0,"SideOfStreet":"right","CountryId":"20000001","StateId":"20060199","CountyId":"20064592","CityId":"20064896"}}},{"Relevance":1.0,"Distance":42.6,"MatchLevel":"street","MatchQuality":{"Country":1.0,"State":1.0,"County":1.0,"City":1.0,"Street":[1.0],"PostalCode":1.0},"Location":{"LocationId":"NT_jSwpZt0ztfrzaySIK9PLwA_l_940822907_R","LocationType":"point","DisplayPosition":{"Latitude":48.5093,"Longitude":-4.08727},"MapView":{"TopLeft":{"Latitude":48.5093,"Longitude":-4.08727},"BottomRight":{"Latitude":48.50899,"Longitude":-4.0872}},"Address":{"Label":"Boulevard André Malraux, 29400 Landivisiau, France","Country":"FRA","State":"Bretagne","County":"Finistère","City":"Landivisiau","Street":"Boulevard André Malraux","PostalCode":"29400","AdditionalData":[{"value":"France","key":"CountryName"},{"value":"Bretagne","key":"StateName"},{"value":"Finistère","key":"CountyName"}]},"MapReference":{"ReferenceId":"940822907","Spot":1.0,"SideOfStreet":"right","CountryId":"20000001","StateId":"20060199","CountyId":"20064592","CityId":"20064896"}}},{"Relevance":1.0,"Distance":45.3,"MatchLevel":"street","MatchQuality":{"Country":1.0,"State":1.0,"County":1.0,"City":1.0,"Street":[1.0],"PostalCode":1.0},"Location":{"LocationId":"NT_jSwpZt0ztfrzaySIK9PLwA_l_940822911_R","LocationType":"point","DisplayPosition":{"Latitude":48.5092344,"Longitude":-4.0871825},"MapView":{"TopLeft":{"Latitude":48.5093,"Longitude":-4.08727},"BottomRight":{"Latitude":48.50903,"Longitude":-4.08691}},"Address":{"Label":"Boulevard André Malraux, 29400 Landivisiau, France","Country":"FRA","State":"Bretagne","County":"Finistère","City":"Landivisiau","Street":"Boulevard André Malraux","PostalCode":"29400","AdditionalData":[{"value":"France","key":"CountryName"},{"value":"Bretagne","key":"StateName"},{"value":"Finistère","key":"CountyName"}]},"MapReference":{"ReferenceId":"940822911","Spot":0.76,"SideOfStreet":"right","CountryId":"20000001","StateId":"20060199","CountyId":"20064592","CityId":"20064896"}}},{"Relevance":1.0,"Distance":62.4,"MatchLevel":"street","MatchQuality":{"Country":1.0,"State":1.0,"County":1.0,"City":1.0,"Street":[1.0],"PostalCode":1.0},"Location":{"LocationId":"NT_bJxOwNuBSIkcrgDRWo8MfD_l_940822910_L","LocationType":"point","DisplayPosition":{"Latitude":48.50904,"Longitude":-4.08698},"MapView":{"TopLeft":{"Latitude":48.50904,"Longitude":-4.0872},"BottomRight":{"Latitude":48.50899,"Longitude":-4.08691}},"Address":{"Label":"Rond-Point de l'Iroise, 29400 Landivisiau, France","Country":"FRA","State":"Bretagne","County":"Finistère","City":"Landivisiau","Street":"Rond-Point de l'Iroise","PostalCode":"29400","AdditionalData":[{"value":"France","key":"CountryName"},{"value":"Bretagne","key":"StateName"},{"value":"Finistère","key":"CountyName"}]},"MapReference":{"ReferenceId":"940822910","Spot":0.76,"SideOfStreet":"left","CountryId":"20000001","StateId":"20060199","CountyId":"20064592","CityId":"20064896"}}},{"Relevance":1.0,"Distance":63.3,"MatchLevel":"street","MatchQuality":{"Country":1.0,"State":1.0,"County":1.0,"City":1.0,"Street":[1.0],"PostalCode":1.0},"Location":{"LocationId":"NT_bJxOwNuBSIkcrgDRWo8MfD_l_940822909_R","LocationType":"point","DisplayPosition":{"Latitude":48.50903,"Longitude":-4.08691},"MapView":{"TopLeft":{"Latitude":48.50903,"Longitude":-4.08691},"BottomRight":{"Latitude":48.50887,"Longitude":-4.08673}},"Address":{"Label":"Rond-Point de l'Iroise, 29400 Landivisiau, France","Country":"FRA","State":"Bretagne","County":"Finistère","City":"Landivisiau","Street":"Rond-Point de l'Iroise","PostalCode":"29400","AdditionalData":[{"value":"France","key":"CountryName"},{"value":"Bretagne","key":"StateName"},{"value":"Finistère","key":"CountyName"}]},"MapReference":{"ReferenceId":"940822909","Spot":1.0,"SideOfStreet":"right","CountryId":"20000001","StateId":"20060199","CountyId":"20064592","CityId":"20064896"}}},{"Relevance":1.0,"Distance":67.2,"MatchLevel":"street","MatchQuality":{"Country":1.0,"State":1.0,"County":1.0,"City":1.0,"Street":[1.0],"PostalCode":1.0},"Location":{"LocationId":"NT_jSwpZt0ztfrzaySIK9PLwA_l_940650177_R","LocationType":"point","DisplayPosition":{"Latitude":48.5101218,"Longitude":-4.0873665},"MapView":{"TopLeft":{"Latitude":48.51037,"Longitude":-4.08738},"BottomRight":{"Latitude":48.51011,"Longitude":-4.08698}},"Address":{"Label":"Boulevard André Malraux, 29400 Landivisiau, France","Country":"FRA","State":"Bretagne","County":"Finistère","City":"Landivisiau","Street":"Boulevard André Malraux","PostalCode":"29400","AdditionalData":[{"value":"France","key":"CountryName"},{"value":"Bretagne","key":"StateName"},{"value":"Finistère","key":"CountyName"}]},"MapReference":{"ReferenceId":"940650177","Spot":0.04,"SideOfStreet":"right","CountryId":"20000001","StateId":"20060199","CountyId":"20064592","CityId":"20064896"}}},{"Relevance":1.0,"Distance":71.0,"MatchLevel":"street","MatchQuality":{"Country":1.0,"State":1.0,"County":1.0,"City":1.0,"Street":[1.0],"PostalCode":1.0},"Location":{"LocationId":"NT_bJxOwNuBSIkcrgDRWo8MfD_l_557984124_L","LocationType":"point","DisplayPosition":{"Latitude":48.50899,"Longitude":-4.0872},"MapView":{"TopLeft":{"Latitude":48.50899,"Longitude":-4.08729},"BottomRight":{"Latitude":48.50882,"Longitude":-4.0872}},"Address":{"Label":"Rond-Point de l'Iroise, 29400 Landivisiau, France","Country":"FRA","State":"Bretagne","County":"Finistère","City":"Landivisiau","Street":"Rond-Point de l'Iroise","PostalCode":"29400","AdditionalData":[{"value":"France","key":"CountryName"},{"value":"Bretagne","key":"StateName"},{"value":"Finistère","key":"CountyName"}]},"MapReference":{"ReferenceId":"557984124","Spot":1.0,"SideOfStreet":"left","CountryId":"20000001","StateId":"20060199","CountyId":"20064592","CityId":"20064896"}}},{"Relevance":1.0,"Distance":78.0,"MatchLevel":"houseNumber","MatchQuality":{"Country":1.0,"State":1.0,"County":1.0,"City":1.0,"Street":[1.0],"HouseNumber":1.0,"PostalCode":1.0},"MatchType":"interpolated","Location":{"LocationId":"NT_ZpAvegKIcploul9G8iqvzA_3AD","LocationType":"point","DisplayPosition":{"Latitude":48.5089,"Longitude":-4.0864},"MapView":{"TopLeft":{"Latitude":48.5100242,"Longitude":-4.0880968},"BottomRight":{"Latitude":48.5077758,"Longitude":-4.0847032}},"Address":{"Label":"70 Avenue de la Libération, 29400 Landivisiau, France","Country":"FRA","State":"Bretagne","County":"Finistère","City":"Landivisiau","Street":"Avenue de la Libération","HouseNumber":"70","PostalCode":"29400","AdditionalData":[{"value":"France","key":"CountryName"},{"value":"Bretagne","key":"StateName"},{"value":"Finistère","key":"CountyName"}]},"MapReference":{"ReferenceId":"557984083","Spot":0.16,"SideOfStreet":"left","CountryId":"20000001","StateId":"20060199","CountyId":"20064592","CityId":"20064896","AddressId":"320294791","RoadLinkId":"47884828"}}}]}]}}