{"Response":{"MetaInfo":{"Timestamp":"2020-03-28T10:17:10.034+0000","NextPageInformation":"2"},"View":[{"_type":"SearchResultsViewType","ViewId":0,"Result":[{"Relevance":1.0,"Distance":0.0,"Direction":0.0,"MatchLevel":"district","MatchQuality":{"Country":1.0,"State":1.0,"County":1.0,"City":1.0,"District":1.0,"PostalCode":1.0},"Location":{"LocationId":"NT_ySLwopp1DrNHWQE3vajmuB","LocationType":"point","DisplayPosition":{"Latitude":48.5186138,"Longitude":10.8120123},"MapView":{"TopLeft":{"Latitude":48.52355,"Longitude":10.79987},"BottomRight":{"Latitude":48.51066,"Longitude":10.81825}},"Address":{"Label":"Biberbach, Bayern, Deutschland","Country":"DEU","State":"Bayern","County":"Augsburg (Landkreis)","City":"Biberbach","District":"Biberbach","PostalCode":"86485","AdditionalData":[{"value":"Deutschland","key":"CountryName"},{"value":"Bayern","key":"StateName"},{"value":"Augsburg (Landkreis)","key":"CountyName"}]},"MapReference":{"ReferenceId":"832253473","SideOfStreet":"neither","CountryId":"20147700","StateId":"20177250","CountyId":"20185460","CityId":"20185483","DistrictId":"20185485"}}},{"Relevance":1.0,"Distance":5.3,"MatchLevel":"houseNumber","MatchQuality":{"Country":1.0,"State":1.0,"County":1.0,"City":1.0,"District":1.0,"Street":[1.0],"HouseNumber":1.0,"PostalCode":1.0},"MatchType":"interpolated","Location":{"LocationId":"NT_8gFg06us67DuFk17xmGJsC_xA","LocationType":"point","DisplayPosition":{"Latitude":48.51835,"Longitude":10.81184},"MapView":{"TopLeft":{"Latitude":48.5194742,"Longitude":10.8101429},"BottomRight":{"Latitude":48.5172258,"Longitude":10.8135371}},"Address":{"Label":"Marktplatz 1, 86485 Biberbach, Deutschland","Country":"DEU","State":"Bayern","County":"Augsburg (Landkreis)","City":"Biberbach","District":"Biberbach","Street":"Marktplatz","HouseNumber":"1","PostalCode":"86485","AdditionalData":[{"value":"Deutschland","key":"CountryName"},{"value":"Bayern","key":"StateName"},{"value":"Augsburg (Landkreis)","key":"CountyName"}]},"MapReference":{"ReferenceId":"832253465","Spot":0.54,"SideOfStreet":"right","CountryId":"20147700","StateId":"20177250","CountyId":"20185460","CityId":"20185483","DistrictId":"20185485","AddressId":"249221195","RoadLinkId":"215530777"}}},{"Relevance":1.0,"Distance":19.0,"MatchLevel":"street","MatchQuality":{"Country":1.0,"State":1.0,"County":1.0,"City":1.0,"District":1.0,"Street":[1.0],"PostalCode":1.0},"Location":{"LocationId":"NT_Qr9h7AEGeYBo8H5CuOfOfB_l_832253472_R","LocationType":"point","DisplayPosition":{"Latitude":48.51865,"Longitude":10.81176},"MapView":{"TopLeft":{"Latitude":48.51865,"Longitude":10.81169},"BottomRight":{"Latitude":48.51839,"Longitude":10.81176}},"Address":{"Label":"Raiffeisenstraße, 86485 Biberbach, Deutschland","Country":"DEU","State":"Bayern","County":"Augsburg (Landkreis)","City":"Biberbach","District":"Biberbach","Street":"Raiffeisenstraße","PostalCode":"86485","AdditionalData":[{"value":"Deutschland","key":"CountryName"},{"value":"Bayern","key":"StateName"},{"value":"Augsburg (Landkreis)","key":"CountyName"}]},"MapReference":{"ReferenceId":"832253472","Spot":1.0,"SideOfStreet":"right","CountryId":"20147700","StateId":"20177250","CountyId":"20185460","CityId":"20185483","DistrictId":"20185485"}}},{"Relevance":1.0,"Distance":39.3,"MatchLevel":"houseNumber","MatchQuality":{"Country":1.0,"State":1.0,"County":1.0,"City":1.0,"District":1.0,"Street":[1.0],"HouseNumber":1.0,"PostalCode":1.0},"MatchType":"interpolated","Location":{"LocationId":"NT_8gFg06us67DuFk17xmGJsC_zA","LocationType":"point","DisplayPosition":{"Latitude":48.51826,"Longitude":10.81202},"MapView":{"TopLeft":{"Latitude":48.5193842,"Longitude":10.8103229},"BottomRight":{"Latitude":48.5171358,"Longitude":10.8137171}},"Address":{"Label":"Marktplatz 3, 86485 Biberbach, Deutschland","Country":"DEU","State":"Bayern","County":"Augsburg (Landkreis)","City":"Biberbach","District":"Biberbach","Street":"Marktplatz","HouseNumber":"3","PostalCode":"86485","AdditionalData":[{"value":"Deutschland","key":"CountryName"},{"value":"Bayern","key":"StateName"},{"value":"Augsburg (Landkreis)","key":"CountyName"}]},"MapReference":{"ReferenceId":"832253464","Spot":0.97,"SideOfStreet":"right","CountryId":"20147700","StateId":"20177250","CountyId":"20185460","CityId":"20185483","DistrictId":"20185485","AddressId":"249261917","RoadLinkId":"215530776"}}},{"Relevance":1.0,"Distance":40.9,"MatchLevel":"houseNumber","MatchQuality":{"Country":1.0,"State":1.0,"County":1.0,"City":1.0,"District":1.0,"Street":[1.0],"HouseNumber":1.0,"PostalCode":1.0},"MatchType":"interpolated","Location":{"LocationId":"NT_TFzSLlkNmUfMphSa5oRA3D_yA","LocationType":"point","DisplayPosition":{"Latitude":48.5184,"Longitude":10.81156},"MapView":{"TopLeft":{"Latitude":48.5195242,"Longitude":10.8098629},"BottomRight":{"Latitude":48.5172758,"Longitude":10.8132571}},"Address":{"Label":"Hauptstraße 2, 86485 Biberbach, Deutschland","Country":"DEU","State":"Bayern","County":"Augsburg (Landkreis)","City":"Biberbach","District":"Biberbach","Street":"Hauptstraße","HouseNumber":"2","PostalCode":"86485","AdditionalData":[{"value":"Deutschland","key":"CountryName"},{"value":"Bayern","key":"StateName"},{"value":"Augsburg (Landkreis)","key":"CountyName"}]},"MapReference":{"ReferenceId":"541539707","Spot":0.91,"SideOfStreet":"left","CountryId":"20147700","StateId":"20177250","CountyId":"20185460","CityId":"20185483","DistrictId":"20185485","AddressId":"182009113","RoadLinkId":"33411089"}}},{"Relevance":1.0,"Distance":51.9,"MatchLevel":"houseNumber","MatchQuality":{"Country":1.0,"State":1.0,"County":1.0,"City":1.0,"District":1.0,"Street":[1.0],"HouseNumber":1.0,"PostalCode":1.0},"MatchType":"interpolated","Location":{"LocationId":"NT_N-cHsfyhVHHdAs6ACs0-kA_0A","LocationType":"point","DisplayPosition":{"Latitude":48.51903,"Longitude":10.81233},"MapView":{"TopLeft":{"Latitude":48.5201542,"Longitude":10.8106328},"BottomRight":{"Latitude":48.5179058,"Longitude":10.8140272}},"Address":{"Label":"Raiffeisenstraße 4, 86485 Biberbach, Deutschland","Country":"DEU","State":"Bayern","County":"Augsburg (Landkreis)","City":"Biberbach","District":"Biberbach","Street":"Raiffeisenstraße","HouseNumber":"4","PostalCode":"86485","AdditionalData":[{"value":"Deutschland","key":"CountryName"},{"value":"Bayern","key":"StateName"},{"value":"Augsburg (Landkreis)","key":"CountyName"}]},"MapReference":{"ReferenceId":"832253473","Spot":0.39,"SideOfStreet":"right","CountryId":"20147700","StateId":"20177250","CountyId":"20185460","CityId":"20185483","DistrictId":"20185485","AddressId":"184544715","RoadLinkId":"215530789"}}},{"Relevance":1.0,"Distance":76.4,"MatchLevel":"houseNumber","MatchQuality":{"Country":1.0,"State":1.0,"County":1.0,"City":1.0,"District":1.0,"Street":[1.0],"HouseNumber":1.0,"PostalCode":1.0},"MatchType":"interpolated","Location":{"LocationId":"NT_0ektnOeAaRW7b8e25R-jfC_0A","LocationType":"point","DisplayPosition":{"Latitude":48.51864,"Longitude":10.81326},"MapView":{"TopLeft":{"Latitude":48.5197642,"Longitude":10.8115629},"BottomRight":{"Latitude":48.5175158,"Longitude":10.8149571}},"Address":{"Label":"Feuerwehrplatz 4, 86485 Biberbach, Deutschland","Country":"DEU","State":"Bayern","County":"Augsburg (Landkreis)","City":"Biberbach","District":"Biberbach","Street":"Feuerwehrplatz","HouseNumber":"4","PostalCode":"86485","AdditionalData":[{"value":"Deutschland","key":"CountryName"},{"value":"Bayern","key":"StateName"},{"value":"Augsburg (Landkreis)","key":"CountyName"}]},"MapReference":{"ReferenceId":"576290075","Spot":0.1,"SideOfStreet":"left","CountryId":"20147700","StateId":"20177250","CountyId":"20185460","CityId":"20185483","DistrictId":"20185485","AddressId":"182992007","RoadLinkId":"32923421"}}},{"Relevance":1.0,"Distance":81.5,"MatchLevel":"houseNumber","MatchQuality":{"Country":1.0,"State":1.0,"County":1.0,"City":1.0,"District":1.0,"Street":[1.0],"HouseNumber":1.0,"PostalCode":1.0},"MatchType":"interpolated","Location":{"LocationId":"NT_TPPq5Wq1cq3cIHRcyCHLpB_yA","LocationType":"point","DisplayPosition":{"Latitude":48.51805,"Longitude":10.81272},"MapView":{"TopLeft":{"Latitude":48.5191742,"Longitude":10.8110229},"BottomRight":{"Latitude":48.5169258,"Longitude":10.8144171}},"Address":{"Label":"Sebastian-Kneipp-Straße 2, 86485 Biberbach, Deutschland","Country":"DEU","State":"Bayern","County":"Augsburg (Landkreis)","City":"Biberbach","District":"Biberbach","Street":"Sebastian-Kneipp-Straße","HouseNumber":"2","PostalCode":"86485","AdditionalData":[{"value":"Deutschland","key":"CountryName"},{"value":"Bayern","key":"StateName"},{"value":"Augsburg (Landkreis)","key":"CountyName"}]},"MapReference":{"ReferenceId":"773389688","Spot":0.52,"SideOfStreet":"right","CountryId":"20147700","StateId":"20177250","CountyId":"20185460","CityId":"20185483","DistrictId":"20185485","AddressId":"185959632","RoadLinkId":"167211972"}}},{"Relevance":1.0,"Distance":91.0,"MatchLevel":"houseNumber","MatchQuality":{"Country":1.0,"State":1.0,"County":1.0,"City":1.0,"District":1.0,"Street":[1.0],"HouseNumber":1.0,"PostalCode":1.0},"MatchType":"interpolated","Location":{"LocationId":"NT_TPPq5Wq1cq3cIHRcyCHLpB_2A","LocationType":"point","DisplayPosition":{"Latitude":48.51831,"Longitude":10.81316},"MapView":{"TopLeft":{"Latitude":48.5194342,"Longitude":10.8114629},"BottomRight":{"Latitude":48.5171858,"Longitude":10.8148571}},"Address":{"Label":"Sebastian-Kneipp-Straße 6, 86485 Biberbach, Deutschland","Country":"DEU","State":"Bayern","County":"Augsburg (Landkreis)","City":"Biberbach","District":"Biberbach","Street":"Sebastian-Kneipp-Straße","HouseNumber":"6","PostalCode":"86485","AdditionalData":[{"value":"Deutschland","key":"CountryName"},{"value":"Bayern","key":"StateName"},{"value":"Augsburg (Landkreis)","key":"CountyName"}]},"MapReference":{"ReferenceId":"1198989713","Spot":0.44,"SideOfStreet":"right","CountryId":"20147700","StateId":"20177250","CountyId":"20185460","CityId":"20185483","DistrictId":"20185485","AddressId":"208355747","RoadLinkId":"510553622"}}},{"Relevance":1.0,"Distance":93.6,"MatchLevel":"street","MatchQuality":{"Country":1.0,"State":1.0,"County":1.0,"City":1.0,"District":1.0,"PostalCode":1.0},"Location":{"LocationId":"NT_XqHheE6DLprYqf3.uy--9B_l_1198989715_L","LocationType":"point","DisplayPosition":{"Latitude":48.51856,"Longitude":10.81328},"MapView":{"TopLeft":{"Latitude":48.51856,"Longitude":10.81328},"BottomRight":{"Latitude":48.51837,"Longitude":10.81338}},"Address":{"Label":"86485 Biberbach, Deutschland","Country":"DEU","State":"Bayern","County":"Augsburg (Landkreis)","City":"Biberbach","District":"Biberbach","PostalCode":"86485","AdditionalData":[{"value":"Deutschland","key":"CountryName"},{"value":"Bayern","key":"StateName"},{"value":"Augsburg (Landkreis)","key":"CountyName"}]},"MapReference":{"ReferenceId":"1198989715","Spot":1.0,"SideOfStreet":"left","CountryId":"20147700","StateId":"20177250","CountyId":"20185460","CityId":"20185483","DistrictId":"20185485"}}}]}]}}