{"Response":{"MetaInfo":{"Timestamp":"2020-03-28T11:48:40.060+0000","NextPageInformation":"2"},"View":[{"_type":"SearchResultsViewType","ViewId":0,"Result":[{"Relevance":1.0,"Distance":0.0,"Direction":0.0,"MatchLevel":"district","MatchQuality":{"Country":1.0,"State":1.0,"County":1.0,"City":1.0,"District":1.0,"PostalCode":1.0},"Location":{"LocationId":"NT_-jm9NQtMr7vcGDW1SrZYyD","LocationType":"point","DisplayPosition":{"Latitude":48.5900418,"Longitude":4.8649303},"MapView":{"TopLeft":{"Latitude":48.59759,"Longitude":4.86028},"BottomRight":{"Latitude":48.58444,"Longitude":4.88307}},"Address":{"Label":"Éclaron, Éclaron-Braucourt-Sainte-Livière, Grand Est, France","Country":"FRA","State":"Grand Est","County":"Haute-Marne","City":"Éclaron-Braucourt-Sainte-Livière","District":"Éclaron","PostalCode":"52290","AdditionalData":[{"value":"France","key":"CountryName"},{"value":"Grand Est","key":"StateName"},{"value":"Haute-Marne","key":"CountyName"}]},"MapReference":{"ReferenceId":"58546102","SideOfStreet":"neither","CountryId":"20000001","StateId":"20002047","CountyId":"20018579","CityId":"20019011","DistrictId":"20019013"}}},{"Relevance":1.0,"Distance":4.3,"MatchLevel":"houseNumber","MatchQuality":{"Country":1.0,"State":1.0,"County":1.0,"City":1.0,"District":1.0,"Street":[1.0],"HouseNumber":1.0,"PostalCode":1.0},"MatchType":"interpolated","Location":{"LocationId":"NT_wsfb74497mLwB.0YTJ9.cD_0A","LocationType":"point","DisplayPosition":{"Latitude":48.59011,"Longitude":4.86489},"MapView":{"TopLeft":{"Latitude":48.5912342,"Longitude":4.8631905},"BottomRight":{"Latitude":48.5889858,"Longitude":4.8665895}},"Address":{"Label":"4 Rue de la Halle, 52290 Éclaron-Braucourt-Sainte-Livière, France","Country":"FRA","State":"Grand Est","County":"Haute-Marne","City":"Éclaron-Braucourt-Sainte-Livière","District":"Éclaron","Street":"Rue de la Halle","HouseNumber":"4","PostalCode":"52290","AdditionalData":[{"value":"France","key":"CountryName"},{"value":"Grand Est","key":"StateName"},{"value":"Haute-Marne","key":"CountyName"}]},"MapReference":{"ReferenceId":"583415006","Spot":0.4,"SideOfStreet":"right","CountryId":"20000001","StateId":"20002047","CountyId":"20018579","CityId":"20019011","DistrictId":"20019013","AddressId":"570902793","RoadLinkId":"165688168"}}},{"Relevance":1.0,"Distance":18.9,"MatchLevel":"houseNumber","MatchQuality":{"Country":1.0,"State":1.0,"County":1.0,"City":1.0,"District":1.0,"Street":[1.0],"HouseNumber":1.0,"PostalCode":1.0},"MatchType":"interpolated","Location":{"LocationId":"NT_aAFldoZRf0w1an51mS1fXC_0A","LocationType":"point","DisplayPosition":{"Latitude":48.58985,"Longitude":4.86502},"MapView":{"TopLeft":{"Latitude":48.5909742,"Longitude":4.8633205},"BottomRight":{"Latitude":48.5887258,"Longitude":4.8667195}},"Address":{"Label":"4 Rue Napoléon 1er, 52290 Éclaron-Braucourt-Sainte-Livière, France","Country":"FRA","State":"Grand Est","County":"Haute-Marne","City":"Éclaron-Braucourt-Sainte-Livière","District":"Éclaron","Street":"Rue Napoléon 1er","HouseNumber":"4","PostalCode":"52290","AdditionalData":[{"value":"France","key":"CountryName"},{"value":"Grand Est","key":"StateName"},{"value":"Haute-Marne","key":"CountyName"}]},"MapReference":{"ReferenceId":"583415010","Spot":0.6,"SideOfStreet":"left","CountryId":"20000001","StateId":"20002047","CountyId":"20018579","CityId":"20019011","DistrictId":"20019013","AddressId":"316490476","RoadLinkId":"44852642"}}},{"Relevance":1.0,"Distance":29.6,"MatchLevel":"street","MatchQuality":{"Country":1.0,"State":1.0,"County":1.0,"City":1.0,"District":1.0,"Street":[1.0],"PostalCode":1.0},"Location":{"LocationId":"NT_hWzRKyphPxqUpmVvq84nsC_l_1081490290_L","LocationType":"point","DisplayPosition":{"Latitude":48.58991,"Longitude":4.86528},"MapView":{"TopLeft":{"Latitude":48.58999,"Longitude":4.86528},"BottomRight":{"Latitude":48.58991,"Longitude":4.86544}},"Address":{"Label":"Place Pelletier, 52290 Éclaron-Braucourt-Sainte-Livière, France","Country":"FRA","State":"Grand Est","County":"Haute-Marne","City":"Éclaron-Braucourt-Sainte-Livière","District":"Éclaron","Street":"Place Pelletier","PostalCode":"52290","AdditionalData":[{"value":"France","key":"CountryName"},{"value":"Grand Est","key":"StateName"},{"value":"Haute-Marne","key":"CountyName"}]},"MapReference":{"ReferenceId":"1081490290","Spot":0.0,"SideOfStreet":"left","CountryId":"20000001","StateId":"20002047","CountyId":"20018579","CityId":"20019011","DistrictId":"20019013"}}},{"Relevance":1.0,"Distance":35.1,"MatchLevel":"houseNumber","MatchQuality":{"Country":1.0,"State":1.0,"County":1.0,"City":1.0,"District":1.0,"Street":[1.0],"HouseNumber":1.0,"PostalCode":1.0},"MatchType":"interpolated","Location":{"LocationId":"NT_B3.jifog4M5L0WUvZM4DcA_l_583415017_L_xkD","LocationType":"point","DisplayPosition":{"Latitude":48.5902645,"Longitude":4.8655189},"MapView":{"TopLeft":{"Latitude":48.5913887,"Longitude":4.8638193},"BottomRight":{"Latitude":48.5891404,"Longitude":4.8672184}},"Address":{"Label":"19 Place Pelletier, 52290 Éclaron-Braucourt-Sainte-Livière, France","Country":"FRA","State":"Grand Est","County":"Haute-Marne","City":"Éclaron-Braucourt-Sainte-Livière","District":"Éclaron","Street":"Place Pelletier","HouseNumber":"19","PostalCode":"52290","AdditionalData":[{"value":"France","key":"CountryName"},{"value":"Grand Est","key":"StateName"},{"value":"Haute-Marne","key":"CountyName"}]},"MapReference":{"ReferenceId":"583415017","Spot":0.56,"SideOfStreet":"left","CountryId":"20000001","StateId":"20002047","CountyId":"20018579","CityId":"20019011","DistrictId":"20019013"}}},{"Relevance":1.0,"Distance":36.8,"MatchLevel":"street","MatchQuality":{"Country":1.0,"State":1.0,"County":1.0,"City":1.0,"District":1.0,"Street":[1.0],"PostalCode":1.0},"Location":{"LocationId":"NT_50k7WCPos.87r9.N8kP1eA_l_583414870_R","LocationType":"point","DisplayPosition":{"Latitude":48.5897837,"Longitude":4.8646169},"MapView":{"TopLeft":{"Latitude":48.58995,"Longitude":4.86448},"BottomRight":{"Latitude":48.58978,"Longitude":4.86462}},"Address":{"Label":"Rue de la Fontaine, 52290 Éclaron-Braucourt-Sainte-Livière, France","Country":"FRA","State":"Grand Est","County":"Haute-Marne","City":"Éclaron-Braucourt-Sainte-Livière","District":"Éclaron","Street":"Rue de la Fontaine","PostalCode":"52290","AdditionalData":[{"value":"France","key":"CountryName"},{"value":"Grand Est","key":"StateName"},{"value":"Haute-Marne","key":"CountyName"}]},"MapReference":{"ReferenceId":"583414870","Spot":0.02,"SideOfStreet":"right","CountryId":"20000001","StateId":"20002047","CountyId":"20018579","CityId":"20019011","DistrictId":"20019013"}}},{"Relevance":1.0,"Distance":37.9,"MatchLevel":"street","MatchQuality":{"Country":1.0,"State":1.0,"County":1.0,"City":1.0,"District":1.0,"Street":[1.0],"PostalCode":1.0},"Location":{"LocationId":"NT_hWzRKyphPxqUpmVvq84nsC_l_1081490292_L","LocationType":"point","DisplayPosition":{"Latitude":48.58999,"Longitude":4.86544},"MapView":{"TopLeft":{"Latitude":48.58999,"Longitude":4.86544},"BottomRight":{"Latitude":48.58983,"Longitude":4.86575}},"Address":{"Label":"Place Pelletier, 52290 Éclaron-Braucourt-Sainte-Livière, France","Country":"FRA","State":"Grand Est","County":"Haute-Marne","City":"Éclaron-Braucourt-Sainte-Livière","District":"Éclaron","Street":"Place Pelletier","PostalCode":"52290","AdditionalData":[{"value":"France","key":"CountryName"},{"value":"Grand Est","key":"StateName"},{"value":"Haute-Marne","key":"CountyName"}]},"MapReference":{"ReferenceId":"1081490292","Spot":1.0,"SideOfStreet":"left","CountryId":"20000001","StateId":"20002047","CountyId":"20018579","CityId":"20019011","DistrictId":"20019013"}}},{"Relevance":1.0,"Distance":45.0,"MatchLevel":"houseNumber","MatchQuality":{"Country":1.0,"State":1.0,"County":1.0,"City":1.0,"District":1.0,"Street":[1.0],"HouseNumber":1.0,"PostalCode":1.0},"MatchType":"interpolated","Location":{"LocationId":"NT_hWzRKyphPxqUpmVvq84nsC_0A","LocationType":"point","DisplayPosition":{"Latitude":48.59015,"Longitude":4.86552},"MapView":{"TopLeft":{"Latitude":48.5912742,"Longitude":4.8638204},"BottomRight":{"Latitude":48.5890258,"Longitude":4.8672196}},"Address":{"Label":"4 Place Pelletier, 52290 Éclaron-Braucourt-Sainte-Livière, France","Country":"FRA","State":"Grand Est","County":"Haute-Marne","City":"Éclaron-Braucourt-Sainte-Livière","District":"Éclaron","Street":"Place Pelletier","HouseNumber":"4","PostalCode":"52290","AdditionalData":[{"value":"France","key":"CountryName"},{"value":"Grand Est","key":"StateName"},{"value":"Haute-Marne","key":"CountyName"}]},"MapReference":{"ReferenceId":"1081490291","Spot":0.73,"SideOfStreet":"right","CountryId":"20000001","StateId":"20002047","CountyId":"20018579","CityId":"20019011","DistrictId":"20019013","AddressId":"570822845","RoadLinkId":"398817054"}}},{"Relevance":1.0,"Distance":48.7,"MatchLevel":"houseNumber","MatchQuality":{"Country":1.0,"State":1.0,"County":1.0,"City":1.0,"District":1.0,"Street":[1.0],"HouseNumber":1.0,"PostalCode":1.0},"MatchType":"interpolated","Location":{"LocationId":"NT_hWzRKyphPxqUpmVvq84nsC_yAD","LocationType":"point","DisplayPosition":{"Latitude":48.5904,"Longitude":4.86547},"MapView":{"TopLeft":{"Latitude":48.5915242,"Longitude":4.8637704},"BottomRight":{"Latitude":48.5892758,"Longitude":4.8671696}},"Address":{"Label":"20 Place Pelletier, 52290 Éclaron-Braucourt-Sainte-Livière, France","Country":"FRA","State":"Grand Est","County":"Haute-Marne","City":"Éclaron-Braucourt-Sainte-Livière","District":"Éclaron","Street":"Place Pelletier","HouseNumber":"20","PostalCode":"52290","AdditionalData":[{"value":"France","key":"CountryName"},{"value":"Grand Est","key":"StateName"},{"value":"Haute-Marne","key":"CountyName"}]},"MapReference":{"ReferenceId":"583414869","Spot":0.49,"SideOfStreet":"left","CountryId":"20000001","StateId":"20002047","CountyId":"20018579","CityId":"20019011","DistrictId":"20019013","AddressId":"316578341","RoadLinkId":"151838137"}}},{"Relevance":1.0,"Distance":53.4,"MatchLevel":"houseNumber","MatchQuality":{"Country":1.0,"State":1.0,"County":1.0,"City":1.0,"District":1.0,"Street":[1.0],"HouseNumber":1.0,"PostalCode":1.0},"MatchType":"interpolated","Location":{"LocationId":"NT_50k7WCPos.87r9.N8kP1eA_yIE","LocationType":"point","DisplayPosition":{"Latitude":48.59021,"Longitude":4.86425},"MapView":{"TopLeft":{"Latitude":48.5913342,"Longitude":4.8625504},"BottomRight":{"Latitude":48.5890858,"Longitude":4.8659496}},"Address":{"Label":"2B Rue de la Fontaine, 52290 Éclaron-Braucourt-Sainte-Livière, France","Country":"FRA","State":"Grand Est","County":"Haute-Marne","City":"Éclaron-Braucourt-Sainte-Livière","District":"Éclaron","Street":"Rue de la Fontaine","HouseNumber":"2B","PostalCode":"52290","AdditionalData":[{"value":"France","key":"CountryName"},{"value":"Grand Est","key":"StateName"},{"value":"Haute-Marne","key":"CountyName"}]},"MapReference":{"ReferenceId":"583414872","Spot":0.6,"SideOfStreet":"left","CountryId":"20000001","StateId":"20002047","CountyId":"20018579","CityId":"20019011","DistrictId":"20019013","AddressId":"570917166","RoadLinkId":"44709505"}}}]}]}}