{"Response":{"MetaInfo":{"Timestamp":"2020-03-28T09:48:45.447+0000","NextPageInformation":"2"},"View":[{"_type":"SearchResultsViewType","ViewId":0,"Result":[{"Relevance":1.0,"Distance":-4597.4,"MatchLevel":"landmark","MatchQuality":{"Country":1.0,"State":1.0,"Name":1.0},"Location":{"LocationId":"NT_YOD7Kqg6SlbaImqDXmHbwC","LocationType":"park","Name":"P.N.R. Normandie-Maine","DisplayPosition":{"Latitude":48.54226,"Longitude":-0.5309},"MapView":{"TopLeft":{"Latitude":48.70906,"Longitude":-0.95641},"BottomRight":{"Latitude":48.37545,"Longitude":0.43129}},"Address":{"Label":"France","Country":"FRA","State":"Normandie","AdditionalData":[{"value":"France","key":"CountryName"},{"value":"Normandie","key":"StateName"}]},"MapReference":{"CountryId":"20000001","StateId":"20057204","PlaceId":"1508061127"}}},{"Relevance":1.0,"Distance":0.0,"Direction":0.0,"MatchLevel":"city","MatchQuality":{"Country":1.0,"State":1.0,"County":1.0,"City":1.0,"PostalCode":1.0},"Location":{"LocationId":"NT_mu78VkFxge0M6DFfvUrswA","LocationType":"point","DisplayPosition":{"Latitude":48.5412614,"Longitude":0.2447656},"MapView":{"TopLeft":{"Latitude":48.56729,"Longitude":0.2142},"BottomRight":{"Latitude":48.51024,"Longitude":0.28}},"Address":{"Label":"Essay, Normandie, France","Country":"FRA","State":"Normandie","County":"Orne","City":"Essay","PostalCode":"61500","AdditionalData":[{"value":"France","key":"CountryName"},{"value":"Normandie","key":"StateName"},{"value":"Orne","key":"CountyName"}]},"MapReference":{"ReferenceId":"568411256","SideOfStreet":"neither","CountryId":"20000001","StateId":"20057204","CountyId":"20075162","CityId":"20075621"}}},{"Relevance":1.0,"Distance":8.7,"MatchLevel":"street","MatchQuality":{"Country":1.0,"State":1.0,"County":1.0,"City":1.0,"PostalCode":1.0},"Location":{"LocationId":"NT_Ovo9k4Ufzq77fc77d4KdcC_l_568411210_R","LocationType":"point","DisplayPosition":{"Latitude":48.5413139,"Longitude":0.2446787},"MapView":{"TopLeft":{"Latitude":48.54168,"Longitude":0.24247},"BottomRight":{"Latitude":48.5406,"Longitude":0.2449}},"Address":{"Label":"61500 Essay, France","Country":"FRA","State":"Normandie","County":"Orne","City":"Essay","PostalCode":"61500","AdditionalData":[{"value":"France","key":"CountryName"},{"value":"Normandie","key":"StateName"},{"value":"Orne","key":"CountyName"}]},"MapReference":{"ReferenceId":"568411210","Spot":0.86,"SideOfStreet":"right","CountryId":"20000001","StateId":"20057204","CountyId":"20075162","CityId":"20075621"}}},{"Relevance":1.0,"Distance":48.9,"MatchLevel":"houseNumber","MatchQuality":{"Country":1.0,"State":1.0,"County":1.0,"City":1.0,"Street":[1.0],"HouseNumber":1.0,"PostalCode":1.0},"MatchType":"interpolated","Location":{"LocationId":"NT_qkE8i3JypEbiKVKsOJBsFC_xUD","LocationType":"point","DisplayPosition":{"Latitude":48.5417,"Longitude":0.24481},"MapView":{"TopLeft":{"Latitude":48.5428242,"Longitude":0.2431121},"BottomRight":{"Latitude":48.5405758,"Longitude":0.2465079}},"Address":{"Label":"15 Rue Pierre-Louis Roederer, 61500 Essay, France","Country":"FRA","State":"Normandie","County":"Orne","City":"Essay","Street":"Rue Pierre-Louis Roederer","HouseNumber":"15","PostalCode":"61500","AdditionalData":[{"value":"France","key":"CountryName"},{"value":"Normandie","key":"StateName"},{"value":"Orne","key":"CountyName"}]},"MapReference":{"ReferenceId":"1048851360","Spot":0.63,"SideOfStreet":"right","CountryId":"20000001","StateId":"20057204","CountyId":"20075162","CityId":"20075621","AddressId":"570179372","RoadLinkId":"369013868"}}},{"Relevance":1.0,"Distance":48.9,"MatchLevel":"houseNumber","MatchQuality":{"Country":1.0,"State":1.0,"County":1.0,"City":1.0,"Street":[1.0],"HouseNumber":1.0,"PostalCode":1.0},"MatchType":"interpolated","Location":{"LocationId":"NT_qkE8i3JypEbiKVKsOJBsFC_xkD","LocationType":"point","DisplayPosition":{"Latitude":48.5416,"Longitude":0.24519},"MapView":{"TopLeft":{"Latitude":48.5427242,"Longitude":0.2434921},"BottomRight":{"Latitude":48.5404758,"Longitude":0.2468879}},"Address":{"Label":"19 Rue Pierre-Louis Roederer, 61500 Essay, France","Country":"FRA","State":"Normandie","County":"Orne","City":"Essay","Street":"Rue Pierre-Louis Roederer","HouseNumber":"19","PostalCode":"61500","AdditionalData":[{"value":"France","key":"CountryName"},{"value":"Normandie","key":"StateName"},{"value":"Orne","key":"CountyName"}]},"MapReference":{"ReferenceId":"1048851359","Spot":0.14,"SideOfStreet":"right","CountryId":"20000001","StateId":"20057204","CountyId":"20075162","CityId":"20075621","AddressId":"590265651","RoadLinkId":"369013867"}}},{"Relevance":1.0,"Distance":51.0,"MatchLevel":"street","MatchQuality":{"Country":1.0,"State":1.0,"County":1.0,"City":1.0,"Street":[1.0],"PostalCode":1.0},"Location":{"LocationId":"NT_cAI3ndOImFlzei6ZKBy9ID_l_1048851361_L","LocationType":"point","DisplayPosition":{"Latitude":48.54172,"Longitude":0.24476},"MapView":{"TopLeft":{"Latitude":48.54186,"Longitude":0.24426},"BottomRight":{"Latitude":48.54172,"Longitude":0.24476}},"Address":{"Label":"Rue Pierre-Louis Roederer, 61500 Essay, France","Country":"FRA","State":"Normandie","County":"Orne","City":"Essay","Street":"Rue Pierre-Louis Roederer","PostalCode":"61500","AdditionalData":[{"value":"France","key":"CountryName"},{"value":"Normandie","key":"StateName"},{"value":"Orne","key":"CountyName"}]},"MapReference":{"ReferenceId":"1048851361","Spot":0.0,"SideOfStreet":"left","CountryId":"20000001","StateId":"20057204","CountyId":"20075162","CityId":"20075621"}}},{"Relevance":1.0,"Distance":60.0,"MatchLevel":"houseNumber","MatchQuality":{"Country":1.0,"State":1.0,"County":1.0,"City":1.0,"Street":[1.0],"HouseNumber":1.0,"PostalCode":1.0},"MatchType":"interpolated","Location":{"LocationId":"NT_qkE8i3JypEbiKVKsOJBsFC_xID","LocationType":"point","DisplayPosition":{"Latitude":48.54148,"Longitude":0.24556},"MapView":{"TopLeft":{"Latitude":48.5426042,"Longitude":0.2438621},"BottomRight":{"Latitude":48.5403558,"Longitude":0.2472579}},"Address":{"Label":"12 Rue Pierre-Louis Roederer, 61500 Essay, France","Country":"FRA","State":"Normandie","County":"Orne","City":"Essay","Street":"Rue Pierre-Louis Roederer","HouseNumber":"12","PostalCode":"61500","AdditionalData":[{"value":"France","key":"CountryName"},{"value":"Normandie","key":"StateName"},{"value":"Orne","key":"CountyName"}]},"MapReference":{"ReferenceId":"1048851358","Spot":0.37,"SideOfStreet":"left","CountryId":"20000001","StateId":"20057204","CountyId":"20075162","CityId":"20075621","AddressId":"570107032","RoadLinkId":"369013866"}}},{"Relevance":1.0,"Distance":68.3,"MatchLevel":"street","MatchQuality":{"Country":1.0,"State":1.0,"County":1.0,"City":1.0,"Street":[1.0],"PostalCode":1.0},"Location":{"LocationId":"NT_Nm22CFpMlrse-S7vPbm1ID_l_568411211_L","LocationType":"point","DisplayPosition":{"Latitude":48.54131,"Longitude":0.24569},"MapView":{"TopLeft":{"Latitude":48.54142,"Longitude":0.24569},"BottomRight":{"Latitude":48.54112,"Longitude":0.24605}},"Address":{"Label":"Rue Roederer, 61500 Essay, France","Country":"FRA","State":"Normandie","County":"Orne","City":"Essay","Street":"Rue Roederer","PostalCode":"61500","AdditionalData":[{"value":"France","key":"CountryName"},{"value":"Normandie","key":"StateName"},{"value":"Orne","key":"CountyName"}]},"MapReference":{"ReferenceId":"568411211","Spot":0.76,"SideOfStreet":"left","CountryId":"20000001","StateId":"20057204","CountyId":"20075162","CityId":"20075621"}}},{"Relevance":1.0,"Distance":85.8,"MatchLevel":"houseNumber","MatchQuality":{"Country":1.0,"State":1.0,"County":1.0,"City":1.0,"Street":[1.0],"HouseNumber":1.0,"PostalCode":1.0},"MatchType":"interpolated","Location":{"LocationId":"NT_qkE8i3JypEbiKVKsOJBsFC_xMD","LocationType":"point","DisplayPosition":{"Latitude":48.54189,"Longitude":0.24409},"MapView":{"TopLeft":{"Latitude":48.5430142,"Longitude":0.2423921},"BottomRight":{"Latitude":48.5407658,"Longitude":0.2457879}},"Address":{"Label":"13 Rue Pierre-Louis Roederer, 61500 Essay, France","Country":"FRA","State":"Normandie","County":"Orne","City":"Essay","Street":"Rue Pierre-Louis Roederer","HouseNumber":"13","PostalCode":"61500","AdditionalData":[{"value":"France","key":"CountryName"},{"value":"Normandie","key":"StateName"},{"value":"Orne","key":"CountyName"}]},"MapReference":{"ReferenceId":"568411220","Spot":0.5,"SideOfStreet":"right","CountryId":"20000001","StateId":"20057204","CountyId":"20075162","CityId":"20075621","AddressId":"570144973","RoadLinkId":"46507232"}}},{"Relevance":1.0,"Distance":86.6,"MatchLevel":"houseNumber","MatchQuality":{"Country":1.0,"State":1.0,"County":1.0,"City":1.0,"Street":[1.0],"HouseNumber":1.0,"PostalCode":1.0},"MatchType":"interpolated","Location":{"LocationId":"NT_qkE8i3JypEbiKVKsOJBsFC_xQD","LocationType":"point","DisplayPosition":{"Latitude":48.54134,"Longitude":0.24595},"MapView":{"TopLeft":{"Latitude":48.5424642,"Longitude":0.2442521},"BottomRight":{"Latitude":48.5402158,"Longitude":0.2476479}},"Address":{"Label":"14 Rue Pierre-Louis Roederer, 61500 Essay, France","Country":"FRA","State":"Normandie","County":"Orne","City":"Essay","Street":"Rue Pierre-Louis Roederer","HouseNumber":"14","PostalCode":"61500","AdditionalData":[{"value":"France","key":"CountryName"},{"value":"Normandie","key":"StateName"},{"value":"Orne","key":"CountyName"}]},"MapReference":{"ReferenceId":"568411889","Spot":0.19,"SideOfStreet":"left","CountryId":"20000001","StateId":"20057204","CountyId":"20075162","CityId":"20075621","AddressId":"590233636","RoadLinkId":"46436082"}}}]}]}}