{"Response":{"MetaInfo":{"Timestamp":"2020-03-28T11:02:18.208+0000","NextPageInformation":"2"},"View":[{"_type":"SearchResultsViewType","ViewId":0,"Result":[{"Relevance":1.0,"Distance":0.0,"Direction":0.0,"MatchLevel":"district","MatchQuality":{"Country":1.0,"State":1.0,"County":1.0,"City":1.0,"District":1.0,"PostalCode":1.0},"Location":{"LocationId":"NT_vc.E6lOmiLbTyrA8PNSRED","LocationType":"point","DisplayPosition":{"Latitude":48.5309644,"Longitude":9.0595177},"MapView":{"TopLeft":{"Latitude":48.54445,"Longitude":9.02397},"BottomRight":{"Latitude":48.50522,"Longitude":9.09343}},"Address":{"Label":"Tübingen, Baden-Württemberg, Deutschland","Country":"DEU","State":"Baden-Württemberg","County":"Tübingen","City":"Tübingen","District":"Tübingen","PostalCode":"72070","AdditionalData":[{"value":"Deutschland","key":"CountryName"},{"value":"Baden-Württemberg","key":"StateName"},{"value":"Tübingen","key":"CountyName"}]},"MapReference":{"ReferenceId":"53205234","SideOfStreet":"neither","CountryId":"20147700","StateId":"20171489","CountyId":"20176004","CityId":"20176061","DistrictId":"20176072"}}},{"Relevance":1.0,"Distance":52.9,"MatchLevel":"houseNumber","MatchQuality":{"Country":1.0,"State":1.0,"County":1.0,"City":1.0,"District":1.0,"Street":[1.0],"HouseNumber":1.0,"PostalCode":1.0},"MatchType":"interpolated","Location":{"LocationId":"NT_tbKtg.TeLhCwOucDO57ckB_yYD","LocationType":"point","DisplayPosition":{"Latitude":48.53103,"Longitude":9.06111},"MapView":{"TopLeft":{"Latitude":48.5321542,"Longitude":9.0594124},"BottomRight":{"Latitude":48.5299058,"Longitude":9.0628076}},"Address":{"Label":"Paul-Lechler-Straße 26, 72076 Tübingen, Deutschland","Country":"DEU","State":"Baden-Württemberg","County":"Tübingen","City":"Tübingen","District":"Tübingen","Street":"Paul-Lechler-Straße","HouseNumber":"26","PostalCode":"72076","AdditionalData":[{"value":"Deutschland","key":"CountryName"},{"value":"Baden-Württemberg","key":"StateName"},{"value":"Tübingen","key":"CountyName"}]},"MapReference":{"ReferenceId":"1235362857","Spot":0.0,"SideOfStreet":"left","CountryId":"20147700","StateId":"20171489","CountyId":"20176004","CityId":"20176061","DistrictId":"20176072","AddressId":"790080063","RoadLinkId":"555850193"}}},{"Relevance":1.0,"Distance":58.5,"MatchLevel":"houseNumber","MatchQuality":{"Country":1.0,"State":1.0,"County":1.0,"City":1.0,"District":1.0,"Street":[1.0],"HouseNumber":1.0,"PostalCode":1.0},"MatchType":"interpolated","Location":{"LocationId":"NT_pIhcIWolQEZEGjMseiA8rC_1IzLxA","LocationType":"point","DisplayPosition":{"Latitude":48.53002,"Longitude":9.05876},"MapView":{"TopLeft":{"Latitude":48.5311442,"Longitude":9.0570625},"BottomRight":{"Latitude":48.5288958,"Longitude":9.0604575}},"Address":{"Label":"Mohlstraße 52/1, 72074 Tübingen, Deutschland","Country":"DEU","State":"Baden-Württemberg","County":"Tübingen","City":"Tübingen","District":"Tübingen","Street":"Mohlstraße","HouseNumber":"52/1","PostalCode":"72074","AdditionalData":[{"value":"Deutschland","key":"CountryName"},{"value":"Baden-Württemberg","key":"StateName"},{"value":"Tübingen","key":"CountyName"}]},"MapReference":{"ReferenceId":"53207551","Spot":0.93,"SideOfStreet":"right","CountryId":"20147700","StateId":"20171489","CountyId":"20176004","CityId":"20176061","DistrictId":"20176072","AddressId":"177993255","RoadLinkId":"38255223"}}},{"Relevance":1.0,"Distance":63.4,"MatchLevel":"houseNumber","MatchQuality":{"Country":1.0,"State":1.0,"County":1.0,"City":1.0,"District":1.0,"Street":[1.0],"HouseNumber":1.0,"PostalCode":1.0},"MatchType":"interpolated","Location":{"LocationId":"NT_pIhcIWolQEZEGjMseiA8rC_1QD","LocationType":"point","DisplayPosition":{"Latitude":48.53018,"Longitude":9.0584},"MapView":{"TopLeft":{"Latitude":48.5313042,"Longitude":9.0567025},"BottomRight":{"Latitude":48.5290558,"Longitude":9.0600975}},"Address":{"Label":"Mohlstraße 54, 72074 Tübingen, Deutschland","Country":"DEU","State":"Baden-Württemberg","County":"Tübingen","City":"Tübingen","District":"Tübingen","Street":"Mohlstraße","HouseNumber":"54","PostalCode":"72074","AdditionalData":[{"value":"Deutschland","key":"CountryName"},{"value":"Baden-Württemberg","key":"StateName"},{"value":"Tübingen","key":"CountyName"}]},"MapReference":{"ReferenceId":"53207894","Spot":0.11,"SideOfStreet":"right","CountryId":"20147700","StateId":"20171489","CountyId":"20176004","CityId":"20176061","DistrictId":"20176072","AddressId":"177322812","RoadLinkId":"38848795"}}},{"Relevance":1.0,"Distance":84.2,"MatchLevel":"houseNumber","MatchQuality":{"Country":1.0,"State":1.0,"County":1.0,"City":1.0,"District":1.0,"Street":[1.0],"HouseNumber":1.0,"PostalCode":1.0},"MatchType":"interpolated","Location":{"LocationId":"NT_xHZjSaTvS4zPCazbOvZFNB_0ID","LocationType":"point","DisplayPosition":{"Latitude":48.53225,"Longitude":9.05911},"MapView":{"TopLeft":{"Latitude":48.5333742,"Longitude":9.0574124},"BottomRight":{"Latitude":48.5311258,"Longitude":9.0608076}},"Address":{"Label":"Im Rotbad 42, 72076 Tübingen, Deutschland","Country":"DEU","State":"Baden-Württemberg","County":"Tübingen","City":"Tübingen","District":"Tübingen","Street":"Im Rotbad","HouseNumber":"42","PostalCode":"72076","AdditionalData":[{"value":"Deutschland","key":"CountryName"},{"value":"Baden-Württemberg","key":"StateName"},{"value":"Tübingen","key":"CountyName"}]},"MapReference":{"ReferenceId":"1235285787","Spot":0.76,"SideOfStreet":"right","CountryId":"20147700","StateId":"20171489","CountyId":"20176004","CityId":"20176061","DistrictId":"20176072","AddressId":"208719845","RoadLinkId":"555761622"}}},{"Relevance":1.0,"Distance":107.7,"MatchLevel":"houseNumber","MatchQuality":{"Country":1.0,"State":1.0,"County":1.0,"City":1.0,"District":1.0,"Street":[1.0],"HouseNumber":1.0,"PostalCode":1.0},"MatchType":"interpolated","Location":{"LocationId":"NT_tbKtg.TeLhCwOucDO57ckB_yQzLyA","LocationType":"point","DisplayPosition":{"Latitude":48.53154,"Longitude":9.06132},"MapView":{"TopLeft":{"Latitude":48.5326642,"Longitude":9.0596224},"BottomRight":{"Latitude":48.5304158,"Longitude":9.0630176}},"Address":{"Label":"Paul-Lechler-Straße 24/2, 72076 Tübingen, Deutschland","Country":"DEU","State":"Baden-Württemberg","County":"Tübingen","City":"Tübingen","District":"Tübingen","Street":"Paul-Lechler-Straße","HouseNumber":"24/2","PostalCode":"72076","AdditionalData":[{"value":"Deutschland","key":"CountryName"},{"value":"Baden-Württemberg","key":"StateName"},{"value":"Tübingen","key":"CountyName"}]},"MapReference":{"ReferenceId":"1235362858","Spot":0.59,"SideOfStreet":"left","CountryId":"20147700","StateId":"20171489","CountyId":"20176004","CityId":"20176061","DistrictId":"20176072","AddressId":"179715237","RoadLinkId":"555850194"}}},{"Relevance":1.0,"Distance":121.3,"MatchLevel":"houseNumber","MatchQuality":{"Country":1.0,"State":1.0,"County":1.0,"City":1.0,"District":1.0,"Street":[1.0],"HouseNumber":1.0,"PostalCode":1.0},"MatchType":"interpolated","Location":{"LocationId":"NT_tbKtg.TeLhCwOucDO57ckB_yQzLxA","LocationType":"point","DisplayPosition":{"Latitude":48.53202,"Longitude":9.061},"MapView":{"TopLeft":{"Latitude":48.5331442,"Longitude":9.0593024},"BottomRight":{"Latitude":48.5308958,"Longitude":9.0626976}},"Address":{"Label":"Paul-Lechler-Straße 24/1, 72076 Tübingen, Deutschland","Country":"DEU","State":"Baden-Württemberg","County":"Tübingen","City":"Tübingen","District":"Tübingen","Street":"Paul-Lechler-Straße","HouseNumber":"24/1","PostalCode":"72076","AdditionalData":[{"value":"Deutschland","key":"CountryName"},{"value":"Baden-Württemberg","key":"StateName"},{"value":"Tübingen","key":"CountyName"}]},"MapReference":{"ReferenceId":"53207896","Spot":0.5,"SideOfStreet":"left","CountryId":"20147700","StateId":"20171489","CountyId":"20176004","CityId":"20176061","DistrictId":"20176072","AddressId":"414563663","RoadLinkId":"38159502"}}},{"Relevance":1.0,"Distance":135.7,"MatchLevel":"street","MatchQuality":{"Country":1.0,"State":1.0,"County":1.0,"City":1.0,"District":1.0,"PostalCode":1.0},"Location":{"LocationId":"NT_kFRb-zNwlvVQk6aF5yuMkD_l_1235368447_L","LocationType":"point","DisplayPosition":{"Latitude":48.53138,"Longitude":9.06125},"MapView":{"TopLeft":{"Latitude":48.53138,"Longitude":9.06125},"BottomRight":{"Latitude":48.53126,"Longitude":9.06163}},"Address":{"Label":"72076 Tübingen, Deutschland","Country":"DEU","State":"Baden-Württemberg","County":"Tübingen","City":"Tübingen","District":"Tübingen","PostalCode":"72076","AdditionalData":[{"value":"Deutschland","key":"CountryName"},{"value":"Baden-Württemberg","key":"StateName"},{"value":"Tübingen","key":"CountyName"}]},"MapReference":{"ReferenceId":"1235368447","Spot":1.0,"SideOfStreet":"left","CountryId":"20147700","StateId":"20171489","CountyId":"20176004","CityId":"20176061","DistrictId":"20176072"}}},{"Relevance":1.0,"Distance":171.9,"MatchLevel":"houseNumber","MatchQuality":{"Country":1.0,"State":1.0,"County":1.0,"City":1.0,"District":1.0,"Street":[1.0],"HouseNumber":1.0,"PostalCode":1.0},"MatchType":"interpolated","Location":{"LocationId":"NT_4OsYSdqsqE7ZCiOOqRpYiA_xYD","LocationType":"point","DisplayPosition":{"Latitude":48.52943,"Longitude":9.05853},"MapView":{"TopLeft":{"Latitude":48.5305542,"Longitude":9.0568325},"BottomRight":{"Latitude":48.5283058,"Longitude":9.0602275}},"Address":{"Label":"Goethestraße 16, 72076 Tübingen, Deutschland","Country":"DEU","State":"Baden-Württemberg","County":"Tübingen","City":"Tübingen","District":"Tübingen","Street":"Goethestraße","HouseNumber":"16","PostalCode":"72076","AdditionalData":[{"value":"Deutschland","key":"CountryName"},{"value":"Baden-Württemberg","key":"StateName"},{"value":"Tübingen","key":"CountyName"}]},"MapReference":{"ReferenceId":"53204186","Spot":0.22,"SideOfStreet":"right","CountryId":"20147700","StateId":"20171489","CountyId":"20176004","CityId":"20176061","DistrictId":"20176072","AddressId":"178941687","RoadLinkId":"38761714"}}},{"Relevance":1.0,"Distance":174.5,"MatchLevel":"street","MatchQuality":{"Country":1.0,"State":1.0,"County":1.0,"City":1.0,"District":1.0,"PostalCode":1.0},"Location":{"LocationId":"NT_kFRb-zNwlvVQk6aF5yuMkD_l_1235285786_L","LocationType":"point","DisplayPosition":{"Latitude":48.53252,"Longitude":9.05983},"MapView":{"TopLeft":{"Latitude":48.53368,"Longitude":9.0587},"BottomRight":{"Latitude":48.53252,"Longitude":9.05983}},"Address":{"Label":"72076 Tübingen, Deutschland","Country":"DEU","State":"Baden-Württemberg","County":"Tübingen","City":"Tübingen","District":"Tübingen","PostalCode":"72076","AdditionalData":[{"value":"Deutschland","key":"CountryName"},{"value":"Baden-Württemberg","key":"StateName"},{"value":"Tübingen","key":"CountyName"}]},"MapReference":{"ReferenceId":"1235285786","Spot":0.0,"SideOfStreet":"left","CountryId":"20147700","StateId":"20171489","CountyId":"20176004","CityId":"20176061","DistrictId":"20176072"}}}]}]}}