{"Response":{"MetaInfo":{"Timestamp":"2020-03-28T11:50:29.511+0000","NextPageInformation":"2"},"View":[{"_type":"SearchResultsViewType","ViewId":0,"Result":[{"Relevance":1.0,"Distance":0.0,"Direction":0.0,"MatchLevel":"city","MatchQuality":{"Country":1.0,"State":1.0,"County":1.0,"City":1.0,"PostalCode":1.0},"Location":{"LocationId":"NT_K1RagN0csOxM2-wTrt0rAD","LocationType":"point","DisplayPosition":{"Latitude":48.510957,"Longitude":-4.068361},"MapView":{"TopLeft":{"Latitude":48.53841,"Longitude":-4.10175},"BottomRight":{"Latitude":48.49427,"Longitude":-4.02159}},"Address":{"Label":"Landivisiau, Bretagne, France","Country":"FRA","State":"Bretagne","County":"Finistère","City":"Landivisiau","PostalCode":"29400","AdditionalData":[{"value":"France","key":"CountryName"},{"value":"Bretagne","key":"StateName"},{"value":"Finistère","key":"CountyName"}]},"MapReference":{"ReferenceId":"557989425","SideOfStreet":"neither","CountryId":"20000001","StateId":"20060199","CountyId":"20064592","CityId":"20064896"}}},{"Relevance":1.0,"Distance":4.5,"MatchLevel":"houseNumber","MatchQuality":{"Country":1.0,"State":1.0,"County":1.0,"City":1.0,"Street":[1.0],"HouseNumber":1.0,"PostalCode":1.0},"MatchType":"interpolated","Location":{"LocationId":"NT_LnIyTHGFMXsIpBKSyEytzA_xUD","LocationType":"point","DisplayPosition":{"Latitude":48.5109,"Longitude":-4.06828},"MapView":{"TopLeft":{"Latitude":48.5120242,"Longitude":-4.0699769},"BottomRight":{"Latitude":48.5097758,"Longitude":-4.0665831}},"Address":{"Label":"15 Avenue du Maréchal Foch, 29400 Landivisiau, France","Country":"FRA","State":"Bretagne","County":"Finistère","City":"Landivisiau","Street":"Avenue du Maréchal Foch","HouseNumber":"15","PostalCode":"29400","AdditionalData":[{"value":"France","key":"CountryName"},{"value":"Bretagne","key":"StateName"},{"value":"Finistère","key":"CountyName"}]},"MapReference":{"ReferenceId":"557983177","Spot":0.11,"SideOfStreet":"left","CountryId":"20000001","StateId":"20060199","CountyId":"20064592","CityId":"20064896","AddressId":"320378998","RoadLinkId":"47294642"}}},{"Relevance":1.0,"Distance":6.5,"MatchLevel":"houseNumber","MatchQuality":{"Country":1.0,"State":1.0,"County":1.0,"City":1.0,"Street":[1.0],"HouseNumber":1.0,"PostalCode":1.0},"MatchType":"interpolated","Location":{"LocationId":"NT_LnIyTHGFMXsIpBKSyEytzA_xMD","LocationType":"point","DisplayPosition":{"Latitude":48.51086,"Longitude":-4.06841},"MapView":{"TopLeft":{"Latitude":48.5119842,"Longitude":-4.0701069},"BottomRight":{"Latitude":48.5097358,"Longitude":-4.0667131}},"Address":{"Label":"13 Avenue du Maréchal Foch, 29400 Landivisiau, France","Country":"FRA","State":"Bretagne","County":"Finistère","City":"Landivisiau","Street":"Avenue du Maréchal Foch","HouseNumber":"13","PostalCode":"29400","AdditionalData":[{"value":"France","key":"CountryName"},{"value":"Bretagne","key":"StateName"},{"value":"Finistère","key":"CountyName"}]},"MapReference":{"ReferenceId":"557989426","Spot":0.89,"SideOfStreet":"left","CountryId":"20000001","StateId":"20060199","CountyId":"20064592","CityId":"20064896","AddressId":"570430410","RoadLinkId":"47643336"}}},{"Relevance":1.0,"Distance":9.9,"MatchLevel":"street","MatchQuality":{"Country":1.0,"State":1.0,"County":1.0,"City":1.0,"Street":[1.0],"PostalCode":1.0},"Location":{"LocationId":"NT_bPGiUveNUB8fxnHLYU5CUC_l_551980277_R","LocationType":"point","DisplayPosition":{"Latitude":48.51087,"Longitude":-4.06839},"MapView":{"TopLeft":{"Latitude":48.51087,"Longitude":-4.06839},"BottomRight":{"Latitude":48.51066,"Longitude":-4.06828}},"Address":{"Label":"Avenue Jeanne d'Arc, 29400 Landivisiau, France","Country":"FRA","State":"Bretagne","County":"Finistère","City":"Landivisiau","Street":"Avenue Jeanne d'Arc","PostalCode":"29400","AdditionalData":[{"value":"France","key":"CountryName"},{"value":"Bretagne","key":"StateName"},{"value":"Finistère","key":"CountyName"}]},"MapReference":{"ReferenceId":"551980277","Spot":1.0,"SideOfStreet":"right","CountryId":"20000001","StateId":"20060199","CountyId":"20064592","CityId":"20064896"}}},{"Relevance":1.0,"Distance":23.0,"MatchLevel":"street","MatchQuality":{"Country":1.0,"State":1.0,"County":1.0,"City":1.0,"Street":[1.0],"PostalCode":1.0},"Location":{"LocationId":"NT_n4iW4mrJ36Le8S0ccVQZpA_l_557989428_R","LocationType":"point","DisplayPosition":{"Latitude":48.51081,"Longitude":-4.06858},"MapView":{"TopLeft":{"Latitude":48.51081,"Longitude":-4.06858},"BottomRight":{"Latitude":48.50984,"Longitude":-4.06813}},"Address":{"Label":"Place Jeanne d'Arc, 29400 Landivisiau, France","Country":"FRA","State":"Bretagne","County":"Finistère","City":"Landivisiau","Street":"Place Jeanne d'Arc","PostalCode":"29400","AdditionalData":[{"value":"France","key":"CountryName"},{"value":"Bretagne","key":"StateName"},{"value":"Finistère","key":"CountyName"}]},"MapReference":{"ReferenceId":"557989428","Spot":1.0,"SideOfStreet":"right","CountryId":"20000001","StateId":"20060199","CountyId":"20064592","CityId":"20064896"}}},{"Relevance":1.0,"Distance":24.4,"MatchLevel":"houseNumber","MatchQuality":{"Country":1.0,"State":1.0,"County":1.0,"City":1.0,"Street":[1.0],"HouseNumber":1.0,"PostalCode":1.0},"MatchType":"interpolated","Location":{"LocationId":"NT_LnIyTHGFMXsIpBKSyEytzA_xED","LocationType":"point","DisplayPosition":{"Latitude":48.51079,"Longitude":-4.06863},"MapView":{"TopLeft":{"Latitude":48.5119142,"Longitude":-4.0703269},"BottomRight":{"Latitude":48.5096658,"Longitude":-4.0669331}},"Address":{"Label":"11 Avenue du Maréchal Foch, 29400 Landivisiau, France","Country":"FRA","State":"Bretagne","County":"Finistère","City":"Landivisiau","Street":"Avenue du Maréchal Foch","HouseNumber":"11","PostalCode":"29400","AdditionalData":[{"value":"France","key":"CountryName"},{"value":"Bretagne","key":"StateName"},{"value":"Finistère","key":"CountyName"}]},"MapReference":{"ReferenceId":"557989425","Spot":0.79,"SideOfStreet":"left","CountryId":"20000001","StateId":"20060199","CountyId":"20064592","CityId":"20064896","AddressId":"320305236","RoadLinkId":"46352942"}}},{"Relevance":1.0,"Distance":33.6,"MatchLevel":"street","MatchQuality":{"Country":1.0,"State":1.0,"County":1.0,"City":1.0,"Street":[1.0],"PostalCode":1.0},"Location":{"LocationId":"NT_VzfB.T.wAq9C9dTkruupnD_l_557989424_R","LocationType":"point","DisplayPosition":{"Latitude":48.51066,"Longitude":-4.06828},"MapView":{"TopLeft":{"Latitude":48.51066,"Longitude":-4.06828},"BottomRight":{"Latitude":48.50989,"Longitude":-4.06787}},"Address":{"Label":"Avenue Jeanne d'Arc, 29400 Landivisiau, France","Country":"FRA","State":"Bretagne","County":"Finistère","City":"Landivisiau","Street":"Avenue Jeanne d'Arc","PostalCode":"29400","AdditionalData":[{"value":"France","key":"CountryName"},{"value":"Bretagne","key":"StateName"},{"value":"Finistère","key":"CountyName"}]},"MapReference":{"ReferenceId":"557989424","Spot":1.0,"SideOfStreet":"right","CountryId":"20000001","StateId":"20060199","CountyId":"20064592","CityId":"20064896"}}},{"Relevance":1.0,"Distance":35.9,"MatchLevel":"houseNumber","MatchQuality":{"Country":1.0,"State":1.0,"County":1.0,"City":1.0,"Street":[1.0],"HouseNumber":1.0,"PostalCode":1.0},"MatchType":"interpolated","Location":{"LocationId":"NT_pxr0TMYEBUn9xrFkZ9SUpA_2A","LocationType":"point","DisplayPosition":{"Latitude":48.51084,"Longitude":-4.06921},"MapView":{"TopLeft":{"Latitude":48.5119642,"Longitude":-4.0709069},"BottomRight":{"Latitude":48.5097158,"Longitude":-4.0675131}},"Address":{"Label":"6 Place Lyautey, 29400 Landivisiau, France","Country":"FRA","State":"Bretagne","County":"Finistère","City":"Landivisiau","Street":"Place Lyautey","HouseNumber":"6","PostalCode":"29400","AdditionalData":[{"value":"France","key":"CountryName"},{"value":"Bretagne","key":"StateName"},{"value":"Finistère","key":"CountyName"}]},"MapReference":{"ReferenceId":"557983182","Spot":0.3,"SideOfStreet":"right","CountryId":"20000001","StateId":"20060199","CountyId":"20064592","CityId":"20064896","AddressId":"590817403","RoadLinkId":"46706916"}}},{"Relevance":1.0,"Distance":50.8,"MatchLevel":"houseNumber","MatchQuality":{"Country":1.0,"State":1.0,"County":1.0,"City":1.0,"Street":[1.0],"HouseNumber":1.0,"PostalCode":1.0},"MatchType":"interpolated","Location":{"LocationId":"NT_LnIyTHGFMXsIpBKSyEytzA_3IE","LocationType":"point","DisplayPosition":{"Latitude":48.51069,"Longitude":-4.06892},"MapView":{"TopLeft":{"Latitude":48.5118142,"Longitude":-4.0706169},"BottomRight":{"Latitude":48.5095658,"Longitude":-4.0672231}},"Address":{"Label":"7B Avenue du Maréchal Foch, 29400 Landivisiau, France","Country":"FRA","State":"Bretagne","County":"Finistère","City":"Landivisiau","Street":"Avenue du Maréchal Foch","HouseNumber":"7B","PostalCode":"29400","AdditionalData":[{"value":"France","key":"CountryName"},{"value":"Bretagne","key":"StateName"},{"value":"Finistère","key":"CountyName"}]},"MapReference":{"ReferenceId":"557983181","Spot":0.62,"SideOfStreet":"left","CountryId":"20000001","StateId":"20060199","CountyId":"20064592","CityId":"20064896","AddressId":"320516174","RoadLinkId":"46640208"}}},{"Relevance":1.0,"Distance":60.8,"MatchLevel":"houseNumber","MatchQuality":{"Country":1.0,"State":1.0,"County":1.0,"City":1.0,"Street":[1.0],"HouseNumber":1.0,"PostalCode":1.0},"MatchType":"interpolated","Location":{"LocationId":"NT_C3ru3Ild8lauBV.W3F4yMC_1A","LocationType":"point","DisplayPosition":{"Latitude":48.51076,"Longitude":-4.06755},"MapView":{"TopLeft":{"Latitude":48.5118842,"Longitude":-4.0692469},"BottomRight":{"Latitude":48.5096358,"Longitude":-4.0658531}},"Address":{"Label":"5 Rue du Château d'Eau, 29400 Landivisiau, France","Country":"FRA","State":"Bretagne","County":"Finistère","City":"Landivisiau","Street":"Rue du Château d'Eau","HouseNumber":"5","PostalCode":"29400","AdditionalData":[{"value":"France","key":"CountryName"},{"value":"Bretagne","key":"StateName"},{"value":"Finistère","key":"CountyName"}]},"MapReference":{"ReferenceId":"557989735","Spot":0.31,"SideOfStreet":"left","CountryId":"20000001","StateId":"20060199","CountyId":"20064592","CityId":"20064896","AddressId":"320402796","RoadLinkId":"47333574"}}}]}]}}