{"Response":{"MetaInfo":{"Timestamp":"2020-03-28T11:40:33.481+0000","NextPageInformation":"2"},"View":[{"_type":"SearchResultsViewType","ViewId":0,"Result":[{"Relevance":1.0,"Distance":0.0,"Direction":0.0,"MatchLevel":"district","MatchQuality":{"Country":1.0,"State":1.0,"County":1.0,"City":1.0,"District":1.0,"PostalCode":1.0},"Location":{"LocationId":"NT_Umg4siHZbpx6f2Yvd7xeNA","LocationType":"point","DisplayPosition":{"Latitude":48.5562417,"Longitude":10.8521166},"MapView":{"TopLeft":{"Latitude":48.55768,"Longitude":10.84565},"BottomRight":{"Latitude":48.53643,"Longitude":10.8661}},"Address":{"Label":"Meitingen, Bayern, Deutschland","Country":"DEU","State":"Bayern","County":"Augsburg (Landkreis)","City":"Meitingen","District":"Meitingen","PostalCode":"86405","AdditionalData":[{"value":"Deutschland","key":"CountryName"},{"value":"Bayern","key":"StateName"},{"value":"Augsburg (Landkreis)","key":"CountyName"}]},"MapReference":{"ReferenceId":"83556793","SideOfStreet":"neither","CountryId":"20147700","StateId":"20177250","CountyId":"20185460","CityId":"20185600","DistrictId":"20185602"}}},{"Relevance":1.0,"Distance":1.9,"MatchLevel":"street","MatchQuality":{"Country":1.0,"State":1.0,"County":1.0,"City":1.0,"District":1.0,"PostalCode":1.0},"Location":{"LocationId":"NT_m.IXGNVmMnQevfa0KYaOqA_l_1188366617_L","LocationType":"point","DisplayPosition":{"Latitude":48.5562252,"Longitude":10.8521207},"MapView":{"TopLeft":{"Latitude":48.55644,"Longitude":10.85103},"BottomRight":{"Latitude":48.55181,"Longitude":10.85274}},"Address":{"Label":"86405 Meitingen, Deutschland","Country":"DEU","State":"Bayern","County":"Augsburg (Landkreis)","City":"Meitingen","District":"Meitingen","PostalCode":"86405","AdditionalData":[{"value":"Deutschland","key":"CountryName"},{"value":"Bayern","key":"StateName"},{"value":"Augsburg (Landkreis)","key":"CountyName"}]},"MapReference":{"ReferenceId":"1188366617","Spot":0.89,"SideOfStreet":"neither","CountryId":"20147700","StateId":"20177250","CountyId":"20185460","CityId":"20185600","DistrictId":"20185602"}}},{"Relevance":1.0,"Distance":12.7,"MatchLevel":"houseNumber","MatchQuality":{"Country":1.0,"State":1.0,"County":1.0,"City":1.0,"District":1.0,"Street":[1.0],"HouseNumber":1.0,"PostalCode":1.0},"MatchType":"interpolated","Location":{"LocationId":"NT_SovEnR21qEGjATjt-eEEkA_0EE","LocationType":"point","DisplayPosition":{"Latitude":48.5564,"Longitude":10.85224},"MapView":{"TopLeft":{"Latitude":48.5575242,"Longitude":10.8505416},"BottomRight":{"Latitude":48.5552758,"Longitude":10.8539384}},"Address":{"Label":"Via Claudia 4A, 86405 Meitingen, Deutschland","Country":"DEU","State":"Bayern","County":"Augsburg (Landkreis)","City":"Meitingen","District":"Meitingen","Street":"Via Claudia","HouseNumber":"4A","PostalCode":"86405","AdditionalData":[{"value":"Deutschland","key":"CountryName"},{"value":"Bayern","key":"StateName"},{"value":"Augsburg (Landkreis)","key":"CountyName"}]},"MapReference":{"ReferenceId":"1201312912","Spot":0.64,"SideOfStreet":"right","CountryId":"20147700","StateId":"20177250","CountyId":"20185460","CityId":"20185600","DistrictId":"20185602","AddressId":"621748745","RoadLinkId":"513834800"}}},{"Relevance":1.0,"Distance":17.3,"MatchLevel":"landmark","MatchQuality":{"Country":1.0,"State":1.0,"County":1.0,"City":1.0,"District":1.0,"PostalCode":1.0,"Name":1.0},"Location":{"LocationId":"NT_dNY1Z9tPqL.CTeZXxo9MfD","LocationType":"industrialComplex","Name":"Gewerbegebiet Meitingen-Nord","DisplayPosition":{"Latitude":48.55688,"Longitude":10.85212},"MapView":{"TopLeft":{"Latitude":48.55768,"Longitude":10.85082},"BottomRight":{"Latitude":48.55609,"Longitude":10.85341}},"Address":{"Label":"86405 Meitingen, Deutschland","Country":"DEU","State":"Bayern","County":"Augsburg (Landkreis)","City":"Meitingen","District":"Meitingen","PostalCode":"86405","AdditionalData":[{"value":"Deutschland","key":"CountryName"},{"value":"Bayern","key":"StateName"},{"value":"Augsburg (Landkreis)","key":"CountyName"}]},"MapReference":{"CountryId":"20147700","StateId":"20177250","CountyId":"20185460","CityId":"20185600","DistrictId":"20185602","PlaceId":"1410182031"}}},{"Relevance":1.0,"Distance":21.9,"MatchLevel":"street","MatchQuality":{"Country":1.0,"State":1.0,"County":1.0,"City":1.0,"District":1.0,"Street":[1.0],"PostalCode":1.0},"Location":{"LocationId":"NT_SovEnR21qEGjATjt-eEEkA_l_1201312850_R","LocationType":"point","DisplayPosition":{"Latitude":48.55639,"Longitude":10.85192},"MapView":{"TopLeft":{"Latitude":48.55639,"Longitude":10.85136},"BottomRight":{"Latitude":48.55632,"Longitude":10.85192}},"Address":{"Label":"Via Claudia, 86405 Meitingen, Deutschland","Country":"DEU","State":"Bayern","County":"Augsburg (Landkreis)","City":"Meitingen","District":"Meitingen","Street":"Via Claudia","PostalCode":"86405","AdditionalData":[{"value":"Deutschland","key":"CountryName"},{"value":"Bayern","key":"StateName"},{"value":"Augsburg (Landkreis)","key":"CountyName"}]},"MapReference":{"ReferenceId":"1201312850","Spot":1.0,"SideOfStreet":"right","CountryId":"20147700","StateId":"20177250","CountyId":"20185460","CityId":"20185600","DistrictId":"20185602"}}},{"Relevance":1.0,"Distance":31.1,"MatchLevel":"houseNumber","MatchQuality":{"Country":1.0,"State":1.0,"County":1.0,"City":1.0,"District":1.0,"Street":[1.0],"HouseNumber":1.0,"PostalCode":1.0},"MatchType":"interpolated","Location":{"LocationId":"NT_SovEnR21qEGjATjt-eEEkA_2A","LocationType":"point","DisplayPosition":{"Latitude":48.55642,"Longitude":10.85251},"MapView":{"TopLeft":{"Latitude":48.5575442,"Longitude":10.8508116},"BottomRight":{"Latitude":48.5552958,"Longitude":10.8542084}},"Address":{"Label":"Via Claudia 6, 86405 Meitingen, Deutschland","Country":"DEU","State":"Bayern","County":"Augsburg (Landkreis)","City":"Meitingen","District":"Meitingen","Street":"Via Claudia","HouseNumber":"6","PostalCode":"86405","AdditionalData":[{"value":"Deutschland","key":"CountryName"},{"value":"Bayern","key":"StateName"},{"value":"Augsburg (Landkreis)","key":"CountyName"}]},"MapReference":{"ReferenceId":"1201312913","Spot":0.28,"SideOfStreet":"right","CountryId":"20147700","StateId":"20177250","CountyId":"20185460","CityId":"20185600","DistrictId":"20185602","AddressId":"621748744","RoadLinkId":"513834801"}}},{"Relevance":1.0,"Distance":50.9,"MatchLevel":"houseNumber","MatchQuality":{"Country":1.0,"State":1.0,"County":1.0,"City":1.0,"District":1.0,"Street":[1.0],"HouseNumber":1.0,"PostalCode":1.0},"MatchType":"interpolated","Location":{"LocationId":"NT_SovEnR21qEGjATjt-eEEkA_4A","LocationType":"point","DisplayPosition":{"Latitude":48.55644,"Longitude":10.85274},"MapView":{"TopLeft":{"Latitude":48.5575642,"Longitude":10.8510416},"BottomRight":{"Latitude":48.5553158,"Longitude":10.8544384}},"Address":{"Label":"Via Claudia 8, 86405 Meitingen, Deutschland","Country":"DEU","State":"Bayern","County":"Augsburg (Landkreis)","City":"Meitingen","District":"Meitingen","Street":"Via Claudia","HouseNumber":"8","PostalCode":"86405","AdditionalData":[{"value":"Deutschland","key":"CountryName"},{"value":"Bayern","key":"StateName"},{"value":"Augsburg (Landkreis)","key":"CountyName"}]},"MapReference":{"ReferenceId":"1198989693","Spot":0.0,"SideOfStreet":"right","CountryId":"20147700","StateId":"20177250","CountyId":"20185460","CityId":"20185600","DistrictId":"20185602","AddressId":"621748746","RoadLinkId":"510553603"}}},{"Relevance":1.0,"Distance":54.0,"MatchLevel":"houseNumber","MatchQuality":{"Country":1.0,"State":1.0,"County":1.0,"City":1.0,"District":1.0,"Street":[1.0],"HouseNumber":1.0,"PostalCode":1.0},"MatchType":"interpolated","Location":{"LocationId":"NT_SovEnR21qEGjATjt-eEEkA_yA","LocationType":"point","DisplayPosition":{"Latitude":48.55631,"Longitude":10.85133},"MapView":{"TopLeft":{"Latitude":48.5574342,"Longitude":10.8496316},"BottomRight":{"Latitude":48.5551858,"Longitude":10.8530284}},"Address":{"Label":"Via Claudia 2, 86405 Meitingen, Deutschland","Country":"DEU","State":"Bayern","County":"Augsburg (Landkreis)","City":"Meitingen","District":"Meitingen","Street":"Via Claudia","HouseNumber":"2","PostalCode":"86405","AdditionalData":[{"value":"Deutschland","key":"CountryName"},{"value":"Bayern","key":"StateName"},{"value":"Augsburg (Landkreis)","key":"CountyName"}]},"MapReference":{"ReferenceId":"1201312849","Spot":0.94,"SideOfStreet":"right","CountryId":"20147700","StateId":"20177250","CountyId":"20185460","CityId":"20185600","DistrictId":"20185602","AddressId":"182176270","RoadLinkId":"513834714"}}},{"Relevance":1.0,"Distance":60.4,"MatchLevel":"houseNumber","MatchQuality":{"Country":1.0,"State":1.0,"County":1.0,"City":1.0,"District":1.0,"Street":[1.0],"HouseNumber":1.0,"PostalCode":1.0},"MatchType":"interpolated","Location":{"LocationId":"NT_SovEnR21qEGjATjt-eEEkA_xA","LocationType":"point","DisplayPosition":{"Latitude":48.55676,"Longitude":10.85187},"MapView":{"TopLeft":{"Latitude":48.5578842,"Longitude":10.8501716},"BottomRight":{"Latitude":48.5556358,"Longitude":10.8535684}},"Address":{"Label":"Via Claudia 1, 86405 Meitingen, Deutschland","Country":"DEU","State":"Bayern","County":"Augsburg (Landkreis)","City":"Meitingen","District":"Meitingen","Street":"Via Claudia","HouseNumber":"1","PostalCode":"86405","AdditionalData":[{"value":"Deutschland","key":"CountryName"},{"value":"Bayern","key":"StateName"},{"value":"Augsburg (Landkreis)","key":"CountyName"}]},"MapReference":{"ReferenceId":"576268231","Spot":1.0,"SideOfStreet":"left","CountryId":"20147700","StateId":"20177250","CountyId":"20185460","CityId":"20185600","DistrictId":"20185602","AddressId":"185498795","RoadLinkId":"145608278"}}},{"Relevance":1.0,"Distance":91.1,"MatchLevel":"street","MatchQuality":{"Country":1.0,"State":1.0,"County":1.0,"City":1.0,"District":1.0,"Street":[1.0],"PostalCode":1.0},"Location":{"LocationId":"NT_mfLpMmfQ3HtKfqXhGaModC_l_1209978909_R","LocationType":"point","DisplayPosition":{"Latitude":48.55609,"Longitude":10.8509},"MapView":{"TopLeft":{"Latitude":48.55609,"Longitude":10.85086},"BottomRight":{"Latitude":48.55605,"Longitude":10.8509}},"Address":{"Label":"Via Claudia, 86405 Meitingen, Deutschland","Country":"DEU","State":"Bayern","County":"Augsburg (Landkreis)","City":"Meitingen","District":"Meitingen","Street":"Via Claudia","PostalCode":"86405","AdditionalData":[{"value":"Deutschland","key":"CountryName"},{"value":"Bayern","key":"StateName"},{"value":"Augsburg (Landkreis)","key":"CountyName"}]},"MapReference":{"ReferenceId":"1209978909","Spot":1.0,"SideOfStreet":"right","CountryId":"20147700","StateId":"20177250","CountyId":"20185460","CityId":"20185600","DistrictId":"20185602"}}}]}]}}