{"Response":{"MetaInfo":{"Timestamp":"2020-03-28T10:59:41.873+0000","NextPageInformation":"2"},"View":[{"_type":"SearchResultsViewType","ViewId":0,"Result":[{"Relevance":1.0,"Distance":0.0,"Direction":0.0,"MatchLevel":"district","MatchQuality":{"Country":1.0,"State":1.0,"County":1.0,"City":1.0,"District":1.0,"PostalCode":1.0},"Location":{"LocationId":"NT_7MCzIWILSt1BkE6Z0WXPWB","LocationType":"point","DisplayPosition":{"Latitude":48.5972378,"Longitude":9.7913286},"MapView":{"TopLeft":{"Latitude":48.6067,"Longitude":9.78714},"BottomRight":{"Latitude":48.59625,"Longitude":9.80538}},"Address":{"Label":"Bad Überkingen, Baden-Württemberg, Deutschland","Country":"DEU","State":"Baden-Württemberg","County":"Göppingen","City":"Bad Überkingen","District":"Bad Überkingen","PostalCode":"73337","AdditionalData":[{"value":"Deutschland","key":"CountryName"},{"value":"Baden-Württemberg","key":"StateName"},{"value":"Göppingen","key":"CountyName"}]},"MapReference":{"ReferenceId":"72932649","SideOfStreet":"neither","CountryId":"20147700","StateId":"20171489","CountyId":"20171802","CityId":"20171817","DistrictId":"20171822"}}},{"Relevance":1.0,"Distance":36.8,"MatchLevel":"houseNumber","MatchQuality":{"Country":1.0,"State":1.0,"County":1.0,"City":1.0,"District":1.0,"Street":[1.0],"HouseNumber":1.0,"PostalCode":1.0},"MatchType":"interpolated","Location":{"LocationId":"NT_fn.EcJYi0WIsVdtFviNF3C_3A","LocationType":"point","DisplayPosition":{"Latitude":48.59752,"Longitude":9.79176},"MapView":{"TopLeft":{"Latitude":48.5986442,"Longitude":9.7900602},"BottomRight":{"Latitude":48.5963958,"Longitude":9.7934598}},"Address":{"Label":"Elly-Heuss-Knapp-Weg 7, 73337 Bad Überkingen, Deutschland","Country":"DEU","State":"Baden-Württemberg","County":"Göppingen","City":"Bad Überkingen","District":"Bad Überkingen","Street":"Elly-Heuss-Knapp-Weg","HouseNumber":"7","PostalCode":"73337","AdditionalData":[{"value":"Deutschland","key":"CountryName"},{"value":"Baden-Württemberg","key":"StateName"},{"value":"Göppingen","key":"CountyName"}]},"MapReference":{"ReferenceId":"72932838","Spot":0.21,"SideOfStreet":"right","CountryId":"20147700","StateId":"20171489","CountyId":"20171802","CityId":"20171817","DistrictId":"20171822","AddressId":"178888911","RoadLinkId":"38621036"}}},{"Relevance":1.0,"Distance":61.9,"MatchLevel":"houseNumber","MatchQuality":{"Country":1.0,"State":1.0,"County":1.0,"City":1.0,"Street":[1.0],"HouseNumber":1.0,"PostalCode":1.0},"MatchType":"interpolated","Location":{"LocationId":"NT_eSFov0IludxRJPcWQevWZB_xA","LocationType":"point","DisplayPosition":{"Latitude":48.59711,"Longitude":9.79051},"MapView":{"TopLeft":{"Latitude":48.5982342,"Longitude":9.7888102},"BottomRight":{"Latitude":48.5959858,"Longitude":9.7922098}},"Address":{"Label":"Im Ried 1, 73337 Bad Überkingen, Deutschland","Country":"DEU","State":"Baden-Württemberg","County":"Göppingen","City":"Bad Überkingen","Street":"Im Ried","HouseNumber":"1","PostalCode":"73337","AdditionalData":[{"value":"Deutschland","key":"CountryName"},{"value":"Baden-Württemberg","key":"StateName"},{"value":"Göppingen","key":"CountyName"}]},"MapReference":{"ReferenceId":"773245709","Spot":0.17,"SideOfStreet":"left","CountryId":"20147700","StateId":"20171489","CountyId":"20171802","CityId":"20171817","AddressId":"177427786","RoadLinkId":"166917551"}}},{"Relevance":1.0,"Distance":81.0,"MatchLevel":"houseNumber","MatchQuality":{"Country":1.0,"State":1.0,"County":1.0,"City":1.0,"District":1.0,"Street":[1.0],"HouseNumber":1.0,"PostalCode":1.0},"MatchType":"interpolated","Location":{"LocationId":"NT_jDuu4XDlnf7SKyGiFpv5gA_xMD","LocationType":"point","DisplayPosition":{"Latitude":48.59789,"Longitude":9.79201},"MapView":{"TopLeft":{"Latitude":48.5990142,"Longitude":9.7903102},"BottomRight":{"Latitude":48.5967658,"Longitude":9.7937098}},"Address":{"Label":"In den Gassenäckern 13, 73337 Bad Überkingen, Deutschland","Country":"DEU","State":"Baden-Württemberg","County":"Göppingen","City":"Bad Überkingen","District":"Bad Überkingen","Street":"In den Gassenäckern","HouseNumber":"13","PostalCode":"73337","AdditionalData":[{"value":"Deutschland","key":"CountryName"},{"value":"Baden-Württemberg","key":"StateName"},{"value":"Göppingen","key":"CountyName"}]},"MapReference":{"ReferenceId":"72932853","Spot":0.09,"SideOfStreet":"right","CountryId":"20147700","StateId":"20171489","CountyId":"20171802","CityId":"20171817","DistrictId":"20171822","AddressId":"180150424","RoadLinkId":"38688868"}}},{"Relevance":1.0,"Distance":163.3,"MatchLevel":"houseNumber","MatchQuality":{"Country":1.0,"State":1.0,"County":1.0,"City":1.0,"District":1.0,"Street":[1.0],"HouseNumber":1.0,"PostalCode":1.0},"MatchType":"interpolated","Location":{"LocationId":"NT_GIi4RpjjBEat776mUkwPOB_zID","LocationType":"point","DisplayPosition":{"Latitude":48.59776,"Longitude":9.79357},"MapView":{"TopLeft":{"Latitude":48.5988842,"Longitude":9.7918702},"BottomRight":{"Latitude":48.5966358,"Longitude":9.7952698}},"Address":{"Label":"Aufhauser Straße 32, 73337 Bad Überkingen, Deutschland","Country":"DEU","State":"Baden-Württemberg","County":"Göppingen","City":"Bad Überkingen","District":"Bad Überkingen","Street":"Aufhauser Straße","HouseNumber":"32","PostalCode":"73337","AdditionalData":[{"value":"Deutschland","key":"CountryName"},{"value":"Baden-Württemberg","key":"StateName"},{"value":"Göppingen","key":"CountyName"}]},"MapReference":{"ReferenceId":"773199538","Spot":0.0,"SideOfStreet":"right","CountryId":"20147700","StateId":"20171489","CountyId":"20171802","CityId":"20171817","DistrictId":"20171822","AddressId":"208817693","RoadLinkId":"166832598"}}},{"Relevance":1.0,"Distance":172.3,"MatchLevel":"street","MatchQuality":{"Country":1.0,"State":1.0,"County":1.0,"City":1.0,"District":1.0,"PostalCode":1.0},"Location":{"LocationId":"NT_IFtJyl3P4HzbfL2hnmmquB_l_1254003587_R","LocationType":"point","DisplayPosition":{"Latitude":48.59869,"Longitude":9.79051},"MapView":{"TopLeft":{"Latitude":48.59874,"Longitude":9.79031},"BottomRight":{"Latitude":48.59867,"Longitude":9.79059}},"Address":{"Label":"73337 Bad Überkingen, Deutschland","Country":"DEU","State":"Baden-Württemberg","County":"Göppingen","City":"Bad Überkingen","District":"Bad Überkingen","PostalCode":"73337","AdditionalData":[{"value":"Deutschland","key":"CountryName"},{"value":"Baden-Württemberg","key":"StateName"},{"value":"Göppingen","key":"CountyName"}]},"MapReference":{"ReferenceId":"1254003587","Spot":0.68,"SideOfStreet":"right","CountryId":"20147700","StateId":"20171489","CountyId":"20171802","CityId":"20171817","DistrictId":"20171822"}}},{"Relevance":1.0,"Distance":173.3,"MatchLevel":"street","MatchQuality":{"Country":1.0,"State":1.0,"County":1.0,"City":1.0,"District":1.0,"Street":[1.0],"PostalCode":1.0},"Location":{"LocationId":"NT_fn.EcJYi0WIsVdtFviNF3C_l_773199536_L","LocationType":"point","DisplayPosition":{"Latitude":48.59754,"Longitude":9.79364},"MapView":{"TopLeft":{"Latitude":48.59778,"Longitude":9.79364},"BottomRight":{"Latitude":48.59754,"Longitude":9.79389}},"Address":{"Label":"Elly-Heuss-Knapp-Weg, 73337 Bad Überkingen, Deutschland","Country":"DEU","State":"Baden-Württemberg","County":"Göppingen","City":"Bad Überkingen","District":"Bad Überkingen","Street":"Elly-Heuss-Knapp-Weg","PostalCode":"73337","AdditionalData":[{"value":"Deutschland","key":"CountryName"},{"value":"Baden-Württemberg","key":"StateName"},{"value":"Göppingen","key":"CountyName"}]},"MapReference":{"ReferenceId":"773199536","Spot":0.0,"SideOfStreet":"left","CountryId":"20147700","StateId":"20171489","CountyId":"20171802","CityId":"20171817","DistrictId":"20171822"}}},{"Relevance":1.0,"Distance":173.3,"MatchLevel":"street","MatchQuality":{"Country":1.0,"State":1.0,"County":1.0,"City":1.0,"Street":[1.0],"PostalCode":1.0},"Location":{"LocationId":"NT_JyHkqP04dU0VJigYM6LV8A_l_773197853_L","LocationType":"point","DisplayPosition":{"Latitude":48.59754,"Longitude":9.79364},"MapView":{"TopLeft":{"Latitude":48.59754,"Longitude":9.79364},"BottomRight":{"Latitude":48.59561,"Longitude":9.79402}},"Address":{"Label":"Am Weihenbaum, 73337 Bad Überkingen, Deutschland","Country":"DEU","State":"Baden-Württemberg","County":"Göppingen","City":"Bad Überkingen","Street":"Am Weihenbaum","PostalCode":"73337","AdditionalData":[{"value":"Deutschland","key":"CountryName"},{"value":"Baden-Württemberg","key":"StateName"},{"value":"Göppingen","key":"CountyName"}]},"MapReference":{"ReferenceId":"773197853","Spot":1.0,"SideOfStreet":"left","CountryId":"20147700","StateId":"20171489","CountyId":"20171802","CityId":"20171817"}}},{"Relevance":1.0,"Distance":175.6,"MatchLevel":"street","MatchQuality":{"Country":1.0,"State":1.0,"County":1.0,"City":1.0,"District":1.0,"PostalCode":1.0},"Location":{"LocationId":"NT_IFtJyl3P4HzbfL2hnmmquB_l_1253899507_R","LocationType":"point","DisplayPosition":{"Latitude":48.59874,"Longitude":9.79059},"MapView":{"TopLeft":{"Latitude":48.59934,"Longitude":9.7904},"BottomRight":{"Latitude":48.59874,"Longitude":9.79062}},"Address":{"Label":"73337 Bad Überkingen, Deutschland","Country":"DEU","State":"Baden-Württemberg","County":"Göppingen","City":"Bad Überkingen","District":"Bad Überkingen","PostalCode":"73337","AdditionalData":[{"value":"Deutschland","key":"CountryName"},{"value":"Baden-Württemberg","key":"StateName"},{"value":"Göppingen","key":"CountyName"}]},"MapReference":{"ReferenceId":"1253899507","Spot":0.0,"SideOfStreet":"right","CountryId":"20147700","StateId":"20171489","CountyId":"20171802","CityId":"20171817","DistrictId":"20171822"}}},{"Relevance":1.0,"Distance":176.0,"MatchLevel":"street","MatchQuality":{"Country":1.0,"State":1.0,"County":1.0,"City":1.0,"District":1.0,"PostalCode":1.0},"Location":{"LocationId":"NT_IFtJyl3P4HzbfL2hnmmquB_l_1253900800_R","LocationType":"point","DisplayPosition":{"Latitude":48.59867,"Longitude":9.79031},"MapView":{"TopLeft":{"Latitude":48.59934,"Longitude":9.79031},"BottomRight":{"Latitude":48.59867,"Longitude":9.7904}},"Address":{"Label":"73337 Bad Überkingen, Deutschland","Country":"DEU","State":"Baden-Württemberg","County":"Göppingen","City":"Bad Überkingen","District":"Bad Überkingen","PostalCode":"73337","AdditionalData":[{"value":"Deutschland","key":"CountryName"},{"value":"Baden-Württemberg","key":"StateName"},{"value":"Göppingen","key":"CountyName"}]},"MapReference":{"ReferenceId":"1253900800","Spot":0.0,"SideOfStreet":"right","CountryId":"20147700","StateId":"20171489","CountyId":"20171802","CityId":"20171817","DistrictId":"20171822"}}}]}]}}