{"Response":{"MetaInfo":{"Timestamp":"2020-03-28T10:03:23.635+0000","NextPageInformation":"2"},"View":[{"_type":"SearchResultsViewType","ViewId":0,"Result":[{"Relevance":1.0,"Distance":0.0,"Direction":0.0,"MatchLevel":"district","MatchQuality":{"Country":1.0,"State":1.0,"County":1.0,"City":1.0,"District":1.0,"PostalCode":1.0},"Location":{"LocationId":"NT_3nU.s0c1RXZ9R1g9A1YFIC","LocationType":"point","DisplayPosition":{"Latitude":48.5132406,"Longitude":10.961916},"MapView":{"TopLeft":{"Latitude":48.52019,"Longitude":10.94411},"BottomRight":{"Latitude":48.50667,"Longitude":10.97222}},"Address":{"Label":"Aindling, Bayern, Deutschland","Country":"DEU","State":"Bayern","County":"Aichach-Friedberg","City":"Aindling","District":"Aindling","PostalCode":"86447","AdditionalData":[{"value":"Deutschland","key":"CountryName"},{"value":"Bayern","key":"StateName"},{"value":"Aichach-Friedberg","key":"CountyName"}]},"MapReference":{"ReferenceId":"832276262","SideOfStreet":"neither","CountryId":"20147700","StateId":"20177250","CountyId":"20185322","CityId":"20185346","DistrictId":"20185348"}}},{"Relevance":1.0,"Distance":11.4,"MatchLevel":"houseNumber","MatchQuality":{"Country":1.0,"State":1.0,"County":1.0,"City":1.0,"District":1.0,"Street":[1.0],"HouseNumber":1.0,"PostalCode":1.0},"MatchType":"interpolated","Location":{"LocationId":"NT_esuikkeinhrN6JEf6HGv8D_zA","LocationType":"point","DisplayPosition":{"Latitude":48.51311,"Longitude":10.96232},"MapView":{"TopLeft":{"Latitude":48.5142342,"Longitude":10.960623},"BottomRight":{"Latitude":48.5119858,"Longitude":10.964017}},"Address":{"Label":"Kronbergweg 3, 86447 Aindling, Deutschland","Country":"DEU","State":"Bayern","County":"Aichach-Friedberg","City":"Aindling","District":"Aindling","Street":"Kronbergweg","HouseNumber":"3","PostalCode":"86447","AdditionalData":[{"value":"Deutschland","key":"CountryName"},{"value":"Bayern","key":"StateName"},{"value":"Aichach-Friedberg","key":"CountyName"}]},"MapReference":{"ReferenceId":"554351995","Spot":0.63,"SideOfStreet":"left","CountryId":"20147700","StateId":"20177250","CountyId":"20185322","CityId":"20185346","DistrictId":"20185348","AddressId":"184816102","RoadLinkId":"32831393"}}},{"Relevance":1.0,"Distance":28.7,"MatchLevel":"houseNumber","MatchQuality":{"Country":1.0,"State":1.0,"County":1.0,"City":1.0,"District":1.0,"Street":[1.0],"HouseNumber":1.0,"PostalCode":1.0},"MatchType":"interpolated","Location":{"LocationId":"NT_Pk5F-GBSvAGllqgnEFmAhA_yUD","LocationType":"point","DisplayPosition":{"Latitude":48.51274,"Longitude":10.96153},"MapView":{"TopLeft":{"Latitude":48.5138642,"Longitude":10.959833},"BottomRight":{"Latitude":48.5116158,"Longitude":10.963227}},"Address":{"Label":"Peter-Sengl-Straße 25, 86447 Aindling, Deutschland","Country":"DEU","State":"Bayern","County":"Aichach-Friedberg","City":"Aindling","District":"Aindling","Street":"Peter-Sengl-Straße","HouseNumber":"25","PostalCode":"86447","AdditionalData":[{"value":"Deutschland","key":"CountryName"},{"value":"Bayern","key":"StateName"},{"value":"Aichach-Friedberg","key":"CountyName"}]},"MapReference":{"ReferenceId":"541673753","Spot":0.3,"SideOfStreet":"right","CountryId":"20147700","StateId":"20177250","CountyId":"20185322","CityId":"20185346","DistrictId":"20185348","AddressId":"185791402","RoadLinkId":"32977923"}}},{"Relevance":1.0,"Distance":31.8,"MatchLevel":"houseNumber","MatchQuality":{"Country":1.0,"State":1.0,"County":1.0,"City":1.0,"District":1.0,"Street":[1.0],"HouseNumber":1.0,"PostalCode":1.0},"MatchType":"interpolated","Location":{"LocationId":"NT_esuikkeinhrN6JEf6HGv8D_1EE","LocationType":"point","DisplayPosition":{"Latitude":48.51344,"Longitude":10.96237},"MapView":{"TopLeft":{"Latitude":48.5145642,"Longitude":10.960673},"BottomRight":{"Latitude":48.5123158,"Longitude":10.964067}},"Address":{"Label":"Kronbergweg 5A, 86447 Aindling, Deutschland","Country":"DEU","State":"Bayern","County":"Aichach-Friedberg","City":"Aindling","District":"Aindling","Street":"Kronbergweg","HouseNumber":"5A","PostalCode":"86447","AdditionalData":[{"value":"Deutschland","key":"CountryName"},{"value":"Bayern","key":"StateName"},{"value":"Aichach-Friedberg","key":"CountyName"}]},"MapReference":{"ReferenceId":"554351996","Spot":0.02,"SideOfStreet":"left","CountryId":"20147700","StateId":"20177250","CountyId":"20185322","CityId":"20185346","DistrictId":"20185348","AddressId":"621740494","RoadLinkId":"33001318"}}},{"Relevance":1.0,"Distance":67.8,"MatchLevel":"houseNumber","MatchQuality":{"Country":1.0,"State":1.0,"County":1.0,"City":1.0,"District":1.0,"Street":[1.0],"HouseNumber":1.0,"PostalCode":1.0},"MatchType":"interpolated","Location":{"LocationId":"NT_7tlwx3ZYxxnSdU3DBlEzhB_2A","LocationType":"point","DisplayPosition":{"Latitude":48.51402,"Longitude":10.96207},"MapView":{"TopLeft":{"Latitude":48.5151442,"Longitude":10.960373},"BottomRight":{"Latitude":48.5128958,"Longitude":10.963767}},"Address":{"Label":"Fichtenweg 6, 86447 Aindling, Deutschland","Country":"DEU","State":"Bayern","County":"Aichach-Friedberg","City":"Aindling","District":"Aindling","Street":"Fichtenweg","HouseNumber":"6","PostalCode":"86447","AdditionalData":[{"value":"Deutschland","key":"CountryName"},{"value":"Bayern","key":"StateName"},{"value":"Aichach-Friedberg","key":"CountyName"}]},"MapReference":{"ReferenceId":"719868015","Spot":0.91,"SideOfStreet":"left","CountryId":"20147700","StateId":"20177250","CountyId":"20185322","CityId":"20185346","DistrictId":"20185348","AddressId":"184331871","RoadLinkId":"124769342"}}},{"Relevance":1.0,"Distance":79.3,"MatchLevel":"houseNumber","MatchQuality":{"Country":1.0,"State":1.0,"County":1.0,"City":1.0,"District":1.0,"Street":[1.0],"HouseNumber":1.0,"PostalCode":1.0},"MatchType":"interpolated","Location":{"LocationId":"NT_Pk5F-GBSvAGllqgnEFmAhA_yYDIx8iM","LocationType":"point","DisplayPosition":{"Latitude":48.51258,"Longitude":10.96232},"MapView":{"TopLeft":{"Latitude":48.5137042,"Longitude":10.9606231},"BottomRight":{"Latitude":48.5114558,"Longitude":10.9640169}},"Address":{"Label":"Peter-Sengl-Straße 26 1/2, 86447 Aindling, Deutschland","Country":"DEU","State":"Bayern","County":"Aichach-Friedberg","City":"Aindling","District":"Aindling","Street":"Peter-Sengl-Straße","HouseNumber":"26 1/2","PostalCode":"86447","AdditionalData":[{"value":"Deutschland","key":"CountryName"},{"value":"Bayern","key":"StateName"},{"value":"Aichach-Friedberg","key":"CountyName"}]},"MapReference":{"ReferenceId":"554351992","Spot":0.46,"SideOfStreet":"left","CountryId":"20147700","StateId":"20177250","CountyId":"20185322","CityId":"20185346","DistrictId":"20185348","AddressId":"621740495","RoadLinkId":"32794218"}}},{"Relevance":1.0,"Distance":80.7,"MatchLevel":"houseNumber","MatchQuality":{"Country":1.0,"State":1.0,"County":1.0,"City":1.0,"District":1.0,"Street":[1.0],"HouseNumber":1.0,"PostalCode":1.0},"MatchType":"interpolated","Location":{"LocationId":"NT_esuikkeinhrN6JEf6HGv8D_4A","LocationType":"point","DisplayPosition":{"Latitude":48.51385,"Longitude":10.96251},"MapView":{"TopLeft":{"Latitude":48.5149742,"Longitude":10.960813},"BottomRight":{"Latitude":48.5127258,"Longitude":10.964207}},"Address":{"Label":"Kronbergweg 8, 86447 Aindling, Deutschland","Country":"DEU","State":"Bayern","County":"Aichach-Friedberg","City":"Aindling","District":"Aindling","Street":"Kronbergweg","HouseNumber":"8","PostalCode":"86447","AdditionalData":[{"value":"Deutschland","key":"CountryName"},{"value":"Bayern","key":"StateName"},{"value":"Aichach-Friedberg","key":"CountyName"}]},"MapReference":{"ReferenceId":"1157713341","Spot":0.02,"SideOfStreet":"right","CountryId":"20147700","StateId":"20177250","CountyId":"20185322","CityId":"20185346","DistrictId":"20185348","AddressId":"186021016","RoadLinkId":"464090730"}}},{"Relevance":1.0,"Distance":87.2,"MatchLevel":"houseNumber","MatchQuality":{"Country":1.0,"State":1.0,"County":1.0,"City":1.0,"District":1.0,"Street":[1.0],"HouseNumber":1.0,"PostalCode":1.0},"MatchType":"interpolated","Location":{"LocationId":"NT_SisM9uxZGyXbnmBIirAkbA_xID","LocationType":"point","DisplayPosition":{"Latitude":48.51404,"Longitude":10.96059},"MapView":{"TopLeft":{"Latitude":48.5151642,"Longitude":10.958893},"BottomRight":{"Latitude":48.5129158,"Longitude":10.962287}},"Address":{"Label":"Raiffeisenstraße 12, 86447 Aindling, Deutschland","Country":"DEU","State":"Bayern","County":"Aichach-Friedberg","City":"Aindling","District":"Aindling","Street":"Raiffeisenstraße","HouseNumber":"12","PostalCode":"86447","AdditionalData":[{"value":"Deutschland","key":"CountryName"},{"value":"Bayern","key":"StateName"},{"value":"Aichach-Friedberg","key":"CountyName"}]},"MapReference":{"ReferenceId":"541537343","Spot":0.89,"SideOfStreet":"right","CountryId":"20147700","StateId":"20177250","CountyId":"20185322","CityId":"20185346","DistrictId":"20185348","AddressId":"183404368","RoadLinkId":"32866673"}}},{"Relevance":1.0,"Distance":95.7,"MatchLevel":"houseNumber","MatchQuality":{"Country":1.0,"State":1.0,"County":1.0,"City":1.0,"District":1.0,"Street":[1.0],"HouseNumber":1.0,"PostalCode":1.0},"MatchType":"interpolated","Location":{"LocationId":"NT_7tlwx3ZYxxnSdU3DBlEzhB_3EE","LocationType":"point","DisplayPosition":{"Latitude":48.5141,"Longitude":10.96198},"MapView":{"TopLeft":{"Latitude":48.5152242,"Longitude":10.960283},"BottomRight":{"Latitude":48.5129758,"Longitude":10.963677}},"Address":{"Label":"Fichtenweg 7A, 86447 Aindling, Deutschland","Country":"DEU","State":"Bayern","County":"Aichach-Friedberg","City":"Aindling","District":"Aindling","Street":"Fichtenweg","HouseNumber":"7A","PostalCode":"86447","AdditionalData":[{"value":"Deutschland","key":"CountryName"},{"value":"Bayern","key":"StateName"},{"value":"Aichach-Friedberg","key":"CountyName"}]},"MapReference":{"ReferenceId":"719868016","Spot":0.09,"SideOfStreet":"right","CountryId":"20147700","StateId":"20177250","CountyId":"20185322","CityId":"20185346","DistrictId":"20185348","AddressId":"832826375","RoadLinkId":"124769343"}}},{"Relevance":1.0,"Distance":116.6,"MatchLevel":"houseNumber","MatchQuality":{"Country":1.0,"State":1.0,"County":1.0,"City":1.0,"District":1.0,"Street":[1.0],"HouseNumber":1.0,"PostalCode":1.0},"MatchType":"interpolated","Location":{"LocationId":"NT_SisM9uxZGyXbnmBIirAkbA_xQTQ","LocationType":"point","DisplayPosition":{"Latitude":48.51437,"Longitude":10.96093},"MapView":{"TopLeft":{"Latitude":48.5154942,"Longitude":10.959233},"BottomRight":{"Latitude":48.5132458,"Longitude":10.962627}},"Address":{"Label":"Raiffeisenstraße 14A, 86447 Aindling, Deutschland","Country":"DEU","State":"Bayern","County":"Aichach-Friedberg","City":"Aindling","District":"Aindling","Street":"Raiffeisenstraße","HouseNumber":"14A","PostalCode":"86447","AdditionalData":[{"value":"Deutschland","key":"CountryName"},{"value":"Bayern","key":"StateName"},{"value":"Aichach-Friedberg","key":"CountyName"}]},"MapReference":{"ReferenceId":"554351987","Spot":0.52,"SideOfStreet":"right","CountryId":"20147700","StateId":"20177250","CountyId":"20185322","CityId":"20185346","DistrictId":"20185348","AddressId":"184286642","RoadLinkId":"33511381"}}}]}]}}