{"Response":{"MetaInfo":{"Timestamp":"2020-03-28T11:52:19.217+0000","NextPageInformation":"2"},"View":[{"_type":"SearchResultsViewType","ViewId":0,"Result":[{"Relevance":1.0,"Distance":0.0,"Direction":0.0,"MatchLevel":"district","MatchQuality":{"Country":1.0,"State":1.0,"County":1.0,"City":1.0,"District":1.0,"PostalCode":1.0},"Location":{"LocationId":"NT_4YPssNLCGX9kX.AUBB-HGC","LocationType":"point","DisplayPosition":{"Latitude":48.5975159,"Longitude":7.7155273},"MapView":{"TopLeft":{"Latitude":48.60696,"Longitude":7.69748},"BottomRight":{"Latitude":48.58403,"Longitude":7.7417}},"Address":{"Label":"Cronenbourg, Strasbourg, Grand Est, France","Country":"FRA","State":"Grand Est","County":"Bas-Rhin","City":"Strasbourg","District":"Cronenbourg","PostalCode":"67200","AdditionalData":[{"value":"France","key":"CountryName"},{"value":"Grand Est","key":"StateName"},{"value":"Bas-Rhin","key":"CountyName"}]},"MapReference":{"ReferenceId":"58804337","SideOfStreet":"neither","CountryId":"20000001","StateId":"20002047","CountyId":"20002048","CityId":"20002094"}}},{"Relevance":1.0,"Distance":14.3,"MatchLevel":"houseNumber","MatchQuality":{"Country":1.0,"State":1.0,"County":1.0,"City":1.0,"District":1.0,"Street":[1.0],"HouseNumber":1.0,"PostalCode":1.0},"MatchType":"interpolated","Location":{"LocationId":"NT_Lq-USfGbDnYeda4jfdyIjB_xQjM","LocationType":"point","DisplayPosition":{"Latitude":48.59742,"Longitude":7.71498},"MapView":{"TopLeft":{"Latitude":48.5985442,"Longitude":7.7132802},"BottomRight":{"Latitude":48.5962958,"Longitude":7.7166798}},"Address":{"Label":"142 Route de Mittelhausbergen, 67200 Strasbourg, France","Country":"FRA","State":"Grand Est","County":"Bas-Rhin","City":"Strasbourg","District":"Cronenbourg","Street":"Route de Mittelhausbergen","HouseNumber":"142","PostalCode":"67200","AdditionalData":[{"value":"France","key":"CountryName"},{"value":"Grand Est","key":"StateName"},{"value":"Bas-Rhin","key":"CountyName"}]},"MapReference":{"ReferenceId":"849766638","Spot":0.28,"SideOfStreet":"right","CountryId":"20000001","StateId":"20002047","CountyId":"20002048","CityId":"20002094","AddressId":"605386545","RoadLinkId":"229540984"}}},{"Relevance":1.0,"Distance":31.6,"MatchLevel":"houseNumber","MatchQuality":{"Country":1.0,"State":1.0,"County":1.0,"City":1.0,"District":1.0,"Street":[1.0],"HouseNumber":1.0,"PostalCode":1.0},"MatchType":"interpolated","Location":{"LocationId":"NT_Lq-USfGbDnYeda4jfdyIjB_l_805983848_R_xQDN","LocationType":"point","DisplayPosition":{"Latitude":48.5971259,"Longitude":7.7153067},"MapView":{"TopLeft":{"Latitude":48.5982501,"Longitude":7.7136069},"BottomRight":{"Latitude":48.5960017,"Longitude":7.7170065}},"Address":{"Label":"144 Route de Mittelhausbergen, 67200 Strasbourg, France","Country":"FRA","State":"Grand Est","County":"Bas-Rhin","City":"Strasbourg","District":"Cronenbourg","Street":"Route de Mittelhausbergen","HouseNumber":"144","PostalCode":"67200","AdditionalData":[{"value":"France","key":"CountryName"},{"value":"Grand Est","key":"StateName"},{"value":"Bas-Rhin","key":"CountyName"}]},"MapReference":{"ReferenceId":"805983848","Spot":0.5,"SideOfStreet":"right","CountryId":"20000001","StateId":"20002047","CountyId":"20002048","CityId":"20002094"}}},{"Relevance":1.0,"Distance":41.1,"MatchLevel":"street","MatchQuality":{"Country":1.0,"State":1.0,"County":1.0,"City":1.0,"District":1.0,"PostalCode":1.0},"Location":{"LocationId":"NT_242koqhMVPgo.HxmqymEVC_l_932165549_L","LocationType":"point","DisplayPosition":{"Latitude":48.5972763,"Longitude":7.715952},"MapView":{"TopLeft":{"Latitude":48.5981,"Longitude":7.71583},"BottomRight":{"Latitude":48.59706,"Longitude":7.71638}},"Address":{"Label":"67200 Strasbourg, France","Country":"FRA","State":"Grand Est","County":"Bas-Rhin","City":"Strasbourg","District":"Cronenbourg","PostalCode":"67200","AdditionalData":[{"value":"France","key":"CountryName"},{"value":"Grand Est","key":"StateName"},{"value":"Bas-Rhin","key":"CountyName"}]},"MapReference":{"ReferenceId":"932165549","Spot":0.21,"SideOfStreet":"left","CountryId":"20000001","StateId":"20002047","CountyId":"20002048","CityId":"20002094"}}},{"Relevance":1.0,"Distance":55.4,"MatchLevel":"street","MatchQuality":{"Country":1.0,"State":1.0,"County":1.0,"City":1.0,"District":1.0,"PostalCode":1.0},"Location":{"LocationId":"NT_242koqhMVPgo.HxmqymEVC_l_932165551_L","LocationType":"point","DisplayPosition":{"Latitude":48.59706,"Longitude":7.71583},"MapView":{"TopLeft":{"Latitude":48.59781,"Longitude":7.71583},"BottomRight":{"Latitude":48.59706,"Longitude":7.71788}},"Address":{"Label":"67200 Strasbourg, France","Country":"FRA","State":"Grand Est","County":"Bas-Rhin","City":"Strasbourg","District":"Cronenbourg","PostalCode":"67200","AdditionalData":[{"value":"France","key":"CountryName"},{"value":"Grand Est","key":"StateName"},{"value":"Bas-Rhin","key":"CountyName"}]},"MapReference":{"ReferenceId":"932165551","Spot":0.0,"SideOfStreet":"left","CountryId":"20000001","StateId":"20002047","CountyId":"20002048","CityId":"20002094"}}},{"Relevance":1.0,"Distance":55.8,"MatchLevel":"houseNumber","MatchQuality":{"Country":1.0,"State":1.0,"County":1.0,"City":1.0,"District":1.0,"Street":[1.0],"HouseNumber":1.0,"PostalCode":1.0},"MatchType":"interpolated","Location":{"LocationId":"NT_ae9LuVLhgFDqB0sycUuXND_l_801273560_R_xMjN","LocationType":"point","DisplayPosition":{"Latitude":48.596903,"Longitude":7.715586},"MapView":{"TopLeft":{"Latitude":48.5980272,"Longitude":7.7138862},"BottomRight":{"Latitude":48.5957789,"Longitude":7.7172858}},"Address":{"Label":"136 Route de Mittelhausbergen, 67200 Strasbourg, France","Country":"FRA","State":"Grand Est","County":"Bas-Rhin","City":"Strasbourg","District":"Cronenbourg","Street":"Route de Mittelhausbergen","HouseNumber":"136","PostalCode":"67200","AdditionalData":[{"value":"France","key":"CountryName"},{"value":"Grand Est","key":"StateName"},{"value":"Bas-Rhin","key":"CountyName"}]},"MapReference":{"ReferenceId":"801273560","Spot":0.55,"SideOfStreet":"right","CountryId":"20000001","StateId":"20002047","CountyId":"20002048","CityId":"20002094"}}},{"Relevance":1.0,"Distance":57.1,"MatchLevel":"street","MatchQuality":{"Country":1.0,"State":1.0,"County":1.0,"City":1.0,"District":1.0,"PostalCode":1.0},"Location":{"LocationId":"NT_242koqhMVPgo.HxmqymEVC_l_932165545_L","LocationType":"point","DisplayPosition":{"Latitude":48.5970252,"Longitude":7.7157551},"MapView":{"TopLeft":{"Latitude":48.59706,"Longitude":7.71555},"BottomRight":{"Latitude":48.59693,"Longitude":7.71583}},"Address":{"Label":"67200 Strasbourg, France","Country":"FRA","State":"Grand Est","County":"Bas-Rhin","City":"Strasbourg","District":"Cronenbourg","PostalCode":"67200","AdditionalData":[{"value":"France","key":"CountryName"},{"value":"Grand Est","key":"StateName"},{"value":"Bas-Rhin","key":"CountyName"}]},"MapReference":{"ReferenceId":"932165545","Spot":0.73,"SideOfStreet":"left","CountryId":"20000001","StateId":"20002047","CountyId":"20002048","CityId":"20002094"}}},{"Relevance":1.0,"Distance":60.0,"MatchLevel":"houseNumber","MatchQuality":{"Country":1.0,"State":1.0,"County":1.0,"City":1.0,"District":1.0,"Street":[1.0],"HouseNumber":1.0,"PostalCode":1.0},"MatchType":"interpolated","Location":{"LocationId":"NT_Lq-USfGbDnYeda4jfdyIjB_xQjN","LocationType":"point","DisplayPosition":{"Latitude":48.59771,"Longitude":7.71468},"MapView":{"TopLeft":{"Latitude":48.5988342,"Longitude":7.7129802},"BottomRight":{"Latitude":48.5965858,"Longitude":7.7163798}},"Address":{"Label":"146 Route de Mittelhausbergen, 67200 Strasbourg, France","Country":"FRA","State":"Grand Est","County":"Bas-Rhin","City":"Strasbourg","District":"Cronenbourg","Street":"Route de Mittelhausbergen","HouseNumber":"146","PostalCode":"67200","AdditionalData":[{"value":"France","key":"CountryName"},{"value":"Grand Est","key":"StateName"},{"value":"Bas-Rhin","key":"CountyName"}]},"MapReference":{"ReferenceId":"849766639","Spot":0.3,"SideOfStreet":"right","CountryId":"20000001","StateId":"20002047","CountyId":"20002048","CityId":"20002094","AddressId":"605372018","RoadLinkId":"229540985"}}},{"Relevance":1.0,"Distance":72.2,"MatchLevel":"street","MatchQuality":{"Country":1.0,"State":1.0,"County":1.0,"City":1.0,"District":1.0,"Street":[1.0],"PostalCode":1.0},"Location":{"LocationId":"NT_Lq-USfGbDnYeda4jfdyIjB_l_801273559_R","LocationType":"point","DisplayPosition":{"Latitude":48.59687,"Longitude":7.71563},"MapView":{"TopLeft":{"Latitude":48.59687,"Longitude":7.71563},"BottomRight":{"Latitude":48.59672,"Longitude":7.71582}},"Address":{"Label":"Route de Mittelhausbergen, 67200 Strasbourg, France","Country":"FRA","State":"Grand Est","County":"Bas-Rhin","City":"Strasbourg","District":"Cronenbourg","Street":"Route de Mittelhausbergen","PostalCode":"67200","AdditionalData":[{"value":"France","key":"CountryName"},{"value":"Grand Est","key":"StateName"},{"value":"Bas-Rhin","key":"CountyName"}]},"MapReference":{"ReferenceId":"801273559","Spot":1.0,"SideOfStreet":"right","CountryId":"20000001","StateId":"20002047","CountyId":"20002048","CityId":"20002094"}}},{"Relevance":1.0,"Distance":80.0,"MatchLevel":"street","MatchQuality":{"Country":1.0,"State":1.0,"County":1.0,"City":1.0,"District":1.0,"Street":[1.0],"PostalCode":1.0},"Location":{"LocationId":"NT_0SJIaIZllwlSFBGU9vIyvB_l_932165546_R","LocationType":"point","DisplayPosition":{"Latitude":48.59821,"Longitude":7.71524},"MapView":{"TopLeft":{"Latitude":48.59845,"Longitude":7.71454},"BottomRight":{"Latitude":48.59785,"Longitude":7.71568}},"Address":{"Label":"Chemin des Villages, 67200 Strasbourg, France","Country":"FRA","State":"Grand Est","County":"Bas-Rhin","City":"Strasbourg","District":"Cronenbourg","Street":"Chemin des Villages","PostalCode":"67200","AdditionalData":[{"value":"France","key":"CountryName"},{"value":"Grand Est","key":"StateName"},{"value":"Bas-Rhin","key":"CountyName"}]},"MapReference":{"ReferenceId":"932165546","Spot":0.62,"SideOfStreet":"right","CountryId":"20000001","StateId":"20002047","CountyId":"20002048","CityId":"20002094"}}}]}]}}