{"Response":{"MetaInfo":{"Timestamp":"2020-03-28T10:21:41.397+0000","NextPageInformation":"2"},"View":[{"_type":"SearchResultsViewType","ViewId":0,"Result":[{"Relevance":1.0,"Distance":0.0,"Direction":0.0,"MatchLevel":"district","MatchQuality":{"Country":1.0,"State":1.0,"County":1.0,"City":1.0,"District":1.0,"PostalCode":1.0},"Location":{"LocationId":"NT_yND3JO-O64frVYhCDvprLD","LocationType":"point","DisplayPosition":{"Latitude":48.5636295,"Longitude":9.2359878},"MapView":{"TopLeft":{"Latitude":48.5681,"Longitude":9.22161},"BottomRight":{"Latitude":48.55656,"Longitude":9.24758}},"Address":{"Label":"Mittelstadt, Reutlingen, Baden-Württemberg, Deutschland","Country":"DEU","State":"Baden-Württemberg","County":"Reutlingen","City":"Reutlingen","District":"Mittelstadt","PostalCode":"72766","AdditionalData":[{"value":"Deutschland","key":"CountryName"},{"value":"Baden-Württemberg","key":"StateName"},{"value":"Reutlingen","key":"CountyName"}]},"MapReference":{"ReferenceId":"53159355","SideOfStreet":"neither","CountryId":"20147700","StateId":"20171489","CountyId":"20175857","CityId":"20175920","DistrictId":"20175932"}}},{"Relevance":1.0,"Distance":16.4,"MatchLevel":"houseNumber","MatchQuality":{"Country":1.0,"State":1.0,"County":1.0,"City":1.0,"District":1.0,"Street":[1.0],"HouseNumber":1.0,"PostalCode":1.0},"MatchType":"interpolated","Location":{"LocationId":"NT_aExayk5D2x0AYfale4nAIC_yA","LocationType":"point","DisplayPosition":{"Latitude":48.56367,"Longitude":9.23636},"MapView":{"TopLeft":{"Latitude":48.5647942,"Longitude":9.2346613},"BottomRight":{"Latitude":48.5625458,"Longitude":9.2380587}},"Address":{"Label":"Hohenzollernstraße 2, 72766 Reutlingen, Deutschland","Country":"DEU","State":"Baden-Württemberg","County":"Reutlingen","City":"Reutlingen","District":"Mittelstadt","Street":"Hohenzollernstraße","HouseNumber":"2","PostalCode":"72766","AdditionalData":[{"value":"Deutschland","key":"CountryName"},{"value":"Baden-Württemberg","key":"StateName"},{"value":"Reutlingen","key":"CountyName"}]},"MapReference":{"ReferenceId":"1126256767","Spot":0.94,"SideOfStreet":"left","CountryId":"20147700","StateId":"20171489","CountyId":"20175857","CityId":"20175920","DistrictId":"20175932","AddressId":"177505621","RoadLinkId":"436275988"}}},{"Relevance":1.0,"Distance":17.7,"MatchLevel":"houseNumber","MatchQuality":{"Country":1.0,"State":1.0,"County":1.0,"City":1.0,"District":1.0,"Street":[1.0],"HouseNumber":1.0,"PostalCode":1.0},"MatchType":"interpolated","Location":{"LocationId":"NT_4UG6CUG8qQHKS-4ddvm6YD_0A","LocationType":"point","DisplayPosition":{"Latitude":48.56366,"Longitude":9.23576},"MapView":{"TopLeft":{"Latitude":48.5647842,"Longitude":9.2340613},"BottomRight":{"Latitude":48.5625358,"Longitude":9.2374587}},"Address":{"Label":"Fröhlefelderweg 4, 72766 Reutlingen, Deutschland","Country":"DEU","State":"Baden-Württemberg","County":"Reutlingen","City":"Reutlingen","District":"Mittelstadt","Street":"Fröhlefelderweg","HouseNumber":"4","PostalCode":"72766","AdditionalData":[{"value":"Deutschland","key":"CountryName"},{"value":"Baden-Württemberg","key":"StateName"},{"value":"Reutlingen","key":"CountyName"}]},"MapReference":{"ReferenceId":"53159347","Spot":0.12,"SideOfStreet":"right","CountryId":"20147700","StateId":"20171489","CountyId":"20175857","CityId":"20175920","DistrictId":"20175932","AddressId":"180488701","RoadLinkId":"38567677"}}},{"Relevance":1.0,"Distance":30.6,"MatchLevel":"houseNumber","MatchQuality":{"Country":1.0,"State":1.0,"County":1.0,"City":1.0,"District":1.0,"Street":[1.0],"HouseNumber":1.0,"PostalCode":1.0},"MatchType":"interpolated","Location":{"LocationId":"NT_g.WHWdM9mvUM9iWa7DwnvA_zUD","LocationType":"point","DisplayPosition":{"Latitude":48.56392,"Longitude":9.2357},"MapView":{"TopLeft":{"Latitude":48.5650442,"Longitude":9.2340013},"BottomRight":{"Latitude":48.5627958,"Longitude":9.2373987}},"Address":{"Label":"Im Strängel 35, 72766 Reutlingen, Deutschland","Country":"DEU","State":"Baden-Württemberg","County":"Reutlingen","City":"Reutlingen","District":"Mittelstadt","Street":"Im Strängel","HouseNumber":"35","PostalCode":"72766","AdditionalData":[{"value":"Deutschland","key":"CountryName"},{"value":"Baden-Württemberg","key":"StateName"},{"value":"Reutlingen","key":"CountyName"}]},"MapReference":{"ReferenceId":"53159348","Spot":0.52,"SideOfStreet":"right","CountryId":"20147700","StateId":"20171489","CountyId":"20175857","CityId":"20175920","DistrictId":"20175932","AddressId":"178745575","RoadLinkId":"38370008"}}},{"Relevance":1.0,"Distance":44.9,"MatchLevel":"houseNumber","MatchQuality":{"Country":1.0,"State":1.0,"County":1.0,"City":1.0,"District":1.0,"Street":[1.0],"HouseNumber":1.0,"PostalCode":1.0},"MatchType":"interpolated","Location":{"LocationId":"NT_4UG6CUG8qQHKS-4ddvm6YD_xA","LocationType":"point","DisplayPosition":{"Latitude":48.56352,"Longitude":9.2354},"MapView":{"TopLeft":{"Latitude":48.5646442,"Longitude":9.2337013},"BottomRight":{"Latitude":48.5623958,"Longitude":9.2370987}},"Address":{"Label":"Fröhlefelderweg 1, 72766 Reutlingen, Deutschland","Country":"DEU","State":"Baden-Württemberg","County":"Reutlingen","City":"Reutlingen","District":"Mittelstadt","Street":"Fröhlefelderweg","HouseNumber":"1","PostalCode":"72766","AdditionalData":[{"value":"Deutschland","key":"CountryName"},{"value":"Baden-Württemberg","key":"StateName"},{"value":"Reutlingen","key":"CountyName"}]},"MapReference":{"ReferenceId":"53159356","Spot":0.52,"SideOfStreet":"left","CountryId":"20147700","StateId":"20171489","CountyId":"20175857","CityId":"20175920","DistrictId":"20175932","AddressId":"178832858","RoadLinkId":"38522733"}}},{"Relevance":1.0,"Distance":54.9,"MatchLevel":"houseNumber","MatchQuality":{"Country":1.0,"State":1.0,"County":1.0,"City":1.0,"District":1.0,"Street":[1.0],"HouseNumber":1.0,"PostalCode":1.0},"MatchType":"interpolated","Location":{"LocationId":"NT_4UG6CUG8qQHKS-4ddvm6YD_4A","LocationType":"point","DisplayPosition":{"Latitude":48.56383,"Longitude":9.23667},"MapView":{"TopLeft":{"Latitude":48.5649542,"Longitude":9.2349713},"BottomRight":{"Latitude":48.5627058,"Longitude":9.2383687}},"Address":{"Label":"Fröhlefelderweg 8, 72766 Reutlingen, Deutschland","Country":"DEU","State":"Baden-Württemberg","County":"Reutlingen","City":"Reutlingen","District":"Mittelstadt","Street":"Fröhlefelderweg","HouseNumber":"8","PostalCode":"72766","AdditionalData":[{"value":"Deutschland","key":"CountryName"},{"value":"Baden-Württemberg","key":"StateName"},{"value":"Reutlingen","key":"CountyName"}]},"MapReference":{"ReferenceId":"53159340","Spot":0.18,"SideOfStreet":"right","CountryId":"20147700","StateId":"20171489","CountyId":"20175857","CityId":"20175920","DistrictId":"20175932","AddressId":"179156821","RoadLinkId":"38121437"}}},{"Relevance":1.0,"Distance":58.3,"MatchLevel":"houseNumber","MatchQuality":{"Country":1.0,"State":1.0,"County":1.0,"City":1.0,"District":1.0,"Street":[1.0],"HouseNumber":1.0,"PostalCode":1.0},"MatchType":"interpolated","Location":{"LocationId":"NT_YaET10GcxwBevr5sNvRp9A_0ED","LocationType":"point","DisplayPosition":{"Latitude":48.56305,"Longitude":9.23572},"MapView":{"TopLeft":{"Latitude":48.5641742,"Longitude":9.2340214},"BottomRight":{"Latitude":48.5619258,"Longitude":9.2374186}},"Address":{"Label":"Metzinger Straße 41, 72766 Reutlingen, Deutschland","Country":"DEU","State":"Baden-Württemberg","County":"Reutlingen","City":"Reutlingen","District":"Mittelstadt","Street":"Metzinger Straße","HouseNumber":"41","PostalCode":"72766","AdditionalData":[{"value":"Deutschland","key":"CountryName"},{"value":"Baden-Württemberg","key":"StateName"},{"value":"Reutlingen","key":"CountyName"}]},"MapReference":{"ReferenceId":"1126256772","Spot":0.73,"SideOfStreet":"right","CountryId":"20147700","StateId":"20171489","CountyId":"20175857","CityId":"20175920","DistrictId":"20175932","AddressId":"178066598","RoadLinkId":"436275993"}}},{"Relevance":1.0,"Distance":60.1,"MatchLevel":"houseNumber","MatchQuality":{"Country":1.0,"State":1.0,"County":1.0,"City":1.0,"District":1.0,"Street":[1.0],"HouseNumber":1.0,"PostalCode":1.0},"MatchType":"interpolated","Location":{"LocationId":"NT_uQAkSn-eQh4XcZA7W4hLxD_xA","LocationType":"point","DisplayPosition":{"Latitude":48.5642,"Longitude":9.23558},"MapView":{"TopLeft":{"Latitude":48.5653242,"Longitude":9.2338813},"BottomRight":{"Latitude":48.5630758,"Longitude":9.2372787}},"Address":{"Label":"Grafenberger Straße 1, 72766 Reutlingen, Deutschland","Country":"DEU","State":"Baden-Württemberg","County":"Reutlingen","City":"Reutlingen","District":"Mittelstadt","Street":"Grafenberger Straße","HouseNumber":"1","PostalCode":"72766","AdditionalData":[{"value":"Deutschland","key":"CountryName"},{"value":"Baden-Württemberg","key":"StateName"},{"value":"Reutlingen","key":"CountyName"}]},"MapReference":{"ReferenceId":"53168649","Spot":0.22,"SideOfStreet":"left","CountryId":"20147700","StateId":"20171489","CountyId":"20175857","CityId":"20175920","DistrictId":"20175932","AddressId":"177366989","RoadLinkId":"38669320"}}},{"Relevance":1.0,"Distance":73.1,"MatchLevel":"houseNumber","MatchQuality":{"Country":1.0,"State":1.0,"County":1.0,"City":1.0,"District":1.0,"Street":[1.0],"HouseNumber":1.0,"PostalCode":1.0},"MatchType":"interpolated","Location":{"LocationId":"NT_YaET10GcxwBevr5sNvRp9A_zEzLxA","LocationType":"point","DisplayPosition":{"Latitude":48.56343,"Longitude":9.2349},"MapView":{"TopLeft":{"Latitude":48.5645542,"Longitude":9.2332013},"BottomRight":{"Latitude":48.5623058,"Longitude":9.2365987}},"Address":{"Label":"Metzinger Straße 31/1, 72766 Reutlingen, Deutschland","Country":"DEU","State":"Baden-Württemberg","County":"Reutlingen","City":"Reutlingen","District":"Mittelstadt","Street":"Metzinger Straße","HouseNumber":"31/1","PostalCode":"72766","AdditionalData":[{"value":"Deutschland","key":"CountryName"},{"value":"Baden-Württemberg","key":"StateName"},{"value":"Reutlingen","key":"CountyName"}]},"MapReference":{"ReferenceId":"53159355","Spot":0.06,"SideOfStreet":"right","CountryId":"20147700","StateId":"20171489","CountyId":"20175857","CityId":"20175920","DistrictId":"20175932","AddressId":"179754174","RoadLinkId":"38891444"}}},{"Relevance":1.0,"Distance":109.0,"MatchLevel":"houseNumber","MatchQuality":{"Country":1.0,"State":1.0,"County":1.0,"City":1.0,"District":1.0,"Street":[1.0],"HouseNumber":1.0,"PostalCode":1.0},"MatchType":"interpolated","Location":{"LocationId":"NT_g.WHWdM9mvUM9iWa7DwnvA_yUD","LocationType":"point","DisplayPosition":{"Latitude":48.56461,"Longitude":9.23598},"MapView":{"TopLeft":{"Latitude":48.5657342,"Longitude":9.2342813},"BottomRight":{"Latitude":48.5634858,"Longitude":9.2376787}},"Address":{"Label":"Im Strängel 25, 72766 Reutlingen, Deutschland","Country":"DEU","State":"Baden-Württemberg","County":"Reutlingen","City":"Reutlingen","District":"Mittelstadt","Street":"Im Strängel","HouseNumber":"25","PostalCode":"72766","AdditionalData":[{"value":"Deutschland","key":"CountryName"},{"value":"Baden-Württemberg","key":"StateName"},{"value":"Reutlingen","key":"CountyName"}]},"MapReference":{"ReferenceId":"1126280833","Spot":0.53,"SideOfStreet":"right","CountryId":"20147700","StateId":"20171489","CountyId":"20175857","CityId":"20175920","DistrictId":"20175932","AddressId":"179545779","RoadLinkId":"436290786"}}}]}]}}