{"Response":{"MetaInfo":{"Timestamp":"2020-03-28T11:14:53.300+0000","NextPageInformation":"2"},"View":[{"_type":"SearchResultsViewType","ViewId":0,"Result":[{"Relevance":1.0,"Distance":0.0,"Direction":0.0,"MatchLevel":"district","MatchQuality":{"Country":1.0,"State":1.0,"County":1.0,"City":1.0,"District":1.0,"PostalCode":1.0},"Location":{"LocationId":"NT_IMsJl1N0NpnpfezC10HrxA","LocationType":"point","DisplayPosition":{"Latitude":48.5652415,"Longitude":7.7179248},"MapView":{"TopLeft":{"Latitude":48.57001,"Longitude":7.70175},"BottomRight":{"Latitude":48.55052,"Longitude":7.73538}},"Address":{"Label":"Elsau, Strasbourg, Grand Est, France","Country":"FRA","State":"Grand Est","County":"Bas-Rhin","City":"Strasbourg","District":"Elsau","PostalCode":"67200","AdditionalData":[{"value":"France","key":"CountryName"},{"value":"Grand Est","key":"StateName"},{"value":"Bas-Rhin","key":"CountyName"}]},"MapReference":{"ReferenceId":"58808572","SideOfStreet":"neither","CountryId":"20000001","StateId":"20002047","CountyId":"20002048","CityId":"20002094"}}},{"Relevance":1.0,"Distance":0.1,"MatchLevel":"street","MatchQuality":{"Country":1.0,"State":1.0,"County":1.0,"City":1.0,"District":1.0,"Street":[1.0],"PostalCode":1.0},"Location":{"LocationId":"NT_HgAQhrjp6OZ91aaJ60FT6C_l_738143209_L","LocationType":"point","DisplayPosition":{"Latitude":48.5652405,"Longitude":7.7179238},"MapView":{"TopLeft":{"Latitude":48.56532,"Longitude":7.71785},"BottomRight":{"Latitude":48.56518,"Longitude":7.71798}},"Address":{"Label":"Rue Hans Hammer, 67200 Strasbourg, France","Country":"FRA","State":"Grand Est","County":"Bas-Rhin","City":"Strasbourg","District":"Elsau","Street":"Rue Hans Hammer","PostalCode":"67200","AdditionalData":[{"value":"France","key":"CountryName"},{"value":"Grand Est","key":"StateName"},{"value":"Bas-Rhin","key":"CountyName"}]},"MapReference":{"ReferenceId":"738143209","Spot":0.43,"SideOfStreet":"neither","CountryId":"20000001","StateId":"20002047","CountyId":"20002048","CityId":"20002094"}}},{"Relevance":1.0,"Distance":1.6,"MatchLevel":"street","MatchQuality":{"Country":1.0,"State":1.0,"County":1.0,"City":1.0,"District":1.0,"Street":[1.0],"PostalCode":1.0},"Location":{"LocationId":"NT_Atuc3IrqnUl3O7KnVqna.C_l_1115400545_L","LocationType":"point","DisplayPosition":{"Latitude":48.5652506,"Longitude":7.7179415},"MapView":{"TopLeft":{"Latitude":48.56573,"Longitude":7.71573},"BottomRight":{"Latitude":48.56518,"Longitude":7.71798}},"Address":{"Label":"Promenade Jost Haller, 67200 Strasbourg, France","Country":"FRA","State":"Grand Est","County":"Bas-Rhin","City":"Strasbourg","District":"Elsau","Street":"Promenade Jost Haller","PostalCode":"67200","AdditionalData":[{"value":"France","key":"CountryName"},{"value":"Grand Est","key":"StateName"},{"value":"Bas-Rhin","key":"CountyName"}]},"MapReference":{"ReferenceId":"1115400545","Spot":0.03,"SideOfStreet":"neither","CountryId":"20000001","StateId":"20002047","CountyId":"20002048","CityId":"20002094"}}},{"Relevance":1.0,"Distance":7.0,"MatchLevel":"street","MatchQuality":{"Country":1.0,"State":1.0,"County":1.0,"City":1.0,"District":1.0,"Street":[1.0],"PostalCode":1.0},"Location":{"LocationId":"NT_HgAQhrjp6OZ91aaJ60FT6C_l_1191217037_L","LocationType":"point","DisplayPosition":{"Latitude":48.5651959,"Longitude":7.717991},"MapView":{"TopLeft":{"Latitude":48.56547,"Longitude":7.71798},"BottomRight":{"Latitude":48.56518,"Longitude":7.71818}},"Address":{"Label":"Rue Hans Hammer, 67200 Strasbourg, France","Country":"FRA","State":"Grand Est","County":"Bas-Rhin","City":"Strasbourg","District":"Elsau","Street":"Rue Hans Hammer","PostalCode":"67200","AdditionalData":[{"value":"France","key":"CountryName"},{"value":"Grand Est","key":"StateName"},{"value":"Bas-Rhin","key":"CountyName"}]},"MapReference":{"ReferenceId":"1191217037","Spot":0.05,"SideOfStreet":"left","CountryId":"20000001","StateId":"20002047","CountyId":"20002048","CityId":"20002094"}}},{"Relevance":1.0,"Distance":7.9,"MatchLevel":"street","MatchQuality":{"Country":1.0,"State":1.0,"County":1.0,"City":1.0,"District":1.0,"PostalCode":1.0},"Location":{"LocationId":"NT_QAoslydLD2PiRXMy7WN6mB_l_1101848593_L","LocationType":"point","DisplayPosition":{"Latitude":48.5651817,"Longitude":7.7179818},"MapView":{"TopLeft":{"Latitude":48.56544,"Longitude":7.71798},"BottomRight":{"Latitude":48.56518,"Longitude":7.71908}},"Address":{"Label":"67200 Strasbourg, France","Country":"FRA","State":"Grand Est","County":"Bas-Rhin","City":"Strasbourg","District":"Elsau","PostalCode":"67200","AdditionalData":[{"value":"France","key":"CountryName"},{"value":"Grand Est","key":"StateName"},{"value":"Bas-Rhin","key":"CountyName"}]},"MapReference":{"ReferenceId":"1101848593","Spot":0.0,"SideOfStreet":"left","CountryId":"20000001","StateId":"20002047","CountyId":"20002048","CityId":"20002094"}}},{"Relevance":1.0,"Distance":8.0,"MatchLevel":"street","MatchQuality":{"Country":1.0,"State":1.0,"County":1.0,"City":1.0,"District":1.0,"PostalCode":1.0},"Location":{"LocationId":"NT_QAoslydLD2PiRXMy7WN6mB_l_1091615055_L","LocationType":"point","DisplayPosition":{"Latitude":48.56518,"Longitude":7.71798},"MapView":{"TopLeft":{"Latitude":48.56518,"Longitude":7.71776},"BottomRight":{"Latitude":48.56423,"Longitude":7.71804}},"Address":{"Label":"67200 Strasbourg, France","Country":"FRA","State":"Grand Est","County":"Bas-Rhin","City":"Strasbourg","District":"Elsau","PostalCode":"67200","AdditionalData":[{"value":"France","key":"CountryName"},{"value":"Grand Est","key":"StateName"},{"value":"Bas-Rhin","key":"CountyName"}]},"MapReference":{"ReferenceId":"1091615055","Spot":1.0,"SideOfStreet":"left","CountryId":"20000001","StateId":"20002047","CountyId":"20002048","CityId":"20002094"}}},{"Relevance":1.0,"Distance":13.7,"MatchLevel":"houseNumber","MatchQuality":{"Country":1.0,"State":1.0,"County":1.0,"City":1.0,"District":1.0,"Street":[1.0],"HouseNumber":1.0,"PostalCode":1.0},"MatchType":"interpolated","Location":{"LocationId":"NT_xgYuy.d3wbGQjF6kQs.IuC_xUD","LocationType":"point","DisplayPosition":{"Latitude":48.56525,"Longitude":7.71811},"MapView":{"TopLeft":{"Latitude":48.5663742,"Longitude":7.7164113},"BottomRight":{"Latitude":48.5641258,"Longitude":7.7198087}},"Address":{"Label":"15 Rue Cranach, 67200 Strasbourg, France","Country":"FRA","State":"Grand Est","County":"Bas-Rhin","City":"Strasbourg","District":"Elsau","Street":"Rue Cranach","HouseNumber":"15","PostalCode":"67200","AdditionalData":[{"value":"France","key":"CountryName"},{"value":"Grand Est","key":"StateName"},{"value":"Bas-Rhin","key":"CountyName"}]},"MapReference":{"ReferenceId":"58808510","Spot":0.13,"SideOfStreet":"right","CountryId":"20000001","StateId":"20002047","CountyId":"20002048","CityId":"20002094","AddressId":"605366348","RoadLinkId":"44398985"}}},{"Relevance":1.0,"Distance":31.6,"MatchLevel":"street","MatchQuality":{"Country":1.0,"State":1.0,"County":1.0,"City":1.0,"District":1.0,"Street":[1.0],"PostalCode":1.0},"Location":{"LocationId":"NT_HgAQhrjp6OZ91aaJ60FT6C_l_1191217038_L","LocationType":"point","DisplayPosition":{"Latitude":48.56547,"Longitude":7.71818},"MapView":{"TopLeft":{"Latitude":48.5658,"Longitude":7.71818},"BottomRight":{"Latitude":48.56547,"Longitude":7.71842}},"Address":{"Label":"Rue Hans Hammer, 67200 Strasbourg, France","Country":"FRA","State":"Grand Est","County":"Bas-Rhin","City":"Strasbourg","District":"Elsau","Street":"Rue Hans Hammer","PostalCode":"67200","AdditionalData":[{"value":"France","key":"CountryName"},{"value":"Grand Est","key":"StateName"},{"value":"Bas-Rhin","key":"CountyName"}]},"MapReference":{"ReferenceId":"1191217038","Spot":0.0,"SideOfStreet":"left","CountryId":"20000001","StateId":"20002047","CountyId":"20002048","CityId":"20002094"}}},{"Relevance":1.0,"Distance":52.6,"MatchLevel":"houseNumber","MatchQuality":{"Country":1.0,"State":1.0,"County":1.0,"City":1.0,"District":1.0,"Street":[1.0],"HouseNumber":1.0,"PostalCode":1.0},"MatchType":"interpolated","Location":{"LocationId":"NT_Yc.zZdNqO221-qfC6pJNIB_xUD","LocationType":"point","DisplayPosition":{"Latitude":48.56466,"Longitude":7.71837},"MapView":{"TopLeft":{"Latitude":48.5657842,"Longitude":7.7166713},"BottomRight":{"Latitude":48.5635358,"Longitude":7.7200687}},"Address":{"Label":"15 Rue Dürer, 67200 Strasbourg, France","Country":"FRA","State":"Grand Est","County":"Bas-Rhin","City":"Strasbourg","District":"Elsau","Street":"Rue Dürer","HouseNumber":"15","PostalCode":"67200","AdditionalData":[{"value":"France","key":"CountryName"},{"value":"Grand Est","key":"StateName"},{"value":"Bas-Rhin","key":"CountyName"}]},"MapReference":{"ReferenceId":"1115425188","Spot":0.35,"SideOfStreet":"left","CountryId":"20000001","StateId":"20002047","CountyId":"20002048","CityId":"20002094","AddressId":"605287009","RoadLinkId":"425528805"}}},{"Relevance":1.0,"Distance":72.0,"MatchLevel":"street","MatchQuality":{"Country":1.0,"State":1.0,"County":1.0,"City":1.0,"District":1.0,"Street":[1.0],"PostalCode":1.0},"Location":{"LocationId":"NT_HgAQhrjp6OZ91aaJ60FT6C_l_773332907_L","LocationType":"point","DisplayPosition":{"Latitude":48.5658,"Longitude":7.71842},"MapView":{"TopLeft":{"Latitude":48.56598,"Longitude":7.71842},"BottomRight":{"Latitude":48.5658,"Longitude":7.71852}},"Address":{"Label":"Rue Hans Hammer, 67200 Strasbourg, France","Country":"FRA","State":"Grand Est","County":"Bas-Rhin","City":"Strasbourg","District":"Elsau","Street":"Rue Hans Hammer","PostalCode":"67200","AdditionalData":[{"value":"France","key":"CountryName"},{"value":"Grand Est","key":"StateName"},{"value":"Bas-Rhin","key":"CountyName"}]},"MapReference":{"ReferenceId":"773332907","Spot":0.0,"SideOfStreet":"left","CountryId":"20000001","StateId":"20002047","CountyId":"20002048","CityId":"20002094"}}}]}]}}