{"Response":{"MetaInfo":{"Timestamp":"2020-03-28T11:52:24.366+0000","NextPageInformation":"2"},"View":[{"_type":"SearchResultsViewType","ViewId":0,"Result":[{"Relevance":1.0,"Distance":0.0,"Direction":0.0,"MatchLevel":"city","MatchQuality":{"Country":1.0,"State":1.0,"County":1.0,"City":1.0,"PostalCode":1.0},"Location":{"LocationId":"NT_UO2AO-feS7N-VPvDzgdCgC","LocationType":"point","DisplayPosition":{"Latitude":48.5323804,"Longitude":2.009185},"MapView":{"TopLeft":{"Latitude":48.56291,"Longitude":1.93428},"BottomRight":{"Latitude":48.50109,"Longitude":2.05165}},"Address":{"Label":"Dourdan, Île-de-France, France","Country":"FRA","State":"Île-de-France","County":"Essonne","City":"Dourdan","PostalCode":"91410","AdditionalData":[{"value":"France","key":"CountryName"},{"value":"Île-de-France","key":"StateName"},{"value":"Essonne","key":"CountyName"}]},"MapReference":{"ReferenceId":"763672371","SideOfStreet":"neither","CountryId":"20000001","StateId":"20002126","CountyId":"20004503","CityId":"20004687"}}},{"Relevance":1.0,"Distance":9.1,"MatchLevel":"houseNumber","MatchQuality":{"Country":1.0,"State":1.0,"County":1.0,"City":1.0,"Street":[1.0],"HouseNumber":1.0,"PostalCode":1.0},"MatchType":"interpolated","Location":{"LocationId":"NT_rCCkQq3FurIDxA5Ldn9ZpC_xIE","LocationType":"point","DisplayPosition":{"Latitude":48.53234,"Longitude":2.00937},"MapView":{"TopLeft":{"Latitude":48.5334642,"Longitude":2.0076724},"BottomRight":{"Latitude":48.5312158,"Longitude":2.0110676}},"Address":{"Label":"1B Rue Amédée Guénée, 91410 Dourdan, France","Country":"FRA","State":"Île-de-France","County":"Essonne","City":"Dourdan","Street":"Rue Amédée Guénée","HouseNumber":"1B","PostalCode":"91410","AdditionalData":[{"value":"France","key":"CountryName"},{"value":"Île-de-France","key":"StateName"},{"value":"Essonne","key":"CountyName"}]},"MapReference":{"ReferenceId":"541003382","Spot":0.09,"SideOfStreet":"left","CountryId":"20000001","StateId":"20002126","CountyId":"20004503","CityId":"20004687","AddressId":"572233632","RoadLinkId":"43550571"}}},{"Relevance":1.0,"Distance":11.0,"MatchLevel":"houseNumber","MatchQuality":{"Country":1.0,"State":1.0,"County":1.0,"City":1.0,"Street":[1.0],"HouseNumber":1.0,"PostalCode":1.0},"MatchType":"interpolated","Location":{"LocationId":"NT_lMcfnYdlrrXw-V8IZLzYIC_xAD","LocationType":"point","DisplayPosition":{"Latitude":48.53231,"Longitude":2.00898},"MapView":{"TopLeft":{"Latitude":48.5334342,"Longitude":2.0072824},"BottomRight":{"Latitude":48.5311858,"Longitude":2.0106776}},"Address":{"Label":"10 Rue du Faubourg de Chartres, 91410 Dourdan, France","Country":"FRA","State":"Île-de-France","County":"Essonne","City":"Dourdan","Street":"Rue du Faubourg de Chartres","HouseNumber":"10","PostalCode":"91410","AdditionalData":[{"value":"France","key":"CountryName"},{"value":"Île-de-France","key":"StateName"},{"value":"Essonne","key":"CountyName"}]},"MapReference":{"ReferenceId":"541000108","Spot":0.0,"SideOfStreet":"right","CountryId":"20000001","StateId":"20002126","CountyId":"20004503","CityId":"20004687","AddressId":"322107649","RoadLinkId":"43532903"}}},{"Relevance":1.0,"Distance":17.0,"MatchLevel":"street","MatchQuality":{"Country":1.0,"State":1.0,"County":1.0,"City":1.0,"Street":[1.0],"PostalCode":1.0},"Location":{"LocationId":"NT_VP2rsvAdlsOpK.xnKQbH4A_l_541003383_R","LocationType":"point","DisplayPosition":{"Latitude":48.53231,"Longitude":2.00898},"MapView":{"TopLeft":{"Latitude":48.53231,"Longitude":2.00804},"BottomRight":{"Latitude":48.53165,"Longitude":2.00898}},"Address":{"Label":"Sente Bonniveau, 91410 Dourdan, France","Country":"FRA","State":"Île-de-France","County":"Essonne","City":"Dourdan","Street":"Sente Bonniveau","PostalCode":"91410","AdditionalData":[{"value":"France","key":"CountryName"},{"value":"Île-de-France","key":"StateName"},{"value":"Essonne","key":"CountyName"}]},"MapReference":{"ReferenceId":"541003383","Spot":1.0,"SideOfStreet":"right","CountryId":"20000001","StateId":"20002126","CountyId":"20004503","CityId":"20004687"}}},{"Relevance":1.0,"Distance":17.9,"MatchLevel":"houseNumber","MatchQuality":{"Country":1.0,"State":1.0,"County":1.0,"City":1.0,"Street":[1.0],"HouseNumber":1.0,"PostalCode":1.0},"MatchType":"interpolated","Location":{"LocationId":"NT_lMcfnYdlrrXw-V8IZLzYIC_yED","LocationType":"point","DisplayPosition":{"Latitude":48.53223,"Longitude":2.0091},"MapView":{"TopLeft":{"Latitude":48.5333542,"Longitude":2.0074024},"BottomRight":{"Latitude":48.5311058,"Longitude":2.0107976}},"Address":{"Label":"21 Rue du Faubourg de Chartres, 91410 Dourdan, France","Country":"FRA","State":"Île-de-France","County":"Essonne","City":"Dourdan","Street":"Rue du Faubourg de Chartres","HouseNumber":"21","PostalCode":"91410","AdditionalData":[{"value":"France","key":"CountryName"},{"value":"Île-de-France","key":"StateName"},{"value":"Essonne","key":"CountyName"}]},"MapReference":{"ReferenceId":"541000110","Spot":0.43,"SideOfStreet":"left","CountryId":"20000001","StateId":"20002126","CountyId":"20004503","CityId":"20004687","AddressId":"344867696","RoadLinkId":"43514305"}}},{"Relevance":1.0,"Distance":20.7,"MatchLevel":"street","MatchQuality":{"Country":1.0,"State":1.0,"County":1.0,"City":1.0,"Street":[1.0],"PostalCode":1.0},"Location":{"LocationId":"NT_VjAZBW8lylX-DIoho.5V3C_l_1022304575_L","LocationType":"point","DisplayPosition":{"Latitude":48.532202,"Longitude":2.0092631},"MapView":{"TopLeft":{"Latitude":48.53224,"Longitude":2.00919},"BottomRight":{"Latitude":48.53217,"Longitude":2.00935}},"Address":{"Label":"Rue Sarcey, 91410 Dourdan, France","Country":"FRA","State":"Île-de-France","County":"Essonne","City":"Dourdan","Street":"Rue Sarcey","PostalCode":"91410","AdditionalData":[{"value":"France","key":"CountryName"},{"value":"Île-de-France","key":"StateName"},{"value":"Essonne","key":"CountyName"}]},"MapReference":{"ReferenceId":"1022304575","Spot":0.46,"SideOfStreet":"left","CountryId":"20000001","StateId":"20002126","CountyId":"20004503","CityId":"20004687"}}},{"Relevance":1.0,"Distance":27.7,"MatchLevel":"houseNumber","MatchQuality":{"Country":1.0,"State":1.0,"County":1.0,"City":1.0,"Street":[1.0],"HouseNumber":1.0,"PostalCode":1.0},"MatchType":"interpolated","Location":{"LocationId":"NT_VjAZBW8lylX-DIoho.5V3C_xAD","LocationType":"point","DisplayPosition":{"Latitude":48.53221,"Longitude":2.00946},"MapView":{"TopLeft":{"Latitude":48.5333342,"Longitude":2.0077624},"BottomRight":{"Latitude":48.5310858,"Longitude":2.0111576}},"Address":{"Label":"10 Rue Sarcey, 91410 Dourdan, France","Country":"FRA","State":"Île-de-France","County":"Essonne","City":"Dourdan","Street":"Rue Sarcey","HouseNumber":"10","PostalCode":"91410","AdditionalData":[{"value":"France","key":"CountryName"},{"value":"Île-de-France","key":"StateName"},{"value":"Essonne","key":"CountyName"}]},"MapReference":{"ReferenceId":"1022304574","Spot":0.84,"SideOfStreet":"right","CountryId":"20000001","StateId":"20002126","CountyId":"20004503","CityId":"20004687","AddressId":"322016754","RoadLinkId":"346836125"}}},{"Relevance":1.0,"Distance":49.1,"MatchLevel":"houseNumber","MatchQuality":{"Country":1.0,"State":1.0,"County":1.0,"City":1.0,"Street":[1.0],"HouseNumber":1.0,"PostalCode":1.0},"MatchType":"interpolated","Location":{"LocationId":"NT_lMcfnYdlrrXw-V8IZLzYIC_4A","LocationType":"point","DisplayPosition":{"Latitude":48.53197,"Longitude":2.00943},"MapView":{"TopLeft":{"Latitude":48.5330942,"Longitude":2.0077324},"BottomRight":{"Latitude":48.5308458,"Longitude":2.0111276}},"Address":{"Label":"8 Rue du Faubourg de Chartres, 91410 Dourdan, France","Country":"FRA","State":"Île-de-France","County":"Essonne","City":"Dourdan","Street":"Rue du Faubourg de Chartres","HouseNumber":"8","PostalCode":"91410","AdditionalData":[{"value":"France","key":"CountryName"},{"value":"Île-de-France","key":"StateName"},{"value":"Essonne","key":"CountyName"}]},"MapReference":{"ReferenceId":"976633068","Spot":0.39,"SideOfStreet":"right","CountryId":"20000001","StateId":"20002126","CountyId":"20004503","CityId":"20004687","AddressId":"321990273","RoadLinkId":"311237799"}}},{"Relevance":1.0,"Distance":66.5,"MatchLevel":"houseNumber","MatchQuality":{"Country":1.0,"State":1.0,"County":1.0,"City":1.0,"Street":[1.0],"HouseNumber":1.0,"PostalCode":1.0},"MatchType":"interpolated","Location":{"LocationId":"NT_lMcfnYdlrrXw-V8IZLzYIC_2A","LocationType":"point","DisplayPosition":{"Latitude":48.53186,"Longitude":2.00963},"MapView":{"TopLeft":{"Latitude":48.5329842,"Longitude":2.0079324},"BottomRight":{"Latitude":48.5307358,"Longitude":2.0113276}},"Address":{"Label":"6 Rue du Faubourg de Chartres, 91410 Dourdan, France","Country":"FRA","State":"Île-de-France","County":"Essonne","City":"Dourdan","Street":"Rue du Faubourg de Chartres","HouseNumber":"6","PostalCode":"91410","AdditionalData":[{"value":"France","key":"CountryName"},{"value":"Île-de-France","key":"StateName"},{"value":"Essonne","key":"CountyName"}]},"MapReference":{"ReferenceId":"976633069","Spot":0.15,"SideOfStreet":"left","CountryId":"20000001","StateId":"20002126","CountyId":"20004503","CityId":"20004687","AddressId":"689767819","RoadLinkId":"311237802"}}},{"Relevance":1.0,"Distance":67.7,"MatchLevel":"houseNumber","MatchQuality":{"Country":1.0,"State":1.0,"County":1.0,"City":1.0,"Street":[1.0],"HouseNumber":1.0,"PostalCode":1.0},"MatchType":"interpolated","Location":{"LocationId":"NT_mJEJ3EbBUXyxI2dmugvypC_xA","LocationType":"point","DisplayPosition":{"Latitude":48.53223,"Longitude":2.0101},"MapView":{"TopLeft":{"Latitude":48.5333542,"Longitude":2.0084024},"BottomRight":{"Latitude":48.5311058,"Longitude":2.0117976}},"Address":{"Label":"1 Rue Champfleury, 91410 Dourdan, France","Country":"FRA","State":"Île-de-France","County":"Essonne","City":"Dourdan","Street":"Rue Champfleury","HouseNumber":"1","PostalCode":"91410","AdditionalData":[{"value":"France","key":"CountryName"},{"value":"Île-de-France","key":"StateName"},{"value":"Essonne","key":"CountyName"}]},"MapReference":{"ReferenceId":"541000111","Spot":0.14,"SideOfStreet":"left","CountryId":"20000001","StateId":"20002126","CountyId":"20004503","CityId":"20004687","AddressId":"321817056","RoadLinkId":"43764513"}}}]}]}}