{"Response":{"MetaInfo":{"Timestamp":"2020-03-28T11:07:52.386+0000","NextPageInformation":"2"},"View":[{"_type":"SearchResultsViewType","ViewId":0,"Result":[{"Relevance":1.0,"Distance":-9899.6,"MatchLevel":"landmark","MatchQuality":{"Country":1.0,"State":1.0,"Name":1.0},"Location":{"LocationId":"NT_YOD7Kqg6SlbaImqDXmHbwC","LocationType":"park","Name":"P.N.R. Normandie-Maine","DisplayPosition":{"Latitude":48.54226,"Longitude":-0.5309},"MapView":{"TopLeft":{"Latitude":48.70906,"Longitude":-0.95641},"BottomRight":{"Latitude":48.37545,"Longitude":0.43129}},"Address":{"Label":"France","Country":"FRA","State":"Normandie","AdditionalData":[{"value":"France","key":"CountryName"},{"value":"Normandie","key":"StateName"}]},"MapReference":{"CountryId":"20000001","StateId":"20057204","PlaceId":"1508061127"}}},{"Relevance":1.0,"Distance":0.0,"Direction":0.0,"MatchLevel":"district","MatchQuality":{"Country":1.0,"State":1.0,"County":1.0,"City":1.0,"District":1.0,"PostalCode":1.0},"Location":{"LocationId":"NT_rJlAYaIcYTmei1XuDzSdvC","LocationType":"point","DisplayPosition":{"Latitude":48.590504,"Longitude":-0.659897},"MapView":{"TopLeft":{"Latitude":48.59485,"Longitude":-0.66296},"BottomRight":{"Latitude":48.5792,"Longitude":-0.62652}},"Address":{"Label":"Domfront, Domfront en Poiraie, Normandie, France","Country":"FRA","State":"Normandie","County":"Orne","City":"Domfront en Poiraie","District":"Domfront","PostalCode":"61700","AdditionalData":[{"value":"France","key":"CountryName"},{"value":"Normandie","key":"StateName"},{"value":"Orne","key":"CountyName"}]},"MapReference":{"ReferenceId":"568375978","SideOfStreet":"neither","CountryId":"20000001","StateId":"20057204","CountyId":"20075162","CityId":"20075588","DistrictId":"20075590"}}},{"Relevance":1.0,"Distance":8.5,"MatchLevel":"houseNumber","MatchQuality":{"Country":1.0,"State":1.0,"County":1.0,"City":1.0,"District":1.0,"Street":[1.0],"HouseNumber":1.0,"PostalCode":1.0},"MatchType":"interpolated","Location":{"LocationId":"NT_ubun540wMBf8NzjWAntvVA_xA","LocationType":"point","DisplayPosition":{"Latitude":48.59044,"Longitude":-0.65996},"MapView":{"TopLeft":{"Latitude":48.5915642,"Longitude":-0.6616596},"BottomRight":{"Latitude":48.5893158,"Longitude":-0.6582604}},"Address":{"Label":"1 Route de Mortain, 61700 Domfront en Poiraie, France","Country":"FRA","State":"Normandie","County":"Orne","City":"Domfront en Poiraie","District":"Domfront","Street":"Route de Mortain","HouseNumber":"1","PostalCode":"61700","AdditionalData":[{"value":"France","key":"CountryName"},{"value":"Normandie","key":"StateName"},{"value":"Orne","key":"CountyName"}]},"MapReference":{"ReferenceId":"1007324353","Spot":0.84,"SideOfStreet":"left","CountryId":"20000001","StateId":"20057204","CountyId":"20075162","CityId":"20075588","DistrictId":"20075590","AddressId":"321619380","RoadLinkId":"332053968"}}},{"Relevance":1.0,"Distance":8.7,"MatchLevel":"street","MatchQuality":{"Country":1.0,"State":1.0,"County":1.0,"City":1.0,"District":1.0,"Street":[1.0],"PostalCode":1.0},"Location":{"LocationId":"NT_O8AvU-nXA2-tsskchBZoxC_l_827010961_R","LocationType":"point","DisplayPosition":{"Latitude":48.59048,"Longitude":-0.66001},"MapView":{"TopLeft":{"Latitude":48.59052,"Longitude":-0.66007},"BottomRight":{"Latitude":48.59048,"Longitude":-0.66001}},"Address":{"Label":"Route de Mortain, 61700 Domfront en Poiraie, France","Country":"FRA","State":"Normandie","County":"Orne","City":"Domfront en Poiraie","District":"Domfront","Street":"Route de Mortain","PostalCode":"61700","AdditionalData":[{"value":"France","key":"CountryName"},{"value":"Normandie","key":"StateName"},{"value":"Orne","key":"CountyName"}]},"MapReference":{"ReferenceId":"827010961","Spot":0.0,"SideOfStreet":"right","CountryId":"20000001","StateId":"20057204","CountyId":"20075162","CityId":"20075588","DistrictId":"20075590"}}},{"Relevance":1.0,"Distance":12.8,"MatchLevel":"street","MatchQuality":{"Country":1.0,"State":1.0,"County":1.0,"City":1.0,"District":1.0,"Street":[1.0],"PostalCode":1.0},"Location":{"LocationId":"NT_ubun540wMBf8NzjWAntvVA_l_827010954_R","LocationType":"point","DisplayPosition":{"Latitude":48.59052,"Longitude":-0.66007},"MapView":{"TopLeft":{"Latitude":48.59058,"Longitude":-0.66017},"BottomRight":{"Latitude":48.59052,"Longitude":-0.66007}},"Address":{"Label":"Route de Mortain, 61700 Domfront en Poiraie, France","Country":"FRA","State":"Normandie","County":"Orne","City":"Domfront en Poiraie","District":"Domfront","Street":"Route de Mortain","PostalCode":"61700","AdditionalData":[{"value":"France","key":"CountryName"},{"value":"Normandie","key":"StateName"},{"value":"Orne","key":"CountyName"}]},"MapReference":{"ReferenceId":"827010954","Spot":0.0,"SideOfStreet":"right","CountryId":"20000001","StateId":"20057204","CountyId":"20075162","CityId":"20075588","DistrictId":"20075590"}}},{"Relevance":1.0,"Distance":12.8,"MatchLevel":"street","MatchQuality":{"Country":1.0,"State":1.0,"County":1.0,"City":1.0,"District":1.0,"PostalCode":1.0},"Location":{"LocationId":"NT_hdW-syPgpXznYJ1jp9C6oA_l_827010956_R","LocationType":"point","DisplayPosition":{"Latitude":48.59052,"Longitude":-0.66007},"MapView":{"TopLeft":{"Latitude":48.59052,"Longitude":-0.66146},"BottomRight":{"Latitude":48.58996,"Longitude":-0.66007}},"Address":{"Label":"61700 Domfront en Poiraie, France","Country":"FRA","State":"Normandie","County":"Orne","City":"Domfront en Poiraie","District":"Domfront","PostalCode":"61700","AdditionalData":[{"value":"France","key":"CountryName"},{"value":"Normandie","key":"StateName"},{"value":"Orne","key":"CountyName"}]},"MapReference":{"ReferenceId":"827010956","Spot":1.0,"SideOfStreet":"right","CountryId":"20000001","StateId":"20057204","CountyId":"20075162","CityId":"20075588","DistrictId":"20075590"}}},{"Relevance":1.0,"Distance":31.1,"MatchLevel":"houseNumber","MatchQuality":{"Country":1.0,"State":1.0,"County":1.0,"City":1.0,"District":1.0,"Street":[1.0],"HouseNumber":1.0,"PostalCode":1.0},"MatchType":"interpolated","Location":{"LocationId":"NT_PCsrs70BCVYFclo2l.i7rA_0A","LocationType":"point","DisplayPosition":{"Latitude":48.58995,"Longitude":-0.66006},"MapView":{"TopLeft":{"Latitude":48.5910742,"Longitude":-0.6617595},"BottomRight":{"Latitude":48.5888258,"Longitude":-0.6583605}},"Address":{"Label":"4 Rue du Mont Saint-Michel, 61700 Domfront en Poiraie, France","Country":"FRA","State":"Normandie","County":"Orne","City":"Domfront en Poiraie","District":"Domfront","Street":"Rue du Mont Saint-Michel","HouseNumber":"4","PostalCode":"61700","AdditionalData":[{"value":"France","key":"CountryName"},{"value":"Normandie","key":"StateName"},{"value":"Orne","key":"CountyName"}]},"MapReference":{"ReferenceId":"568375997","Spot":0.75,"SideOfStreet":"left","CountryId":"20000001","StateId":"20057204","CountyId":"20075162","CityId":"20075588","DistrictId":"20075590","AddressId":"321654137","RoadLinkId":"47776984"}}},{"Relevance":1.0,"Distance":31.7,"MatchLevel":"street","MatchQuality":{"Country":1.0,"State":1.0,"County":1.0,"City":1.0,"District":1.0,"PostalCode":1.0},"Location":{"LocationId":"NT_hdW-syPgpXznYJ1jp9C6oA_l_1007324354_L","LocationType":"point","DisplayPosition":{"Latitude":48.5902635,"Longitude":-0.6596659},"MapView":{"TopLeft":{"Latitude":48.59164,"Longitude":-0.65968},"BottomRight":{"Latitude":48.59025,"Longitude":-0.65852}},"Address":{"Label":"61700 Domfront en Poiraie, France","Country":"FRA","State":"Normandie","County":"Orne","City":"Domfront en Poiraie","District":"Domfront","PostalCode":"61700","AdditionalData":[{"value":"France","key":"CountryName"},{"value":"Normandie","key":"StateName"},{"value":"Orne","key":"CountyName"}]},"MapReference":{"ReferenceId":"1007324354","Spot":0.01,"SideOfStreet":"left","CountryId":"20000001","StateId":"20057204","CountyId":"20075162","CityId":"20075588","DistrictId":"20075590"}}},{"Relevance":1.0,"Distance":32.4,"MatchLevel":"street","MatchQuality":{"Country":1.0,"State":1.0,"County":1.0,"City":1.0,"District":1.0,"Street":[1.0],"PostalCode":1.0},"Location":{"LocationId":"NT_ubun540wMBf8NzjWAntvVA_l_1007324352_R","LocationType":"point","DisplayPosition":{"Latitude":48.59025,"Longitude":-0.65968},"MapView":{"TopLeft":{"Latitude":48.59025,"Longitude":-0.65968},"BottomRight":{"Latitude":48.59007,"Longitude":-0.65943}},"Address":{"Label":"Route de Mortain, 61700 Domfront en Poiraie, France","Country":"FRA","State":"Normandie","County":"Orne","City":"Domfront en Poiraie","District":"Domfront","Street":"Route de Mortain","PostalCode":"61700","AdditionalData":[{"value":"France","key":"CountryName"},{"value":"Normandie","key":"StateName"},{"value":"Orne","key":"CountyName"}]},"MapReference":{"ReferenceId":"1007324352","Spot":1.0,"SideOfStreet":"right","CountryId":"20000001","StateId":"20057204","CountyId":"20075162","CityId":"20075588","DistrictId":"20075590"}}},{"Relevance":1.0,"Distance":59.5,"MatchLevel":"street","MatchQuality":{"Country":1.0,"State":1.0,"County":1.0,"City":1.0,"District":1.0,"Street":[1.0],"PostalCode":1.0},"Location":{"LocationId":"NT_BKi0iXM5cRdWrBMXhKliHC_l_782738213_L","LocationType":"point","DisplayPosition":{"Latitude":48.59005,"Longitude":-0.65947},"MapView":{"TopLeft":{"Latitude":48.59007,"Longitude":-0.65947},"BottomRight":{"Latitude":48.59005,"Longitude":-0.65943}},"Address":{"Label":"Rue de la Gare, 61700 Domfront en Poiraie, France","Country":"FRA","State":"Normandie","County":"Orne","City":"Domfront en Poiraie","District":"Domfront","Street":"Rue de la Gare","PostalCode":"61700","AdditionalData":[{"value":"France","key":"CountryName"},{"value":"Normandie","key":"StateName"},{"value":"Orne","key":"CountyName"}]},"MapReference":{"ReferenceId":"782738213","Spot":0.0,"SideOfStreet":"left","CountryId":"20000001","StateId":"20057204","CountyId":"20075162","CityId":"20075588","DistrictId":"20075590"}}}]}]}}