{"Response":{"MetaInfo":{"Timestamp":"2020-03-28T11:52:31.698+0000","NextPageInformation":"2"},"View":[{"_type":"SearchResultsViewType","ViewId":0,"Result":[{"Relevance":1.0,"Distance":-4111.3,"MatchLevel":"landmark","MatchQuality":{"Country":1.0,"State":1.0,"Name":1.0},"Location":{"LocationId":"NT_YOD7Kqg6SlbaImqDXmHbwC","LocationType":"park","Name":"P.N.R. Normandie-Maine","DisplayPosition":{"Latitude":48.54226,"Longitude":-0.5309},"MapView":{"TopLeft":{"Latitude":48.70906,"Longitude":-0.95641},"BottomRight":{"Latitude":48.37545,"Longitude":0.43129}},"Address":{"Label":"France","Country":"FRA","State":"Normandie","AdditionalData":[{"value":"France","key":"CountryName"},{"value":"Normandie","key":"StateName"}]},"MapReference":{"CountryId":"20000001","StateId":"20057204","PlaceId":"1508061127"}}},{"Relevance":1.0,"Distance":0.0,"Direction":0.0,"MatchLevel":"district","MatchQuality":{"Country":1.0,"State":1.0,"County":1.0,"City":1.0,"District":1.0,"PostalCode":1.0},"Location":{"LocationId":"NT_PEXfSczY7p5a6IMdq6uy5C","LocationType":"point","DisplayPosition":{"Latitude":48.550059,"Longitude":-0.424105},"MapView":{"TopLeft":{"Latitude":48.56113,"Longitude":-0.43461},"BottomRight":{"Latitude":48.54233,"Longitude":-0.4161}},"Address":{"Label":"Tessé-la-Madeleine, Bagnoles de l'Orne Normandie, Normandie, France","Country":"FRA","State":"Normandie","County":"Orne","City":"Bagnoles de l'Orne Normandie","District":"Tessé-la-Madeleine","PostalCode":"61140","AdditionalData":[{"value":"France","key":"CountryName"},{"value":"Normandie","key":"StateName"},{"value":"Orne","key":"CountyName"}]},"MapReference":{"ReferenceId":"568058363","SideOfStreet":"neither","CountryId":"20000001","StateId":"20057204","CountyId":"20075162","CityId":"20076587","DistrictId":"20076589"}}},{"Relevance":1.0,"Distance":10.5,"MatchLevel":"houseNumber","MatchQuality":{"Country":1.0,"State":1.0,"County":1.0,"City":1.0,"District":1.0,"Street":[1.0],"HouseNumber":1.0,"PostalCode":1.0},"MatchType":"interpolated","Location":{"LocationId":"NT_SxoYLcwJF2coGWApRUnxdC_yA","LocationType":"point","DisplayPosition":{"Latitude":48.55015,"Longitude":-0.42425},"MapView":{"TopLeft":{"Latitude":48.5512742,"Longitude":-0.4259482},"BottomRight":{"Latitude":48.5490258,"Longitude":-0.4225518}},"Address":{"Label":"2 Avenue du Maréchal de Tessé, 61140 Bagnoles de l'Orne Normandie, France","Country":"FRA","State":"Normandie","County":"Orne","City":"Bagnoles de l'Orne Normandie","District":"Tessé-la-Madeleine","Street":"Avenue du Maréchal de Tessé","HouseNumber":"2","PostalCode":"61140","AdditionalData":[{"value":"France","key":"CountryName"},{"value":"Normandie","key":"StateName"},{"value":"Orne","key":"CountyName"}]},"MapReference":{"ReferenceId":"782738114","Spot":0.59,"SideOfStreet":"right","CountryId":"20000001","StateId":"20057204","CountyId":"20075162","CityId":"20076587","DistrictId":"20076589","AddressId":"321663518","RoadLinkId":"175524341"}}},{"Relevance":1.0,"Distance":12.3,"MatchLevel":"houseNumber","MatchQuality":{"Country":1.0,"State":1.0,"County":1.0,"City":1.0,"District":1.0,"Street":[1.0],"HouseNumber":1.0,"PostalCode":1.0},"MatchType":"interpolated","Location":{"LocationId":"NT_fxEWtQjw9uUedmh8qgU4sA_1A","LocationType":"point","DisplayPosition":{"Latitude":48.5499,"Longitude":-0.42406},"MapView":{"TopLeft":{"Latitude":48.5510242,"Longitude":-0.4257582},"BottomRight":{"Latitude":48.5487758,"Longitude":-0.4223618}},"Address":{"Label":"5 Avenue du Docteur Pierre Noal, 61140 Bagnoles de l'Orne Normandie, France","Country":"FRA","State":"Normandie","County":"Orne","City":"Bagnoles de l'Orne Normandie","District":"Tessé-la-Madeleine","Street":"Avenue du Docteur Pierre Noal","HouseNumber":"5","PostalCode":"61140","AdditionalData":[{"value":"France","key":"CountryName"},{"value":"Normandie","key":"StateName"},{"value":"Orne","key":"CountyName"}]},"MapReference":{"ReferenceId":"782738115","Spot":0.32,"SideOfStreet":"left","CountryId":"20000001","StateId":"20057204","CountyId":"20075162","CityId":"20076587","DistrictId":"20076589","AddressId":"321710097","RoadLinkId":"175524344"}}},{"Relevance":1.0,"Distance":31.9,"MatchLevel":"street","MatchQuality":{"Country":1.0,"State":1.0,"County":1.0,"City":1.0,"District":1.0,"Street":[1.0],"PostalCode":1.0},"Location":{"LocationId":"NT_G1j8IAPPt7MfNbK3DptdyC_l_568058848_R","LocationType":"point","DisplayPosition":{"Latitude":48.55019,"Longitude":-0.42449},"MapView":{"TopLeft":{"Latitude":48.55019,"Longitude":-0.42473},"BottomRight":{"Latitude":48.54974,"Longitude":-0.42449}},"Address":{"Label":"Avenue du Maréchal de Tessé, 61140 Bagnoles de l'Orne Normandie, France","Country":"FRA","State":"Normandie","County":"Orne","City":"Bagnoles de l'Orne Normandie","District":"Tessé-la-Madeleine","Street":"Avenue du Maréchal de Tessé","PostalCode":"61140","AdditionalData":[{"value":"France","key":"CountryName"},{"value":"Normandie","key":"StateName"},{"value":"Orne","key":"CountyName"}]},"MapReference":{"ReferenceId":"568058848","Spot":1.0,"SideOfStreet":"right","CountryId":"20000001","StateId":"20057204","CountyId":"20075162","CityId":"20076587","DistrictId":"20076589"}}},{"Relevance":1.0,"Distance":36.1,"MatchLevel":"houseNumber","MatchQuality":{"Country":1.0,"State":1.0,"County":1.0,"City":1.0,"District":1.0,"Street":[1.0],"HouseNumber":1.0,"PostalCode":1.0},"MatchType":"interpolated","Location":{"LocationId":"NT_fxEWtQjw9uUedmh8qgU4sA_l_773465811_R_xMDO","LocationType":"point","DisplayPosition":{"Latitude":48.5496533,"Longitude":-0.4244311},"MapView":{"TopLeft":{"Latitude":48.5507775,"Longitude":-0.4261293},"BottomRight":{"Latitude":48.5485291,"Longitude":-0.4227329}},"Address":{"Label":"138 Avenue du Docteur Pierre Noal, 61140 Bagnoles de l'Orne Normandie, France","Country":"FRA","State":"Normandie","County":"Orne","City":"Bagnoles de l'Orne Normandie","District":"Tessé-la-Madeleine","Street":"Avenue du Docteur Pierre Noal","HouseNumber":"138","PostalCode":"61140","AdditionalData":[{"value":"France","key":"CountryName"},{"value":"Normandie","key":"StateName"},{"value":"Orne","key":"CountyName"}]},"MapReference":{"ReferenceId":"773465811","Spot":0.83,"SideOfStreet":"right","CountryId":"20000001","StateId":"20057204","CountyId":"20075162","CityId":"20076587","DistrictId":"20076589"}}},{"Relevance":1.0,"Distance":38.4,"MatchLevel":"street","MatchQuality":{"Country":1.0,"State":1.0,"County":1.0,"City":1.0,"District":1.0,"Street":[1.0],"PostalCode":1.0},"Location":{"LocationId":"NT_fxEWtQjw9uUedmh8qgU4sA_l_568058363_L","LocationType":"point","DisplayPosition":{"Latitude":48.5498,"Longitude":-0.42445},"MapView":{"TopLeft":{"Latitude":48.5498,"Longitude":-0.42456},"BottomRight":{"Latitude":48.54978,"Longitude":-0.42445}},"Address":{"Label":"Avenue du Docteur Pierre Noal, 61140 Bagnoles de l'Orne Normandie, France","Country":"FRA","State":"Normandie","County":"Orne","City":"Bagnoles de l'Orne Normandie","District":"Tessé-la-Madeleine","Street":"Avenue du Docteur Pierre Noal","PostalCode":"61140","AdditionalData":[{"value":"France","key":"CountryName"},{"value":"Normandie","key":"StateName"},{"value":"Orne","key":"CountyName"}]},"MapReference":{"ReferenceId":"568058363","Spot":1.0,"SideOfStreet":"left","CountryId":"20000001","StateId":"20057204","CountyId":"20075162","CityId":"20076587","DistrictId":"20076589"}}},{"Relevance":1.0,"Distance":39.2,"MatchLevel":"street","MatchQuality":{"Country":1.0,"State":1.0,"County":1.0,"City":1.0,"District":1.0,"Street":[1.0],"PostalCode":1.0},"Location":{"LocationId":"NT_SxoYLcwJF2coGWApRUnxdC_l_783161291_L","LocationType":"point","DisplayPosition":{"Latitude":48.55041,"Longitude":-0.42405},"MapView":{"TopLeft":{"Latitude":48.55066,"Longitude":-0.42416},"BottomRight":{"Latitude":48.55041,"Longitude":-0.42405}},"Address":{"Label":"Avenue du Maréchal de Tessé, 61140 Bagnoles de l'Orne Normandie, France","Country":"FRA","State":"Normandie","County":"Orne","City":"Bagnoles de l'Orne Normandie","District":"Tessé-la-Madeleine","Street":"Avenue du Maréchal de Tessé","PostalCode":"61140","AdditionalData":[{"value":"France","key":"CountryName"},{"value":"Normandie","key":"StateName"},{"value":"Orne","key":"CountyName"}]},"MapReference":{"ReferenceId":"783161291","Spot":0.0,"SideOfStreet":"left","CountryId":"20000001","StateId":"20057204","CountyId":"20075162","CityId":"20076587","DistrictId":"20076589"}}},{"Relevance":1.0,"Distance":40.8,"MatchLevel":"houseNumber","MatchQuality":{"Country":1.0,"State":1.0,"County":1.0,"City":1.0,"District":1.0,"Street":[1.0],"HouseNumber":1.0,"PostalCode":1.0},"MatchType":"interpolated","Location":{"LocationId":"NT_tBuMhMUJeVmB6n57YuaUJB_l_782738113_L_xUD","LocationType":"point","DisplayPosition":{"Latitude":48.5497756,"Longitude":-0.4245789},"MapView":{"TopLeft":{"Latitude":48.5508997,"Longitude":-0.4262771},"BottomRight":{"Latitude":48.5486514,"Longitude":-0.4228807}},"Address":{"Label":"15 Place de l'Église, 61140 Bagnoles de l'Orne Normandie, France","Country":"FRA","State":"Normandie","County":"Orne","City":"Bagnoles de l'Orne Normandie","District":"Tessé-la-Madeleine","Street":"Place de l'Église","HouseNumber":"15","PostalCode":"61140","AdditionalData":[{"value":"France","key":"CountryName"},{"value":"Normandie","key":"StateName"},{"value":"Orne","key":"CountyName"}]},"MapReference":{"ReferenceId":"782738113","Spot":0.89,"SideOfStreet":"left","CountryId":"20000001","StateId":"20057204","CountyId":"20075162","CityId":"20076587","DistrictId":"20076589"}}},{"Relevance":1.0,"Distance":45.8,"MatchLevel":"houseNumber","MatchQuality":{"Country":1.0,"State":1.0,"County":1.0,"City":1.0,"District":1.0,"Street":[1.0],"HouseNumber":1.0,"PostalCode":1.0},"MatchType":"interpolated","Location":{"LocationId":"NT_G1j8IAPPt7MfNbK3DptdyC_l_783161293_L_0YDO","LocationType":"point","DisplayPosition":{"Latitude":48.5504367,"Longitude":-0.4243539},"MapView":{"TopLeft":{"Latitude":48.5515608,"Longitude":-0.4260521},"BottomRight":{"Latitude":48.5493125,"Longitude":-0.4226557}},"Address":{"Label":"468 Avenue du Maréchal de Tessé, 61140 Bagnoles de l'Orne Normandie, France","Country":"FRA","State":"Normandie","County":"Orne","City":"Bagnoles de l'Orne Normandie","District":"Tessé-la-Madeleine","Street":"Avenue du Maréchal de Tessé","HouseNumber":"468","PostalCode":"61140","AdditionalData":[{"value":"France","key":"CountryName"},{"value":"Normandie","key":"StateName"},{"value":"Orne","key":"CountyName"}]},"MapReference":{"ReferenceId":"783161293","Spot":0.48,"SideOfStreet":"left","CountryId":"20000001","StateId":"20057204","CountyId":"20075162","CityId":"20076587","DistrictId":"20076589"}}}]}]}}