{"Response":{"MetaInfo":{"Timestamp":"2020-03-28T10:59:22.323+0000","NextPageInformation":"2"},"View":[{"_type":"SearchResultsViewType","ViewId":0,"Result":[{"Relevance":1.0,"Distance":0.0,"Direction":0.0,"MatchLevel":"district","MatchQuality":{"Country":1.0,"State":1.0,"County":1.0,"City":1.0,"District":1.0,"PostalCode":1.0},"Location":{"LocationId":"NT_pG0Qhk6Vq.0dWoHRBLK4WB","LocationType":"point","DisplayPosition":{"Latitude":48.5420231,"Longitude":8.7215703},"MapView":{"TopLeft":{"Latitude":48.56921,"Longitude":8.71056},"BottomRight":{"Latitude":48.53308,"Longitude":8.75953}},"Address":{"Label":"Nagold, Baden-Württemberg, Deutschland","Country":"DEU","State":"Baden-Württemberg","County":"Calw","City":"Nagold","District":"Nagold","PostalCode":"72202","AdditionalData":[{"value":"Deutschland","key":"CountryName"},{"value":"Baden-Württemberg","key":"StateName"},{"value":"Calw","key":"CountyName"}]},"MapReference":{"ReferenceId":"76813401","SideOfStreet":"neither","CountryId":"20147700","StateId":"20171489","CountyId":"20173986","CityId":"20174043","DistrictId":"20174050"}}},{"Relevance":1.0,"Distance":12.8,"MatchLevel":"street","MatchQuality":{"Country":1.0,"State":1.0,"County":1.0,"City":1.0,"District":1.0,"Street":[1.0],"PostalCode":1.0},"Location":{"LocationId":"NT_hW8hHfiUAyPHu4kaWcKK7C_l_1252107140_R","LocationType":"point","DisplayPosition":{"Latitude":48.5419242,"Longitude":8.7214804},"MapView":{"TopLeft":{"Latitude":48.54198,"Longitude":8.72122},"BottomRight":{"Latitude":48.5417,"Longitude":8.72175}},"Address":{"Label":"Röntgenstraße, 72202 Nagold, Deutschland","Country":"DEU","State":"Baden-Württemberg","County":"Calw","City":"Nagold","District":"Nagold","Street":"Röntgenstraße","PostalCode":"72202","AdditionalData":[{"value":"Deutschland","key":"CountryName"},{"value":"Baden-Württemberg","key":"StateName"},{"value":"Calw","key":"CountyName"}]},"MapReference":{"ReferenceId":"1252107140","Spot":0.55,"SideOfStreet":"right","CountryId":"20147700","StateId":"20171489","CountyId":"20173986","CityId":"20174043","DistrictId":"20174050"}}},{"Relevance":1.0,"Distance":26.1,"MatchLevel":"street","MatchQuality":{"Country":1.0,"State":1.0,"County":1.0,"City":1.0,"District":1.0,"PostalCode":1.0},"Location":{"LocationId":"NT_ovfYHQUKHc2f11DrYKH53B_l_1252368989_R","LocationType":"point","DisplayPosition":{"Latitude":48.541814,"Longitude":8.7214077},"MapView":{"TopLeft":{"Latitude":48.54196,"Longitude":8.72122},"BottomRight":{"Latitude":48.54115,"Longitude":8.72227}},"Address":{"Label":"72202 Nagold, Deutschland","Country":"DEU","State":"Baden-Württemberg","County":"Calw","City":"Nagold","District":"Nagold","PostalCode":"72202","AdditionalData":[{"value":"Deutschland","key":"CountryName"},{"value":"Baden-Württemberg","key":"StateName"},{"value":"Calw","key":"CountyName"}]},"MapReference":{"ReferenceId":"1252368989","Spot":0.82,"SideOfStreet":"right","CountryId":"20147700","StateId":"20171489","CountyId":"20173986","CityId":"20174043","DistrictId":"20174050"}}},{"Relevance":1.0,"Distance":26.7,"MatchLevel":"street","MatchQuality":{"Country":1.0,"State":1.0,"County":1.0,"City":1.0,"District":1.0,"Street":[1.0],"PostalCode":1.0},"Location":{"LocationId":"NT_hW8hHfiUAyPHu4kaWcKK7C_l_1252107141_R","LocationType":"point","DisplayPosition":{"Latitude":48.54196,"Longitude":8.72122},"MapView":{"TopLeft":{"Latitude":48.54196,"Longitude":8.72113},"BottomRight":{"Latitude":48.54193,"Longitude":8.72122}},"Address":{"Label":"Röntgenstraße, 72202 Nagold, Deutschland","Country":"DEU","State":"Baden-Württemberg","County":"Calw","City":"Nagold","District":"Nagold","Street":"Röntgenstraße","PostalCode":"72202","AdditionalData":[{"value":"Deutschland","key":"CountryName"},{"value":"Baden-Württemberg","key":"StateName"},{"value":"Calw","key":"CountyName"}]},"MapReference":{"ReferenceId":"1252107141","Spot":1.0,"SideOfStreet":"right","CountryId":"20147700","StateId":"20171489","CountyId":"20173986","CityId":"20174043","DistrictId":"20174050"}}},{"Relevance":1.0,"Distance":28.0,"MatchLevel":"street","MatchQuality":{"Country":1.0,"State":1.0,"County":1.0,"City":1.0,"District":1.0,"PostalCode":1.0},"Location":{"LocationId":"NT_ovfYHQUKHc2f11DrYKH53B_l_76855661_L","LocationType":"point","DisplayPosition":{"Latitude":48.5422508,"Longitude":8.7214095},"MapView":{"TopLeft":{"Latitude":48.54268,"Longitude":8.72138},"BottomRight":{"Latitude":48.54141,"Longitude":8.72322}},"Address":{"Label":"72202 Nagold, Deutschland","Country":"DEU","State":"Baden-Württemberg","County":"Calw","City":"Nagold","District":"Nagold","PostalCode":"72202","AdditionalData":[{"value":"Deutschland","key":"CountryName"},{"value":"Baden-Württemberg","key":"StateName"},{"value":"Calw","key":"CountyName"}]},"MapReference":{"ReferenceId":"76855661","Spot":0.99,"SideOfStreet":"left","CountryId":"20147700","StateId":"20171489","CountyId":"20173986","CityId":"20174043","DistrictId":"20174050"}}},{"Relevance":1.0,"Distance":40.1,"MatchLevel":"street","MatchQuality":{"Country":1.0,"State":1.0,"County":1.0,"City":1.0,"District":1.0,"Street":[1.0],"PostalCode":1.0},"Location":{"LocationId":"NT_hW8hHfiUAyPHu4kaWcKK7C_l_1252368988_R","LocationType":"point","DisplayPosition":{"Latitude":48.5417033,"Longitude":8.7213178},"MapView":{"TopLeft":{"Latitude":48.54193,"Longitude":8.72113},"BottomRight":{"Latitude":48.54113,"Longitude":8.72227}},"Address":{"Label":"Röntgenstraße, 72202 Nagold, Deutschland","Country":"DEU","State":"Baden-Württemberg","County":"Calw","City":"Nagold","District":"Nagold","Street":"Röntgenstraße","PostalCode":"72202","AdditionalData":[{"value":"Deutschland","key":"CountryName"},{"value":"Baden-Württemberg","key":"StateName"},{"value":"Calw","key":"CountyName"}]},"MapReference":{"ReferenceId":"1252368988","Spot":0.79,"SideOfStreet":"right","CountryId":"20147700","StateId":"20171489","CountyId":"20173986","CityId":"20174043","DistrictId":"20174050"}}},{"Relevance":1.0,"Distance":52.0,"MatchLevel":"houseNumber","MatchQuality":{"Country":1.0,"State":1.0,"County":1.0,"City":1.0,"District":1.0,"Street":[1.0],"HouseNumber":1.0,"PostalCode":1.0},"MatchType":"interpolated","Location":{"LocationId":"NT_yEynb5orOO1sOK8lRa1qWA_yUD","LocationType":"point","DisplayPosition":{"Latitude":48.54206,"Longitude":8.72083},"MapView":{"TopLeft":{"Latitude":48.5431842,"Longitude":8.7191321},"BottomRight":{"Latitude":48.5409358,"Longitude":8.7225279}},"Address":{"Label":"Uhlandstraße 25, 72202 Nagold, Deutschland","Country":"DEU","State":"Baden-Württemberg","County":"Calw","City":"Nagold","District":"Nagold","Street":"Uhlandstraße","HouseNumber":"25","PostalCode":"72202","AdditionalData":[{"value":"Deutschland","key":"CountryName"},{"value":"Baden-Württemberg","key":"StateName"},{"value":"Calw","key":"CountyName"}]},"MapReference":{"ReferenceId":"76855660","Spot":0.57,"SideOfStreet":"left","CountryId":"20147700","StateId":"20171489","CountyId":"20173986","CityId":"20174043","DistrictId":"20174050","AddressId":"178733314","RoadLinkId":"38359663"}}},{"Relevance":1.0,"Distance":52.1,"MatchLevel":"houseNumber","MatchQuality":{"Country":1.0,"State":1.0,"County":1.0,"City":1.0,"District":1.0,"Street":[1.0],"HouseNumber":1.0,"PostalCode":1.0},"MatchType":"interpolated","Location":{"LocationId":"NT_yEynb5orOO1sOK8lRa1qWA_yUzLxA","LocationType":"point","DisplayPosition":{"Latitude":48.54245,"Longitude":8.72128},"MapView":{"TopLeft":{"Latitude":48.5435742,"Longitude":8.7195821},"BottomRight":{"Latitude":48.5413258,"Longitude":8.7229779}},"Address":{"Label":"Uhlandstraße 25/1, 72202 Nagold, Deutschland","Country":"DEU","State":"Baden-Württemberg","County":"Calw","City":"Nagold","District":"Nagold","Street":"Uhlandstraße","HouseNumber":"25/1","PostalCode":"72202","AdditionalData":[{"value":"Deutschland","key":"CountryName"},{"value":"Baden-Württemberg","key":"StateName"},{"value":"Calw","key":"CountyName"}]},"MapReference":{"ReferenceId":"73565929","Spot":0.33,"SideOfStreet":"left","CountryId":"20147700","StateId":"20171489","CountyId":"20173986","CityId":"20174043","DistrictId":"20174050","AddressId":"178692336","RoadLinkId":"38595416"}}},{"Relevance":1.0,"Distance":66.3,"MatchLevel":"houseNumber","MatchQuality":{"Country":1.0,"State":1.0,"County":1.0,"City":1.0,"District":1.0,"Street":[1.0],"HouseNumber":1.0,"PostalCode":1.0},"MatchType":"interpolated","Location":{"LocationId":"NT_hW8hHfiUAyPHu4kaWcKK7C_l_589245857_R_yAD","LocationType":"point","DisplayPosition":{"Latitude":48.5414512,"Longitude":8.7220734},"MapView":{"TopLeft":{"Latitude":48.5425753,"Longitude":8.7203755},"BottomRight":{"Latitude":48.540327,"Longitude":8.7237713}},"Address":{"Label":"Röntgenstraße 20, 72202 Nagold, Deutschland","Country":"DEU","State":"Baden-Württemberg","County":"Calw","City":"Nagold","District":"Nagold","Street":"Röntgenstraße","HouseNumber":"20","PostalCode":"72202","AdditionalData":[{"value":"Deutschland","key":"CountryName"},{"value":"Baden-Württemberg","key":"StateName"},{"value":"Calw","key":"CountyName"}]},"MapReference":{"ReferenceId":"589245857","Spot":0.5,"SideOfStreet":"right","CountryId":"20147700","StateId":"20171489","CountyId":"20173986","CityId":"20174043","DistrictId":"20174050"}}},{"Relevance":1.0,"Distance":93.6,"MatchLevel":"houseNumber","MatchQuality":{"Country":1.0,"State":1.0,"County":1.0,"City":1.0,"District":1.0,"Street":[1.0],"HouseNumber":1.0,"PostalCode":1.0},"MatchType":"interpolated","Location":{"LocationId":"NT_QSa2rwPr6VAY0b1MswEWJB_xAD","LocationType":"point","DisplayPosition":{"Latitude":48.5415,"Longitude":8.7204},"MapView":{"TopLeft":{"Latitude":48.5426242,"Longitude":8.7187021},"BottomRight":{"Latitude":48.5403758,"Longitude":8.7220979}},"Address":{"Label":"Hebelstraße 10, 72202 Nagold, Deutschland","Country":"DEU","State":"Baden-Württemberg","County":"Calw","City":"Nagold","District":"Nagold","Street":"Hebelstraße","HouseNumber":"10","PostalCode":"72202","AdditionalData":[{"value":"Deutschland","key":"CountryName"},{"value":"Baden-Württemberg","key":"StateName"},{"value":"Calw","key":"CountyName"}]},"MapReference":{"ReferenceId":"73565952","Spot":1.0,"SideOfStreet":"right","CountryId":"20147700","StateId":"20171489","CountyId":"20173986","CityId":"20174043","DistrictId":"20174050","AddressId":"177350795","RoadLinkId":"38186826"}}}]}]}}