{"Response":{"MetaInfo":{"Timestamp":"2020-03-28T10:29:26.048+0000","NextPageInformation":"2"},"View":[{"_type":"SearchResultsViewType","ViewId":0,"Result":[{"Relevance":1.0,"Distance":0.0,"Direction":0.0,"MatchLevel":"city","MatchQuality":{"Country":1.0,"State":1.0,"County":1.0,"City":1.0,"PostalCode":1.0},"Location":{"LocationId":"NT_dl7vTecbCU9E7S51gbcrZB","LocationType":"point","DisplayPosition":{"Latitude":48.6694716,"Longitude":-3.9155809},"MapView":{"TopLeft":{"Latitude":48.70011,"Longitude":-3.94225},"BottomRight":{"Latitude":48.63524,"Longitude":-3.88057}},"Address":{"Label":"Carantec, Bretagne, France","Country":"FRA","State":"Bretagne","County":"Finistère","City":"Carantec","PostalCode":"29660","AdditionalData":[{"value":"France","key":"CountryName"},{"value":"Bretagne","key":"StateName"},{"value":"Finistère","key":"CountyName"}]},"MapReference":{"ReferenceId":"552758011","SideOfStreet":"neither","CountryId":"20000001","StateId":"20060199","CountyId":"20064592","CityId":"20064658"}}},{"Relevance":1.0,"Distance":13.2,"MatchLevel":"houseNumber","MatchQuality":{"Country":1.0,"State":1.0,"County":1.0,"City":1.0,"Street":[1.0],"HouseNumber":1.0,"PostalCode":1.0},"MatchType":"interpolated","Location":{"LocationId":"NT_N.CTDwXjPrFaQ89abPeFpC_4A","LocationType":"point","DisplayPosition":{"Latitude":48.66958,"Longitude":-3.91544},"MapView":{"TopLeft":{"Latitude":48.6707042,"Longitude":-3.9171422},"BottomRight":{"Latitude":48.6684558,"Longitude":-3.9137378}},"Address":{"Label":"8 Rue du Maréchal Foch, 29660 Carantec, France","Country":"FRA","State":"Bretagne","County":"Finistère","City":"Carantec","Street":"Rue du Maréchal Foch","HouseNumber":"8","PostalCode":"29660","AdditionalData":[{"value":"France","key":"CountryName"},{"value":"Bretagne","key":"StateName"},{"value":"Finistère","key":"CountyName"}]},"MapReference":{"ReferenceId":"552764363","Spot":0.26,"SideOfStreet":"left","CountryId":"20000001","StateId":"20060199","CountyId":"20064592","CityId":"20064658","AddressId":"570371552","RoadLinkId":"47095402"}}},{"Relevance":1.0,"Distance":24.4,"MatchLevel":"houseNumber","MatchQuality":{"Country":1.0,"State":1.0,"County":1.0,"City":1.0,"Street":[1.0],"HouseNumber":1.0,"PostalCode":1.0},"MatchType":"interpolated","Location":{"LocationId":"NT_N.CTDwXjPrFaQ89abPeFpC_0A","LocationType":"point","DisplayPosition":{"Latitude":48.66935,"Longitude":-3.9153},"MapView":{"TopLeft":{"Latitude":48.6704742,"Longitude":-3.9170022},"BottomRight":{"Latitude":48.6682258,"Longitude":-3.9135978}},"Address":{"Label":"4 Rue du Maréchal Foch, 29660 Carantec, France","Country":"FRA","State":"Bretagne","County":"Finistère","City":"Carantec","Street":"Rue du Maréchal Foch","HouseNumber":"4","PostalCode":"29660","AdditionalData":[{"value":"France","key":"CountryName"},{"value":"Bretagne","key":"StateName"},{"value":"Finistère","key":"CountyName"}]},"MapReference":{"ReferenceId":"552764042","Spot":0.68,"SideOfStreet":"left","CountryId":"20000001","StateId":"20060199","CountyId":"20064592","CityId":"20064658","AddressId":"570490865","RoadLinkId":"46441645"}}},{"Relevance":1.0,"Distance":24.9,"MatchLevel":"houseNumber","MatchQuality":{"Country":1.0,"State":1.0,"County":1.0,"City":1.0,"Street":[1.0],"HouseNumber":1.0,"PostalCode":1.0},"MatchType":"interpolated","Location":{"LocationId":"NT_A7IwOLX5oZKPLl2fuQJ1CD_xA","LocationType":"point","DisplayPosition":{"Latitude":48.66923,"Longitude":-3.91571},"MapView":{"TopLeft":{"Latitude":48.6703542,"Longitude":-3.9174122},"BottomRight":{"Latitude":48.6681058,"Longitude":-3.9140078}},"Address":{"Label":"1 Rue Suffren, 29660 Carantec, France","Country":"FRA","State":"Bretagne","County":"Finistère","City":"Carantec","Street":"Rue Suffren","HouseNumber":"1","PostalCode":"29660","AdditionalData":[{"value":"France","key":"CountryName"},{"value":"Bretagne","key":"StateName"},{"value":"Finistère","key":"CountyName"}]},"MapReference":{"ReferenceId":"552764046","Spot":0.13,"SideOfStreet":"left","CountryId":"20000001","StateId":"20060199","CountyId":"20064592","CityId":"20064658","AddressId":"320288643","RoadLinkId":"47005333"}}},{"Relevance":1.0,"Distance":34.6,"MatchLevel":"houseNumber","MatchQuality":{"Country":1.0,"State":1.0,"County":1.0,"City":1.0,"Street":[1.0],"HouseNumber":1.0,"PostalCode":1.0},"MatchType":"interpolated","Location":{"LocationId":"NT_r5weewaBnPCT9Swk0KiUrC_xA","LocationType":"point","DisplayPosition":{"Latitude":48.66931,"Longitude":-3.91602},"MapView":{"TopLeft":{"Latitude":48.6704342,"Longitude":-3.9177222},"BottomRight":{"Latitude":48.6681858,"Longitude":-3.9143178}},"Address":{"Label":"1 Rue Colbert, 29660 Carantec, France","Country":"FRA","State":"Bretagne","County":"Finistère","City":"Carantec","Street":"Rue Colbert","HouseNumber":"1","PostalCode":"29660","AdditionalData":[{"value":"France","key":"CountryName"},{"value":"Bretagne","key":"StateName"},{"value":"Finistère","key":"CountyName"}]},"MapReference":{"ReferenceId":"552764059","Spot":0.31,"SideOfStreet":"right","CountryId":"20000001","StateId":"20060199","CountyId":"20064592","CityId":"20064658","AddressId":"320626885","RoadLinkId":"47094689"}}},{"Relevance":1.0,"Distance":38.0,"MatchLevel":"houseNumber","MatchQuality":{"Country":1.0,"State":1.0,"County":1.0,"City":1.0,"Street":[1.0],"HouseNumber":1.0,"PostalCode":1.0},"MatchType":"interpolated","Location":{"LocationId":"NT_r5weewaBnPCT9Swk0KiUrC_0A","LocationType":"point","DisplayPosition":{"Latitude":48.66913,"Longitude":-3.91558},"MapView":{"TopLeft":{"Latitude":48.6702542,"Longitude":-3.9172822},"BottomRight":{"Latitude":48.6680058,"Longitude":-3.9138778}},"Address":{"Label":"4 Rue Colbert, 29660 Carantec, France","Country":"FRA","State":"Bretagne","County":"Finistère","City":"Carantec","Street":"Rue Colbert","HouseNumber":"4","PostalCode":"29660","AdditionalData":[{"value":"France","key":"CountryName"},{"value":"Bretagne","key":"StateName"},{"value":"Finistère","key":"CountyName"}]},"MapReference":{"ReferenceId":"552764048","Spot":0.5,"SideOfStreet":"left","CountryId":"20000001","StateId":"20060199","CountyId":"20064592","CityId":"20064658","AddressId":"320614516","RoadLinkId":"47882646"}}},{"Relevance":1.0,"Distance":42.1,"MatchLevel":"houseNumber","MatchQuality":{"Country":1.0,"State":1.0,"County":1.0,"City":1.0,"Street":[1.0],"HouseNumber":1.0,"PostalCode":1.0},"MatchType":"interpolated","Location":{"LocationId":"NT_eUTn0OOCZoe7FS0vYWoEBA_zA","LocationType":"point","DisplayPosition":{"Latitude":48.66909,"Longitude":-3.91535},"MapView":{"TopLeft":{"Latitude":48.6702142,"Longitude":-3.9170522},"BottomRight":{"Latitude":48.6679658,"Longitude":-3.9136478}},"Address":{"Label":"3 Place de la République, 29660 Carantec, France","Country":"FRA","State":"Bretagne","County":"Finistère","City":"Carantec","Street":"Place de la République","HouseNumber":"3","PostalCode":"29660","AdditionalData":[{"value":"France","key":"CountryName"},{"value":"Bretagne","key":"StateName"},{"value":"Finistère","key":"CountyName"}]},"MapReference":{"ReferenceId":"552764049","Spot":0.19,"SideOfStreet":"left","CountryId":"20000001","StateId":"20060199","CountyId":"20064592","CityId":"20064658","AddressId":"320625627","RoadLinkId":"47526706"}}},{"Relevance":1.0,"Distance":45.2,"MatchLevel":"houseNumber","MatchQuality":{"Country":1.0,"State":1.0,"County":1.0,"City":1.0,"Street":[1.0],"HouseNumber":1.0,"PostalCode":1.0},"MatchType":"interpolated","Location":{"LocationId":"NT_A7IwOLX5oZKPLl2fuQJ1CD_zA","LocationType":"point","DisplayPosition":{"Latitude":48.66912,"Longitude":-3.91589},"MapView":{"TopLeft":{"Latitude":48.6702442,"Longitude":-3.9175922},"BottomRight":{"Latitude":48.6679958,"Longitude":-3.9141878}},"Address":{"Label":"3 Rue Suffren, 29660 Carantec, France","Country":"FRA","State":"Bretagne","County":"Finistère","City":"Carantec","Street":"Rue Suffren","HouseNumber":"3","PostalCode":"29660","AdditionalData":[{"value":"France","key":"CountryName"},{"value":"Bretagne","key":"StateName"},{"value":"Finistère","key":"CountyName"}]},"MapReference":{"ReferenceId":"552764045","Spot":0.86,"SideOfStreet":"left","CountryId":"20000001","StateId":"20060199","CountyId":"20064592","CityId":"20064658","AddressId":"320321645","RoadLinkId":"46852169"}}},{"Relevance":1.0,"Distance":54.3,"MatchLevel":"houseNumber","MatchQuality":{"Country":1.0,"State":1.0,"County":1.0,"City":1.0,"Street":[1.0],"HouseNumber":1.0,"PostalCode":1.0},"MatchType":"interpolated","Location":{"LocationId":"NT_eUTn0OOCZoe7FS0vYWoEBA_1A","LocationType":"point","DisplayPosition":{"Latitude":48.66902,"Longitude":-3.9153},"MapView":{"TopLeft":{"Latitude":48.6701442,"Longitude":-3.9170022},"BottomRight":{"Latitude":48.6678958,"Longitude":-3.9135978}},"Address":{"Label":"5 Place de la République, 29660 Carantec, France","Country":"FRA","State":"Bretagne","County":"Finistère","City":"Carantec","Street":"Place de la République","HouseNumber":"5","PostalCode":"29660","AdditionalData":[{"value":"France","key":"CountryName"},{"value":"Bretagne","key":"StateName"},{"value":"Finistère","key":"CountyName"}]},"MapReference":{"ReferenceId":"552764047","Spot":0.77,"SideOfStreet":"left","CountryId":"20000001","StateId":"20060199","CountyId":"20064592","CityId":"20064658","AddressId":"320636852","RoadLinkId":"47876113"}}},{"Relevance":1.0,"Distance":55.0,"MatchLevel":"houseNumber","MatchQuality":{"Country":1.0,"State":1.0,"County":1.0,"City":1.0,"Street":[1.0],"HouseNumber":1.0,"PostalCode":1.0},"MatchType":"interpolated","Location":{"LocationId":"NT_eUTn0OOCZoe7FS0vYWoEBA_l_552764044_R_xA","LocationType":"point","DisplayPosition":{"Latitude":48.6691028,"Longitude":-3.91506},"MapView":{"TopLeft":{"Latitude":48.670227,"Longitude":-3.9167622},"BottomRight":{"Latitude":48.6679787,"Longitude":-3.9133578}},"Address":{"Label":"1 Place de la République, 29660 Carantec, France","Country":"FRA","State":"Bretagne","County":"Finistère","City":"Carantec","Street":"Place de la République","HouseNumber":"1","PostalCode":"29660","AdditionalData":[{"value":"France","key":"CountryName"},{"value":"Bretagne","key":"StateName"},{"value":"Finistère","key":"CountyName"}]},"MapReference":{"ReferenceId":"552764044","Spot":0.53,"SideOfStreet":"right","CountryId":"20000001","StateId":"20060199","CountyId":"20064592","CityId":"20064658"}}}]}]}}