{"Response":{"MetaInfo":{"Timestamp":"2020-03-28T11:37:03.988+0000","NextPageInformation":"2"},"View":[{"_type":"SearchResultsViewType","ViewId":0,"Result":[{"Relevance":1.0,"Distance":0.0,"Direction":0.0,"MatchLevel":"district","MatchQuality":{"Country":1.0,"State":1.0,"County":1.0,"City":1.0,"District":1.0,"PostalCode":1.0},"Location":{"LocationId":"NT_IoXy-ZjJiw5Mod.EDmn4xB","LocationType":"point","DisplayPosition":{"Latitude":48.6249165,"Longitude":21.1916529},"MapView":{"TopLeft":{"Latitude":48.73316,"Longitude":21.12069},"BottomRight":{"Latitude":48.57006,"Longitude":21.24713}},"Address":{"Label":"Košice II, Košice, Košický kraj, Slovenská Republika","Country":"SVK","State":"Košický kraj","County":"Košice","City":"Košice","District":"Košice II","PostalCode":"040 11","AdditionalData":[{"value":"Slovenská Republika","key":"CountryName"},{"value":"Košický kraj","key":"StateName"},{"value":"Košice","key":"CountyName"}]},"MapReference":{"ReferenceId":"585971248","SideOfStreet":"neither","CountryId":"20428682","StateId":"20488628","CountyId":"20488897","CityId":"20488898","DistrictId":"20488900"}}},{"Relevance":1.0,"Distance":23.2,"MatchLevel":"street","MatchQuality":{"Country":1.0,"State":1.0,"County":1.0,"City":1.0,"District":1.0,"PostalCode":1.0},"Location":{"LocationId":"NT_FoF6MxT4UQuYJ-Zy56aXUD_l_799799400_R","LocationType":"point","DisplayPosition":{"Latitude":48.6251143,"Longitude":21.1915508},"MapView":{"TopLeft":{"Latitude":48.62515,"Longitude":21.19069},"BottomRight":{"Latitude":48.62467,"Longitude":21.19162}},"Address":{"Label":"044 54 Košice, Slovenská Republika","Country":"SVK","State":"Košický kraj","County":"Košice","City":"Košice","District":"Košice II","PostalCode":"044 54","AdditionalData":[{"value":"Slovenská Republika","key":"CountryName"},{"value":"Košický kraj","key":"StateName"},{"value":"Košice","key":"CountyName"}]},"MapReference":{"ReferenceId":"799799400","Spot":0.93,"SideOfStreet":"right","CountryId":"20428682","StateId":"20488628","CountyId":"20488897","CityId":"20488898","DistrictId":"20488900"}}},{"Relevance":1.0,"Distance":25.1,"MatchLevel":"street","MatchQuality":{"Country":1.0,"State":1.0,"County":1.0,"City":1.0,"District":1.0,"PostalCode":1.0},"Location":{"LocationId":"NT_FoF6MxT4UQuYJ-Zy56aXUD_l_799799397_L","LocationType":"point","DisplayPosition":{"Latitude":48.6251418,"Longitude":21.1916825},"MapView":{"TopLeft":{"Latitude":48.62515,"Longitude":21.19162},"BottomRight":{"Latitude":48.62493,"Longitude":21.19317}},"Address":{"Label":"044 54 Košice, Slovenská Republika","Country":"SVK","State":"Košický kraj","County":"Košice","City":"Košice","District":"Košice II","PostalCode":"044 54","AdditionalData":[{"value":"Slovenská Republika","key":"CountryName"},{"value":"Košický kraj","key":"StateName"},{"value":"Košice","key":"CountyName"}]},"MapReference":{"ReferenceId":"799799397","Spot":0.96,"SideOfStreet":"left","CountryId":"20428682","StateId":"20488628","CountyId":"20488897","CityId":"20488898","DistrictId":"20488900"}}},{"Relevance":1.0,"Distance":26.1,"MatchLevel":"street","MatchQuality":{"Country":1.0,"State":1.0,"County":1.0,"City":1.0,"District":1.0,"PostalCode":1.0},"Location":{"LocationId":"NT_FoF6MxT4UQuYJ-Zy56aXUD_l_799799420_R","LocationType":"point","DisplayPosition":{"Latitude":48.62515,"Longitude":21.19162},"MapView":{"TopLeft":{"Latitude":48.62548,"Longitude":21.19162},"BottomRight":{"Latitude":48.62515,"Longitude":21.19221}},"Address":{"Label":"044 54 Košice, Slovenská Republika","Country":"SVK","State":"Košický kraj","County":"Košice","City":"Košice","District":"Košice II","PostalCode":"044 54","AdditionalData":[{"value":"Slovenská Republika","key":"CountryName"},{"value":"Košický kraj","key":"StateName"},{"value":"Košice","key":"CountyName"}]},"MapReference":{"ReferenceId":"799799420","Spot":0.0,"SideOfStreet":"right","CountryId":"20428682","StateId":"20488628","CountyId":"20488897","CityId":"20488898","DistrictId":"20488900"}}},{"Relevance":1.0,"Distance":62.5,"MatchLevel":"street","MatchQuality":{"Country":1.0,"State":1.0,"County":1.0,"City":1.0,"District":1.0,"PostalCode":1.0},"Location":{"LocationId":"NT_FoF6MxT4UQuYJ-Zy56aXUD_l_799799418_R","LocationType":"point","DisplayPosition":{"Latitude":48.62519,"Longitude":21.19091},"MapView":{"TopLeft":{"Latitude":48.62567,"Longitude":21.19035},"BottomRight":{"Latitude":48.62492,"Longitude":21.19091}},"Address":{"Label":"044 54 Košice, Slovenská Republika","Country":"SVK","State":"Košický kraj","County":"Košice","City":"Košice","District":"Košice II","PostalCode":"044 54","AdditionalData":[{"value":"Slovenská Republika","key":"CountryName"},{"value":"Košický kraj","key":"StateName"},{"value":"Košice","key":"CountyName"}]},"MapReference":{"ReferenceId":"799799418","Spot":0.45,"SideOfStreet":"right","CountryId":"20428682","StateId":"20488628","CountyId":"20488897","CityId":"20488898","DistrictId":"20488900"}}},{"Relevance":1.0,"Distance":65.7,"MatchLevel":"landmark","MatchQuality":{"Country":1.0,"State":1.0,"County":1.0,"City":1.0,"District":1.0,"PostalCode":1.0,"Name":1.0},"Location":{"LocationId":"NT_sTnX81i4cePUS8Cjmxs8iC","LocationType":"industrialComplex","Name":"U. S. Steel","DisplayPosition":{"Latitude":48.6166,"Longitude":21.19957},"MapView":{"TopLeft":{"Latitude":48.63849,"Longitude":21.17383},"BottomRight":{"Latitude":48.5947,"Longitude":21.22289}},"Address":{"Label":"040 11 Košice, Slovenská Republika","Country":"SVK","State":"Košický kraj","County":"Košice","City":"Košice","District":"Košice II","PostalCode":"040 11","AdditionalData":[{"value":"Slovenská Republika","key":"CountryName"},{"value":"Košický kraj","key":"StateName"},{"value":"Košice","key":"CountyName"}]},"MapReference":{"CountryId":"20428682","StateId":"20488628","CountyId":"20488897","CityId":"20488898","DistrictId":"20488900","PlaceId":"557056675"}}},{"Relevance":1.0,"Distance":70.3,"MatchLevel":"street","MatchQuality":{"Country":1.0,"State":1.0,"County":1.0,"City":1.0,"District":1.0,"PostalCode":1.0},"Location":{"LocationId":"NT_FoF6MxT4UQuYJ-Zy56aXUD_l_585975253_L","LocationType":"point","DisplayPosition":{"Latitude":48.62429,"Longitude":21.19178},"MapView":{"TopLeft":{"Latitude":48.62429,"Longitude":21.19046},"BottomRight":{"Latitude":48.62349,"Longitude":21.19178}},"Address":{"Label":"044 54 Košice, Slovenská Republika","Country":"SVK","State":"Košický kraj","County":"Košice","City":"Košice","District":"Košice II","PostalCode":"044 54","AdditionalData":[{"value":"Slovenská Republika","key":"CountryName"},{"value":"Košický kraj","key":"StateName"},{"value":"Košice","key":"CountyName"}]},"MapReference":{"ReferenceId":"585975253","Spot":1.0,"SideOfStreet":"left","CountryId":"20428682","StateId":"20488628","CountyId":"20488897","CityId":"20488898","DistrictId":"20488900"}}},{"Relevance":1.0,"Distance":75.0,"MatchLevel":"houseNumber","MatchQuality":{"Country":1.0,"State":1.0,"County":1.0,"City":1.0,"District":1.0,"Street":[1.0],"HouseNumber":1.0,"PostalCode":1.0},"MatchType":"interpolated","Location":{"LocationId":"NT_KPEYPONTz7AfDIP3MwTC4D_xAzM4A","LocationType":"point","DisplayPosition":{"Latitude":48.62493,"Longitude":21.19317},"MapView":{"TopLeft":{"Latitude":48.6260542,"Longitude":21.1914693},"BottomRight":{"Latitude":48.6238058,"Longitude":21.1948707}},"Address":{"Label":"Šaca 1038, 044 54 Košice, Slovenská Republika","Country":"SVK","State":"Košický kraj","County":"Košice","City":"Košice","District":"Košice II","Street":"Šaca","HouseNumber":"1038","PostalCode":"044 54","AdditionalData":[{"value":"Slovenská Republika","key":"CountryName"},{"value":"Košický kraj","key":"StateName"},{"value":"Košice","key":"CountyName"}]},"MapReference":{"ReferenceId":"799799395","Spot":1.0,"SideOfStreet":"left","CountryId":"20428682","StateId":"20488628","CountyId":"20488897","CityId":"20488898","DistrictId":"20488900","AddressId":"676478046","RoadLinkId":"190596733"}}},{"Relevance":1.0,"Distance":75.9,"MatchLevel":"street","MatchQuality":{"Country":1.0,"State":1.0,"County":1.0,"City":1.0,"District":1.0,"PostalCode":1.0},"Location":{"LocationId":"NT_FoF6MxT4UQuYJ-Zy56aXUD_l_799799402_R","LocationType":"point","DisplayPosition":{"Latitude":48.62467,"Longitude":21.19069},"MapView":{"TopLeft":{"Latitude":48.62475,"Longitude":21.19057},"BottomRight":{"Latitude":48.62467,"Longitude":21.19069}},"Address":{"Label":"044 54 Košice, Slovenská Republika","Country":"SVK","State":"Košický kraj","County":"Košice","City":"Košice","District":"Košice II","PostalCode":"044 54","AdditionalData":[{"value":"Slovenská Republika","key":"CountryName"},{"value":"Košický kraj","key":"StateName"},{"value":"Košice","key":"CountyName"}]},"MapReference":{"ReferenceId":"799799402","Spot":0.0,"SideOfStreet":"right","CountryId":"20428682","StateId":"20488628","CountyId":"20488897","CityId":"20488898","DistrictId":"20488900"}}},{"Relevance":1.0,"Distance":75.9,"MatchLevel":"street","MatchQuality":{"Country":1.0,"State":1.0,"County":1.0,"City":1.0,"District":1.0,"PostalCode":1.0},"Location":{"LocationId":"NT_FoF6MxT4UQuYJ-Zy56aXUD_l_799799408_R","LocationType":"point","DisplayPosition":{"Latitude":48.62467,"Longitude":21.19069},"MapView":{"TopLeft":{"Latitude":48.62467,"Longitude":21.19059},"BottomRight":{"Latitude":48.62461,"Longitude":21.19069}},"Address":{"Label":"044 54 Košice, Slovenská Republika","Country":"SVK","State":"Košický kraj","County":"Košice","City":"Košice","District":"Košice II","PostalCode":"044 54","AdditionalData":[{"value":"Slovenská Republika","key":"CountryName"},{"value":"Košický kraj","key":"StateName"},{"value":"Košice","key":"CountyName"}]},"MapReference":{"ReferenceId":"799799408","Spot":1.0,"SideOfStreet":"right","CountryId":"20428682","StateId":"20488628","CountyId":"20488897","CityId":"20488898","DistrictId":"20488900"}}}]}]}}