{"Response":{"MetaInfo":{"Timestamp":"2020-03-28T10:55:45.078+0000","NextPageInformation":"2"},"View":[{"_type":"SearchResultsViewType","ViewId":0,"Result":[{"Relevance":1.0,"Distance":0.0,"Direction":0.0,"MatchLevel":"city","MatchQuality":{"Country":1.0,"State":1.0,"County":1.0,"City":1.0,"PostalCode":1.0},"Location":{"LocationId":"NT_9qEg3Rx5FHtLBrdDUxL8.C","LocationType":"point","DisplayPosition":{"Latitude":48.6471772,"Longitude":9.2016958},"MapView":{"TopLeft":{"Latitude":48.69453,"Longitude":9.15973},"BottomRight":{"Latitude":48.62674,"Longitude":9.27069}},"Address":{"Label":"Filderstadt, Baden-Württemberg, Deutschland","Country":"DEU","State":"Baden-Württemberg","County":"Esslingen","City":"Filderstadt","PostalCode":"70794","AdditionalData":[{"value":"Deutschland","key":"CountryName"},{"value":"Baden-Württemberg","key":"StateName"},{"value":"Esslingen","key":"CountyName"}]},"MapReference":{"ReferenceId":"52856686","SideOfStreet":"neither","CountryId":"20147700","StateId":"20171489","CountyId":"20171626","CityId":"20171769"}}},{"Relevance":1.0,"Distance":6.4,"MatchLevel":"street","MatchQuality":{"Country":1.0,"State":1.0,"County":1.0,"City":1.0,"Street":[1.0],"PostalCode":1.0},"Location":{"LocationId":"NT_AxeSp9QgxtlJJVgli6CqXB_l_574381996_R","LocationType":"point","DisplayPosition":{"Latitude":48.6472323,"Longitude":9.2016695},"MapView":{"TopLeft":{"Latitude":48.64739,"Longitude":9.20156},"BottomRight":{"Latitude":48.64718,"Longitude":9.202}},"Address":{"Label":"Im Haberschlai, 70794 Filderstadt, Deutschland","Country":"DEU","State":"Baden-Württemberg","County":"Esslingen","City":"Filderstadt","Street":"Im Haberschlai","PostalCode":"70794","AdditionalData":[{"value":"Deutschland","key":"CountryName"},{"value":"Baden-Württemberg","key":"StateName"},{"value":"Esslingen","key":"CountyName"}]},"MapReference":{"ReferenceId":"574381996","Spot":0.25,"SideOfStreet":"right","CountryId":"20147700","StateId":"20171489","CountyId":"20171626","CityId":"20171769"}}},{"Relevance":1.0,"Distance":7.7,"MatchLevel":"street","MatchQuality":{"Country":1.0,"State":1.0,"County":1.0,"City":1.0,"Street":[1.0],"PostalCode":1.0},"Location":{"LocationId":"NT_AxeSp9QgxtlJJVgli6CqXB_l_574381997_R","LocationType":"point","DisplayPosition":{"Latitude":48.6471148,"Longitude":9.2016512},"MapView":{"TopLeft":{"Latitude":48.64718,"Longitude":9.20156},"BottomRight":{"Latitude":48.64708,"Longitude":9.2017}},"Address":{"Label":"Im Haberschlai, 70794 Filderstadt, Deutschland","Country":"DEU","State":"Baden-Württemberg","County":"Esslingen","City":"Filderstadt","Street":"Im Haberschlai","PostalCode":"70794","AdditionalData":[{"value":"Deutschland","key":"CountryName"},{"value":"Baden-Württemberg","key":"StateName"},{"value":"Esslingen","key":"CountyName"}]},"MapReference":{"ReferenceId":"574381997","Spot":0.35,"SideOfStreet":"right","CountryId":"20147700","StateId":"20171489","CountyId":"20171626","CityId":"20171769"}}},{"Relevance":1.0,"Distance":10.0,"MatchLevel":"street","MatchQuality":{"Country":1.0,"State":1.0,"County":1.0,"City":1.0,"Street":[1.0],"PostalCode":1.0},"Location":{"LocationId":"NT_AxeSp9QgxtlJJVgli6CqXB_l_574381995_R","LocationType":"point","DisplayPosition":{"Latitude":48.64718,"Longitude":9.20156},"MapView":{"TopLeft":{"Latitude":48.64718,"Longitude":9.20082},"BottomRight":{"Latitude":48.64691,"Longitude":9.20156}},"Address":{"Label":"Im Haberschlai, 70794 Filderstadt, Deutschland","Country":"DEU","State":"Baden-Württemberg","County":"Esslingen","City":"Filderstadt","Street":"Im Haberschlai","PostalCode":"70794","AdditionalData":[{"value":"Deutschland","key":"CountryName"},{"value":"Baden-Württemberg","key":"StateName"},{"value":"Esslingen","key":"CountyName"}]},"MapReference":{"ReferenceId":"574381995","Spot":1.0,"SideOfStreet":"right","CountryId":"20147700","StateId":"20171489","CountyId":"20171626","CityId":"20171769"}}},{"Relevance":1.0,"Distance":10.2,"MatchLevel":"street","MatchQuality":{"Country":1.0,"State":1.0,"County":1.0,"City":1.0,"Street":[1.0],"PostalCode":1.0},"Location":{"LocationId":"NT_AxeSp9QgxtlJJVgli6CqXB_l_574381998_L","LocationType":"point","DisplayPosition":{"Latitude":48.6470872,"Longitude":9.2017235},"MapView":{"TopLeft":{"Latitude":48.64716,"Longitude":9.2017},"BottomRight":{"Latitude":48.64708,"Longitude":9.20271}},"Address":{"Label":"Im Haberschlai, 70794 Filderstadt, Deutschland","Country":"DEU","State":"Baden-Württemberg","County":"Esslingen","City":"Filderstadt","Street":"Im Haberschlai","PostalCode":"70794","AdditionalData":[{"value":"Deutschland","key":"CountryName"},{"value":"Baden-Württemberg","key":"StateName"},{"value":"Esslingen","key":"CountyName"}]},"MapReference":{"ReferenceId":"574381998","Spot":0.02,"SideOfStreet":"left","CountryId":"20147700","StateId":"20171489","CountyId":"20171626","CityId":"20171769"}}},{"Relevance":1.0,"Distance":32.5,"MatchLevel":"landmark","MatchQuality":{"Country":1.0,"State":1.0,"County":1.0,"City":1.0,"District":1.0,"Street":[1.0],"HouseNumber":1.0,"PostalCode":1.0,"Name":1.0},"Location":{"LocationId":"NT_jENyWeUm3ejnAceQK-vO6B_p_s.7TvcU9E-AfwDpdPqRuUA","LocationType":"hospital","Name":"Die Filderklinik","DisplayPosition":{"Latitude":48.64777,"Longitude":9.20444},"MapView":{"TopLeft":{"Latitude":48.6488942,"Longitude":9.2027385},"BottomRight":{"Latitude":48.6466458,"Longitude":9.2061415}},"Address":{"Label":"Im Haberschlai 7, 70794 Filderstadt, Deutschland","Country":"DEU","State":"Baden-Württemberg","County":"Esslingen","City":"Filderstadt","District":"Bonlanden","Street":"Im Haberschlai","HouseNumber":"7","PostalCode":"70794","AdditionalData":[{"value":"Deutschland","key":"CountryName"},{"value":"Baden-Württemberg","key":"StateName"},{"value":"Esslingen","key":"CountyName"}]},"MapReference":{"CountryId":"20147700","StateId":"20171489","CountyId":"20171626","CityId":"20171769","DistrictId":"20373634","PlaceId":"50612404"}}},{"Relevance":1.0,"Distance":32.5,"MatchLevel":"street","MatchQuality":{"Country":1.0,"State":1.0,"County":1.0,"City":1.0,"Street":[1.0],"PostalCode":1.0},"Location":{"LocationId":"NT_TIvjGbqoojFqOef4YCbeUB_l_52841378_L","LocationType":"point","DisplayPosition":{"Latitude":48.64739,"Longitude":9.202},"MapView":{"TopLeft":{"Latitude":48.64902,"Longitude":9.20107},"BottomRight":{"Latitude":48.64739,"Longitude":9.202}},"Address":{"Label":"Saarstraße, 70794 Filderstadt, Deutschland","Country":"DEU","State":"Baden-Württemberg","County":"Esslingen","City":"Filderstadt","Street":"Saarstraße","PostalCode":"70794","AdditionalData":[{"value":"Deutschland","key":"CountryName"},{"value":"Baden-Württemberg","key":"StateName"},{"value":"Esslingen","key":"CountyName"}]},"MapReference":{"ReferenceId":"52841378","Spot":0.0,"SideOfStreet":"left","CountryId":"20147700","StateId":"20171489","CountyId":"20171626","CityId":"20171769"}}},{"Relevance":1.0,"Distance":32.5,"MatchLevel":"street","MatchQuality":{"Country":1.0,"State":1.0,"County":1.0,"City":1.0,"District":1.0,"Street":[1.0],"PostalCode":1.0},"Location":{"LocationId":"NT_jcPzzXHTWjaLlZE71GKZTA_l_589235058_R","LocationType":"point","DisplayPosition":{"Latitude":48.64739,"Longitude":9.202},"MapView":{"TopLeft":{"Latitude":48.64816,"Longitude":9.202},"BottomRight":{"Latitude":48.64739,"Longitude":9.20332}},"Address":{"Label":"Im Haberschlai, 70794 Filderstadt, Deutschland","Country":"DEU","State":"Baden-Württemberg","County":"Esslingen","City":"Filderstadt","District":"Bonlanden","Street":"Im Haberschlai","PostalCode":"70794","AdditionalData":[{"value":"Deutschland","key":"CountryName"},{"value":"Baden-Württemberg","key":"StateName"},{"value":"Esslingen","key":"CountyName"}]},"MapReference":{"ReferenceId":"589235058","Spot":0.0,"SideOfStreet":"right","CountryId":"20147700","StateId":"20171489","CountyId":"20171626","CityId":"20171769","DistrictId":"20373634"}}},{"Relevance":1.0,"Distance":70.9,"MatchLevel":"street","MatchQuality":{"Country":1.0,"State":1.0,"County":1.0,"City":1.0,"District":1.0,"Street":[1.0],"PostalCode":1.0},"Location":{"LocationId":"NT_6b2LSzzGLPDCVAsRgsRcQB_l_52840885_L","LocationType":"point","DisplayPosition":{"Latitude":48.64691,"Longitude":9.20082},"MapView":{"TopLeft":{"Latitude":48.64691,"Longitude":9.19968},"BottomRight":{"Latitude":48.64667,"Longitude":9.20082}},"Address":{"Label":"Im Haberschlai, 70794 Filderstadt, Deutschland","Country":"DEU","State":"Baden-Württemberg","County":"Esslingen","City":"Filderstadt","District":"Plattenhardt","Street":"Im Haberschlai","PostalCode":"70794","AdditionalData":[{"value":"Deutschland","key":"CountryName"},{"value":"Baden-Württemberg","key":"StateName"},{"value":"Esslingen","key":"CountyName"}]},"MapReference":{"ReferenceId":"52840885","Spot":1.0,"SideOfStreet":"left","CountryId":"20147700","StateId":"20171489","CountyId":"20171626","CityId":"20171769","DistrictId":"20171774"}}},{"Relevance":1.0,"Distance":128.0,"MatchLevel":"houseNumber","MatchQuality":{"Country":1.0,"State":1.0,"County":1.0,"City":1.0,"Street":[1.0],"HouseNumber":1.0,"PostalCode":1.0},"MatchType":"interpolated","Location":{"LocationId":"NT_AxeSp9QgxtlJJVgli6CqXB_l_574381999_L_1A","LocationType":"point","DisplayPosition":{"Latitude":48.6463664,"Longitude":9.2029332},"MapView":{"TopLeft":{"Latitude":48.6474906,"Longitude":9.2012317},"BottomRight":{"Latitude":48.6452423,"Longitude":9.2046346}},"Address":{"Label":"Im Haberschlai 5, 70794 Filderstadt, Deutschland","Country":"DEU","State":"Baden-Württemberg","County":"Esslingen","City":"Filderstadt","Street":"Im Haberschlai","HouseNumber":"5","PostalCode":"70794","AdditionalData":[{"value":"Deutschland","key":"CountryName"},{"value":"Baden-Württemberg","key":"StateName"},{"value":"Esslingen","key":"CountyName"}]},"MapReference":{"ReferenceId":"574381999","Spot":0.58,"SideOfStreet":"left","CountryId":"20147700","StateId":"20171489","CountyId":"20171626","CityId":"20171769"}}}]}]}}