{"Response":{"MetaInfo":{"Timestamp":"2020-03-28T11:09:47.184+0000","NextPageInformation":"2"},"View":[{"_type":"SearchResultsViewType","ViewId":0,"Result":[{"Relevance":1.0,"Distance":-2.3,"MatchLevel":"landmark","MatchQuality":{"Country":1.0,"State":1.0,"County":1.0,"City":1.0,"PostalCode":1.0,"Name":1.0},"Location":{"LocationId":"NT_vh6-2z35cFj.UY4zrwY9jD","LocationType":"park","Name":"Parc Ducastel","DisplayPosition":{"Latitude":48.69224,"Longitude":2.37234},"MapView":{"TopLeft":{"Latitude":48.69312,"Longitude":2.37065},"BottomRight":{"Latitude":48.69136,"Longitude":2.37351}},"Address":{"Label":"91260 Juvisy-sur-Orge, France","Country":"FRA","State":"Île-de-France","County":"Essonne","City":"Juvisy-sur-Orge","PostalCode":"91260","AdditionalData":[{"value":"France","key":"CountryName"},{"value":"Île-de-France","key":"StateName"},{"value":"Essonne","key":"CountyName"}]},"MapReference":{"CountryId":"20000001","StateId":"20002126","CountyId":"20004503","CityId":"20004784","PlaceId":"1499245660"}}},{"Relevance":1.0,"Distance":0.0,"Direction":0.0,"MatchLevel":"city","MatchQuality":{"Country":1.0,"State":1.0,"County":1.0,"City":1.0,"PostalCode":1.0},"Location":{"LocationId":"NT_qBQQ3FSA.UqVdAPpTcsiYB","LocationType":"point","DisplayPosition":{"Latitude":48.6926097,"Longitude":2.3733352},"MapView":{"TopLeft":{"Latitude":48.69979,"Longitude":2.35447},"BottomRight":{"Latitude":48.68368,"Longitude":2.39053}},"Address":{"Label":"Juvisy-sur-Orge, Île-de-France, France","Country":"FRA","State":"Île-de-France","County":"Essonne","City":"Juvisy-sur-Orge","PostalCode":"91260","AdditionalData":[{"value":"France","key":"CountryName"},{"value":"Île-de-France","key":"StateName"},{"value":"Essonne","key":"CountyName"}]},"MapReference":{"ReferenceId":"857715163","SideOfStreet":"neither","CountryId":"20000001","StateId":"20002126","CountyId":"20004503","CityId":"20004784"}}},{"Relevance":1.0,"Distance":2.4,"MatchLevel":"landmark","MatchQuality":{"Country":1.0,"State":1.0,"County":1.0,"City":1.0,"Street":[1.0],"PostalCode":1.0,"Name":1.0},"Location":{"LocationId":"NT_fks7LiB93SKYK-yfbV6ECB_p_hAUVBZiivBC6dAt2.w.WHA","LocationType":"park","Name":"Parc aux Oiseaux","DisplayPosition":{"Latitude":48.6927,"Longitude":2.37331},"MapView":{"TopLeft":{"Latitude":48.69367,"Longitude":2.37316},"BottomRight":{"Latitude":48.69229,"Longitude":2.37465}},"Address":{"Label":"Rue Camille Flammarion, 91260 Juvisy-sur-Orge, France","Country":"FRA","State":"Île-de-France","County":"Essonne","City":"Juvisy-sur-Orge","Street":"Rue Camille Flammarion","PostalCode":"91260","AdditionalData":[{"value":"France","key":"CountryName"},{"value":"Île-de-France","key":"StateName"},{"value":"Essonne","key":"CountyName"}]},"MapReference":{"CountryId":"20000001","StateId":"20002126","CountyId":"20004503","CityId":"20004784","PlaceId":"1138718612"}}},{"Relevance":1.0,"Distance":17.8,"MatchLevel":"houseNumber","MatchQuality":{"Country":1.0,"State":1.0,"County":1.0,"City":1.0,"Street":[1.0],"HouseNumber":1.0,"PostalCode":1.0},"MatchType":"interpolated","Location":{"LocationId":"NT_32IuQG2f.qX1kYY7y-YLcB_l_857715161_R_ygD","LocationType":"point","DisplayPosition":{"Latitude":48.692764,"Longitude":2.373273},"MapView":{"TopLeft":{"Latitude":48.6938882,"Longitude":2.37157},"BottomRight":{"Latitude":48.6916399,"Longitude":2.374976}},"Address":{"Label":"28 Rue Camille Flammarion, 91260 Juvisy-sur-Orge, France","Country":"FRA","State":"Île-de-France","County":"Essonne","City":"Juvisy-sur-Orge","Street":"Rue Camille Flammarion","HouseNumber":"28","PostalCode":"91260","AdditionalData":[{"value":"France","key":"CountryName"},{"value":"Île-de-France","key":"StateName"},{"value":"Essonne","key":"CountyName"}]},"MapReference":{"ReferenceId":"857715161","Spot":0.52,"SideOfStreet":"right","CountryId":"20000001","StateId":"20002126","CountyId":"20004503","CityId":"20004784"}}},{"Relevance":1.0,"Distance":22.8,"MatchLevel":"landmark","MatchQuality":{"Country":1.0,"State":1.0,"County":1.0,"City":1.0,"Street":[1.0],"HouseNumber":1.0,"PostalCode":1.0,"Name":1.0},"Location":{"LocationId":"NT_sIOVG0-Rv3bJHqS1JtakFA_p_suIn0ZuCOCx1CLWjs70eTC","LocationType":"hospital","Name":"CH de Juvisy-sur-Orge","DisplayPosition":{"Latitude":48.69141,"Longitude":2.37455},"MapView":{"TopLeft":{"Latitude":48.6925342,"Longitude":2.372847},"BottomRight":{"Latitude":48.6902858,"Longitude":2.376253}},"Address":{"Label":"9 Rue Camille Flammarion, 91260 Juvisy-sur-Orge, France","Country":"FRA","State":"Île-de-France","County":"Essonne","City":"Juvisy-sur-Orge","Street":"Rue Camille Flammarion","HouseNumber":"9","PostalCode":"91260","AdditionalData":[{"value":"France","key":"CountryName"},{"value":"Île-de-France","key":"StateName"},{"value":"Essonne","key":"CountyName"}]},"MapReference":{"CountryId":"20000001","StateId":"20002126","CountyId":"20004503","CityId":"20004784","PlaceId":"56309678"}}},{"Relevance":1.0,"Distance":22.8,"MatchLevel":"street","MatchQuality":{"Country":1.0,"State":1.0,"County":1.0,"City":1.0,"Street":[1.0],"PostalCode":1.0},"Location":{"LocationId":"NT_32IuQG2f.qX1kYY7y-YLcB_l_1050023700_L","LocationType":"point","DisplayPosition":{"Latitude":48.69244,"Longitude":2.37351},"MapView":{"TopLeft":{"Latitude":48.69244,"Longitude":2.37351},"BottomRight":{"Latitude":48.69229,"Longitude":2.37361}},"Address":{"Label":"Rue Camille Flammarion, 91260 Juvisy-sur-Orge, France","Country":"FRA","State":"Île-de-France","County":"Essonne","City":"Juvisy-sur-Orge","Street":"Rue Camille Flammarion","PostalCode":"91260","AdditionalData":[{"value":"France","key":"CountryName"},{"value":"Île-de-France","key":"StateName"},{"value":"Essonne","key":"CountyName"}]},"MapReference":{"ReferenceId":"1050023700","Spot":1.0,"SideOfStreet":"left","CountryId":"20000001","StateId":"20002126","CountyId":"20004503","CityId":"20004784"}}},{"Relevance":1.0,"Distance":48.9,"MatchLevel":"houseNumber","MatchQuality":{"Country":1.0,"State":1.0,"County":1.0,"City":1.0,"Street":[1.0],"HouseNumber":1.0,"PostalCode":1.0},"MatchType":"interpolated","Location":{"LocationId":"NT_32IuQG2f.qX1kYY7y-YLcB_xED","LocationType":"point","DisplayPosition":{"Latitude":48.69223,"Longitude":2.37367},"MapView":{"TopLeft":{"Latitude":48.6933542,"Longitude":2.371967},"BottomRight":{"Latitude":48.6911058,"Longitude":2.375373}},"Address":{"Label":"11 Rue Camille Flammarion, 91260 Juvisy-sur-Orge, France","Country":"FRA","State":"Île-de-France","County":"Essonne","City":"Juvisy-sur-Orge","Street":"Rue Camille Flammarion","HouseNumber":"11","PostalCode":"91260","AdditionalData":[{"value":"France","key":"CountryName"},{"value":"Île-de-France","key":"StateName"},{"value":"Essonne","key":"CountyName"}]},"MapReference":{"ReferenceId":"1133758984","Spot":0.0,"SideOfStreet":"left","CountryId":"20000001","StateId":"20002126","CountyId":"20004503","CityId":"20004784","AddressId":"322029015","RoadLinkId":"443700103"}}},{"Relevance":1.0,"Distance":48.9,"MatchLevel":"street","MatchQuality":{"Country":1.0,"State":1.0,"County":1.0,"City":1.0,"PostalCode":1.0},"Location":{"LocationId":"NT_OBys9.KloZSwpQ7w8aNJTD_l_1133758985_L","LocationType":"point","DisplayPosition":{"Latitude":48.69223,"Longitude":2.37367},"MapView":{"TopLeft":{"Latitude":48.69223,"Longitude":2.3734},"BottomRight":{"Latitude":48.69192,"Longitude":2.37367}},"Address":{"Label":"91260 Juvisy-sur-Orge, France","Country":"FRA","State":"Île-de-France","County":"Essonne","City":"Juvisy-sur-Orge","PostalCode":"91260","AdditionalData":[{"value":"France","key":"CountryName"},{"value":"Île-de-France","key":"StateName"},{"value":"Essonne","key":"CountyName"}]},"MapReference":{"ReferenceId":"1133758985","Spot":1.0,"SideOfStreet":"left","CountryId":"20000001","StateId":"20002126","CountyId":"20004503","CityId":"20004784"}}},{"Relevance":1.0,"Distance":58.2,"MatchLevel":"street","MatchQuality":{"Country":1.0,"State":1.0,"County":1.0,"City":1.0,"Street":[1.0],"PostalCode":1.0},"Location":{"LocationId":"NT_32IuQG2f.qX1kYY7y-YLcB_l_56428237_R","LocationType":"point","DisplayPosition":{"Latitude":48.69312,"Longitude":2.37316},"MapView":{"TopLeft":{"Latitude":48.6933,"Longitude":2.37316},"BottomRight":{"Latitude":48.69312,"Longitude":2.37318}},"Address":{"Label":"Rue Camille Flammarion, 91260 Juvisy-sur-Orge, France","Country":"FRA","State":"Île-de-France","County":"Essonne","City":"Juvisy-sur-Orge","Street":"Rue Camille Flammarion","PostalCode":"91260","AdditionalData":[{"value":"France","key":"CountryName"},{"value":"Île-de-France","key":"StateName"},{"value":"Essonne","key":"CountyName"}]},"MapReference":{"ReferenceId":"56428237","Spot":0.0,"SideOfStreet":"right","CountryId":"20000001","StateId":"20002126","CountyId":"20004503","CityId":"20004784"}}},{"Relevance":1.0,"Distance":58.2,"MatchLevel":"street","MatchQuality":{"Country":1.0,"State":1.0,"County":1.0,"City":1.0,"Street":[1.0],"PostalCode":1.0},"Location":{"LocationId":"NT_XhZHpI10BvJ87KW0SRtEJA_l_56428238_R","LocationType":"point","DisplayPosition":{"Latitude":48.69312,"Longitude":2.37316},"MapView":{"TopLeft":{"Latitude":48.69312,"Longitude":2.37287},"BottomRight":{"Latitude":48.69312,"Longitude":2.37316}},"Address":{"Label":"Rue de l'Observatoire, 91260 Juvisy-sur-Orge, France","Country":"FRA","State":"Île-de-France","County":"Essonne","City":"Juvisy-sur-Orge","Street":"Rue de l'Observatoire","PostalCode":"91260","AdditionalData":[{"value":"France","key":"CountryName"},{"value":"Île-de-France","key":"StateName"},{"value":"Essonne","key":"CountyName"}]},"MapReference":{"ReferenceId":"56428238","Spot":1.0,"SideOfStreet":"right","CountryId":"20000001","StateId":"20002126","CountyId":"20004503","CityId":"20004784"}}}]}]}}