{"Response":{"MetaInfo":{"Timestamp":"2020-03-28T11:46:54.613+0000","NextPageInformation":"2"},"View":[{"_type":"SearchResultsViewType","ViewId":0,"Result":[{"Relevance":1.0,"Distance":0.0,"Direction":0.0,"MatchLevel":"city","MatchQuality":{"Country":1.0,"State":1.0,"County":1.0,"City":1.0,"PostalCode":1.0},"Location":{"LocationId":"NT_dlGnTsddkCfLgVsd86D3JA","LocationType":"point","DisplayPosition":{"Latitude":48.6327703,"Longitude":-3.926186},"MapView":{"TopLeft":{"Latitude":48.65533,"Longitude":-3.95725},"BottomRight":{"Latitude":48.61088,"Longitude":-3.89546}},"Address":{"Label":"Henvic, Bretagne, France","Country":"FRA","State":"Bretagne","County":"Finistère","City":"Henvic","PostalCode":"29670","AdditionalData":[{"value":"France","key":"CountryName"},{"value":"Bretagne","key":"StateName"},{"value":"Finistère","key":"CountyName"}]},"MapReference":{"ReferenceId":"542805842","SideOfStreet":"neither","CountryId":"20000001","StateId":"20060199","CountyId":"20064592","CityId":"20064827"}}},{"Relevance":1.0,"Distance":13.4,"MatchLevel":"street","MatchQuality":{"Country":1.0,"State":1.0,"County":1.0,"City":1.0,"Street":[1.0],"PostalCode":1.0},"Location":{"LocationId":"NT_w-y3TNIC3-ZEm8WuBa3ZCC_l_1213219239_R","LocationType":"point","DisplayPosition":{"Latitude":48.6326818,"Longitude":-3.9263099},"MapView":{"TopLeft":{"Latitude":48.63291,"Longitude":-3.92648},"BottomRight":{"Latitude":48.63257,"Longitude":-3.92623}},"Address":{"Label":"Place Alexis Gourvennec, 29670 Henvic, France","Country":"FRA","State":"Bretagne","County":"Finistère","City":"Henvic","Street":"Place Alexis Gourvennec","PostalCode":"29670","AdditionalData":[{"value":"France","key":"CountryName"},{"value":"Bretagne","key":"StateName"},{"value":"Finistère","key":"CountyName"}]},"MapReference":{"ReferenceId":"1213219239","Spot":0.33,"SideOfStreet":"right","CountryId":"20000001","StateId":"20060199","CountyId":"20064592","CityId":"20064827"}}},{"Relevance":1.0,"Distance":20.2,"MatchLevel":"houseNumber","MatchQuality":{"Country":1.0,"State":1.0,"County":1.0,"City":1.0,"Street":[1.0],"HouseNumber":1.0,"PostalCode":1.0},"MatchType":"interpolated","Location":{"LocationId":"NT_YSMsWJ0Om7xMnUl1kTTLKC_xkTOxME","LocationType":"point","DisplayPosition":{"Latitude":48.63269,"Longitude":-3.92594},"MapView":{"TopLeft":{"Latitude":48.6338142,"Longitude":-3.927641},"BottomRight":{"Latitude":48.6315658,"Longitude":-3.924239}},"Address":{"Label":"1991C Lotissement du Sentier, 29670 Henvic, France","Country":"FRA","State":"Bretagne","County":"Finistère","City":"Henvic","Street":"Lotissement du Sentier","HouseNumber":"1991C","PostalCode":"29670","AdditionalData":[{"value":"France","key":"CountryName"},{"value":"Bretagne","key":"StateName"},{"value":"Finistère","key":"CountyName"}]},"MapReference":{"ReferenceId":"1213219240","Spot":0.59,"SideOfStreet":"right","CountryId":"20000001","StateId":"20060199","CountyId":"20064592","CityId":"20064827","AddressId":"755759380","RoadLinkId":"528899033"}}},{"Relevance":1.0,"Distance":20.4,"MatchLevel":"houseNumber","MatchQuality":{"Country":1.0,"State":1.0,"County":1.0,"City":1.0,"Street":[1.0],"HouseNumber":1.0,"PostalCode":1.0},"MatchType":"interpolated","Location":{"LocationId":"NT_ib4LiyLTvi35iAiD.zv0rD_yEE","LocationType":"point","DisplayPosition":{"Latitude":48.63297,"Longitude":-3.92632},"MapView":{"TopLeft":{"Latitude":48.6340942,"Longitude":-3.928021},"BottomRight":{"Latitude":48.6318458,"Longitude":-3.924619}},"Address":{"Label":"2A Rue du Croissant, 29670 Henvic, France","Country":"FRA","State":"Bretagne","County":"Finistère","City":"Henvic","Street":"Rue du Croissant","HouseNumber":"2A","PostalCode":"29670","AdditionalData":[{"value":"France","key":"CountryName"},{"value":"Bretagne","key":"StateName"},{"value":"Finistère","key":"CountyName"}]},"MapReference":{"ReferenceId":"973037127","Spot":0.39,"SideOfStreet":"right","CountryId":"20000001","StateId":"20060199","CountyId":"20064592","CityId":"20064827","AddressId":"570369467","RoadLinkId":"309444382"}}},{"Relevance":1.0,"Distance":31.0,"MatchLevel":"houseNumber","MatchQuality":{"Country":1.0,"State":1.0,"County":1.0,"City":1.0,"Street":[1.0],"HouseNumber":1.0,"PostalCode":1.0},"MatchType":"interpolated","Location":{"LocationId":"NT_ib4LiyLTvi35iAiD.zv0rD_yIE","LocationType":"point","DisplayPosition":{"Latitude":48.63305,"Longitude":-3.92604},"MapView":{"TopLeft":{"Latitude":48.6341742,"Longitude":-3.927741},"BottomRight":{"Latitude":48.6319258,"Longitude":-3.924339}},"Address":{"Label":"2B Rue du Croissant, 29670 Henvic, France","Country":"FRA","State":"Bretagne","County":"Finistère","City":"Henvic","Street":"Rue du Croissant","HouseNumber":"2B","PostalCode":"29670","AdditionalData":[{"value":"France","key":"CountryName"},{"value":"Bretagne","key":"StateName"},{"value":"Finistère","key":"CountyName"}]},"MapReference":{"ReferenceId":"1213219241","Spot":0.88,"SideOfStreet":"left","CountryId":"20000001","StateId":"20060199","CountyId":"20064592","CityId":"20064827","AddressId":"320477638","RoadLinkId":"528899032"}}},{"Relevance":1.0,"Distance":31.0,"MatchLevel":"houseNumber","MatchQuality":{"Country":1.0,"State":1.0,"County":1.0,"City":1.0,"Street":[1.0],"HouseNumber":1.0,"PostalCode":1.0},"MatchType":"interpolated","Location":{"LocationId":"NT_ib4LiyLTvi35iAiD.zv0rD_1A","LocationType":"point","DisplayPosition":{"Latitude":48.63287,"Longitude":-3.92658},"MapView":{"TopLeft":{"Latitude":48.6339942,"Longitude":-3.928281},"BottomRight":{"Latitude":48.6317458,"Longitude":-3.924879}},"Address":{"Label":"5 Rue du Croissant, 29670 Henvic, France","Country":"FRA","State":"Bretagne","County":"Finistère","City":"Henvic","Street":"Rue du Croissant","HouseNumber":"5","PostalCode":"29670","AdditionalData":[{"value":"France","key":"CountryName"},{"value":"Bretagne","key":"StateName"},{"value":"Finistère","key":"CountyName"}]},"MapReference":{"ReferenceId":"973037126","Spot":0.68,"SideOfStreet":"right","CountryId":"20000001","StateId":"20060199","CountyId":"20064592","CityId":"20064827","AddressId":"320379241","RoadLinkId":"309444381"}}},{"Relevance":1.0,"Distance":37.8,"MatchLevel":"houseNumber","MatchQuality":{"Country":1.0,"State":1.0,"County":1.0,"City":1.0,"Street":[1.0],"HouseNumber":1.0,"PostalCode":1.0},"MatchType":"interpolated","Location":{"LocationId":"NT_w-y3TNIC3-ZEm8WuBa3ZCC_4A","LocationType":"point","DisplayPosition":{"Latitude":48.63244,"Longitude":-3.92631},"MapView":{"TopLeft":{"Latitude":48.6335642,"Longitude":-3.928011},"BottomRight":{"Latitude":48.6313158,"Longitude":-3.924609}},"Address":{"Label":"8 Place Alexis Gourvennec, 29670 Henvic, France","Country":"FRA","State":"Bretagne","County":"Finistère","City":"Henvic","Street":"Place Alexis Gourvennec","HouseNumber":"8","PostalCode":"29670","AdditionalData":[{"value":"France","key":"CountryName"},{"value":"Bretagne","key":"StateName"},{"value":"Finistère","key":"CountyName"}]},"MapReference":{"ReferenceId":"1213219238","Spot":0.79,"SideOfStreet":"right","CountryId":"20000001","StateId":"20060199","CountyId":"20064592","CityId":"20064827","AddressId":"570464140","RoadLinkId":"528899029"}}},{"Relevance":1.0,"Distance":41.0,"MatchLevel":"houseNumber","MatchQuality":{"Country":1.0,"State":1.0,"County":1.0,"City":1.0,"Street":[1.0],"HouseNumber":1.0,"PostalCode":1.0},"MatchType":"interpolated","Location":{"LocationId":"NT_ib4LiyLTvi35iAiD.zv0rD_2A","LocationType":"point","DisplayPosition":{"Latitude":48.63314,"Longitude":-3.92598},"MapView":{"TopLeft":{"Latitude":48.6342642,"Longitude":-3.927681},"BottomRight":{"Latitude":48.6320158,"Longitude":-3.924279}},"Address":{"Label":"6 Rue du Croissant, 29670 Henvic, France","Country":"FRA","State":"Bretagne","County":"Finistère","City":"Henvic","Street":"Rue du Croissant","HouseNumber":"6","PostalCode":"29670","AdditionalData":[{"value":"France","key":"CountryName"},{"value":"Bretagne","key":"StateName"},{"value":"Finistère","key":"CountyName"}]},"MapReference":{"ReferenceId":"552753969","Spot":0.17,"SideOfStreet":"right","CountryId":"20000001","StateId":"20060199","CountyId":"20064592","CityId":"20064827","AddressId":"320584501","RoadLinkId":"46526868"}}},{"Relevance":1.0,"Distance":86.3,"MatchLevel":"street","MatchQuality":{"Country":1.0,"State":1.0,"County":1.0,"City":1.0,"PostalCode":1.0},"Location":{"LocationId":"NT_hSf8zwuxVYNE.cpmbcF7AC_l_940519113_L","LocationType":"point","DisplayPosition":{"Latitude":48.6334,"Longitude":-3.9255},"MapView":{"TopLeft":{"Latitude":48.6334,"Longitude":-3.9255},"BottomRight":{"Latitude":48.63338,"Longitude":-3.92535}},"Address":{"Label":"29670 Henvic, France","Country":"FRA","State":"Bretagne","County":"Finistère","City":"Henvic","PostalCode":"29670","AdditionalData":[{"value":"France","key":"CountryName"},{"value":"Bretagne","key":"StateName"},{"value":"Finistère","key":"CountyName"}]},"MapReference":{"ReferenceId":"940519113","Spot":1.0,"SideOfStreet":"left","CountryId":"20000001","StateId":"20060199","CountyId":"20064592","CityId":"20064827"}}},{"Relevance":1.0,"Distance":86.3,"MatchLevel":"street","MatchQuality":{"Country":1.0,"State":1.0,"County":1.0,"City":1.0,"PostalCode":1.0},"Location":{"LocationId":"NT_hSf8zwuxVYNE.cpmbcF7AC_l_940519111_L","LocationType":"point","DisplayPosition":{"Latitude":48.6334,"Longitude":-3.9255},"MapView":{"TopLeft":{"Latitude":48.6335,"Longitude":-3.92551},"BottomRight":{"Latitude":48.6334,"Longitude":-3.92543}},"Address":{"Label":"29670 Henvic, France","Country":"FRA","State":"Bretagne","County":"Finistère","City":"Henvic","PostalCode":"29670","AdditionalData":[{"value":"France","key":"CountryName"},{"value":"Bretagne","key":"StateName"},{"value":"Finistère","key":"CountyName"}]},"MapReference":{"ReferenceId":"940519111","Spot":0.0,"SideOfStreet":"left","CountryId":"20000001","StateId":"20060199","CountyId":"20064592","CityId":"20064827"}}}]}]}}