{"Response":{"MetaInfo":{"Timestamp":"2020-03-28T10:14:47.536+0000","NextPageInformation":"2"},"View":[{"_type":"SearchResultsViewType","ViewId":0,"Result":[{"Relevance":1.0,"Distance":0.0,"Direction":0.0,"MatchLevel":"district","MatchQuality":{"Country":1.0,"State":1.0,"County":1.0,"City":1.0,"District":1.0,"PostalCode":1.0},"Location":{"LocationId":"NT_KnvZqOd4gF4oy.5yZeNNrB","LocationType":"point","DisplayPosition":{"Latitude":48.672083,"Longitude":15.1625611},"MapView":{"TopLeft":{"Latitude":48.67585,"Longitude":15.16113},"BottomRight":{"Latitude":48.67049,"Longitude":15.17874}},"Address":{"Label":"Großglobnitz, Zwettl-Niederösterreich, Niederösterreich, Österreich","Country":"AUT","State":"Niederösterreich","County":"Zwettl","City":"Zwettl-Niederösterreich","District":"Großglobnitz","PostalCode":"3910","AdditionalData":[{"value":"Österreich","key":"CountryName"},{"value":"Niederösterreich","key":"StateName"},{"value":"Zwettl","key":"CountyName"}]},"MapReference":{"ReferenceId":"548807880","SideOfStreet":"neither","CountryId":"20128885","StateId":"20130295","CountyId":"20132758","CityId":"20132861","DistrictId":"20132876"}}},{"Relevance":1.0,"Distance":15.4,"MatchLevel":"houseNumber","MatchQuality":{"Country":1.0,"State":1.0,"County":1.0,"City":1.0,"District":1.0,"Street":[1.0],"HouseNumber":1.0,"PostalCode":1.0},"MatchType":"interpolated","Location":{"LocationId":"NT_XPI-58zeSjq3swpTjVD5aB_xIzM","LocationType":"point","DisplayPosition":{"Latitude":48.67212,"Longitude":15.16279},"MapView":{"TopLeft":{"Latitude":48.6732442,"Longitude":15.1610877},"BottomRight":{"Latitude":48.6709958,"Longitude":15.1644923}},"Address":{"Label":"Großglobnitz 123, 3910 Zwettl-Niederösterreich, Österreich","Country":"AUT","State":"Niederösterreich","County":"Zwettl","City":"Zwettl-Niederösterreich","District":"Großglobnitz","Street":"Großglobnitz","HouseNumber":"123","PostalCode":"3910","AdditionalData":[{"value":"Österreich","key":"CountryName"},{"value":"Niederösterreich","key":"StateName"},{"value":"Zwettl","key":"CountyName"}]},"MapReference":{"ReferenceId":"956764057","Spot":0.44,"SideOfStreet":"left","CountryId":"20128885","StateId":"20130295","CountyId":"20132758","CityId":"20132861","DistrictId":"20132876","AddressId":"161765450","RoadLinkId":"299696708"}}},{"Relevance":1.0,"Distance":36.6,"MatchLevel":"houseNumber","MatchQuality":{"Country":1.0,"State":1.0,"County":1.0,"City":1.0,"District":1.0,"Street":[1.0],"HouseNumber":1.0,"PostalCode":1.0},"MatchType":"interpolated","Location":{"LocationId":"NT_XPI-58zeSjq3swpTjVD5aB_0kD","LocationType":"point","DisplayPosition":{"Latitude":48.67219,"Longitude":15.16209},"MapView":{"TopLeft":{"Latitude":48.6733142,"Longitude":15.1603877},"BottomRight":{"Latitude":48.6710658,"Longitude":15.1637923}},"Address":{"Label":"Großglobnitz 49, 3910 Zwettl-Niederösterreich, Österreich","Country":"AUT","State":"Niederösterreich","County":"Zwettl","City":"Zwettl-Niederösterreich","District":"Großglobnitz","Street":"Großglobnitz","HouseNumber":"49","PostalCode":"3910","AdditionalData":[{"value":"Österreich","key":"CountryName"},{"value":"Niederösterreich","key":"StateName"},{"value":"Zwettl","key":"CountyName"}]},"MapReference":{"ReferenceId":"956764059","Spot":0.48,"SideOfStreet":"left","CountryId":"20128885","StateId":"20130295","CountyId":"20132758","CityId":"20132861","DistrictId":"20132876","AddressId":"161765449","RoadLinkId":"299696710"}}},{"Relevance":1.0,"Distance":41.9,"MatchLevel":"street","MatchQuality":{"Country":1.0,"State":1.0,"County":1.0,"City":1.0,"District":1.0,"Street":[1.0],"PostalCode":1.0},"Location":{"LocationId":"NT_XPI-58zeSjq3swpTjVD5aB_l_62791671_L","LocationType":"point","DisplayPosition":{"Latitude":48.67198,"Longitude":15.16311},"MapView":{"TopLeft":{"Latitude":48.67235,"Longitude":15.16311},"BottomRight":{"Latitude":48.67198,"Longitude":15.16349}},"Address":{"Label":"Großglobnitz, 3910 Zwettl-Niederösterreich, Österreich","Country":"AUT","State":"Niederösterreich","County":"Zwettl","City":"Zwettl-Niederösterreich","District":"Großglobnitz","Street":"Großglobnitz","PostalCode":"3910","AdditionalData":[{"value":"Österreich","key":"CountryName"},{"value":"Niederösterreich","key":"StateName"},{"value":"Zwettl","key":"CountyName"}]},"MapReference":{"ReferenceId":"62791671","Spot":0.0,"SideOfStreet":"left","CountryId":"20128885","StateId":"20130295","CountyId":"20132758","CityId":"20132861","DistrictId":"20132876"}}},{"Relevance":1.0,"Distance":42.9,"MatchLevel":"street","MatchQuality":{"Country":1.0,"State":1.0,"County":1.0,"City":1.0,"District":1.0,"Street":[1.0],"PostalCode":1.0},"Location":{"LocationId":"NT_XPI-58zeSjq3swpTjVD5aB_l_62791670_L","LocationType":"point","DisplayPosition":{"Latitude":48.6717537,"Longitude":15.1628644},"MapView":{"TopLeft":{"Latitude":48.67198,"Longitude":15.16235},"BottomRight":{"Latitude":48.67128,"Longitude":15.16311}},"Address":{"Label":"Großglobnitz, 3910 Zwettl-Niederösterreich, Österreich","Country":"AUT","State":"Niederösterreich","County":"Zwettl","City":"Zwettl-Niederösterreich","District":"Großglobnitz","Street":"Großglobnitz","PostalCode":"3910","AdditionalData":[{"value":"Österreich","key":"CountryName"},{"value":"Niederösterreich","key":"StateName"},{"value":"Zwettl","key":"CountyName"}]},"MapReference":{"ReferenceId":"62791670","Spot":0.68,"SideOfStreet":"left","CountryId":"20128885","StateId":"20130295","CountyId":"20132758","CityId":"20132861","DistrictId":"20132876"}}},{"Relevance":1.0,"Distance":51.7,"MatchLevel":"houseNumber","MatchQuality":{"Country":1.0,"State":1.0,"County":1.0,"City":1.0,"District":1.0,"Street":[1.0],"HouseNumber":1.0,"PostalCode":1.0},"MatchType":"interpolated","Location":{"LocationId":"NT_XPI-58zeSjq3swpTjVD5aB_3ID","LocationType":"point","DisplayPosition":{"Latitude":48.67263,"Longitude":15.16277},"MapView":{"TopLeft":{"Latitude":48.6737542,"Longitude":15.1610677},"BottomRight":{"Latitude":48.6715058,"Longitude":15.1644723}},"Address":{"Label":"Großglobnitz 72, 3910 Zwettl-Niederösterreich, Österreich","Country":"AUT","State":"Niederösterreich","County":"Zwettl","City":"Zwettl-Niederösterreich","District":"Großglobnitz","Street":"Großglobnitz","HouseNumber":"72","PostalCode":"3910","AdditionalData":[{"value":"Österreich","key":"CountryName"},{"value":"Niederösterreich","key":"StateName"},{"value":"Zwettl","key":"CountyName"}]},"MapReference":{"ReferenceId":"548807943","Spot":0.41,"SideOfStreet":"left","CountryId":"20128885","StateId":"20130295","CountyId":"20132758","CityId":"20132861","DistrictId":"20132876","AddressId":"161765454","RoadLinkId":"28346123"}}},{"Relevance":1.0,"Distance":61.2,"MatchLevel":"houseNumber","MatchQuality":{"Country":1.0,"State":1.0,"County":1.0,"City":1.0,"District":1.0,"Street":[1.0],"HouseNumber":1.0,"PostalCode":1.0},"MatchType":"interpolated","Location":{"LocationId":"NT_XPI-58zeSjq3swpTjVD5aB_0gD","LocationType":"point","DisplayPosition":{"Latitude":48.67191,"Longitude":15.16177},"MapView":{"TopLeft":{"Latitude":48.6730342,"Longitude":15.1600677},"BottomRight":{"Latitude":48.6707858,"Longitude":15.1634723}},"Address":{"Label":"Großglobnitz 48, 3910 Zwettl-Niederösterreich, Österreich","Country":"AUT","State":"Niederösterreich","County":"Zwettl","City":"Zwettl-Niederösterreich","District":"Großglobnitz","Street":"Großglobnitz","HouseNumber":"48","PostalCode":"3910","AdditionalData":[{"value":"Österreich","key":"CountryName"},{"value":"Niederösterreich","key":"StateName"},{"value":"Zwettl","key":"CountyName"}]},"MapReference":{"ReferenceId":"956764058","Spot":0.54,"SideOfStreet":"left","CountryId":"20128885","StateId":"20130295","CountyId":"20132758","CityId":"20132861","DistrictId":"20132876","AddressId":"161765452","RoadLinkId":"299696709"}}},{"Relevance":1.0,"Distance":87.0,"MatchLevel":"houseNumber","MatchQuality":{"Country":1.0,"State":1.0,"County":1.0,"City":1.0,"District":1.0,"Street":[1.0],"HouseNumber":1.0,"PostalCode":1.0},"MatchType":"interpolated","Location":{"LocationId":"NT_XPI-58zeSjq3swpTjVD5aB_5ED","LocationType":"point","DisplayPosition":{"Latitude":48.67252,"Longitude":15.16364},"MapView":{"TopLeft":{"Latitude":48.6736442,"Longitude":15.1619377},"BottomRight":{"Latitude":48.6713958,"Longitude":15.1653423}},"Address":{"Label":"Großglobnitz 91, 3910 Zwettl-Niederösterreich, Österreich","Country":"AUT","State":"Niederösterreich","County":"Zwettl","City":"Zwettl-Niederösterreich","District":"Großglobnitz","Street":"Großglobnitz","HouseNumber":"91","PostalCode":"3910","AdditionalData":[{"value":"Österreich","key":"CountryName"},{"value":"Niederösterreich","key":"StateName"},{"value":"Zwettl","key":"CountyName"}]},"MapReference":{"ReferenceId":"548807942","Spot":0.34,"SideOfStreet":"left","CountryId":"20128885","StateId":"20130295","CountyId":"20132758","CityId":"20132861","DistrictId":"20132876","AddressId":"161765458","RoadLinkId":"28431399"}}},{"Relevance":1.0,"Distance":90.6,"MatchLevel":"street","MatchQuality":{"Country":1.0,"State":1.0,"County":1.0,"City":1.0,"District":1.0,"Street":[1.0],"PostalCode":1.0},"Location":{"LocationId":"NT_XPI-58zeSjq3swpTjVD5aB_l_548807941_R","LocationType":"point","DisplayPosition":{"Latitude":48.67128,"Longitude":15.16235},"MapView":{"TopLeft":{"Latitude":48.67128,"Longitude":15.16223},"BottomRight":{"Latitude":48.67078,"Longitude":15.16235}},"Address":{"Label":"Großglobnitz, 3910 Zwettl-Niederösterreich, Österreich","Country":"AUT","State":"Niederösterreich","County":"Zwettl","City":"Zwettl-Niederösterreich","District":"Großglobnitz","Street":"Großglobnitz","PostalCode":"3910","AdditionalData":[{"value":"Österreich","key":"CountryName"},{"value":"Niederösterreich","key":"StateName"},{"value":"Zwettl","key":"CountyName"}]},"MapReference":{"ReferenceId":"548807941","Spot":1.0,"SideOfStreet":"right","CountryId":"20128885","StateId":"20130295","CountyId":"20132758","CityId":"20132861","DistrictId":"20132876"}}},{"Relevance":1.0,"Distance":110.0,"MatchLevel":"houseNumber","MatchQuality":{"Country":1.0,"State":1.0,"County":1.0,"City":1.0,"District":1.0,"Street":[1.0],"HouseNumber":1.0,"PostalCode":1.0},"MatchType":"interpolated","Location":{"LocationId":"NT_XPI-58zeSjq3swpTjVD5aB_0QD","LocationType":"point","DisplayPosition":{"Latitude":48.67311,"Longitude":15.16326},"MapView":{"TopLeft":{"Latitude":48.6742342,"Longitude":15.1615577},"BottomRight":{"Latitude":48.6719858,"Longitude":15.1649623}},"Address":{"Label":"Großglobnitz 44, 3910 Zwettl-Niederösterreich, Österreich","Country":"AUT","State":"Niederösterreich","County":"Zwettl","City":"Zwettl-Niederösterreich","District":"Großglobnitz","Street":"Großglobnitz","HouseNumber":"44","PostalCode":"3910","AdditionalData":[{"value":"Österreich","key":"CountryName"},{"value":"Niederösterreich","key":"StateName"},{"value":"Zwettl","key":"CountyName"}]},"MapReference":{"ReferenceId":"548807946","Spot":0.38,"SideOfStreet":"left","CountryId":"20128885","StateId":"20130295","CountyId":"20132758","CityId":"20132861","DistrictId":"20132876","AddressId":"161765467","RoadLinkId":"28766444"}}}]}]}}