{"Response":{"MetaInfo":{"Timestamp":"2020-03-28T11:48:32.551+0000","NextPageInformation":"2"},"View":[{"_type":"SearchResultsViewType","ViewId":0,"Result":[{"Relevance":1.0,"Distance":0.0,"Direction":0.0,"MatchLevel":"district","MatchQuality":{"Country":1.0,"State":1.0,"County":1.0,"City":1.0,"District":1.0,"PostalCode":1.0},"Location":{"LocationId":"NT_.XfMd2tDYRUUpRm3Y6ob9D","LocationType":"point","DisplayPosition":{"Latitude":48.6323649,"Longitude":2.4474338},"MapView":{"TopLeft":{"Latitude":48.64554,"Longitude":2.4135},"BottomRight":{"Latitude":48.61091,"Longitude":2.46951}},"Address":{"Label":"Évry, Évry-Courcouronnes, Île-de-France, France","Country":"FRA","State":"Île-de-France","County":"Essonne","City":"Évry-Courcouronnes","District":"Évry","PostalCode":"91000","AdditionalData":[{"value":"France","key":"CountryName"},{"value":"Île-de-France","key":"StateName"},{"value":"Essonne","key":"CountyName"}]},"MapReference":{"ReferenceId":"1068592292","SideOfStreet":"neither","CountryId":"20000001","StateId":"20002126","CountyId":"20004503","CityId":"20004717","DistrictId":"20004719"}}},{"Relevance":1.0,"Distance":3.4,"MatchLevel":"houseNumber","MatchQuality":{"Country":1.0,"State":1.0,"County":1.0,"City":1.0,"District":1.0,"Street":[1.0],"HouseNumber":1.0,"PostalCode":1.0},"MatchType":"interpolated","Location":{"LocationId":"NT_fQkiKDWNkvaAOeh.X1tvkC_yED","LocationType":"point","DisplayPosition":{"Latitude":48.6323,"Longitude":2.44739},"MapView":{"TopLeft":{"Latitude":48.6334242,"Longitude":2.445689},"BottomRight":{"Latitude":48.6311758,"Longitude":2.449091}},"Address":{"Label":"21 Avenue de la République, 91000 Évry-Courcouronnes, France","Country":"FRA","State":"Île-de-France","County":"Essonne","City":"Évry-Courcouronnes","District":"Évry","Street":"Avenue de la République","HouseNumber":"21","PostalCode":"91000","AdditionalData":[{"value":"France","key":"CountryName"},{"value":"Île-de-France","key":"StateName"},{"value":"Essonne","key":"CountyName"}]},"MapReference":{"ReferenceId":"56440468","Spot":0.23,"SideOfStreet":"right","CountryId":"20000001","StateId":"20002126","CountyId":"20004503","CityId":"20004717","DistrictId":"20004719","AddressId":"321950682","RoadLinkId":"43656673"}}},{"Relevance":1.0,"Distance":35.4,"MatchLevel":"houseNumber","MatchQuality":{"Country":1.0,"State":1.0,"County":1.0,"City":1.0,"District":1.0,"Street":[1.0],"HouseNumber":1.0,"PostalCode":1.0},"MatchType":"interpolated","Location":{"LocationId":"NT_wdvvS2u3gxnn0mI6NYVEbA_xgD","LocationType":"point","DisplayPosition":{"Latitude":48.63247,"Longitude":2.4479},"MapView":{"TopLeft":{"Latitude":48.6335942,"Longitude":2.446199},"BottomRight":{"Latitude":48.6313458,"Longitude":2.449601}},"Address":{"Label":"18 Rue du Puits Jamet, 91000 Évry-Courcouronnes, France","Country":"FRA","State":"Île-de-France","County":"Essonne","City":"Évry-Courcouronnes","District":"Évry","Street":"Rue du Puits Jamet","HouseNumber":"18","PostalCode":"91000","AdditionalData":[{"value":"France","key":"CountryName"},{"value":"Île-de-France","key":"StateName"},{"value":"Essonne","key":"CountyName"}]},"MapReference":{"ReferenceId":"56440467","Spot":0.58,"SideOfStreet":"left","CountryId":"20000001","StateId":"20002126","CountyId":"20004503","CityId":"20004717","DistrictId":"20004719","AddressId":"345015573","RoadLinkId":"43698863"}}},{"Relevance":1.0,"Distance":38.6,"MatchLevel":"houseNumber","MatchQuality":{"Country":1.0,"State":1.0,"County":1.0,"City":1.0,"District":1.0,"Street":[1.0],"HouseNumber":1.0,"PostalCode":1.0},"MatchType":"interpolated","Location":{"LocationId":"NT_fQkiKDWNkvaAOeh.X1tvkC_ycD","LocationType":"point","DisplayPosition":{"Latitude":48.63207,"Longitude":2.44771},"MapView":{"TopLeft":{"Latitude":48.6331942,"Longitude":2.446009},"BottomRight":{"Latitude":48.6309458,"Longitude":2.449411}},"Address":{"Label":"27 Avenue de la République, 91000 Évry-Courcouronnes, France","Country":"FRA","State":"Île-de-France","County":"Essonne","City":"Évry-Courcouronnes","District":"Évry","Street":"Avenue de la République","HouseNumber":"27","PostalCode":"91000","AdditionalData":[{"value":"France","key":"CountryName"},{"value":"Île-de-France","key":"StateName"},{"value":"Essonne","key":"CountyName"}]},"MapReference":{"ReferenceId":"56440488","Spot":0.43,"SideOfStreet":"right","CountryId":"20000001","StateId":"20002126","CountyId":"20004503","CityId":"20004717","DistrictId":"20004719","AddressId":"322004170","RoadLinkId":"43343460"}}},{"Relevance":1.0,"Distance":43.8,"MatchLevel":"street","MatchQuality":{"Country":1.0,"State":1.0,"County":1.0,"City":1.0,"District":1.0,"Street":[1.0],"PostalCode":1.0},"Location":{"LocationId":"NT_.QvgsmWj0BiERmCaqp5HqB_l_943417864_L","LocationType":"point","DisplayPosition":{"Latitude":48.6320308,"Longitude":2.4477503},"MapView":{"TopLeft":{"Latitude":48.63204,"Longitude":2.44751},"BottomRight":{"Latitude":48.63176,"Longitude":2.44776}},"Address":{"Label":"Place d'Armes, 91000 Évry-Courcouronnes, France","Country":"FRA","State":"Île-de-France","County":"Essonne","City":"Évry-Courcouronnes","District":"Évry","Street":"Place d'Armes","PostalCode":"91000","AdditionalData":[{"value":"France","key":"CountryName"},{"value":"Île-de-France","key":"StateName"},{"value":"Essonne","key":"CountyName"}]},"MapReference":{"ReferenceId":"943417864","Spot":0.96,"SideOfStreet":"left","CountryId":"20000001","StateId":"20002126","CountyId":"20004503","CityId":"20004717","DistrictId":"20004719"}}},{"Relevance":1.0,"Distance":45.1,"MatchLevel":"houseNumber","MatchQuality":{"Country":1.0,"State":1.0,"County":1.0,"City":1.0,"District":1.0,"Street":[1.0],"HouseNumber":1.0,"PostalCode":1.0},"MatchType":"interpolated","Location":{"LocationId":"NT_.QvgsmWj0BiERmCaqp5HqB_xA","LocationType":"point","DisplayPosition":{"Latitude":48.63203,"Longitude":2.44778},"MapView":{"TopLeft":{"Latitude":48.6331542,"Longitude":2.446079},"BottomRight":{"Latitude":48.6309058,"Longitude":2.449481}},"Address":{"Label":"1 Place d'Armes, 91000 Évry-Courcouronnes, France","Country":"FRA","State":"Île-de-France","County":"Essonne","City":"Évry-Courcouronnes","District":"Évry","Street":"Place d'Armes","HouseNumber":"1","PostalCode":"91000","AdditionalData":[{"value":"France","key":"CountryName"},{"value":"Île-de-France","key":"StateName"},{"value":"Essonne","key":"CountyName"}]},"MapReference":{"ReferenceId":"56440538","Spot":0.95,"SideOfStreet":"right","CountryId":"20000001","StateId":"20002126","CountyId":"20004503","CityId":"20004717","DistrictId":"20004719","AddressId":"322203170","RoadLinkId":"43378553"}}},{"Relevance":1.0,"Distance":54.2,"MatchLevel":"houseNumber","MatchQuality":{"Country":1.0,"State":1.0,"County":1.0,"City":1.0,"District":1.0,"Street":[1.0],"HouseNumber":1.0,"PostalCode":1.0},"MatchType":"interpolated","Location":{"LocationId":"NT_58Dlwa0t72Ukp8yUC4fTPC_0ED","LocationType":"point","DisplayPosition":{"Latitude":48.63199,"Longitude":2.44681},"MapView":{"TopLeft":{"Latitude":48.6331142,"Longitude":2.445109},"BottomRight":{"Latitude":48.6308658,"Longitude":2.448511}},"Address":{"Label":"41 Boulevard Aguado, 91000 Évry-Courcouronnes, France","Country":"FRA","State":"Île-de-France","County":"Essonne","City":"Évry-Courcouronnes","District":"Évry","Street":"Boulevard Aguado","HouseNumber":"41","PostalCode":"91000","AdditionalData":[{"value":"France","key":"CountryName"},{"value":"Île-de-France","key":"StateName"},{"value":"Essonne","key":"CountyName"}]},"MapReference":{"ReferenceId":"945187465","Spot":0.38,"SideOfStreet":"right","CountryId":"20000001","StateId":"20002126","CountyId":"20004503","CityId":"20004717","DistrictId":"20004719","AddressId":"322231524","RoadLinkId":"293665264"}}},{"Relevance":1.0,"Distance":65.1,"MatchLevel":"houseNumber","MatchQuality":{"Country":1.0,"State":1.0,"County":1.0,"City":1.0,"District":1.0,"Street":[1.0],"HouseNumber":1.0,"PostalCode":1.0},"MatchType":"interpolated","Location":{"LocationId":"NT_58Dlwa0t72Ukp8yUC4fTPC_0MD","LocationType":"point","DisplayPosition":{"Latitude":48.63177,"Longitude":2.44746},"MapView":{"TopLeft":{"Latitude":48.6328942,"Longitude":2.445759},"BottomRight":{"Latitude":48.6306458,"Longitude":2.449161}},"Address":{"Label":"43 Boulevard Aguado, 91000 Évry-Courcouronnes, France","Country":"FRA","State":"Île-de-France","County":"Essonne","City":"Évry-Courcouronnes","District":"Évry","Street":"Boulevard Aguado","HouseNumber":"43","PostalCode":"91000","AdditionalData":[{"value":"France","key":"CountryName"},{"value":"Île-de-France","key":"StateName"},{"value":"Essonne","key":"CountyName"}]},"MapReference":{"ReferenceId":"945187464","Spot":0.3,"SideOfStreet":"right","CountryId":"20000001","StateId":"20002126","CountyId":"20004503","CityId":"20004717","DistrictId":"20004719","AddressId":"572247259","RoadLinkId":"293665263"}}},{"Relevance":1.0,"Distance":65.7,"MatchLevel":"houseNumber","MatchQuality":{"Country":1.0,"State":1.0,"County":1.0,"City":1.0,"District":1.0,"Street":[1.0],"HouseNumber":1.0,"PostalCode":1.0},"MatchType":"interpolated","Location":{"LocationId":"NT_wdvvS2u3gxnn0mI6NYVEbA_xID","LocationType":"point","DisplayPosition":{"Latitude":48.63265,"Longitude":2.44822},"MapView":{"TopLeft":{"Latitude":48.6337742,"Longitude":2.446519},"BottomRight":{"Latitude":48.6315258,"Longitude":2.449921}},"Address":{"Label":"12 Rue du Puits Jamet, 91000 Évry-Courcouronnes, France","Country":"FRA","State":"Île-de-France","County":"Essonne","City":"Évry-Courcouronnes","District":"Évry","Street":"Rue du Puits Jamet","HouseNumber":"12","PostalCode":"91000","AdditionalData":[{"value":"France","key":"CountryName"},{"value":"Île-de-France","key":"StateName"},{"value":"Essonne","key":"CountyName"}]},"MapReference":{"ReferenceId":"56440372","Spot":0.09,"SideOfStreet":"left","CountryId":"20000001","StateId":"20002126","CountyId":"20004503","CityId":"20004717","DistrictId":"20004719","AddressId":"344848902","RoadLinkId":"43379662"}}},{"Relevance":1.0,"Distance":66.9,"MatchLevel":"street","MatchQuality":{"Country":1.0,"State":1.0,"County":1.0,"City":1.0,"District":1.0,"Street":[1.0],"PostalCode":1.0},"Location":{"LocationId":"NT_c4rb7Ifg46RdAYkhG.6PRC_l_56440373_L","LocationType":"point","DisplayPosition":{"Latitude":48.6329233,"Longitude":2.4477743},"MapView":{"TopLeft":{"Latitude":48.6338,"Longitude":2.44661},"BottomRight":{"Latitude":48.63263,"Longitude":2.44816}},"Address":{"Label":"Ruelle des Jardins, 91000 Évry-Courcouronnes, France","Country":"FRA","State":"Île-de-France","County":"Essonne","City":"Évry-Courcouronnes","District":"Évry","Street":"Ruelle des Jardins","PostalCode":"91000","AdditionalData":[{"value":"France","key":"CountryName"},{"value":"Île-de-France","key":"StateName"},{"value":"Essonne","key":"CountyName"}]},"MapReference":{"ReferenceId":"56440373","Spot":0.24,"SideOfStreet":"left","CountryId":"20000001","StateId":"20002126","CountyId":"20004503","CityId":"20004717","DistrictId":"20004719"}}}]}]}}