{"Response":{"MetaInfo":{"Timestamp":"2020-03-28T09:49:48.116+0000","NextPageInformation":"2"},"View":[{"_type":"SearchResultsViewType","ViewId":0,"Result":[{"Relevance":1.0,"Distance":0.0,"Direction":0.0,"MatchLevel":"city","MatchQuality":{"Country":1.0,"State":1.0,"County":1.0,"City":1.0,"PostalCode":1.0},"Location":{"LocationId":"NT_iuWmcX8h21GBjxnMUfzKdD","LocationType":"point","DisplayPosition":{"Latitude":48.6227201,"Longitude":2.124747},"MapView":{"TopLeft":{"Latitude":48.65574,"Longitude":2.10015},"BottomRight":{"Latitude":48.60308,"Longitude":2.16073}},"Address":{"Label":"Briis-sous-Forges, Île-de-France, France","Country":"FRA","State":"Île-de-France","County":"Essonne","City":"Briis-sous-Forges","PostalCode":"91640","AdditionalData":[{"value":"France","key":"CountryName"},{"value":"Île-de-France","key":"StateName"},{"value":"Essonne","key":"CountyName"}]},"MapReference":{"ReferenceId":"762851309","SideOfStreet":"neither","CountryId":"20000001","StateId":"20002126","CountyId":"20004503","CityId":"20004603"}}},{"Relevance":1.0,"Distance":8.3,"MatchLevel":"street","MatchQuality":{"Country":1.0,"State":1.0,"County":1.0,"City":1.0,"Street":[1.0],"PostalCode":1.0},"Location":{"LocationId":"NT_TCeDNNleaHhRyhFNoO93YB_l_541001139_R","LocationType":"point","DisplayPosition":{"Latitude":48.6227923,"Longitude":2.1247188},"MapView":{"TopLeft":{"Latitude":48.62291,"Longitude":2.12346},"BottomRight":{"Latitude":48.62236,"Longitude":2.12502}},"Address":{"Label":"Rue Simon de Montfort, 91640 Briis-sous-Forges, France","Country":"FRA","State":"Île-de-France","County":"Essonne","City":"Briis-sous-Forges","Street":"Rue Simon de Montfort","PostalCode":"91640","AdditionalData":[{"value":"France","key":"CountryName"},{"value":"Île-de-France","key":"StateName"},{"value":"Essonne","key":"CountyName"}]},"MapReference":{"ReferenceId":"541001139","Spot":0.8,"SideOfStreet":"right","CountryId":"20000001","StateId":"20002126","CountyId":"20004503","CityId":"20004603"}}},{"Relevance":1.0,"Distance":13.6,"MatchLevel":"houseNumber","MatchQuality":{"Country":1.0,"State":1.0,"County":1.0,"City":1.0,"Street":[1.0],"HouseNumber":1.0,"PostalCode":1.0},"MatchType":"interpolated","Location":{"LocationId":"NT_8coy2eJka8I569ZCfuHIVB_l_1001577699_L_xYjM","LocationType":"point","DisplayPosition":{"Latitude":48.6228471,"Longitude":2.1250248},"MapView":{"TopLeft":{"Latitude":48.6239713,"Longitude":2.1233242},"BottomRight":{"Latitude":48.621723,"Longitude":2.1267255}},"Address":{"Label":"162 Rue de la Fontaine de Ville, 91640 Briis-sous-Forges, France","Country":"FRA","State":"Île-de-France","County":"Essonne","City":"Briis-sous-Forges","Street":"Rue de la Fontaine de Ville","HouseNumber":"162","PostalCode":"91640","AdditionalData":[{"value":"France","key":"CountryName"},{"value":"Île-de-France","key":"StateName"},{"value":"Essonne","key":"CountyName"}]},"MapReference":{"ReferenceId":"1001577699","Spot":0.52,"SideOfStreet":"left","CountryId":"20000001","StateId":"20002126","CountyId":"20004503","CityId":"20004603"}}},{"Relevance":1.0,"Distance":34.6,"MatchLevel":"houseNumber","MatchQuality":{"Country":1.0,"State":1.0,"County":1.0,"City":1.0,"Street":[1.0],"HouseNumber":1.0,"PostalCode":1.0},"MatchType":"interpolated","Location":{"LocationId":"NT_yrC5Xy7IXUgi3CfCZG7sXD_xUDM","LocationType":"point","DisplayPosition":{"Latitude":48.6225,"Longitude":2.12511},"MapView":{"TopLeft":{"Latitude":48.6236242,"Longitude":2.1234094},"BottomRight":{"Latitude":48.6213758,"Longitude":2.1268106}},"Address":{"Label":"150 Rue de la Fontaine de Ville, 91640 Briis-sous-Forges, France","Country":"FRA","State":"Île-de-France","County":"Essonne","City":"Briis-sous-Forges","Street":"Rue de la Fontaine de Ville","HouseNumber":"150","PostalCode":"91640","AdditionalData":[{"value":"France","key":"CountryName"},{"value":"Île-de-France","key":"StateName"},{"value":"Essonne","key":"CountyName"}]},"MapReference":{"ReferenceId":"1001577698","Spot":0.71,"SideOfStreet":"left","CountryId":"20000001","StateId":"20002126","CountyId":"20004503","CityId":"20004603","AddressId":"361473094","RoadLinkId":"327888251"}}},{"Relevance":1.0,"Distance":81.9,"MatchLevel":"houseNumber","MatchQuality":{"Country":1.0,"State":1.0,"County":1.0,"City":1.0,"Street":[1.0],"HouseNumber":1.0,"PostalCode":1.0},"MatchType":"interpolated","Location":{"LocationId":"NT_kHPYffr9bhteJvEaASYA.C_yMD","LocationType":"point","DisplayPosition":{"Latitude":48.62331,"Longitude":2.12554},"MapView":{"TopLeft":{"Latitude":48.6244342,"Longitude":2.1238393},"BottomRight":{"Latitude":48.6221858,"Longitude":2.1272407}},"Address":{"Label":"23 Place de la Ferme, 91640 Briis-sous-Forges, France","Country":"FRA","State":"Île-de-France","County":"Essonne","City":"Briis-sous-Forges","Street":"Place de la Ferme","HouseNumber":"23","PostalCode":"91640","AdditionalData":[{"value":"France","key":"CountryName"},{"value":"Île-de-France","key":"StateName"},{"value":"Essonne","key":"CountyName"}]},"MapReference":{"ReferenceId":"541001123","Spot":0.39,"SideOfStreet":"left","CountryId":"20000001","StateId":"20002126","CountyId":"20004503","CityId":"20004603","AddressId":"572248956","RoadLinkId":"43375162"}}},{"Relevance":1.0,"Distance":82.9,"MatchLevel":"houseNumber","MatchQuality":{"Country":1.0,"State":1.0,"County":1.0,"City":1.0,"Street":[1.0],"HouseNumber":1.0,"PostalCode":1.0},"MatchType":"interpolated","Location":{"LocationId":"NT_yrC5Xy7IXUgi3CfCZG7sXD_2AD","LocationType":"point","DisplayPosition":{"Latitude":48.62345,"Longitude":2.12504},"MapView":{"TopLeft":{"Latitude":48.6245742,"Longitude":2.1233393},"BottomRight":{"Latitude":48.6223258,"Longitude":2.1267407}},"Address":{"Label":"60 Rue de la Fontaine de Ville, 91640 Briis-sous-Forges, France","Country":"FRA","State":"Île-de-France","County":"Essonne","City":"Briis-sous-Forges","Street":"Rue de la Fontaine de Ville","HouseNumber":"60","PostalCode":"91640","AdditionalData":[{"value":"France","key":"CountryName"},{"value":"Île-de-France","key":"StateName"},{"value":"Essonne","key":"CountyName"}]},"MapReference":{"ReferenceId":"762851306","Spot":0.46,"SideOfStreet":"left","CountryId":"20000001","StateId":"20002126","CountyId":"20004503","CityId":"20004603","AddressId":"361480760","RoadLinkId":"157096203"}}},{"Relevance":1.0,"Distance":97.2,"MatchLevel":"houseNumber","MatchQuality":{"Country":1.0,"State":1.0,"County":1.0,"City":1.0,"Street":[1.0],"HouseNumber":1.0,"PostalCode":1.0},"MatchType":"interpolated","Location":{"LocationId":"NT_GPWIDjxPPNyYUG.96CuFWD_xID","LocationType":"point","DisplayPosition":{"Latitude":48.62305,"Longitude":2.1261},"MapView":{"TopLeft":{"Latitude":48.6241742,"Longitude":2.1243993},"BottomRight":{"Latitude":48.6219258,"Longitude":2.1278007}},"Address":{"Label":"12 Rue d'Antioche, 91640 Briis-sous-Forges, France","Country":"FRA","State":"Île-de-France","County":"Essonne","City":"Briis-sous-Forges","Street":"Rue d'Antioche","HouseNumber":"12","PostalCode":"91640","AdditionalData":[{"value":"France","key":"CountryName"},{"value":"Île-de-France","key":"StateName"},{"value":"Essonne","key":"CountyName"}]},"MapReference":{"ReferenceId":"541002955","Spot":0.78,"SideOfStreet":"left","CountryId":"20000001","StateId":"20002126","CountyId":"20004503","CityId":"20004603","AddressId":"344801312","RoadLinkId":"43778638"}}},{"Relevance":1.0,"Distance":102.4,"MatchLevel":"houseNumber","MatchQuality":{"Country":1.0,"State":1.0,"County":1.0,"City":1.0,"Street":[1.0],"HouseNumber":1.0,"PostalCode":1.0},"MatchType":"interpolated","Location":{"LocationId":"NT_VlgiRD.v1X1sy-4gXfDdtA_zA","LocationType":"point","DisplayPosition":{"Latitude":48.62211,"Longitude":2.12356},"MapView":{"TopLeft":{"Latitude":48.6232342,"Longitude":2.1218594},"BottomRight":{"Latitude":48.6209858,"Longitude":2.1252606}},"Address":{"Label":"3 Impasse des Jardins Rebus, 91640 Briis-sous-Forges, France","Country":"FRA","State":"Île-de-France","County":"Essonne","City":"Briis-sous-Forges","Street":"Impasse des Jardins Rebus","HouseNumber":"3","PostalCode":"91640","AdditionalData":[{"value":"France","key":"CountryName"},{"value":"Île-de-France","key":"StateName"},{"value":"Essonne","key":"CountyName"}]},"MapReference":{"ReferenceId":"541001157","Spot":0.84,"SideOfStreet":"right","CountryId":"20000001","StateId":"20002126","CountyId":"20004503","CityId":"20004603","AddressId":"361464314","RoadLinkId":"43322451"}}},{"Relevance":1.0,"Distance":103.1,"MatchLevel":"houseNumber","MatchQuality":{"Country":1.0,"State":1.0,"County":1.0,"City":1.0,"Street":[1.0],"HouseNumber":1.0,"PostalCode":1.0},"MatchType":"interpolated","Location":{"LocationId":"NT_TCeDNNleaHhRyhFNoO93YB_xkD","LocationType":"point","DisplayPosition":{"Latitude":48.62236,"Longitude":2.12341},"MapView":{"TopLeft":{"Latitude":48.6234842,"Longitude":2.1217094},"BottomRight":{"Latitude":48.6212358,"Longitude":2.1251106}},"Address":{"Label":"19 Rue Simon de Montfort, 91640 Briis-sous-Forges, France","Country":"FRA","State":"Île-de-France","County":"Essonne","City":"Briis-sous-Forges","Street":"Rue Simon de Montfort","HouseNumber":"19","PostalCode":"91640","AdditionalData":[{"value":"France","key":"CountryName"},{"value":"Île-de-France","key":"StateName"},{"value":"Essonne","key":"CountyName"}]},"MapReference":{"ReferenceId":"541001143","Spot":0.96,"SideOfStreet":"left","CountryId":"20000001","StateId":"20002126","CountyId":"20004503","CityId":"20004603","AddressId":"361479943","RoadLinkId":"43375284"}}},{"Relevance":1.0,"Distance":104.7,"MatchLevel":"houseNumber","MatchQuality":{"Country":1.0,"State":1.0,"County":1.0,"City":1.0,"Street":[1.0],"HouseNumber":1.0,"PostalCode":1.0},"MatchType":"interpolated","Location":{"LocationId":"NT_yrC5Xy7IXUgi3CfCZG7sXD_yUDM","LocationType":"point","DisplayPosition":{"Latitude":48.62185,"Longitude":2.12543},"MapView":{"TopLeft":{"Latitude":48.6229742,"Longitude":2.1237294},"BottomRight":{"Latitude":48.6207258,"Longitude":2.1271306}},"Address":{"Label":"250 Rue de la Fontaine de Ville, 91640 Briis-sous-Forges, France","Country":"FRA","State":"Île-de-France","County":"Essonne","City":"Briis-sous-Forges","Street":"Rue de la Fontaine de Ville","HouseNumber":"250","PostalCode":"91640","AdditionalData":[{"value":"France","key":"CountryName"},{"value":"Île-de-France","key":"StateName"},{"value":"Essonne","key":"CountyName"}]},"MapReference":{"ReferenceId":"1206043708","Spot":1.0,"SideOfStreet":"left","CountryId":"20000001","StateId":"20002126","CountyId":"20004503","CityId":"20004603","AddressId":"361463322","RoadLinkId":"519878985"}}}]}]}}