{"Response":{"MetaInfo":{"Timestamp":"2020-03-28T10:29:14.641+0000","NextPageInformation":"2"},"View":[{"_type":"SearchResultsViewType","ViewId":0,"Result":[{"Relevance":1.0,"Distance":0.0,"Direction":0.0,"MatchLevel":"city","MatchQuality":{"Country":1.0,"State":1.0,"County":1.0,"City":1.0,"PostalCode":1.0},"Location":{"LocationId":"NT_kiNTW1dDLYvX.I0DApd9ZA","LocationType":"point","DisplayPosition":{"Latitude":48.6312627,"Longitude":2.2664211},"MapView":{"TopLeft":{"Latitude":48.63934,"Longitude":2.22352},"BottomRight":{"Latitude":48.61293,"Longitude":2.28156}},"Address":{"Label":"Linas, Île-de-France, France","Country":"FRA","State":"Île-de-France","County":"Essonne","City":"Linas","PostalCode":"91310","AdditionalData":[{"value":"France","key":"CountryName"},{"value":"Île-de-France","key":"StateName"},{"value":"Essonne","key":"CountyName"}]},"MapReference":{"ReferenceId":"56440690","SideOfStreet":"neither","CountryId":"20000001","StateId":"20002126","CountyId":"20004503","CityId":"20004799"}}},{"Relevance":1.0,"Distance":14.5,"MatchLevel":"houseNumber","MatchQuality":{"Country":1.0,"State":1.0,"County":1.0,"City":1.0,"Street":[1.0],"HouseNumber":1.0,"PostalCode":1.0},"MatchType":"interpolated","Location":{"LocationId":"NT_4kHZNStx3HEIJPeR6-NhZD_1A","LocationType":"point","DisplayPosition":{"Latitude":48.63141,"Longitude":2.2664},"MapView":{"TopLeft":{"Latitude":48.6325342,"Longitude":2.2646991},"BottomRight":{"Latitude":48.6302858,"Longitude":2.2681009}},"Address":{"Label":"5 Place Ernest Pillon, 91310 Linas, France","Country":"FRA","State":"Île-de-France","County":"Essonne","City":"Linas","Street":"Place Ernest Pillon","HouseNumber":"5","PostalCode":"91310","AdditionalData":[{"value":"France","key":"CountryName"},{"value":"Île-de-France","key":"StateName"},{"value":"Essonne","key":"CountyName"}]},"MapReference":{"ReferenceId":"56440640","Spot":0.52,"SideOfStreet":"left","CountryId":"20000001","StateId":"20002126","CountyId":"20004503","CityId":"20004799","AddressId":"590467230","RoadLinkId":"43722210"}}},{"Relevance":1.0,"Distance":43.6,"MatchLevel":"street","MatchQuality":{"Country":1.0,"State":1.0,"County":1.0,"City":1.0,"Street":[1.0],"PostalCode":1.0},"Location":{"LocationId":"NT_amS0Stw3-zsVkr4ZMU0d5A_l_56440594_L","LocationType":"point","DisplayPosition":{"Latitude":48.6316357,"Longitude":2.2666048},"MapView":{"TopLeft":{"Latitude":48.63184,"Longitude":2.26619},"BottomRight":{"Latitude":48.63151,"Longitude":2.26686}},"Address":{"Label":"Rue Jules Ferry, 91310 Linas, France","Country":"FRA","State":"Île-de-France","County":"Essonne","City":"Linas","Street":"Rue Jules Ferry","PostalCode":"91310","AdditionalData":[{"value":"France","key":"CountryName"},{"value":"Île-de-France","key":"StateName"},{"value":"Essonne","key":"CountyName"}]},"MapReference":{"ReferenceId":"56440594","Spot":0.38,"SideOfStreet":"left","CountryId":"20000001","StateId":"20002126","CountyId":"20004503","CityId":"20004799"}}},{"Relevance":1.0,"Distance":47.1,"MatchLevel":"houseNumber","MatchQuality":{"Country":1.0,"State":1.0,"County":1.0,"City":1.0,"Street":[1.0],"HouseNumber":1.0,"PostalCode":1.0},"MatchType":"interpolated","Location":{"LocationId":"NT_AunC60oEOfDz9ZX29gBwiC_4cD","LocationType":"point","DisplayPosition":{"Latitude":48.63153,"Longitude":2.26583},"MapView":{"TopLeft":{"Latitude":48.6326542,"Longitude":2.2641291},"BottomRight":{"Latitude":48.6304058,"Longitude":2.2675309}},"Address":{"Label":"87 Rue de la Division Leclerc, 91310 Linas, France","Country":"FRA","State":"Île-de-France","County":"Essonne","City":"Linas","Street":"Rue de la Division Leclerc","HouseNumber":"87","PostalCode":"91310","AdditionalData":[{"value":"France","key":"CountryName"},{"value":"Île-de-France","key":"StateName"},{"value":"Essonne","key":"CountyName"}]},"MapReference":{"ReferenceId":"56440637","Spot":0.6,"SideOfStreet":"right","CountryId":"20000001","StateId":"20002126","CountyId":"20004503","CityId":"20004799","AddressId":"322026495","RoadLinkId":"43351330"}}},{"Relevance":1.0,"Distance":56.0,"MatchLevel":"street","MatchQuality":{"Country":1.0,"State":1.0,"County":1.0,"City":1.0,"Street":[1.0],"PostalCode":1.0},"Location":{"LocationId":"NT_AunC60oEOfDz9ZX29gBwiC_l_56455385_R","LocationType":"point","DisplayPosition":{"Latitude":48.63138,"Longitude":2.26568},"MapView":{"TopLeft":{"Latitude":48.63138,"Longitude":2.26564},"BottomRight":{"Latitude":48.63133,"Longitude":2.26568}},"Address":{"Label":"Rue de la Division Leclerc, 91310 Linas, France","Country":"FRA","State":"Île-de-France","County":"Essonne","City":"Linas","Street":"Rue de la Division Leclerc","PostalCode":"91310","AdditionalData":[{"value":"France","key":"CountryName"},{"value":"Île-de-France","key":"StateName"},{"value":"Essonne","key":"CountyName"}]},"MapReference":{"ReferenceId":"56455385","Spot":1.0,"SideOfStreet":"right","CountryId":"20000001","StateId":"20002126","CountyId":"20004503","CityId":"20004799"}}},{"Relevance":1.0,"Distance":57.2,"MatchLevel":"street","MatchQuality":{"Country":1.0,"State":1.0,"County":1.0,"City":1.0,"Street":[1.0],"PostalCode":1.0},"Location":{"LocationId":"NT_AunC60oEOfDz9ZX29gBwiC_l_832828926_R","LocationType":"point","DisplayPosition":{"Latitude":48.6316919,"Longitude":2.2659919},"MapView":{"TopLeft":{"Latitude":48.63171,"Longitude":2.26593},"BottomRight":{"Latitude":48.63163,"Longitude":2.26601}},"Address":{"Label":"Rue de la Division Leclerc, 91310 Linas, France","Country":"FRA","State":"Île-de-France","County":"Essonne","City":"Linas","Street":"Rue de la Division Leclerc","PostalCode":"91310","AdditionalData":[{"value":"France","key":"CountryName"},{"value":"Île-de-France","key":"StateName"},{"value":"Essonne","key":"CountyName"}]},"MapReference":{"ReferenceId":"832828926","Spot":0.77,"SideOfStreet":"right","CountryId":"20000001","StateId":"20002126","CountyId":"20004503","CityId":"20004799"}}},{"Relevance":1.0,"Distance":62.2,"MatchLevel":"houseNumber","MatchQuality":{"Country":1.0,"State":1.0,"County":1.0,"City":1.0,"Street":[1.0],"HouseNumber":1.0,"PostalCode":1.0},"MatchType":"interpolated","Location":{"LocationId":"NT_AunC60oEOfDz9ZX29gBwiC_1ID","LocationType":"point","DisplayPosition":{"Latitude":48.63178,"Longitude":2.2661},"MapView":{"TopLeft":{"Latitude":48.6329042,"Longitude":2.264399},"BottomRight":{"Latitude":48.6306558,"Longitude":2.267801}},"Address":{"Label":"52 Rue de la Division Leclerc, 91310 Linas, France","Country":"FRA","State":"Île-de-France","County":"Essonne","City":"Linas","Street":"Rue de la Division Leclerc","HouseNumber":"52","PostalCode":"91310","AdditionalData":[{"value":"France","key":"CountryName"},{"value":"Île-de-France","key":"StateName"},{"value":"Essonne","key":"CountyName"}]},"MapReference":{"ReferenceId":"832828927","Spot":0.51,"SideOfStreet":"left","CountryId":"20000001","StateId":"20002126","CountyId":"20004503","CityId":"20004799","AddressId":"322064300","RoadLinkId":"216029391"}}},{"Relevance":1.0,"Distance":63.8,"MatchLevel":"houseNumber","MatchQuality":{"Country":1.0,"State":1.0,"County":1.0,"City":1.0,"Street":[1.0],"HouseNumber":1.0,"PostalCode":1.0},"MatchType":"interpolated","Location":{"LocationId":"NT_AunC60oEOfDz9ZX29gBwiC_1YD","LocationType":"point","DisplayPosition":{"Latitude":48.63174,"Longitude":2.26594},"MapView":{"TopLeft":{"Latitude":48.6328642,"Longitude":2.264239},"BottomRight":{"Latitude":48.6306158,"Longitude":2.267641}},"Address":{"Label":"56 Rue de la Division Leclerc, 91310 Linas, France","Country":"FRA","State":"Île-de-France","County":"Essonne","City":"Linas","Street":"Rue de la Division Leclerc","HouseNumber":"56","PostalCode":"91310","AdditionalData":[{"value":"France","key":"CountryName"},{"value":"Île-de-France","key":"StateName"},{"value":"Essonne","key":"CountyName"}]},"MapReference":{"ReferenceId":"832828929","Spot":0.04,"SideOfStreet":"left","CountryId":"20000001","StateId":"20002126","CountyId":"20004503","CityId":"20004799","AddressId":"371077550","RoadLinkId":"216029392"}}},{"Relevance":1.0,"Distance":67.8,"MatchLevel":"houseNumber","MatchQuality":{"Country":1.0,"State":1.0,"County":1.0,"City":1.0,"Street":[1.0],"HouseNumber":1.0,"PostalCode":1.0},"MatchType":"interpolated","Location":{"LocationId":"NT_TvN.Dz8Q.-TUPJhCAUeLsD_yA","LocationType":"point","DisplayPosition":{"Latitude":48.63169,"Longitude":2.26708},"MapView":{"TopLeft":{"Latitude":48.6328142,"Longitude":2.2653791},"BottomRight":{"Latitude":48.6305658,"Longitude":2.2687809}},"Address":{"Label":"2 Rue du Fief de Plainville, 91310 Linas, France","Country":"FRA","State":"Île-de-France","County":"Essonne","City":"Linas","Street":"Rue du Fief de Plainville","HouseNumber":"2","PostalCode":"91310","AdditionalData":[{"value":"France","key":"CountryName"},{"value":"Île-de-France","key":"StateName"},{"value":"Essonne","key":"CountyName"}]},"MapReference":{"ReferenceId":"1136561814","Spot":0.23,"SideOfStreet":"right","CountryId":"20000001","StateId":"20002126","CountyId":"20004503","CityId":"20004799","AddressId":"746513725","RoadLinkId":"445309651"}}},{"Relevance":1.0,"Distance":68.7,"MatchLevel":"houseNumber","MatchQuality":{"Country":1.0,"State":1.0,"County":1.0,"City":1.0,"Street":[1.0],"HouseNumber":1.0,"PostalCode":1.0},"MatchType":"interpolated","Location":{"LocationId":"NT_AunC60oEOfDz9ZX29gBwiC_4MD","LocationType":"point","DisplayPosition":{"Latitude":48.63187,"Longitude":2.26622},"MapView":{"TopLeft":{"Latitude":48.6329942,"Longitude":2.264519},"BottomRight":{"Latitude":48.6307458,"Longitude":2.267921}},"Address":{"Label":"83 Rue de la Division Leclerc, 91310 Linas, France","Country":"FRA","State":"Île-de-France","County":"Essonne","City":"Linas","Street":"Rue de la Division Leclerc","HouseNumber":"83","PostalCode":"91310","AdditionalData":[{"value":"France","key":"CountryName"},{"value":"Île-de-France","key":"StateName"},{"value":"Essonne","key":"CountyName"}]},"MapReference":{"ReferenceId":"56440522","Spot":0.07,"SideOfStreet":"right","CountryId":"20000001","StateId":"20002126","CountyId":"20004503","CityId":"20004799","AddressId":"572426914","RoadLinkId":"43544494"}}}]}]}}