{"Response":{"MetaInfo":{"Timestamp":"2020-03-28T09:33:34.960+0000","NextPageInformation":"2"},"View":[{"_type":"SearchResultsViewType","ViewId":0,"Result":[{"Relevance":1.0,"Distance":0.0,"Direction":0.0,"MatchLevel":"district","MatchQuality":{"Country":1.0,"State":1.0,"County":1.0,"City":1.0,"District":1.0,"PostalCode":1.0},"Location":{"LocationId":"NT_R9aLZIdrnJGkkSWJzZEg1C","LocationType":"point","DisplayPosition":{"Latitude":48.6468385,"Longitude":15.8194575},"MapView":{"TopLeft":{"Latitude":48.65301,"Longitude":15.80177},"BottomRight":{"Latitude":48.63294,"Longitude":15.83146}},"Address":{"Label":"Eggenburg, Niederösterreich, Österreich","Country":"AUT","State":"Niederösterreich","County":"Horn","City":"Eggenburg","District":"Eggenburg","PostalCode":"3730","AdditionalData":[{"value":"Österreich","key":"CountryName"},{"value":"Niederösterreich","key":"StateName"},{"value":"Horn","key":"CountyName"}]},"MapReference":{"ReferenceId":"857030143","SideOfStreet":"neither","CountryId":"20128885","StateId":"20130295","CountyId":"20131110","CityId":"20131132","DistrictId":"20131135"}}},{"Relevance":1.0,"Distance":38.3,"MatchLevel":"houseNumber","MatchQuality":{"Country":1.0,"State":1.0,"County":1.0,"City":1.0,"District":1.0,"Street":[1.0],"HouseNumber":1.0,"PostalCode":1.0},"MatchType":"interpolated","Location":{"LocationId":"NT_a5KkvNAODmeBIPHYWu2QkA_yA","LocationType":"point","DisplayPosition":{"Latitude":48.64656,"Longitude":15.8184},"MapView":{"TopLeft":{"Latitude":48.6476842,"Longitude":15.8166985},"BottomRight":{"Latitude":48.6454358,"Longitude":15.8201015}},"Address":{"Label":"Rechpergerstraße 2, 3730 Eggenburg, Österreich","Country":"AUT","State":"Niederösterreich","County":"Horn","City":"Eggenburg","District":"Eggenburg","Street":"Rechpergerstraße","HouseNumber":"2","PostalCode":"3730","AdditionalData":[{"value":"Österreich","key":"CountryName"},{"value":"Niederösterreich","key":"StateName"},{"value":"Horn","key":"CountyName"}]},"MapReference":{"ReferenceId":"558507030","Spot":0.54,"SideOfStreet":"right","CountryId":"20128885","StateId":"20130295","CountyId":"20131110","CityId":"20131132","DistrictId":"20131135","AddressId":"160673347","RoadLinkId":"28501309"}}},{"Relevance":1.0,"Distance":41.5,"MatchLevel":"houseNumber","MatchQuality":{"Country":1.0,"State":1.0,"County":1.0,"City":1.0,"District":1.0,"Street":[1.0],"HouseNumber":1.0,"PostalCode":1.0},"MatchType":"interpolated","Location":{"LocationId":"NT_Qo2j8r1lj4jIuAfIOC88jD_4A","LocationType":"point","DisplayPosition":{"Latitude":48.64738,"Longitude":15.81944},"MapView":{"TopLeft":{"Latitude":48.6485042,"Longitude":15.8177385},"BottomRight":{"Latitude":48.6462558,"Longitude":15.8211415}},"Address":{"Label":"Getreidegasse 8, 3730 Eggenburg, Österreich","Country":"AUT","State":"Niederösterreich","County":"Horn","City":"Eggenburg","District":"Eggenburg","Street":"Getreidegasse","HouseNumber":"8","PostalCode":"3730","AdditionalData":[{"value":"Österreich","key":"CountryName"},{"value":"Niederösterreich","key":"StateName"},{"value":"Horn","key":"CountyName"}]},"MapReference":{"ReferenceId":"558507121","Spot":0.62,"SideOfStreet":"right","CountryId":"20128885","StateId":"20130295","CountyId":"20131110","CityId":"20131132","DistrictId":"20131135","AddressId":"161455653","RoadLinkId":"27827730"}}},{"Relevance":1.0,"Distance":76.4,"MatchLevel":"houseNumber","MatchQuality":{"Country":1.0,"State":1.0,"County":1.0,"City":1.0,"District":1.0,"Street":[1.0],"HouseNumber":1.0,"PostalCode":1.0},"MatchType":"interpolated","Location":{"LocationId":"NT_a5KkvNAODmeBIPHYWu2QkA_5A","LocationType":"point","DisplayPosition":{"Latitude":48.64701,"Longitude":15.81845},"MapView":{"TopLeft":{"Latitude":48.6481342,"Longitude":15.8167485},"BottomRight":{"Latitude":48.6458858,"Longitude":15.8201515}},"Address":{"Label":"Rechpergerstraße 9, 3730 Eggenburg, Österreich","Country":"AUT","State":"Niederösterreich","County":"Horn","City":"Eggenburg","District":"Eggenburg","Street":"Rechpergerstraße","HouseNumber":"9","PostalCode":"3730","AdditionalData":[{"value":"Österreich","key":"CountryName"},{"value":"Niederösterreich","key":"StateName"},{"value":"Horn","key":"CountyName"}]},"MapReference":{"ReferenceId":"558507166","Spot":0.31,"SideOfStreet":"left","CountryId":"20128885","StateId":"20130295","CountyId":"20131110","CityId":"20131132","DistrictId":"20131135","AddressId":"160673342","RoadLinkId":"28856916"}}},{"Relevance":1.0,"Distance":76.7,"MatchLevel":"houseNumber","MatchQuality":{"Country":1.0,"State":1.0,"County":1.0,"City":1.0,"District":1.0,"Street":[1.0],"HouseNumber":1.0,"PostalCode":1.0},"MatchType":"interpolated","Location":{"LocationId":"NT_gh80I0MgITCx86Z-955dHD_zA","LocationType":"point","DisplayPosition":{"Latitude":48.64719,"Longitude":15.82071},"MapView":{"TopLeft":{"Latitude":48.6483142,"Longitude":15.8190085},"BottomRight":{"Latitude":48.6460658,"Longitude":15.8224115}},"Address":{"Label":"Engelsdorferstraße 3, 3730 Eggenburg, Österreich","Country":"AUT","State":"Niederösterreich","County":"Horn","City":"Eggenburg","District":"Eggenburg","Street":"Engelsdorferstraße","HouseNumber":"3","PostalCode":"3730","AdditionalData":[{"value":"Österreich","key":"CountryName"},{"value":"Niederösterreich","key":"StateName"},{"value":"Horn","key":"CountyName"}]},"MapReference":{"ReferenceId":"813412916","Spot":0.11,"SideOfStreet":"left","CountryId":"20128885","StateId":"20130295","CountyId":"20131110","CityId":"20131132","DistrictId":"20131135","AddressId":"411881903","RoadLinkId":"200715114"}}},{"Relevance":1.0,"Distance":93.3,"MatchLevel":"houseNumber","MatchQuality":{"Country":1.0,"State":1.0,"County":1.0,"City":1.0,"District":1.0,"Street":[1.0],"HouseNumber":1.0,"PostalCode":1.0},"MatchType":"interpolated","Location":{"LocationId":"NT_Jcz1iH1g6rbAXGodBfuxqC_3A","LocationType":"point","DisplayPosition":{"Latitude":48.64635,"Longitude":15.82134},"MapView":{"TopLeft":{"Latitude":48.6474742,"Longitude":15.8196386},"BottomRight":{"Latitude":48.6452258,"Longitude":15.8230414}},"Address":{"Label":"Pulkauerstraße 7, 3730 Eggenburg, Österreich","Country":"AUT","State":"Niederösterreich","County":"Horn","City":"Eggenburg","District":"Eggenburg","Street":"Pulkauerstraße","HouseNumber":"7","PostalCode":"3730","AdditionalData":[{"value":"Österreich","key":"CountryName"},{"value":"Niederösterreich","key":"StateName"},{"value":"Horn","key":"CountyName"}]},"MapReference":{"ReferenceId":"558507225","Spot":0.81,"SideOfStreet":"left","CountryId":"20128885","StateId":"20130295","CountyId":"20131110","CityId":"20131132","DistrictId":"20131135","AddressId":"732397377","RoadLinkId":"29089631"}}},{"Relevance":1.0,"Distance":96.8,"MatchLevel":"houseNumber","MatchQuality":{"Country":1.0,"State":1.0,"County":1.0,"City":1.0,"District":1.0,"Street":[1.0],"HouseNumber":1.0,"PostalCode":1.0},"MatchType":"interpolated","Location":{"LocationId":"NT_a5KkvNAODmeBIPHYWu2QkA_4A","LocationType":"point","DisplayPosition":{"Latitude":48.6475,"Longitude":15.81846},"MapView":{"TopLeft":{"Latitude":48.6486242,"Longitude":15.8167585},"BottomRight":{"Latitude":48.6463758,"Longitude":15.8201615}},"Address":{"Label":"Rechpergerstraße 8, 3730 Eggenburg, Österreich","Country":"AUT","State":"Niederösterreich","County":"Horn","City":"Eggenburg","District":"Eggenburg","Street":"Rechpergerstraße","HouseNumber":"8","PostalCode":"3730","AdditionalData":[{"value":"Österreich","key":"CountryName"},{"value":"Niederösterreich","key":"StateName"},{"value":"Horn","key":"CountyName"}]},"MapReference":{"ReferenceId":"558507130","Spot":0.6,"SideOfStreet":"right","CountryId":"20128885","StateId":"20130295","CountyId":"20131110","CityId":"20131132","DistrictId":"20131135","AddressId":"160673343","RoadLinkId":"29119915"}}},{"Relevance":1.0,"Distance":108.0,"MatchLevel":"landmark","MatchQuality":{"Country":1.0,"State":1.0,"County":1.0,"City":1.0,"District":1.0,"PostalCode":1.0,"Name":1.0},"Location":{"LocationId":"NT_aZ5-GctRIhOW68pFioSP7A","LocationType":"cemetery","Name":"Friedhof Eggenburg","DisplayPosition":{"Latitude":48.64851,"Longitude":15.8207},"MapView":{"TopLeft":{"Latitude":48.64987,"Longitude":15.81859},"BottomRight":{"Latitude":48.64714,"Longitude":15.82187}},"Address":{"Label":"3730 Eggenburg, Österreich","Country":"AUT","State":"Niederösterreich","County":"Horn","City":"Eggenburg","District":"Eggenburg","PostalCode":"3730","AdditionalData":[{"value":"Österreich","key":"CountryName"},{"value":"Niederösterreich","key":"StateName"},{"value":"Horn","key":"CountyName"}]},"MapReference":{"CountryId":"20128885","StateId":"20130295","CountyId":"20131110","CityId":"20131132","DistrictId":"20131135","PlaceId":"51095226"}}},{"Relevance":1.0,"Distance":113.1,"MatchLevel":"houseNumber","MatchQuality":{"Country":1.0,"State":1.0,"County":1.0,"City":1.0,"District":1.0,"Street":[1.0],"HouseNumber":1.0,"PostalCode":1.0},"MatchType":"interpolated","Location":{"LocationId":"NT_a5KkvNAODmeBIPHYWu2QkA_xAD","LocationType":"point","DisplayPosition":{"Latitude":48.64767,"Longitude":15.81845},"MapView":{"TopLeft":{"Latitude":48.6487942,"Longitude":15.8167485},"BottomRight":{"Latitude":48.6465458,"Longitude":15.8201515}},"Address":{"Label":"Rechpergerstraße 10, 3730 Eggenburg, Österreich","Country":"AUT","State":"Niederösterreich","County":"Horn","City":"Eggenburg","District":"Eggenburg","Street":"Rechpergerstraße","HouseNumber":"10","PostalCode":"3730","AdditionalData":[{"value":"Österreich","key":"CountryName"},{"value":"Niederösterreich","key":"StateName"},{"value":"Horn","key":"CountyName"}]},"MapReference":{"ReferenceId":"558507131","Spot":0.06,"SideOfStreet":"right","CountryId":"20128885","StateId":"20130295","CountyId":"20131110","CityId":"20131132","DistrictId":"20131135","AddressId":"160673334","RoadLinkId":"27994696"}}},{"Relevance":1.0,"Distance":121.6,"MatchLevel":"houseNumber","MatchQuality":{"Country":1.0,"State":1.0,"County":1.0,"City":1.0,"District":1.0,"Street":[1.0],"HouseNumber":1.0,"PostalCode":1.0},"MatchType":"interpolated","Location":{"LocationId":"NT_a5KkvNAODmeBIPHYWu2QkA_zA","LocationType":"point","DisplayPosition":{"Latitude":48.64605,"Longitude":15.81831},"MapView":{"TopLeft":{"Latitude":48.6471742,"Longitude":15.8166086},"BottomRight":{"Latitude":48.6449258,"Longitude":15.8200114}},"Address":{"Label":"Rechpergerstraße 3, 3730 Eggenburg, Österreich","Country":"AUT","State":"Niederösterreich","County":"Horn","City":"Eggenburg","District":"Eggenburg","Street":"Rechpergerstraße","HouseNumber":"3","PostalCode":"3730","AdditionalData":[{"value":"Österreich","key":"CountryName"},{"value":"Niederösterreich","key":"StateName"},{"value":"Horn","key":"CountyName"}]},"MapReference":{"ReferenceId":"1259310605","Spot":0.74,"SideOfStreet":"left","CountryId":"20128885","StateId":"20130295","CountyId":"20131110","CityId":"20131132","DistrictId":"20131135","AddressId":"160673346","RoadLinkId":"584495854"}}}]}]}}