{"Response":{"MetaInfo":{"Timestamp":"2020-03-28T10:01:11.794+0000","NextPageInformation":"2"},"View":[{"_type":"SearchResultsViewType","ViewId":0,"Result":[{"Relevance":1.0,"Distance":0.0,"Direction":0.0,"MatchLevel":"district","MatchQuality":{"Country":1.0,"State":1.0,"County":1.0,"City":1.0,"District":1.0,"PostalCode":1.0},"Location":{"LocationId":"NT_rezkEuKdIEufuhlyFmQWeD","LocationType":"point","DisplayPosition":{"Latitude":48.6076647,"Longitude":19.1046999},"MapView":{"TopLeft":{"Latitude":48.61195,"Longitude":19.08085},"BottomRight":{"Latitude":48.59473,"Longitude":19.10847}},"Address":{"Label":"Kováčová, Banskobystrický kraj, Slovenská Republika","Country":"SVK","State":"Banskobystrický kraj","County":"Zvolen","City":"Kováčová","District":"Kováčová","PostalCode":"962 37","AdditionalData":[{"value":"Slovenská Republika","key":"CountryName"},{"value":"Banskobystrický kraj","key":"StateName"},{"value":"Zvolen","key":"CountyName"}]},"MapReference":{"ReferenceId":"709637295","SideOfStreet":"neither","CountryId":"20428682","StateId":"20487429","CountyId":"20488422","CityId":"20488439","DistrictId":"22183592"}}},{"Relevance":1.0,"Distance":10.5,"MatchLevel":"street","MatchQuality":{"Country":1.0,"State":1.0,"County":1.0,"City":1.0,"District":1.0,"PostalCode":1.0},"Location":{"LocationId":"NT_q2DXc.LoAoFNHBRAd4DM4A_l_709637360_R","LocationType":"point","DisplayPosition":{"Latitude":48.607571,"Longitude":19.1046795},"MapView":{"TopLeft":{"Latitude":48.60767,"Longitude":19.10432},"BottomRight":{"Latitude":48.60755,"Longitude":19.105}},"Address":{"Label":"962 37 Kováčová, Slovenská Republika","Country":"SVK","State":"Banskobystrický kraj","County":"Zvolen","City":"Kováčová","District":"Kováčová","PostalCode":"962 37","AdditionalData":[{"value":"Slovenská Republika","key":"CountryName"},{"value":"Banskobystrický kraj","key":"StateName"},{"value":"Zvolen","key":"CountyName"}]},"MapReference":{"ReferenceId":"709637360","Spot":0.46,"SideOfStreet":"right","CountryId":"20428682","StateId":"20487429","CountyId":"20488422","CityId":"20488439","DistrictId":"22183592"}}},{"Relevance":1.0,"Distance":25.5,"MatchLevel":"street","MatchQuality":{"Country":1.0,"State":1.0,"County":1.0,"City":1.0,"District":1.0,"Street":[1.0],"PostalCode":1.0},"Location":{"LocationId":"NT_.n.S3bFHaXF83T0QXAU.UB_l_709637411_L","LocationType":"point","DisplayPosition":{"Latitude":48.60755,"Longitude":19.105},"MapView":{"TopLeft":{"Latitude":48.60822,"Longitude":19.10492},"BottomRight":{"Latitude":48.60755,"Longitude":19.10513}},"Address":{"Label":"Sládkovičova, 962 37 Kováčová, Slovenská Republika","Country":"SVK","State":"Banskobystrický kraj","County":"Zvolen","City":"Kováčová","District":"Kováčová","Street":"Sládkovičova","PostalCode":"962 37","AdditionalData":[{"value":"Slovenská Republika","key":"CountryName"},{"value":"Banskobystrický kraj","key":"StateName"},{"value":"Zvolen","key":"CountyName"}]},"MapReference":{"ReferenceId":"709637411","Spot":0.0,"SideOfStreet":"left","CountryId":"20428682","StateId":"20487429","CountyId":"20488422","CityId":"20488439","DistrictId":"22183592"}}},{"Relevance":1.0,"Distance":27.5,"MatchLevel":"street","MatchQuality":{"Country":1.0,"State":1.0,"County":1.0,"City":1.0,"District":1.0,"PostalCode":1.0},"Location":{"LocationId":"NT_q2DXc.LoAoFNHBRAd4DM4A_l_709637361_L","LocationType":"point","DisplayPosition":{"Latitude":48.6074516,"Longitude":19.1048893},"MapView":{"TopLeft":{"Latitude":48.60755,"Longitude":19.10434},"BottomRight":{"Latitude":48.60712,"Longitude":19.105}},"Address":{"Label":"962 37 Kováčová, Slovenská Republika","Country":"SVK","State":"Banskobystrický kraj","County":"Zvolen","City":"Kováčová","District":"Kováčová","PostalCode":"962 37","AdditionalData":[{"value":"Slovenská Republika","key":"CountryName"},{"value":"Banskobystrický kraj","key":"StateName"},{"value":"Zvolen","key":"CountyName"}]},"MapReference":{"ReferenceId":"709637361","Spot":0.81,"SideOfStreet":"left","CountryId":"20428682","StateId":"20487429","CountyId":"20488422","CityId":"20488439","DistrictId":"22183592"}}},{"Relevance":1.0,"Distance":27.9,"MatchLevel":"street","MatchQuality":{"Country":1.0,"State":1.0,"County":1.0,"City":1.0,"District":1.0,"PostalCode":1.0},"Location":{"LocationId":"NT_q2DXc.LoAoFNHBRAd4DM4A_l_709637359_R","LocationType":"point","DisplayPosition":{"Latitude":48.60767,"Longitude":19.10432},"MapView":{"TopLeft":{"Latitude":48.60778,"Longitude":19.10355},"BottomRight":{"Latitude":48.60767,"Longitude":19.10432}},"Address":{"Label":"962 37 Kováčová, Slovenská Republika","Country":"SVK","State":"Banskobystrický kraj","County":"Zvolen","City":"Kováčová","District":"Kováčová","PostalCode":"962 37","AdditionalData":[{"value":"Slovenská Republika","key":"CountryName"},{"value":"Banskobystrický kraj","key":"StateName"},{"value":"Zvolen","key":"CountyName"}]},"MapReference":{"ReferenceId":"709637359","Spot":0.0,"SideOfStreet":"right","CountryId":"20428682","StateId":"20487429","CountyId":"20488422","CityId":"20488439","DistrictId":"22183592"}}},{"Relevance":1.0,"Distance":28.0,"MatchLevel":"street","MatchQuality":{"Country":1.0,"State":1.0,"County":1.0,"City":1.0,"District":1.0,"PostalCode":1.0},"Location":{"LocationId":"NT_q2DXc.LoAoFNHBRAd4DM4A_l_709637362_R","LocationType":"point","DisplayPosition":{"Latitude":48.6075794,"Longitude":19.1043416},"MapView":{"TopLeft":{"Latitude":48.60767,"Longitude":19.10432},"BottomRight":{"Latitude":48.60712,"Longitude":19.10437}},"Address":{"Label":"962 37 Kováčová, Slovenská Republika","Country":"SVK","State":"Banskobystrický kraj","County":"Zvolen","City":"Kováčová","District":"Kováčová","PostalCode":"962 37","AdditionalData":[{"value":"Slovenská Republika","key":"CountryName"},{"value":"Banskobystrický kraj","key":"StateName"},{"value":"Zvolen","key":"CountyName"}]},"MapReference":{"ReferenceId":"709637362","Spot":0.83,"SideOfStreet":"right","CountryId":"20428682","StateId":"20487429","CountyId":"20488422","CityId":"20488439","DistrictId":"22183592"}}},{"Relevance":1.0,"Distance":42.0,"MatchLevel":"houseNumber","MatchQuality":{"Country":1.0,"State":1.0,"County":1.0,"City":1.0,"Street":[1.0],"HouseNumber":1.0,"PostalCode":1.0},"MatchType":"interpolated","Location":{"LocationId":"NT_7b.GQIF1GxOHnSLsazIIpA_xczN28iMzA","LocationType":"point","DisplayPosition":{"Latitude":48.60768,"Longitude":19.10527},"MapView":{"TopLeft":{"Latitude":48.6088042,"Longitude":19.1035699},"BottomRight":{"Latitude":48.6065558,"Longitude":19.1069701}},"Address":{"Label":"Sládkovičova 1776/23, 962 31 Sliač, Slovenská Republika","Country":"SVK","State":"Banskobystrický kraj","County":"Zvolen","City":"Sliač","Street":"Sládkovičova","HouseNumber":"1776/23","PostalCode":"962 31","AdditionalData":[{"value":"Slovenská Republika","key":"CountryName"},{"value":"Banskobystrický kraj","key":"StateName"},{"value":"Zvolen","key":"CountyName"}]},"MapReference":{"ReferenceId":"1204242929","Spot":0.26,"SideOfStreet":"right","CountryId":"20428682","StateId":"20487429","CountyId":"20488422","CityId":"20488461","AddressId":"589676520","RoadLinkId":"517460424"}}},{"Relevance":1.0,"Distance":63.8,"MatchLevel":"street","MatchQuality":{"Country":1.0,"State":1.0,"County":1.0,"City":1.0,"District":1.0,"Street":[1.0],"PostalCode":1.0},"Location":{"LocationId":"NT_.n.S3bFHaXF83T0QXAU.UB_l_709637405_R","LocationType":"point","DisplayPosition":{"Latitude":48.60822,"Longitude":19.10492},"MapView":{"TopLeft":{"Latitude":48.60825,"Longitude":19.10492},"BottomRight":{"Latitude":48.60822,"Longitude":19.10514}},"Address":{"Label":"Sládkovičova, 962 37 Kováčová, Slovenská Republika","Country":"SVK","State":"Banskobystrický kraj","County":"Zvolen","City":"Kováčová","District":"Kováčová","Street":"Sládkovičova","PostalCode":"962 37","AdditionalData":[{"value":"Slovenská Republika","key":"CountryName"},{"value":"Banskobystrický kraj","key":"StateName"},{"value":"Zvolen","key":"CountyName"}]},"MapReference":{"ReferenceId":"709637405","Spot":0.0,"SideOfStreet":"right","CountryId":"20428682","StateId":"20487429","CountyId":"20488422","CityId":"20488439","DistrictId":"22183592"}}},{"Relevance":1.0,"Distance":63.8,"MatchLevel":"street","MatchQuality":{"Country":1.0,"State":1.0,"County":1.0,"City":1.0,"District":1.0,"PostalCode":1.0},"Location":{"LocationId":"NT_q2DXc.LoAoFNHBRAd4DM4A_l_709637358_L","LocationType":"point","DisplayPosition":{"Latitude":48.60822,"Longitude":19.10492},"MapView":{"TopLeft":{"Latitude":48.60848,"Longitude":19.10482},"BottomRight":{"Latitude":48.60822,"Longitude":19.10492}},"Address":{"Label":"962 37 Kováčová, Slovenská Republika","Country":"SVK","State":"Banskobystrický kraj","County":"Zvolen","City":"Kováčová","District":"Kováčová","PostalCode":"962 37","AdditionalData":[{"value":"Slovenská Republika","key":"CountryName"},{"value":"Banskobystrický kraj","key":"StateName"},{"value":"Zvolen","key":"CountyName"}]},"MapReference":{"ReferenceId":"709637358","Spot":0.0,"SideOfStreet":"left","CountryId":"20428682","StateId":"20487429","CountyId":"20488422","CityId":"20488439","DistrictId":"22183592"}}},{"Relevance":1.0,"Distance":66.1,"MatchLevel":"street","MatchQuality":{"Country":1.0,"State":1.0,"County":1.0,"City":1.0,"District":1.0,"PostalCode":1.0},"Location":{"LocationId":"NT_q2DXc.LoAoFNHBRAd4DM4A_l_709637363_R","LocationType":"point","DisplayPosition":{"Latitude":48.60712,"Longitude":19.10434},"MapView":{"TopLeft":{"Latitude":48.60714,"Longitude":19.1039},"BottomRight":{"Latitude":48.60708,"Longitude":19.10434}},"Address":{"Label":"962 37 Kováčová, Slovenská Republika","Country":"SVK","State":"Banskobystrický kraj","County":"Zvolen","City":"Kováčová","District":"Kováčová","PostalCode":"962 37","AdditionalData":[{"value":"Slovenská Republika","key":"CountryName"},{"value":"Banskobystrický kraj","key":"StateName"},{"value":"Zvolen","key":"CountyName"}]},"MapReference":{"ReferenceId":"709637363","Spot":0.0,"SideOfStreet":"right","CountryId":"20428682","StateId":"20487429","CountyId":"20488422","CityId":"20488439","DistrictId":"22183592"}}}]}]}}