{"Response":{"MetaInfo":{"Timestamp":"2020-03-28T11:53:54.093+0000","NextPageInformation":"2"},"View":[{"_type":"SearchResultsViewType","ViewId":0,"Result":[{"Relevance":1.0,"Distance":0.0,"Direction":0.0,"MatchLevel":"city","MatchQuality":{"Country":1.0,"State":1.0,"County":1.0,"City":1.0,"PostalCode":1.0},"Location":{"LocationId":"NT_IIv21mgF.StLFo.m9gCMsD","LocationType":"point","DisplayPosition":{"Latitude":48.6367805,"Longitude":7.4478559},"MapView":{"TopLeft":{"Latitude":48.65982,"Longitude":7.41014},"BottomRight":{"Latitude":48.61516,"Longitude":7.47841}},"Address":{"Label":"Wasselonne, Grand Est, France","Country":"FRA","State":"Grand Est","County":"Bas-Rhin","City":"Wasselonne","PostalCode":"67310","AdditionalData":[{"value":"France","key":"CountryName"},{"value":"Grand Est","key":"StateName"},{"value":"Bas-Rhin","key":"CountyName"}]},"MapReference":{"ReferenceId":"545290411","SideOfStreet":"neither","CountryId":"20000001","StateId":"20002047","CountyId":"20002048","CityId":"20034243"}}},{"Relevance":1.0,"Distance":10.0,"MatchLevel":"houseNumber","MatchQuality":{"Country":1.0,"State":1.0,"County":1.0,"City":1.0,"Street":[1.0],"HouseNumber":1.0,"PostalCode":1.0},"MatchType":"interpolated","Location":{"LocationId":"NT_ChN9D6Ok1dY2tJLZ0iysMC_2cD","LocationType":"point","DisplayPosition":{"Latitude":48.63691,"Longitude":7.44803},"MapView":{"TopLeft":{"Latitude":48.6380342,"Longitude":7.4463289},"BottomRight":{"Latitude":48.6357858,"Longitude":7.4497311}},"Address":{"Label":"67 Rue du Général de Gaulle, 67310 Wasselonne, France","Country":"FRA","State":"Grand Est","County":"Bas-Rhin","City":"Wasselonne","Street":"Rue du Général de Gaulle","HouseNumber":"67","PostalCode":"67310","AdditionalData":[{"value":"France","key":"CountryName"},{"value":"Grand Est","key":"StateName"},{"value":"Bas-Rhin","key":"CountyName"}]},"MapReference":{"ReferenceId":"545291010","Spot":0.47,"SideOfStreet":"left","CountryId":"20000001","StateId":"20002047","CountyId":"20002048","CityId":"20034243","AddressId":"378790779","RoadLinkId":"44817496"}}},{"Relevance":1.0,"Distance":12.9,"MatchLevel":"street","MatchQuality":{"Country":1.0,"State":1.0,"County":1.0,"City":1.0,"Street":[1.0],"PostalCode":1.0},"Location":{"LocationId":"NT_5hCBp7I8XvrxSi4PjB34EA_l_545290409_R","LocationType":"point","DisplayPosition":{"Latitude":48.63689,"Longitude":7.4477975},"MapView":{"TopLeft":{"Latitude":48.63695,"Longitude":7.44756},"BottomRight":{"Latitude":48.63683,"Longitude":7.44791}},"Address":{"Label":"Rue du Temple, 67310 Wasselonne, France","Country":"FRA","State":"Grand Est","County":"Bas-Rhin","City":"Wasselonne","Street":"Rue du Temple","PostalCode":"67310","AdditionalData":[{"value":"France","key":"CountryName"},{"value":"Grand Est","key":"StateName"},{"value":"Bas-Rhin","key":"CountyName"}]},"MapReference":{"ReferenceId":"545290409","Spot":0.66,"SideOfStreet":"right","CountryId":"20000001","StateId":"20002047","CountyId":"20002048","CityId":"20034243"}}},{"Relevance":1.0,"Distance":17.8,"MatchLevel":"houseNumber","MatchQuality":{"Country":1.0,"State":1.0,"County":1.0,"City":1.0,"Street":[1.0],"HouseNumber":1.0,"PostalCode":1.0},"MatchType":"interpolated","Location":{"LocationId":"NT_gSvs2AC5hUJUBCl83ER0.B_l_545290426_R_xcD","LocationType":"point","DisplayPosition":{"Latitude":48.6364867,"Longitude":7.4478167},"MapView":{"TopLeft":{"Latitude":48.6376108,"Longitude":7.4461155},"BottomRight":{"Latitude":48.6353625,"Longitude":7.4495178}},"Address":{"Label":"17 Rue du 23 Novembre, 67310 Wasselonne, France","Country":"FRA","State":"Grand Est","County":"Bas-Rhin","City":"Wasselonne","Street":"Rue du 23 Novembre","HouseNumber":"17","PostalCode":"67310","AdditionalData":[{"value":"France","key":"CountryName"},{"value":"Grand Est","key":"StateName"},{"value":"Bas-Rhin","key":"CountyName"}]},"MapReference":{"ReferenceId":"545290426","Spot":0.54,"SideOfStreet":"right","CountryId":"20000001","StateId":"20002047","CountyId":"20002048","CityId":"20034243"}}},{"Relevance":1.0,"Distance":20.2,"MatchLevel":"street","MatchQuality":{"Country":1.0,"State":1.0,"County":1.0,"City":1.0,"Street":[1.0],"PostalCode":1.0},"Location":{"LocationId":"NT_4iP1CL50JPE2qnaNQ6s8-A_l_545291011_L","LocationType":"point","DisplayPosition":{"Latitude":48.636754,"Longitude":7.4481277},"MapView":{"TopLeft":{"Latitude":48.63688,"Longitude":7.4481},"BottomRight":{"Latitude":48.63647,"Longitude":7.44814}},"Address":{"Label":"Passage de la Poste, 67310 Wasselonne, France","Country":"FRA","State":"Grand Est","County":"Bas-Rhin","City":"Wasselonne","Street":"Passage de la Poste","PostalCode":"67310","AdditionalData":[{"value":"France","key":"CountryName"},{"value":"Grand Est","key":"StateName"},{"value":"Bas-Rhin","key":"CountyName"}]},"MapReference":{"ReferenceId":"545291011","Spot":0.69,"SideOfStreet":"left","CountryId":"20000001","StateId":"20002047","CountyId":"20002048","CityId":"20034243"}}},{"Relevance":1.0,"Distance":23.5,"MatchLevel":"houseNumber","MatchQuality":{"Country":1.0,"State":1.0,"County":1.0,"City":1.0,"Street":[1.0],"HouseNumber":1.0,"PostalCode":1.0},"MatchType":"interpolated","Location":{"LocationId":"NT_ChN9D6Ok1dY2tJLZ0iysMC_l_799350509_R_1QD","LocationType":"point","DisplayPosition":{"Latitude":48.6369893,"Longitude":7.4478032},"MapView":{"TopLeft":{"Latitude":48.6381135,"Longitude":7.4461021},"BottomRight":{"Latitude":48.6358652,"Longitude":7.4495043}},"Address":{"Label":"54 Rue du Général de Gaulle, 67310 Wasselonne, France","Country":"FRA","State":"Grand Est","County":"Bas-Rhin","City":"Wasselonne","Street":"Rue du Général de Gaulle","HouseNumber":"54","PostalCode":"67310","AdditionalData":[{"value":"France","key":"CountryName"},{"value":"Grand Est","key":"StateName"},{"value":"Bas-Rhin","key":"CountyName"}]},"MapReference":{"ReferenceId":"799350509","Spot":0.56,"SideOfStreet":"right","CountryId":"20000001","StateId":"20002047","CountyId":"20002048","CityId":"20034243"}}},{"Relevance":1.0,"Distance":26.1,"MatchLevel":"houseNumber","MatchQuality":{"Country":1.0,"State":1.0,"County":1.0,"City":1.0,"Street":[1.0],"HouseNumber":1.0,"PostalCode":1.0},"MatchType":"interpolated","Location":{"LocationId":"NT_ChN9D6Ok1dY2tJLZ0iysMC_2UD","LocationType":"point","DisplayPosition":{"Latitude":48.63686,"Longitude":7.44824},"MapView":{"TopLeft":{"Latitude":48.6379842,"Longitude":7.4465389},"BottomRight":{"Latitude":48.6357358,"Longitude":7.4499411}},"Address":{"Label":"65 Rue du Général de Gaulle, 67310 Wasselonne, France","Country":"FRA","State":"Grand Est","County":"Bas-Rhin","City":"Wasselonne","Street":"Rue du Général de Gaulle","HouseNumber":"65","PostalCode":"67310","AdditionalData":[{"value":"France","key":"CountryName"},{"value":"Grand Est","key":"StateName"},{"value":"Bas-Rhin","key":"CountyName"}]},"MapReference":{"ReferenceId":"545306234","Spot":0.53,"SideOfStreet":"left","CountryId":"20000001","StateId":"20002047","CountyId":"20002048","CityId":"20034243","AddressId":"316378337","RoadLinkId":"44894028"}}},{"Relevance":1.0,"Distance":28.7,"MatchLevel":"houseNumber","MatchQuality":{"Country":1.0,"State":1.0,"County":1.0,"City":1.0,"Street":[1.0],"HouseNumber":1.0,"PostalCode":1.0},"MatchType":"interpolated","Location":{"LocationId":"NT_ChN9D6Ok1dY2tJLZ0iysMC_1QD","LocationType":"point","DisplayPosition":{"Latitude":48.63702,"Longitude":7.44771},"MapView":{"TopLeft":{"Latitude":48.6381442,"Longitude":7.4460089},"BottomRight":{"Latitude":48.6358958,"Longitude":7.4494111}},"Address":{"Label":"54 Rue du Général de Gaulle, 67310 Wasselonne, France","Country":"FRA","State":"Grand Est","County":"Bas-Rhin","City":"Wasselonne","Street":"Rue du Général de Gaulle","HouseNumber":"54","PostalCode":"67310","AdditionalData":[{"value":"France","key":"CountryName"},{"value":"Grand Est","key":"StateName"},{"value":"Bas-Rhin","key":"CountyName"}]},"MapReference":{"ReferenceId":"799350510","Spot":0.03,"SideOfStreet":"right","CountryId":"20000001","StateId":"20002047","CountyId":"20002048","CityId":"20034243","AddressId":"378869061","RoadLinkId":"190087526"}}},{"Relevance":1.0,"Distance":30.2,"MatchLevel":"houseNumber","MatchQuality":{"Country":1.0,"State":1.0,"County":1.0,"City":1.0,"Street":[1.0],"HouseNumber":1.0,"PostalCode":1.0},"MatchType":"interpolated","Location":{"LocationId":"NT_9CiMpkR07OBgHuEQnNLH7A_xA","LocationType":"point","DisplayPosition":{"Latitude":48.63674,"Longitude":7.44744},"MapView":{"TopLeft":{"Latitude":48.6378642,"Longitude":7.4457389},"BottomRight":{"Latitude":48.6356158,"Longitude":7.4491411}},"Address":{"Label":"1 Rue de la Lampe, 67310 Wasselonne, France","Country":"FRA","State":"Grand Est","County":"Bas-Rhin","City":"Wasselonne","Street":"Rue de la Lampe","HouseNumber":"1","PostalCode":"67310","AdditionalData":[{"value":"France","key":"CountryName"},{"value":"Grand Est","key":"StateName"},{"value":"Bas-Rhin","key":"CountyName"}]},"MapReference":{"ReferenceId":"545290415","Spot":0.6,"SideOfStreet":"right","CountryId":"20000001","StateId":"20002047","CountyId":"20002048","CityId":"20034243","AddressId":"316435015","RoadLinkId":"44358619"}}},{"Relevance":1.0,"Distance":36.2,"MatchLevel":"houseNumber","MatchQuality":{"Country":1.0,"State":1.0,"County":1.0,"City":1.0,"Street":[1.0],"HouseNumber":1.0,"PostalCode":1.0},"MatchType":"interpolated","Location":{"LocationId":"NT_jkdBWTnfMN3NqV-vloqSlA_yQD","LocationType":"point","DisplayPosition":{"Latitude":48.63703,"Longitude":7.44841},"MapView":{"TopLeft":{"Latitude":48.6381542,"Longitude":7.4467089},"BottomRight":{"Latitude":48.6359058,"Longitude":7.4501111}},"Address":{"Label":"24 Place du Marché, 67310 Wasselonne, France","Country":"FRA","State":"Grand Est","County":"Bas-Rhin","City":"Wasselonne","Street":"Place du Marché","HouseNumber":"24","PostalCode":"67310","AdditionalData":[{"value":"France","key":"CountryName"},{"value":"Grand Est","key":"StateName"},{"value":"Bas-Rhin","key":"CountyName"}]},"MapReference":{"ReferenceId":"545306237","Spot":0.96,"SideOfStreet":"left","CountryId":"20000001","StateId":"20002047","CountyId":"20002048","CityId":"20034243","AddressId":"316429911","RoadLinkId":"44126226"}}}]}]}}