{"Response":{"MetaInfo":{"Timestamp":"2020-03-28T11:52:33.448+0000","NextPageInformation":"2"},"View":[{"_type":"SearchResultsViewType","ViewId":0,"Result":[{"Relevance":1.0,"Distance":0.0,"Direction":0.0,"MatchLevel":"city","MatchQuality":{"Country":1.0,"State":1.0,"County":1.0,"City":1.0,"PostalCode":1.0},"Location":{"LocationId":"NT_v9AfvQupifeWasZCAszUBD","LocationType":"point","DisplayPosition":{"Latitude":48.627666,"Longitude":2.59159},"MapView":{"TopLeft":{"Latitude":48.64815,"Longitude":2.56193},"BottomRight":{"Latitude":48.60241,"Longitude":2.62961}},"Address":{"Label":"Moissy-Cramayel, Île-de-France, France","Country":"FRA","State":"Île-de-France","County":"Seine-et-Marne","City":"Moissy-Cramayel","PostalCode":"77550","AdditionalData":[{"value":"France","key":"CountryName"},{"value":"Île-de-France","key":"StateName"},{"value":"Seine-et-Marne","key":"CountyName"}]},"MapReference":{"ReferenceId":"71239093","SideOfStreet":"neither","CountryId":"20000001","StateId":"20002126","CountyId":"20002151","CityId":"20003017"}}},{"Relevance":1.0,"Distance":15.0,"MatchLevel":"street","MatchQuality":{"Country":1.0,"State":1.0,"County":1.0,"City":1.0,"Street":[1.0],"PostalCode":1.0},"Location":{"LocationId":"NT_-gdj8DWBgdnOkjWHd.zGxC_l_71239106_R","LocationType":"point","DisplayPosition":{"Latitude":48.6276924,"Longitude":2.5913899},"MapView":{"TopLeft":{"Latitude":48.62792,"Longitude":2.59135},"BottomRight":{"Latitude":48.62739,"Longitude":2.59142}},"Address":{"Label":"Rue Fabre d'Églantine, 77550 Moissy-Cramayel, France","Country":"FRA","State":"Île-de-France","County":"Seine-et-Marne","City":"Moissy-Cramayel","Street":"Rue Fabre d'Églantine","PostalCode":"77550","AdditionalData":[{"value":"France","key":"CountryName"},{"value":"Île-de-France","key":"StateName"},{"value":"Seine-et-Marne","key":"CountyName"}]},"MapReference":{"ReferenceId":"71239106","Spot":0.57,"SideOfStreet":"right","CountryId":"20000001","StateId":"20002126","CountyId":"20002151","CityId":"20003017"}}},{"Relevance":1.0,"Distance":25.4,"MatchLevel":"houseNumber","MatchQuality":{"Country":1.0,"State":1.0,"County":1.0,"City":1.0,"Street":[1.0],"HouseNumber":1.0,"PostalCode":1.0},"MatchType":"interpolated","Location":{"LocationId":"NT_Ig.RBjvhvoWXFE7zTcaVID_xEjN","LocationType":"point","DisplayPosition":{"Latitude":48.62739,"Longitude":2.59154},"MapView":{"TopLeft":{"Latitude":48.6285142,"Longitude":2.5898392},"BottomRight":{"Latitude":48.6262658,"Longitude":2.5932408}},"Address":{"Label":"116 Avenue Philippe Bur, 77550 Moissy-Cramayel, France","Country":"FRA","State":"Île-de-France","County":"Seine-et-Marne","City":"Moissy-Cramayel","Street":"Avenue Philippe Bur","HouseNumber":"116","PostalCode":"77550","AdditionalData":[{"value":"France","key":"CountryName"},{"value":"Île-de-France","key":"StateName"},{"value":"Seine-et-Marne","key":"CountyName"}]},"MapReference":{"ReferenceId":"71239105","Spot":0.2,"SideOfStreet":"left","CountryId":"20000001","StateId":"20002126","CountyId":"20002151","CityId":"20003017","AddressId":"321994569","RoadLinkId":"43574384"}}},{"Relevance":1.0,"Distance":30.9,"MatchLevel":"street","MatchQuality":{"Country":1.0,"State":1.0,"County":1.0,"City":1.0,"Street":[1.0],"PostalCode":1.0},"Location":{"LocationId":"NT_xoZyvdzgeBotDQpNVxnILC_l_718189056_R","LocationType":"point","DisplayPosition":{"Latitude":48.62792,"Longitude":2.59142},"MapView":{"TopLeft":{"Latitude":48.62792,"Longitude":2.59094},"BottomRight":{"Latitude":48.62792,"Longitude":2.59142}},"Address":{"Label":"Rue de la Cocarde, 77550 Moissy-Cramayel, France","Country":"FRA","State":"Île-de-France","County":"Seine-et-Marne","City":"Moissy-Cramayel","Street":"Rue de la Cocarde","PostalCode":"77550","AdditionalData":[{"value":"France","key":"CountryName"},{"value":"Île-de-France","key":"StateName"},{"value":"Seine-et-Marne","key":"CountyName"}]},"MapReference":{"ReferenceId":"718189056","Spot":1.0,"SideOfStreet":"right","CountryId":"20000001","StateId":"20002126","CountyId":"20002151","CityId":"20003017"}}},{"Relevance":1.0,"Distance":30.9,"MatchLevel":"street","MatchQuality":{"Country":1.0,"State":1.0,"County":1.0,"City":1.0,"Street":[1.0],"PostalCode":1.0},"Location":{"LocationId":"NT_-gdj8DWBgdnOkjWHd.zGxC_l_1156234965_R","LocationType":"point","DisplayPosition":{"Latitude":48.62792,"Longitude":2.59142},"MapView":{"TopLeft":{"Latitude":48.62817,"Longitude":2.59142},"BottomRight":{"Latitude":48.62792,"Longitude":2.59145}},"Address":{"Label":"Rue Fabre d'Églantine, 77550 Moissy-Cramayel, France","Country":"FRA","State":"Île-de-France","County":"Seine-et-Marne","City":"Moissy-Cramayel","Street":"Rue Fabre d'Églantine","PostalCode":"77550","AdditionalData":[{"value":"France","key":"CountryName"},{"value":"Île-de-France","key":"StateName"},{"value":"Seine-et-Marne","key":"CountyName"}]},"MapReference":{"ReferenceId":"1156234965","Spot":0.0,"SideOfStreet":"right","CountryId":"20000001","StateId":"20002126","CountyId":"20002151","CityId":"20003017"}}},{"Relevance":1.0,"Distance":38.9,"MatchLevel":"houseNumber","MatchQuality":{"Country":1.0,"State":1.0,"County":1.0,"City":1.0,"Street":[1.0],"HouseNumber":1.0,"PostalCode":1.0},"MatchType":"interpolated","Location":{"LocationId":"NT_Ig.RBjvhvoWXFE7zTcaVID_xMDN","LocationType":"point","DisplayPosition":{"Latitude":48.62738,"Longitude":2.5912},"MapView":{"TopLeft":{"Latitude":48.6285042,"Longitude":2.5894992},"BottomRight":{"Latitude":48.6262558,"Longitude":2.5929008}},"Address":{"Label":"134 Avenue Philippe Bur, 77550 Moissy-Cramayel, France","Country":"FRA","State":"Île-de-France","County":"Seine-et-Marne","City":"Moissy-Cramayel","Street":"Avenue Philippe Bur","HouseNumber":"134","PostalCode":"77550","AdditionalData":[{"value":"France","key":"CountryName"},{"value":"Île-de-France","key":"StateName"},{"value":"Seine-et-Marne","key":"CountyName"}]},"MapReference":{"ReferenceId":"1213197718","Spot":0.8,"SideOfStreet":"left","CountryId":"20000001","StateId":"20002126","CountyId":"20002151","CityId":"20003017","AddressId":"322254431","RoadLinkId":"528872284"}}},{"Relevance":1.0,"Distance":57.0,"MatchLevel":"street","MatchQuality":{"Country":1.0,"State":1.0,"County":1.0,"City":1.0,"Street":[1.0],"PostalCode":1.0},"Location":{"LocationId":"NT_-gdj8DWBgdnOkjWHd.zGxC_l_1156234966_R","LocationType":"point","DisplayPosition":{"Latitude":48.62817,"Longitude":2.59145},"MapView":{"TopLeft":{"Latitude":48.6284,"Longitude":2.59145},"BottomRight":{"Latitude":48.62817,"Longitude":2.59147}},"Address":{"Label":"Rue Fabre d'Églantine, 77550 Moissy-Cramayel, France","Country":"FRA","State":"Île-de-France","County":"Seine-et-Marne","City":"Moissy-Cramayel","Street":"Rue Fabre d'Églantine","PostalCode":"77550","AdditionalData":[{"value":"France","key":"CountryName"},{"value":"Île-de-France","key":"StateName"},{"value":"Seine-et-Marne","key":"CountyName"}]},"MapReference":{"ReferenceId":"1156234966","Spot":0.0,"SideOfStreet":"right","CountryId":"20000001","StateId":"20002126","CountyId":"20002151","CityId":"20003017"}}},{"Relevance":1.0,"Distance":57.0,"MatchLevel":"street","MatchQuality":{"Country":1.0,"State":1.0,"County":1.0,"City":1.0,"PostalCode":1.0},"Location":{"LocationId":"NT_KM0B1LxNYucmSZzYq54eIB_l_1156237380_R","LocationType":"point","DisplayPosition":{"Latitude":48.62817,"Longitude":2.59145},"MapView":{"TopLeft":{"Latitude":48.62817,"Longitude":2.59122},"BottomRight":{"Latitude":48.62812,"Longitude":2.59145}},"Address":{"Label":"77550 Moissy-Cramayel, France","Country":"FRA","State":"Île-de-France","County":"Seine-et-Marne","City":"Moissy-Cramayel","PostalCode":"77550","AdditionalData":[{"value":"France","key":"CountryName"},{"value":"Île-de-France","key":"StateName"},{"value":"Seine-et-Marne","key":"CountyName"}]},"MapReference":{"ReferenceId":"1156237380","Spot":1.0,"SideOfStreet":"right","CountryId":"20000001","StateId":"20002126","CountyId":"20002151","CityId":"20003017"}}},{"Relevance":1.0,"Distance":57.3,"MatchLevel":"street","MatchQuality":{"Country":1.0,"State":1.0,"County":1.0,"City":1.0,"PostalCode":1.0},"Location":{"LocationId":"NT_KM0B1LxNYucmSZzYq54eIB_l_1165362628_R","LocationType":"point","DisplayPosition":{"Latitude":48.62812,"Longitude":2.59122},"MapView":{"TopLeft":{"Latitude":48.62836,"Longitude":2.59122},"BottomRight":{"Latitude":48.62812,"Longitude":2.59122}},"Address":{"Label":"77550 Moissy-Cramayel, France","Country":"FRA","State":"Île-de-France","County":"Seine-et-Marne","City":"Moissy-Cramayel","PostalCode":"77550","AdditionalData":[{"value":"France","key":"CountryName"},{"value":"Île-de-France","key":"StateName"},{"value":"Seine-et-Marne","key":"CountyName"}]},"MapReference":{"ReferenceId":"1165362628","Spot":0.0,"SideOfStreet":"right","CountryId":"20000001","StateId":"20002126","CountyId":"20002151","CityId":"20003017"}}},{"Relevance":1.0,"Distance":57.3,"MatchLevel":"street","MatchQuality":{"Country":1.0,"State":1.0,"County":1.0,"City":1.0,"PostalCode":1.0},"Location":{"LocationId":"NT_KM0B1LxNYucmSZzYq54eIB_l_1165362637_R","LocationType":"point","DisplayPosition":{"Latitude":48.62812,"Longitude":2.59122},"MapView":{"TopLeft":{"Latitude":48.62812,"Longitude":2.59087},"BottomRight":{"Latitude":48.62812,"Longitude":2.59122}},"Address":{"Label":"77550 Moissy-Cramayel, France","Country":"FRA","State":"Île-de-France","County":"Seine-et-Marne","City":"Moissy-Cramayel","PostalCode":"77550","AdditionalData":[{"value":"France","key":"CountryName"},{"value":"Île-de-France","key":"StateName"},{"value":"Seine-et-Marne","key":"CountyName"}]},"MapReference":{"ReferenceId":"1165362637","Spot":1.0,"SideOfStreet":"right","CountryId":"20000001","StateId":"20002126","CountyId":"20002151","CityId":"20003017"}}}]}]}}