{"Response":{"MetaInfo":{"Timestamp":"2020-03-28T09:49:37.842+0000","NextPageInformation":"2"},"View":[{"_type":"SearchResultsViewType","ViewId":0,"Result":[{"Relevance":1.0,"Distance":0.0,"Direction":0.0,"MatchLevel":"city","MatchQuality":{"Country":1.0,"State":1.0,"County":1.0,"City":1.0,"PostalCode":1.0},"Location":{"LocationId":"NT_CvkCzmzCoZQVJG7ZuYXaqD","LocationType":"point","DisplayPosition":{"Latitude":48.6340618,"Longitude":1.7724274},"MapView":{"TopLeft":{"Latitude":48.67658,"Longitude":1.72948},"BottomRight":{"Latitude":48.59822,"Longitude":1.82728}},"Address":{"Label":"Gazeran, Île-de-France, France","Country":"FRA","State":"Île-de-France","County":"Yvelines","City":"Gazeran","PostalCode":"78125","AdditionalData":[{"value":"France","key":"CountryName"},{"value":"Île-de-France","key":"StateName"},{"value":"Yvelines","key":"CountyName"}]},"MapReference":{"ReferenceId":"1256421441","SideOfStreet":"neither","CountryId":"20000001","StateId":"20002126","CountyId":"20003702","CityId":"20004005"}}},{"Relevance":1.0,"Distance":20.8,"MatchLevel":"houseNumber","MatchQuality":{"Country":1.0,"State":1.0,"County":1.0,"City":1.0,"Street":[1.0],"HouseNumber":1.0,"PostalCode":1.0},"MatchType":"interpolated","Location":{"LocationId":"NT_RASLwxXFCduhtRPuOIXUhD_4A","LocationType":"point","DisplayPosition":{"Latitude":48.63401,"Longitude":1.7727},"MapView":{"TopLeft":{"Latitude":48.6351342,"Longitude":1.770999},"BottomRight":{"Latitude":48.6328858,"Longitude":1.774401}},"Address":{"Label":"8 Rue de l'Église, 78125 Gazeran, France","Country":"FRA","State":"Île-de-France","County":"Yvelines","City":"Gazeran","Street":"Rue de l'Église","HouseNumber":"8","PostalCode":"78125","AdditionalData":[{"value":"France","key":"CountryName"},{"value":"Île-de-France","key":"StateName"},{"value":"Yvelines","key":"CountyName"}]},"MapReference":{"ReferenceId":"68852013","Spot":0.86,"SideOfStreet":"left","CountryId":"20000001","StateId":"20002126","CountyId":"20003702","CityId":"20004005","AddressId":"375630310","RoadLinkId":"43361402"}}},{"Relevance":1.0,"Distance":82.5,"MatchLevel":"houseNumber","MatchQuality":{"Country":1.0,"State":1.0,"County":1.0,"City":1.0,"Street":[1.0],"HouseNumber":1.0,"PostalCode":1.0},"MatchType":"interpolated","Location":{"LocationId":"NT_RASLwxXFCduhtRPuOIXUhD_2A","LocationType":"point","DisplayPosition":{"Latitude":48.63396,"Longitude":1.77355},"MapView":{"TopLeft":{"Latitude":48.6350842,"Longitude":1.771849},"BottomRight":{"Latitude":48.6328358,"Longitude":1.775251}},"Address":{"Label":"6 Rue de l'Église, 78125 Gazeran, France","Country":"FRA","State":"Île-de-France","County":"Yvelines","City":"Gazeran","Street":"Rue de l'Église","HouseNumber":"6","PostalCode":"78125","AdditionalData":[{"value":"France","key":"CountryName"},{"value":"Île-de-France","key":"StateName"},{"value":"Yvelines","key":"CountyName"}]},"MapReference":{"ReferenceId":"68852017","Spot":0.08,"SideOfStreet":"right","CountryId":"20000001","StateId":"20002126","CountyId":"20003702","CityId":"20004005","AddressId":"375613325","RoadLinkId":"43448277"}}},{"Relevance":1.0,"Distance":89.2,"MatchLevel":"houseNumber","MatchQuality":{"Country":1.0,"State":1.0,"County":1.0,"City":1.0,"Street":[1.0],"HouseNumber":1.0,"PostalCode":1.0},"MatchType":"interpolated","Location":{"LocationId":"NT_5UhwYvwKqaFAIZIzMtvLrD_yA","LocationType":"point","DisplayPosition":{"Latitude":48.6338,"Longitude":1.77128},"MapView":{"TopLeft":{"Latitude":48.6349242,"Longitude":1.769579},"BottomRight":{"Latitude":48.6326758,"Longitude":1.772981}},"Address":{"Label":"2 Rue du Haut de Gazeran, 78125 Gazeran, France","Country":"FRA","State":"Île-de-France","County":"Yvelines","City":"Gazeran","Street":"Rue du Haut de Gazeran","HouseNumber":"2","PostalCode":"78125","AdditionalData":[{"value":"France","key":"CountryName"},{"value":"Île-de-France","key":"StateName"},{"value":"Yvelines","key":"CountyName"}]},"MapReference":{"ReferenceId":"64945166","Spot":0.75,"SideOfStreet":"left","CountryId":"20000001","StateId":"20002126","CountyId":"20003702","CityId":"20004005","AddressId":"375617284","RoadLinkId":"43767636"}}},{"Relevance":1.0,"Distance":92.1,"MatchLevel":"houseNumber","MatchQuality":{"Country":1.0,"State":1.0,"County":1.0,"City":1.0,"Street":[1.0],"HouseNumber":1.0,"PostalCode":1.0},"MatchType":"interpolated","Location":{"LocationId":"NT_nOJ3A8CsZ6M11bOBuxdbjC_yA","LocationType":"point","DisplayPosition":{"Latitude":48.63344,"Longitude":1.7716},"MapView":{"TopLeft":{"Latitude":48.6345642,"Longitude":1.769899},"BottomRight":{"Latitude":48.6323158,"Longitude":1.773301}},"Address":{"Label":"2 Route de la Gare, 78125 Gazeran, France","Country":"FRA","State":"Île-de-France","County":"Yvelines","City":"Gazeran","Street":"Route de la Gare","HouseNumber":"2","PostalCode":"78125","AdditionalData":[{"value":"France","key":"CountryName"},{"value":"Île-de-France","key":"StateName"},{"value":"Yvelines","key":"CountyName"}]},"MapReference":{"ReferenceId":"1038792582","Spot":0.57,"SideOfStreet":"left","CountryId":"20000001","StateId":"20002126","CountyId":"20003702","CityId":"20004005","AddressId":"375602232","RoadLinkId":"360615753"}}},{"Relevance":1.0,"Distance":129.4,"MatchLevel":"street","MatchQuality":{"Country":1.0,"State":1.0,"County":1.0,"City":1.0,"Street":[1.0],"PostalCode":1.0},"Location":{"LocationId":"NT_nOJ3A8CsZ6M11bOBuxdbjC_l_1038876776_L","LocationType":"point","DisplayPosition":{"Latitude":48.63294,"Longitude":1.77196},"MapView":{"TopLeft":{"Latitude":48.63294,"Longitude":1.77121},"BottomRight":{"Latitude":48.63252,"Longitude":1.77196}},"Address":{"Label":"Route de la Gare, 78125 Gazeran, France","Country":"FRA","State":"Île-de-France","County":"Yvelines","City":"Gazeran","Street":"Route de la Gare","PostalCode":"78125","AdditionalData":[{"value":"France","key":"CountryName"},{"value":"Île-de-France","key":"StateName"},{"value":"Yvelines","key":"CountyName"}]},"MapReference":{"ReferenceId":"1038876776","Spot":1.0,"SideOfStreet":"left","CountryId":"20000001","StateId":"20002126","CountyId":"20003702","CityId":"20004005"}}},{"Relevance":1.0,"Distance":141.0,"MatchLevel":"houseNumber","MatchQuality":{"Country":1.0,"State":1.0,"County":1.0,"City":1.0,"Street":[1.0],"HouseNumber":1.0,"PostalCode":1.0},"MatchType":"interpolated","Location":{"LocationId":"NT_nOJ3A8CsZ6M11bOBuxdbjC_0EF","LocationType":"point","DisplayPosition":{"Latitude":48.63282,"Longitude":1.77204},"MapView":{"TopLeft":{"Latitude":48.6339442,"Longitude":1.770339},"BottomRight":{"Latitude":48.6316958,"Longitude":1.773741}},"Address":{"Label":"4Q Route de la Gare, 78125 Gazeran, France","Country":"FRA","State":"Île-de-France","County":"Yvelines","City":"Gazeran","Street":"Route de la Gare","HouseNumber":"4Q","PostalCode":"78125","AdditionalData":[{"value":"France","key":"CountryName"},{"value":"Île-de-France","key":"StateName"},{"value":"Yvelines","key":"CountyName"}]},"MapReference":{"ReferenceId":"1038792581","Spot":0.88,"SideOfStreet":"left","CountryId":"20000001","StateId":"20002126","CountyId":"20003702","CityId":"20004005","AddressId":"375602236","RoadLinkId":"360615752"}}},{"Relevance":1.0,"Distance":141.3,"MatchLevel":"houseNumber","MatchQuality":{"Country":1.0,"State":1.0,"County":1.0,"City":1.0,"Street":[1.0],"HouseNumber":1.0,"PostalCode":1.0},"MatchType":"interpolated","Location":{"LocationId":"NT_5UhwYvwKqaFAIZIzMtvLrD_2A","LocationType":"point","DisplayPosition":{"Latitude":48.63369,"Longitude":1.77057},"MapView":{"TopLeft":{"Latitude":48.6348142,"Longitude":1.768869},"BottomRight":{"Latitude":48.6325658,"Longitude":1.772271}},"Address":{"Label":"6 Rue du Haut de Gazeran, 78125 Gazeran, France","Country":"FRA","State":"Île-de-France","County":"Yvelines","City":"Gazeran","Street":"Rue du Haut de Gazeran","HouseNumber":"6","PostalCode":"78125","AdditionalData":[{"value":"France","key":"CountryName"},{"value":"Île-de-France","key":"StateName"},{"value":"Yvelines","key":"CountyName"}]},"MapReference":{"ReferenceId":"68852001","Spot":0.9,"SideOfStreet":"left","CountryId":"20000001","StateId":"20002126","CountyId":"20003702","CityId":"20004005","AddressId":"375630589","RoadLinkId":"134667320"}}},{"Relevance":1.0,"Distance":142.7,"MatchLevel":"houseNumber","MatchQuality":{"Country":1.0,"State":1.0,"County":1.0,"City":1.0,"Street":[1.0],"HouseNumber":1.0,"PostalCode":1.0},"MatchType":"interpolated","Location":{"LocationId":"NT_RASLwxXFCduhtRPuOIXUhD_0A","LocationType":"point","DisplayPosition":{"Latitude":48.63432,"Longitude":1.77435},"MapView":{"TopLeft":{"Latitude":48.6354442,"Longitude":1.772649},"BottomRight":{"Latitude":48.6331958,"Longitude":1.776051}},"Address":{"Label":"4 Rue de l'Église, 78125 Gazeran, France","Country":"FRA","State":"Île-de-France","County":"Yvelines","City":"Gazeran","Street":"Rue de l'Église","HouseNumber":"4","PostalCode":"78125","AdditionalData":[{"value":"France","key":"CountryName"},{"value":"Île-de-France","key":"StateName"},{"value":"Yvelines","key":"CountyName"}]},"MapReference":{"ReferenceId":"1000553152","Spot":0.58,"SideOfStreet":"left","CountryId":"20000001","StateId":"20002126","CountyId":"20003702","CityId":"20004005","AddressId":"375625814","RoadLinkId":"326932816"}}},{"Relevance":1.0,"Distance":156.5,"MatchLevel":"houseNumber","MatchQuality":{"Country":1.0,"State":1.0,"County":1.0,"City":1.0,"Street":[1.0],"HouseNumber":1.0,"PostalCode":1.0},"MatchType":"interpolated","Location":{"LocationId":"NT_R3B-sPZkSPFX0VqNddKvjC_l_68852016_R_xA","LocationType":"point","DisplayPosition":{"Latitude":48.6326715,"Longitude":1.7727544},"MapView":{"TopLeft":{"Latitude":48.6337956,"Longitude":1.7710535},"BottomRight":{"Latitude":48.6315473,"Longitude":1.7744554}},"Address":{"Label":"1 Chemin de la Tour, 78125 Gazeran, France","Country":"FRA","State":"Île-de-France","County":"Yvelines","City":"Gazeran","Street":"Chemin de la Tour","HouseNumber":"1","PostalCode":"78125","AdditionalData":[{"value":"France","key":"CountryName"},{"value":"Île-de-France","key":"StateName"},{"value":"Yvelines","key":"CountyName"}]},"MapReference":{"ReferenceId":"68852016","Spot":0.5,"SideOfStreet":"right","CountryId":"20000001","StateId":"20002126","CountyId":"20003702","CityId":"20004005"}}}]}]}}