{"Response":{"MetaInfo":{"Timestamp":"2020-03-28T10:55:47.680+0000","NextPageInformation":"2"},"View":[{"_type":"SearchResultsViewType","ViewId":0,"Result":[{"Relevance":1.0,"Distance":0.0,"Direction":0.0,"MatchLevel":"district","MatchQuality":{"Country":1.0,"State":1.0,"County":1.0,"City":1.0,"District":1.0,"PostalCode":1.0},"Location":{"LocationId":"NT_aTTZL6ZavWUV08ubg6AI6B","LocationType":"point","DisplayPosition":{"Latitude":48.6210782,"Longitude":12.4888036},"MapView":{"TopLeft":{"Latitude":48.65583,"Longitude":12.45588},"BottomRight":{"Latitude":48.61412,"Longitude":12.52052}},"Address":{"Label":"Dingolfing, Bayern, Deutschland","Country":"DEU","State":"Bayern","County":"Dingolfing-Landau","City":"Dingolfing","District":"Dingolfing","PostalCode":"84130","AdditionalData":[{"value":"Deutschland","key":"CountryName"},{"value":"Bayern","key":"StateName"},{"value":"Dingolfing-Landau","key":"CountyName"}]},"MapReference":{"ReferenceId":"64438520","SideOfStreet":"neither","CountryId":"20147700","StateId":"20177250","CountyId":"20180697","CityId":"20180698","DistrictId":"20180700"}}},{"Relevance":1.0,"Distance":3.4,"MatchLevel":"street","MatchQuality":{"Country":1.0,"State":1.0,"County":1.0,"City":1.0,"District":1.0,"PostalCode":1.0},"Location":{"LocationId":"NT_SlhAoxfsNe3JhCwO57494C_l_1203774970_L","LocationType":"point","DisplayPosition":{"Latitude":48.6210693,"Longitude":12.4888479},"MapView":{"TopLeft":{"Latitude":48.62198,"Longitude":12.48872},"BottomRight":{"Latitude":48.61954,"Longitude":12.48918}},"Address":{"Label":"84130 Dingolfing, Deutschland","Country":"DEU","State":"Bayern","County":"Dingolfing-Landau","City":"Dingolfing","District":"Dingolfing","PostalCode":"84130","AdditionalData":[{"value":"Deutschland","key":"CountryName"},{"value":"Bayern","key":"StateName"},{"value":"Dingolfing-Landau","key":"CountyName"}]},"MapReference":{"ReferenceId":"1203774970","Spot":0.64,"SideOfStreet":"left","CountryId":"20147700","StateId":"20177250","CountyId":"20180697","CityId":"20180698","DistrictId":"20180700"}}},{"Relevance":1.0,"Distance":10.6,"MatchLevel":"street","MatchQuality":{"Country":1.0,"State":1.0,"County":1.0,"City":1.0,"District":1.0,"Street":[1.0],"PostalCode":1.0},"Location":{"LocationId":"NT_WjbB24RjTS-f8Z-w9QBpiA_l_833965647_R","LocationType":"point","DisplayPosition":{"Latitude":48.6211108,"Longitude":12.4886678},"MapView":{"TopLeft":{"Latitude":48.62138,"Longitude":12.48857},"BottomRight":{"Latitude":48.62025,"Longitude":12.48874}},"Address":{"Label":"Frontenhausener Straße, 84130 Dingolfing, Deutschland","Country":"DEU","State":"Bayern","County":"Dingolfing-Landau","City":"Dingolfing","District":"Dingolfing","Street":"Frontenhausener Straße","PostalCode":"84130","AdditionalData":[{"value":"Deutschland","key":"CountryName"},{"value":"Bayern","key":"StateName"},{"value":"Dingolfing-Landau","key":"CountyName"}]},"MapReference":{"ReferenceId":"833965647","Spot":0.76,"SideOfStreet":"right","CountryId":"20147700","StateId":"20177250","CountyId":"20180697","CityId":"20180698","DistrictId":"20180700"}}},{"Relevance":1.0,"Distance":33.9,"MatchLevel":"street","MatchQuality":{"Country":1.0,"State":1.0,"County":1.0,"City":1.0,"District":1.0,"Street":[1.0],"PostalCode":1.0},"Location":{"LocationId":"NT_WjbB24RjTS-f8Z-w9QBpiA_l_833965648_R","LocationType":"point","DisplayPosition":{"Latitude":48.62138,"Longitude":12.48874},"MapView":{"TopLeft":{"Latitude":48.62351,"Longitude":12.48874},"BottomRight":{"Latitude":48.62138,"Longitude":12.48984}},"Address":{"Label":"Frontenhausener Straße, 84130 Dingolfing, Deutschland","Country":"DEU","State":"Bayern","County":"Dingolfing-Landau","City":"Dingolfing","District":"Dingolfing","Street":"Frontenhausener Straße","PostalCode":"84130","AdditionalData":[{"value":"Deutschland","key":"CountryName"},{"value":"Bayern","key":"StateName"},{"value":"Dingolfing-Landau","key":"CountyName"}]},"MapReference":{"ReferenceId":"833965648","Spot":0.0,"SideOfStreet":"right","CountryId":"20147700","StateId":"20177250","CountyId":"20180697","CityId":"20180698","DistrictId":"20180700"}}},{"Relevance":1.0,"Distance":34.4,"MatchLevel":"street","MatchQuality":{"Country":1.0,"State":1.0,"County":1.0,"City":1.0,"District":1.0,"PostalCode":1.0},"Location":{"LocationId":"NT_SlhAoxfsNe3JhCwO57494C_l_1191150557_R","LocationType":"point","DisplayPosition":{"Latitude":48.6211554,"Longitude":12.4883499},"MapView":{"TopLeft":{"Latitude":48.62202,"Longitude":12.48827},"BottomRight":{"Latitude":48.61958,"Longitude":12.4886}},"Address":{"Label":"84130 Dingolfing, Deutschland","Country":"DEU","State":"Bayern","County":"Dingolfing-Landau","City":"Dingolfing","District":"Dingolfing","PostalCode":"84130","AdditionalData":[{"value":"Deutschland","key":"CountryName"},{"value":"Bayern","key":"StateName"},{"value":"Dingolfing-Landau","key":"CountyName"}]},"MapReference":{"ReferenceId":"1191150557","Spot":0.62,"SideOfStreet":"right","CountryId":"20147700","StateId":"20177250","CountyId":"20180697","CityId":"20180698","DistrictId":"20180700"}}},{"Relevance":1.0,"Distance":57.0,"MatchLevel":"houseNumber","MatchQuality":{"Country":1.0,"State":1.0,"County":1.0,"City":1.0,"District":1.0,"Street":[1.0],"HouseNumber":1.0,"PostalCode":1.0},"MatchType":"interpolated","Location":{"LocationId":"NT_Xf1E-ACUU7gBGgU6RLF7bD_xA","LocationType":"point","DisplayPosition":{"Latitude":48.62126,"Longitude":12.48787},"MapView":{"TopLeft":{"Latitude":48.6223842,"Longitude":12.4861694},"BottomRight":{"Latitude":48.6201358,"Longitude":12.4895706}},"Address":{"Label":"Amselweg 1, 84130 Dingolfing, Deutschland","Country":"DEU","State":"Bayern","County":"Dingolfing-Landau","City":"Dingolfing","District":"Dingolfing","Street":"Amselweg","HouseNumber":"1","PostalCode":"84130","AdditionalData":[{"value":"Deutschland","key":"CountryName"},{"value":"Bayern","key":"StateName"},{"value":"Dingolfing-Landau","key":"CountyName"}]},"MapReference":{"ReferenceId":"545248439","Spot":0.03,"SideOfStreet":"right","CountryId":"20147700","StateId":"20177250","CountyId":"20180697","CityId":"20180698","DistrictId":"20180700","AddressId":"249160378","RoadLinkId":"33570792"}}},{"Relevance":1.0,"Distance":62.7,"MatchLevel":"houseNumber","MatchQuality":{"Country":1.0,"State":1.0,"County":1.0,"City":1.0,"District":1.0,"Street":[1.0],"HouseNumber":1.0,"PostalCode":1.0},"MatchType":"interpolated","Location":{"LocationId":"NT_Xf1E-ACUU7gBGgU6RLF7bD_zA","LocationType":"point","DisplayPosition":{"Latitude":48.62097,"Longitude":12.4878},"MapView":{"TopLeft":{"Latitude":48.6220942,"Longitude":12.4860994},"BottomRight":{"Latitude":48.6198458,"Longitude":12.4895006}},"Address":{"Label":"Amselweg 3, 84130 Dingolfing, Deutschland","Country":"DEU","State":"Bayern","County":"Dingolfing-Landau","City":"Dingolfing","District":"Dingolfing","Street":"Amselweg","HouseNumber":"3","PostalCode":"84130","AdditionalData":[{"value":"Deutschland","key":"CountryName"},{"value":"Bayern","key":"StateName"},{"value":"Dingolfing-Landau","key":"CountyName"}]},"MapReference":{"ReferenceId":"541679367","Spot":0.76,"SideOfStreet":"right","CountryId":"20147700","StateId":"20177250","CountyId":"20180697","CityId":"20180698","DistrictId":"20180700","AddressId":"182728013","RoadLinkId":"33314420"}}},{"Relevance":1.0,"Distance":75.0,"MatchLevel":"street","MatchQuality":{"Country":1.0,"State":1.0,"County":1.0,"City":1.0,"District":1.0,"Street":[1.0],"PostalCode":1.0},"Location":{"LocationId":"NT_Xf1E-ACUU7gBGgU6RLF7bD_l_545248440_R","LocationType":"point","DisplayPosition":{"Latitude":48.6216069,"Longitude":12.4881691},"MapView":{"TopLeft":{"Latitude":48.62186,"Longitude":12.48813},"BottomRight":{"Latitude":48.62156,"Longitude":12.48838}},"Address":{"Label":"Amselweg, 84130 Dingolfing, Deutschland","Country":"DEU","State":"Bayern","County":"Dingolfing-Landau","City":"Dingolfing","District":"Dingolfing","Street":"Amselweg","PostalCode":"84130","AdditionalData":[{"value":"Deutschland","key":"CountryName"},{"value":"Bayern","key":"StateName"},{"value":"Dingolfing-Landau","key":"CountyName"}]},"MapReference":{"ReferenceId":"545248440","Spot":0.16,"SideOfStreet":"right","CountryId":"20147700","StateId":"20177250","CountyId":"20180697","CityId":"20180698","DistrictId":"20180700"}}},{"Relevance":1.0,"Distance":92.3,"MatchLevel":"street","MatchQuality":{"Country":1.0,"State":1.0,"County":1.0,"City":1.0,"District":1.0,"Street":[1.0],"PostalCode":1.0},"Location":{"LocationId":"NT_4SH8UdCi-A2Qw1IsYre.5D_l_1204759970_L","LocationType":"point","DisplayPosition":{"Latitude":48.62186,"Longitude":12.48838},"MapView":{"TopLeft":{"Latitude":48.62196,"Longitude":12.48812},"BottomRight":{"Latitude":48.62186,"Longitude":12.48838}},"Address":{"Label":"Fasanenweg, 84130 Dingolfing, Deutschland","Country":"DEU","State":"Bayern","County":"Dingolfing-Landau","City":"Dingolfing","District":"Dingolfing","Street":"Fasanenweg","PostalCode":"84130","AdditionalData":[{"value":"Deutschland","key":"CountryName"},{"value":"Bayern","key":"StateName"},{"value":"Dingolfing-Landau","key":"CountyName"}]},"MapReference":{"ReferenceId":"1204759970","Spot":0.0,"SideOfStreet":"left","CountryId":"20147700","StateId":"20177250","CountyId":"20180697","CityId":"20180698","DistrictId":"20180700"}}},{"Relevance":1.0,"Distance":92.3,"MatchLevel":"street","MatchQuality":{"Country":1.0,"State":1.0,"County":1.0,"City":1.0,"District":1.0,"Street":[1.0],"PostalCode":1.0},"Location":{"LocationId":"NT_Xf1E-ACUU7gBGgU6RLF7bD_l_1191150559_R","LocationType":"point","DisplayPosition":{"Latitude":48.62186,"Longitude":12.48838},"MapView":{"TopLeft":{"Latitude":48.62202,"Longitude":12.48838},"BottomRight":{"Latitude":48.62186,"Longitude":12.48849}},"Address":{"Label":"Amselweg, 84130 Dingolfing, Deutschland","Country":"DEU","State":"Bayern","County":"Dingolfing-Landau","City":"Dingolfing","District":"Dingolfing","Street":"Amselweg","PostalCode":"84130","AdditionalData":[{"value":"Deutschland","key":"CountryName"},{"value":"Bayern","key":"StateName"},{"value":"Dingolfing-Landau","key":"CountyName"}]},"MapReference":{"ReferenceId":"1191150559","Spot":0.0,"SideOfStreet":"right","CountryId":"20147700","StateId":"20177250","CountyId":"20180697","CityId":"20180698","DistrictId":"20180700"}}}]}]}}