{"Response":{"MetaInfo":{"Timestamp":"2020-03-28T11:40:17.639+0000","NextPageInformation":"2"},"View":[{"_type":"SearchResultsViewType","ViewId":0,"Result":[{"Relevance":1.0,"Distance":0.0,"Direction":0.0,"MatchLevel":"district","MatchQuality":{"Country":1.0,"State":1.0,"County":1.0,"City":1.0,"District":1.0,"PostalCode":1.0},"Location":{"LocationId":"NT_Gh9TKbv3u9Paq3cgBO4Z2D","LocationType":"point","DisplayPosition":{"Latitude":48.6781326,"Longitude":8.8978174},"MapView":{"TopLeft":{"Latitude":48.68355,"Longitude":8.87941},"BottomRight":{"Latitude":48.67404,"Longitude":8.91301}},"Address":{"Label":"Aidlingen, Baden-Württemberg, Deutschland","Country":"DEU","State":"Baden-Württemberg","County":"Böblingen","City":"Aidlingen","District":"Aidlingen","PostalCode":"71134","AdditionalData":[{"value":"Deutschland","key":"CountryName"},{"value":"Baden-Württemberg","key":"StateName"},{"value":"Böblingen","key":"CountyName"}]},"MapReference":{"ReferenceId":"76844459","SideOfStreet":"neither","CountryId":"20147700","StateId":"20171489","CountyId":"20171515","CityId":"20171516","DistrictId":"20171520"}}},{"Relevance":1.0,"Distance":13.2,"MatchLevel":"houseNumber","MatchQuality":{"Country":1.0,"State":1.0,"County":1.0,"City":1.0,"District":1.0,"Street":[1.0],"HouseNumber":1.0,"PostalCode":1.0},"MatchType":"interpolated","Location":{"LocationId":"NT_MVe6AwgzXynNA7SNI.KbsA_yA","LocationType":"point","DisplayPosition":{"Latitude":48.67834,"Longitude":8.8979},"MapView":{"TopLeft":{"Latitude":48.6794642,"Longitude":8.8961975},"BottomRight":{"Latitude":48.6772158,"Longitude":8.8996025}},"Address":{"Label":"Badstraße 2, 71134 Aidlingen, Deutschland","Country":"DEU","State":"Baden-Württemberg","County":"Böblingen","City":"Aidlingen","District":"Aidlingen","Street":"Badstraße","HouseNumber":"2","PostalCode":"71134","AdditionalData":[{"value":"Deutschland","key":"CountryName"},{"value":"Baden-Württemberg","key":"StateName"},{"value":"Böblingen","key":"CountyName"}]},"MapReference":{"ReferenceId":"67355752","Spot":0.38,"SideOfStreet":"right","CountryId":"20147700","StateId":"20171489","CountyId":"20171515","CityId":"20171516","DistrictId":"20171520","AddressId":"208742712","RoadLinkId":"160748095"}}},{"Relevance":1.0,"Distance":17.0,"MatchLevel":"houseNumber","MatchQuality":{"Country":1.0,"State":1.0,"County":1.0,"City":1.0,"District":1.0,"Street":[1.0],"HouseNumber":1.0,"PostalCode":1.0},"MatchType":"interpolated","Location":{"LocationId":"NT_0X9dTyMisRkugZ1KMpq-wA_xA","LocationType":"point","DisplayPosition":{"Latitude":48.67798,"Longitude":8.89781},"MapView":{"TopLeft":{"Latitude":48.6791042,"Longitude":8.8961075},"BottomRight":{"Latitude":48.6768558,"Longitude":8.8995125}},"Address":{"Label":"Pfarrgässle 1, 71134 Aidlingen, Deutschland","Country":"DEU","State":"Baden-Württemberg","County":"Böblingen","City":"Aidlingen","District":"Aidlingen","Street":"Pfarrgässle","HouseNumber":"1","PostalCode":"71134","AdditionalData":[{"value":"Deutschland","key":"CountryName"},{"value":"Baden-Württemberg","key":"StateName"},{"value":"Böblingen","key":"CountyName"}]},"MapReference":{"ReferenceId":"76844472","Spot":0.68,"SideOfStreet":"right","CountryId":"20147700","StateId":"20171489","CountyId":"20171515","CityId":"20171516","DistrictId":"20171520","AddressId":"178132125","RoadLinkId":"38276962"}}},{"Relevance":1.0,"Distance":23.1,"MatchLevel":"street","MatchQuality":{"Country":1.0,"State":1.0,"County":1.0,"City":1.0,"District":1.0,"Street":[1.0],"PostalCode":1.0},"Location":{"LocationId":"NT_eSeRCkARNUM3LtLdb1BzAA_l_834342747_R","LocationType":"point","DisplayPosition":{"Latitude":48.6783,"Longitude":8.89763},"MapView":{"TopLeft":{"Latitude":48.6783,"Longitude":8.89748},"BottomRight":{"Latitude":48.67826,"Longitude":8.89763}},"Address":{"Label":"Hauptstraße, 71134 Aidlingen, Deutschland","Country":"DEU","State":"Baden-Württemberg","County":"Böblingen","City":"Aidlingen","District":"Aidlingen","Street":"Hauptstraße","PostalCode":"71134","AdditionalData":[{"value":"Deutschland","key":"CountryName"},{"value":"Baden-Württemberg","key":"StateName"},{"value":"Böblingen","key":"CountyName"}]},"MapReference":{"ReferenceId":"834342747","Spot":1.0,"SideOfStreet":"right","CountryId":"20147700","StateId":"20171489","CountyId":"20171515","CityId":"20171516","DistrictId":"20171520"}}},{"Relevance":1.0,"Distance":23.1,"MatchLevel":"street","MatchQuality":{"Country":1.0,"State":1.0,"County":1.0,"City":1.0,"District":1.0,"Street":[1.0],"PostalCode":1.0},"Location":{"LocationId":"NT_qi9iVdnOOGNuDqadTWsmCA_l_76844455_R","LocationType":"point","DisplayPosition":{"Latitude":48.6783,"Longitude":8.89763},"MapView":{"TopLeft":{"Latitude":48.67846,"Longitude":8.89752},"BottomRight":{"Latitude":48.6783,"Longitude":8.89763}},"Address":{"Label":"Hauptstraße, 71134 Aidlingen, Deutschland","Country":"DEU","State":"Baden-Württemberg","County":"Böblingen","City":"Aidlingen","District":"Aidlingen","Street":"Hauptstraße","PostalCode":"71134","AdditionalData":[{"value":"Deutschland","key":"CountryName"},{"value":"Baden-Württemberg","key":"StateName"},{"value":"Böblingen","key":"CountyName"}]},"MapReference":{"ReferenceId":"76844455","Spot":0.0,"SideOfStreet":"right","CountryId":"20147700","StateId":"20171489","CountyId":"20171515","CityId":"20171516","DistrictId":"20171520"}}},{"Relevance":1.0,"Distance":34.0,"MatchLevel":"houseNumber","MatchQuality":{"Country":1.0,"State":1.0,"County":1.0,"City":1.0,"District":1.0,"Street":[1.0],"HouseNumber":1.0,"PostalCode":1.0},"MatchType":"interpolated","Location":{"LocationId":"NT_qi9iVdnOOGNuDqadTWsmCA_xUD","LocationType":"point","DisplayPosition":{"Latitude":48.67822,"Longitude":8.89733},"MapView":{"TopLeft":{"Latitude":48.6793442,"Longitude":8.8956275},"BottomRight":{"Latitude":48.6770958,"Longitude":8.8990325}},"Address":{"Label":"Hauptstraße 15, 71134 Aidlingen, Deutschland","Country":"DEU","State":"Baden-Württemberg","County":"Böblingen","City":"Aidlingen","District":"Aidlingen","Street":"Hauptstraße","HouseNumber":"15","PostalCode":"71134","AdditionalData":[{"value":"Deutschland","key":"CountryName"},{"value":"Baden-Württemberg","key":"StateName"},{"value":"Böblingen","key":"CountyName"}]},"MapReference":{"ReferenceId":"834342746","Spot":0.0,"SideOfStreet":"right","CountryId":"20147700","StateId":"20171489","CountyId":"20171515","CityId":"20171516","DistrictId":"20171520","AddressId":"249623599","RoadLinkId":"217524594"}}},{"Relevance":1.0,"Distance":38.9,"MatchLevel":"houseNumber","MatchQuality":{"Country":1.0,"State":1.0,"County":1.0,"City":1.0,"District":1.0,"Street":[1.0],"HouseNumber":1.0,"PostalCode":1.0},"MatchType":"interpolated","Location":{"LocationId":"NT_qi9iVdnOOGNuDqadTWsmCA_xAD","LocationType":"point","DisplayPosition":{"Latitude":48.67848,"Longitude":8.89776},"MapView":{"TopLeft":{"Latitude":48.6796042,"Longitude":8.8960575},"BottomRight":{"Latitude":48.6773558,"Longitude":8.8994625}},"Address":{"Label":"Hauptstraße 10, 71134 Aidlingen, Deutschland","Country":"DEU","State":"Baden-Württemberg","County":"Böblingen","City":"Aidlingen","District":"Aidlingen","Street":"Hauptstraße","HouseNumber":"10","PostalCode":"71134","AdditionalData":[{"value":"Deutschland","key":"CountryName"},{"value":"Baden-Württemberg","key":"StateName"},{"value":"Böblingen","key":"CountyName"}]},"MapReference":{"ReferenceId":"76844456","Spot":0.47,"SideOfStreet":"left","CountryId":"20147700","StateId":"20171489","CountyId":"20171515","CityId":"20171516","DistrictId":"20171520","AddressId":"208814001","RoadLinkId":"38260660"}}},{"Relevance":1.0,"Distance":48.3,"MatchLevel":"houseNumber","MatchQuality":{"Country":1.0,"State":1.0,"County":1.0,"City":1.0,"District":1.0,"Street":[1.0],"HouseNumber":1.0,"PostalCode":1.0},"MatchType":"interpolated","Location":{"LocationId":"NT_qi9iVdnOOGNuDqadTWsmCA_xkD","LocationType":"point","DisplayPosition":{"Latitude":48.67816,"Longitude":8.89714},"MapView":{"TopLeft":{"Latitude":48.6792842,"Longitude":8.8954375},"BottomRight":{"Latitude":48.6770358,"Longitude":8.8988425}},"Address":{"Label":"Hauptstraße 19, 71134 Aidlingen, Deutschland","Country":"DEU","State":"Baden-Württemberg","County":"Böblingen","City":"Aidlingen","District":"Aidlingen","Street":"Hauptstraße","HouseNumber":"19","PostalCode":"71134","AdditionalData":[{"value":"Deutschland","key":"CountryName"},{"value":"Baden-Württemberg","key":"StateName"},{"value":"Böblingen","key":"CountyName"}]},"MapReference":{"ReferenceId":"76844470","Spot":0.69,"SideOfStreet":"right","CountryId":"20147700","StateId":"20171489","CountyId":"20171515","CityId":"20171516","DistrictId":"20171520","AddressId":"177873111","RoadLinkId":"38325611"}}},{"Relevance":1.0,"Distance":48.7,"MatchLevel":"houseNumber","MatchQuality":{"Country":1.0,"State":1.0,"County":1.0,"City":1.0,"District":1.0,"Street":[1.0],"HouseNumber":1.0,"PostalCode":1.0},"MatchType":"interpolated","Location":{"LocationId":"NT_MVe6AwgzXynNA7SNI.KbsA_2A","LocationType":"point","DisplayPosition":{"Latitude":48.67832,"Longitude":8.89849},"MapView":{"TopLeft":{"Latitude":48.6794442,"Longitude":8.8967875},"BottomRight":{"Latitude":48.6771958,"Longitude":8.9001925}},"Address":{"Label":"Badstraße 6, 71134 Aidlingen, Deutschland","Country":"DEU","State":"Baden-Württemberg","County":"Böblingen","City":"Aidlingen","District":"Aidlingen","Street":"Badstraße","HouseNumber":"6","PostalCode":"71134","AdditionalData":[{"value":"Deutschland","key":"CountryName"},{"value":"Baden-Württemberg","key":"StateName"},{"value":"Böblingen","key":"CountyName"}]},"MapReference":{"ReferenceId":"67351363","Spot":0.89,"SideOfStreet":"left","CountryId":"20147700","StateId":"20171489","CountyId":"20171515","CityId":"20171516","DistrictId":"20171520","AddressId":"177973108","RoadLinkId":"38325247"}}},{"Relevance":1.0,"Distance":49.1,"MatchLevel":"street","MatchQuality":{"Country":1.0,"State":1.0,"County":1.0,"City":1.0,"District":1.0,"Street":[1.0],"PostalCode":1.0},"Location":{"LocationId":"NT_eSeRCkARNUM3LtLdb1BzAA_l_834342744_R","LocationType":"point","DisplayPosition":{"Latitude":48.6784,"Longitude":8.89835},"MapView":{"TopLeft":{"Latitude":48.67847,"Longitude":8.89835},"BottomRight":{"Latitude":48.6784,"Longitude":8.89848}},"Address":{"Label":"Hauptstraße, 71134 Aidlingen, Deutschland","Country":"DEU","State":"Baden-Württemberg","County":"Böblingen","City":"Aidlingen","District":"Aidlingen","Street":"Hauptstraße","PostalCode":"71134","AdditionalData":[{"value":"Deutschland","key":"CountryName"},{"value":"Baden-Württemberg","key":"StateName"},{"value":"Böblingen","key":"CountyName"}]},"MapReference":{"ReferenceId":"834342744","Spot":0.0,"SideOfStreet":"right","CountryId":"20147700","StateId":"20171489","CountyId":"20171515","CityId":"20171516","DistrictId":"20171520"}}}]}]}}