{"Response":{"MetaInfo":{"Timestamp":"2020-03-28T12:07:29.511+0000","NextPageInformation":"2"},"View":[{"_type":"SearchResultsViewType","ViewId":0,"Result":[{"Relevance":1.0,"Distance":0.0,"Direction":0.0,"MatchLevel":"district","MatchQuality":{"Country":1.0,"State":1.0,"County":1.0,"City":1.0,"District":1.0,"PostalCode":1.0},"Location":{"LocationId":"NT_skCHzhzJhNaoGhN8P6zqaC","LocationType":"point","DisplayPosition":{"Latitude":48.7197443,"Longitude":18.2586505},"MapView":{"TopLeft":{"Latitude":48.73545,"Longitude":18.23812},"BottomRight":{"Latitude":48.70995,"Longitude":18.28651}},"Address":{"Label":"Bánovce nad Bebravou, Trenčiansky kraj, Slovenská Republika","Country":"SVK","State":"Trenčiansky kraj","County":"Bánovce nad Bebravou","City":"Bánovce nad Bebravou","District":"Bánovce nad Bebravou","PostalCode":"957 01","AdditionalData":[{"value":"Slovenská Republika","key":"CountryName"},{"value":"Trenčiansky kraj","key":"StateName"},{"value":"Bánovce nad Bebravou","key":"CountyName"}]},"MapReference":{"ReferenceId":"851552661","SideOfStreet":"neither","CountryId":"20428682","StateId":"20491572","CountyId":"20491573","CityId":"20491574","DistrictId":"22185806"}}},{"Relevance":1.0,"Distance":5.4,"MatchLevel":"houseNumber","MatchQuality":{"Country":1.0,"State":1.0,"County":1.0,"City":1.0,"District":1.0,"Street":[1.0],"HouseNumber":1.0,"PostalCode":1.0},"MatchType":"interpolated","Location":{"LocationId":"NT_eAAxRVhXnJLBfzwKJCUlxD_xYDN2A","LocationType":"point","DisplayPosition":{"Latitude":48.71975,"Longitude":18.25854},"MapView":{"TopLeft":{"Latitude":48.7208742,"Longitude":18.2568361},"BottomRight":{"Latitude":48.7186258,"Longitude":18.2602439}},"Address":{"Label":"Hviezdoslavova 1646, 957 01 Bánovce nad Bebravou, Slovenská Republika","Country":"SVK","State":"Trenčiansky kraj","County":"Bánovce nad Bebravou","City":"Bánovce nad Bebravou","District":"Bánovce nad Bebravou","Street":"Hviezdoslavova","HouseNumber":"1646","PostalCode":"957 01","AdditionalData":[{"value":"Slovenská Republika","key":"CountryName"},{"value":"Trenčiansky kraj","key":"StateName"},{"value":"Bánovce nad Bebravou","key":"CountyName"}]},"MapReference":{"ReferenceId":"709060166","Spot":0.5,"SideOfStreet":"right","CountryId":"20428682","StateId":"20491572","CountyId":"20491573","CityId":"20491574","DistrictId":"22185806","AddressId":"300162211","RoadLinkId":"159807554"}}},{"Relevance":1.0,"Distance":10.9,"MatchLevel":"street","MatchQuality":{"Country":1.0,"State":1.0,"County":1.0,"City":1.0,"District":1.0,"PostalCode":1.0},"Location":{"LocationId":"NT_RuoXmpoRSOvkHIe5BL6mID_l_947138154_L","LocationType":"point","DisplayPosition":{"Latitude":48.7198395,"Longitude":18.2586856},"MapView":{"TopLeft":{"Latitude":48.71986,"Longitude":18.25863},"BottomRight":{"Latitude":48.71979,"Longitude":18.25882}},"Address":{"Label":"957 01 Bánovce nad Bebravou, Slovenská Republika","Country":"SVK","State":"Trenčiansky kraj","County":"Bánovce nad Bebravou","City":"Bánovce nad Bebravou","District":"Bánovce nad Bebravou","PostalCode":"957 01","AdditionalData":[{"value":"Slovenská Republika","key":"CountryName"},{"value":"Trenčiansky kraj","key":"StateName"},{"value":"Bánovce nad Bebravou","key":"CountyName"}]},"MapReference":{"ReferenceId":"947138154","Spot":0.71,"SideOfStreet":"left","CountryId":"20428682","StateId":"20491572","CountyId":"20491573","CityId":"20491574","DistrictId":"22185806"}}},{"Relevance":1.0,"Distance":13.4,"MatchLevel":"street","MatchQuality":{"Country":1.0,"State":1.0,"County":1.0,"City":1.0,"District":1.0,"PostalCode":1.0},"Location":{"LocationId":"NT_RuoXmpoRSOvkHIe5BL6mID_l_947138153_L","LocationType":"point","DisplayPosition":{"Latitude":48.71979,"Longitude":18.25882},"MapView":{"TopLeft":{"Latitude":48.71979,"Longitude":18.25882},"BottomRight":{"Latitude":48.71973,"Longitude":18.25897}},"Address":{"Label":"957 01 Bánovce nad Bebravou, Slovenská Republika","Country":"SVK","State":"Trenčiansky kraj","County":"Bánovce nad Bebravou","City":"Bánovce nad Bebravou","District":"Bánovce nad Bebravou","PostalCode":"957 01","AdditionalData":[{"value":"Slovenská Republika","key":"CountryName"},{"value":"Trenčiansky kraj","key":"StateName"},{"value":"Bánovce nad Bebravou","key":"CountyName"}]},"MapReference":{"ReferenceId":"947138153","Spot":1.0,"SideOfStreet":"left","CountryId":"20428682","StateId":"20491572","CountyId":"20491573","CityId":"20491574","DistrictId":"22185806"}}},{"Relevance":1.0,"Distance":13.4,"MatchLevel":"street","MatchQuality":{"Country":1.0,"State":1.0,"County":1.0,"City":1.0,"District":1.0,"PostalCode":1.0},"Location":{"LocationId":"NT_RuoXmpoRSOvkHIe5BL6mID_l_947138155_L","LocationType":"point","DisplayPosition":{"Latitude":48.71979,"Longitude":18.25882},"MapView":{"TopLeft":{"Latitude":48.71996,"Longitude":18.25882},"BottomRight":{"Latitude":48.71979,"Longitude":18.25897}},"Address":{"Label":"957 01 Bánovce nad Bebravou, Slovenská Republika","Country":"SVK","State":"Trenčiansky kraj","County":"Bánovce nad Bebravou","City":"Bánovce nad Bebravou","District":"Bánovce nad Bebravou","PostalCode":"957 01","AdditionalData":[{"value":"Slovenská Republika","key":"CountryName"},{"value":"Trenčiansky kraj","key":"StateName"},{"value":"Bánovce nad Bebravou","key":"CountyName"}]},"MapReference":{"ReferenceId":"947138155","Spot":0.0,"SideOfStreet":"left","CountryId":"20428682","StateId":"20491572","CountyId":"20491573","CityId":"20491574","DistrictId":"22185806"}}},{"Relevance":1.0,"Distance":17.3,"MatchLevel":"houseNumber","MatchQuality":{"Country":1.0,"State":1.0,"County":1.0,"City":1.0,"District":1.0,"Street":[1.0],"HouseNumber":1.0,"PostalCode":1.0},"MatchType":"interpolated","Location":{"LocationId":"NT_eAAxRVhXnJLBfzwKJCUlxD_xYDMyA","LocationType":"point","DisplayPosition":{"Latitude":48.7199,"Longitude":18.25866},"MapView":{"TopLeft":{"Latitude":48.7210242,"Longitude":18.2569561},"BottomRight":{"Latitude":48.7187758,"Longitude":18.2603639}},"Address":{"Label":"Hviezdoslavova 1602, 957 01 Bánovce nad Bebravou, Slovenská Republika","Country":"SVK","State":"Trenčiansky kraj","County":"Bánovce nad Bebravou","City":"Bánovce nad Bebravou","District":"Bánovce nad Bebravou","Street":"Hviezdoslavova","HouseNumber":"1602","PostalCode":"957 01","AdditionalData":[{"value":"Slovenská Republika","key":"CountryName"},{"value":"Trenčiansky kraj","key":"StateName"},{"value":"Bánovce nad Bebravou","key":"CountyName"}]},"MapReference":{"ReferenceId":"709059799","Spot":0.07,"SideOfStreet":"right","CountryId":"20428682","StateId":"20491572","CountyId":"20491573","CityId":"20491574","DistrictId":"22185806","AddressId":"676406534","RoadLinkId":"114360408"}}},{"Relevance":1.0,"Distance":18.7,"MatchLevel":"street","MatchQuality":{"Country":1.0,"State":1.0,"County":1.0,"City":1.0,"District":1.0,"PostalCode":1.0},"Location":{"LocationId":"NT_RuoXmpoRSOvkHIe5BL6mID_l_709059773_R","LocationType":"point","DisplayPosition":{"Latitude":48.71964,"Longitude":18.25845},"MapView":{"TopLeft":{"Latitude":48.7197,"Longitude":18.25829},"BottomRight":{"Latitude":48.71964,"Longitude":18.25845}},"Address":{"Label":"957 01 Bánovce nad Bebravou, Slovenská Republika","Country":"SVK","State":"Trenčiansky kraj","County":"Bánovce nad Bebravou","City":"Bánovce nad Bebravou","District":"Bánovce nad Bebravou","PostalCode":"957 01","AdditionalData":[{"value":"Slovenská Republika","key":"CountryName"},{"value":"Trenčiansky kraj","key":"StateName"},{"value":"Bánovce nad Bebravou","key":"CountyName"}]},"MapReference":{"ReferenceId":"709059773","Spot":0.0,"SideOfStreet":"right","CountryId":"20428682","StateId":"20491572","CountyId":"20491573","CityId":"20491574","DistrictId":"22185806"}}},{"Relevance":1.0,"Distance":21.3,"MatchLevel":"street","MatchQuality":{"Country":1.0,"State":1.0,"County":1.0,"City":1.0,"District":1.0,"PostalCode":1.0},"Location":{"LocationId":"NT_RuoXmpoRSOvkHIe5BL6mID_l_947138163_R","LocationType":"point","DisplayPosition":{"Latitude":48.71958,"Longitude":18.2588},"MapView":{"TopLeft":{"Latitude":48.71958,"Longitude":18.25867},"BottomRight":{"Latitude":48.7193,"Longitude":18.25913}},"Address":{"Label":"957 01 Bánovce nad Bebravou, Slovenská Republika","Country":"SVK","State":"Trenčiansky kraj","County":"Bánovce nad Bebravou","City":"Bánovce nad Bebravou","District":"Bánovce nad Bebravou","PostalCode":"957 01","AdditionalData":[{"value":"Slovenská Republika","key":"CountryName"},{"value":"Trenčiansky kraj","key":"StateName"},{"value":"Bánovce nad Bebravou","key":"CountyName"}]},"MapReference":{"ReferenceId":"947138163","Spot":0.0,"SideOfStreet":"right","CountryId":"20428682","StateId":"20491572","CountyId":"20491573","CityId":"20491574","DistrictId":"22185806"}}},{"Relevance":1.0,"Distance":23.5,"MatchLevel":"street","MatchQuality":{"Country":1.0,"State":1.0,"County":1.0,"City":1.0,"District":1.0,"PostalCode":1.0},"Location":{"LocationId":"NT_RuoXmpoRSOvkHIe5BL6mID_l_947138157_L","LocationType":"point","DisplayPosition":{"Latitude":48.71973,"Longitude":18.25897},"MapView":{"TopLeft":{"Latitude":48.71991,"Longitude":18.25897},"BottomRight":{"Latitude":48.71973,"Longitude":18.25912}},"Address":{"Label":"957 01 Bánovce nad Bebravou, Slovenská Republika","Country":"SVK","State":"Trenčiansky kraj","County":"Bánovce nad Bebravou","City":"Bánovce nad Bebravou","District":"Bánovce nad Bebravou","PostalCode":"957 01","AdditionalData":[{"value":"Slovenská Republika","key":"CountryName"},{"value":"Trenčiansky kraj","key":"StateName"},{"value":"Bánovce nad Bebravou","key":"CountyName"}]},"MapReference":{"ReferenceId":"947138157","Spot":0.0,"SideOfStreet":"left","CountryId":"20428682","StateId":"20491572","CountyId":"20491573","CityId":"20491574","DistrictId":"22185806"}}},{"Relevance":1.0,"Distance":23.5,"MatchLevel":"street","MatchQuality":{"Country":1.0,"State":1.0,"County":1.0,"City":1.0,"District":1.0,"PostalCode":1.0},"Location":{"LocationId":"NT_RuoXmpoRSOvkHIe5BL6mID_l_947138164_L","LocationType":"point","DisplayPosition":{"Latitude":48.71973,"Longitude":18.25897},"MapView":{"TopLeft":{"Latitude":48.71973,"Longitude":18.25897},"BottomRight":{"Latitude":48.71958,"Longitude":18.25918}},"Address":{"Label":"957 01 Bánovce nad Bebravou, Slovenská Republika","Country":"SVK","State":"Trenčiansky kraj","County":"Bánovce nad Bebravou","City":"Bánovce nad Bebravou","District":"Bánovce nad Bebravou","PostalCode":"957 01","AdditionalData":[{"value":"Slovenská Republika","key":"CountryName"},{"value":"Trenčiansky kraj","key":"StateName"},{"value":"Bánovce nad Bebravou","key":"CountyName"}]},"MapReference":{"ReferenceId":"947138164","Spot":1.0,"SideOfStreet":"left","CountryId":"20428682","StateId":"20491572","CountyId":"20491573","CityId":"20491574","DistrictId":"22185806"}}}]}]}}