{"Response":{"MetaInfo":{"Timestamp":"2020-03-28T12:07:34.308+0000","NextPageInformation":"2"},"View":[{"_type":"SearchResultsViewType","ViewId":0,"Result":[{"Relevance":1.0,"Distance":-57.3,"MatchLevel":"landmark","MatchQuality":{"Country":1.0,"State":1.0,"County":1.0,"City":1.0,"District":1.0,"Street":[1.0],"PostalCode":1.0,"Name":1.0},"Location":{"LocationId":"NT_a0rybMKN-KJtvWR8FeApDB_p_..57gUjP6DxfKqECV-aPOD","LocationType":"shoppingCentre","Name":"OC Korzo","DisplayPosition":{"Latitude":48.77989,"Longitude":18.60886},"MapView":{"TopLeft":{"Latitude":48.78063,"Longitude":18.60747},"BottomRight":{"Latitude":48.77915,"Longitude":18.61024}},"Address":{"Label":"Nábrežná, 971 01 Prievidza, Slovenská Republika","Country":"SVK","State":"Trenčiansky kraj","County":"Prievidza","City":"Prievidza","District":"Prievidza","Street":"Nábrežná","PostalCode":"971 01","AdditionalData":[{"value":"Slovenská Republika","key":"CountryName"},{"value":"Trenčiansky kraj","key":"StateName"},{"value":"Prievidza","key":"CountyName"}]},"MapReference":{"CountryId":"20428682","StateId":"20491572","CountyId":"20491911","CityId":"20491992","DistrictId":"22186045","PlaceId":"1098050758"}}},{"Relevance":1.0,"Distance":0.0,"Direction":0.0,"MatchLevel":"district","MatchQuality":{"Country":1.0,"State":1.0,"County":1.0,"City":1.0,"District":1.0,"PostalCode":1.0},"Location":{"LocationId":"NT_CUVSIEt0sn.31YOGrs5CvC","LocationType":"point","DisplayPosition":{"Latitude":48.779981,"Longitude":18.6088228},"MapView":{"TopLeft":{"Latitude":48.78958,"Longitude":18.59302},"BottomRight":{"Latitude":48.74155,"Longitude":18.65279}},"Address":{"Label":"Prievidza, Trenčiansky kraj, Slovenská Republika","Country":"SVK","State":"Trenčiansky kraj","County":"Prievidza","City":"Prievidza","District":"Prievidza","PostalCode":"971 01","AdditionalData":[{"value":"Slovenská Republika","key":"CountryName"},{"value":"Trenčiansky kraj","key":"StateName"},{"value":"Prievidza","key":"CountyName"}]},"MapReference":{"ReferenceId":"851604127","SideOfStreet":"neither","CountryId":"20428682","StateId":"20491572","CountyId":"20491911","CityId":"20491992","DistrictId":"22186045"}}},{"Relevance":1.0,"Distance":8.5,"MatchLevel":"houseNumber","MatchQuality":{"Country":1.0,"State":1.0,"County":1.0,"City":1.0,"District":1.0,"Street":[1.0],"HouseNumber":1.0,"PostalCode":1.0},"MatchType":"interpolated","Location":{"LocationId":"NT_d44V66KKWDbUU0vjpdVOyA_xkTMz8SNhB","LocationType":"point","DisplayPosition":{"Latitude":48.77987,"Longitude":18.60874},"MapView":{"TopLeft":{"Latitude":48.7809942,"Longitude":18.607034},"BottomRight":{"Latitude":48.7787458,"Longitude":18.610446}},"Address":{"Label":"Nábrežná 1913/5a, 971 01 Prievidza, Slovenská Republika","Country":"SVK","State":"Trenčiansky kraj","County":"Prievidza","City":"Prievidza","District":"Prievidza","Street":"Nábrežná","HouseNumber":"1913/5a","PostalCode":"971 01","AdditionalData":[{"value":"Slovenská Republika","key":"CountryName"},{"value":"Trenčiansky kraj","key":"StateName"},{"value":"Prievidza","key":"CountyName"}]},"MapReference":{"ReferenceId":"888291584","Spot":0.48,"SideOfStreet":"left","CountryId":"20428682","StateId":"20491572","CountyId":"20491911","CityId":"20491992","DistrictId":"22186045","AddressId":"589550123","RoadLinkId":"254423552"}}},{"Relevance":1.0,"Distance":28.5,"MatchLevel":"street","MatchQuality":{"Country":1.0,"State":1.0,"County":1.0,"City":1.0,"District":1.0,"PostalCode":1.0},"Location":{"LocationId":"NT_zgVWAQ5jNjc.4rggh8.MjC_l_888291581_L","LocationType":"point","DisplayPosition":{"Latitude":48.7797258,"Longitude":18.6088574},"MapView":{"TopLeft":{"Latitude":48.77984,"Longitude":18.60815},"BottomRight":{"Latitude":48.77963,"Longitude":18.60983}},"Address":{"Label":"971 01 Prievidza, Slovenská Republika","Country":"SVK","State":"Trenčiansky kraj","County":"Prievidza","City":"Prievidza","District":"Prievidza","PostalCode":"971 01","AdditionalData":[{"value":"Slovenská Republika","key":"CountryName"},{"value":"Trenčiansky kraj","key":"StateName"},{"value":"Prievidza","key":"CountyName"}]},"MapReference":{"ReferenceId":"888291581","Spot":0.42,"SideOfStreet":"left","CountryId":"20428682","StateId":"20491572","CountyId":"20491911","CityId":"20491992","DistrictId":"22186045"}}},{"Relevance":1.0,"Distance":48.6,"MatchLevel":"street","MatchQuality":{"Country":1.0,"State":1.0,"County":1.0,"City":1.0,"District":1.0,"PostalCode":1.0},"Location":{"LocationId":"NT_zgVWAQ5jNjc.4rggh8.MjC_l_1204186424_L","LocationType":"point","DisplayPosition":{"Latitude":48.7795455,"Longitude":18.608872},"MapView":{"TopLeft":{"Latitude":48.77963,"Longitude":18.60838},"BottomRight":{"Latitude":48.77949,"Longitude":18.60962}},"Address":{"Label":"971 01 Prievidza, Slovenská Republika","Country":"SVK","State":"Trenčiansky kraj","County":"Prievidza","City":"Prievidza","District":"Prievidza","PostalCode":"971 01","AdditionalData":[{"value":"Slovenská Republika","key":"CountryName"},{"value":"Trenčiansky kraj","key":"StateName"},{"value":"Prievidza","key":"CountyName"}]},"MapReference":{"ReferenceId":"1204186424","Spot":0.4,"SideOfStreet":"left","CountryId":"20428682","StateId":"20491572","CountyId":"20491911","CityId":"20491992","DistrictId":"22186045"}}},{"Relevance":1.0,"Distance":57.4,"MatchLevel":"street","MatchQuality":{"Country":1.0,"State":1.0,"County":1.0,"City":1.0,"District":1.0,"PostalCode":1.0},"Location":{"LocationId":"NT_zgVWAQ5jNjc.4rggh8.MjC_l_893917177_R","LocationType":"point","DisplayPosition":{"Latitude":48.7804951,"Longitude":18.6087554},"MapView":{"TopLeft":{"Latitude":48.78063,"Longitude":18.60747},"BottomRight":{"Latitude":48.78034,"Longitude":18.60971}},"Address":{"Label":"971 01 Prievidza, Slovenská Republika","Country":"SVK","State":"Trenčiansky kraj","County":"Prievidza","City":"Prievidza","District":"Prievidza","PostalCode":"971 01","AdditionalData":[{"value":"Slovenská Republika","key":"CountryName"},{"value":"Trenčiansky kraj","key":"StateName"},{"value":"Prievidza","key":"CountyName"}]},"MapReference":{"ReferenceId":"893917177","Spot":0.57,"SideOfStreet":"right","CountryId":"20428682","StateId":"20491572","CountyId":"20491911","CityId":"20491992","DistrictId":"22186045"}}},{"Relevance":1.0,"Distance":62.9,"MatchLevel":"street","MatchQuality":{"Country":1.0,"State":1.0,"County":1.0,"City":1.0,"District":1.0,"PostalCode":1.0},"Location":{"LocationId":"NT_zgVWAQ5jNjc.4rggh8.MjC_l_888291583_R","LocationType":"point","DisplayPosition":{"Latitude":48.77963,"Longitude":18.60815},"MapView":{"TopLeft":{"Latitude":48.77973,"Longitude":18.60768},"BottomRight":{"Latitude":48.77961,"Longitude":18.60815}},"Address":{"Label":"971 01 Prievidza, Slovenská Republika","Country":"SVK","State":"Trenčiansky kraj","County":"Prievidza","City":"Prievidza","District":"Prievidza","PostalCode":"971 01","AdditionalData":[{"value":"Slovenská Republika","key":"CountryName"},{"value":"Trenčiansky kraj","key":"StateName"},{"value":"Prievidza","key":"CountyName"}]},"MapReference":{"ReferenceId":"888291583","Spot":0.0,"SideOfStreet":"right","CountryId":"20428682","StateId":"20491572","CountyId":"20491911","CityId":"20491992","DistrictId":"22186045"}}},{"Relevance":1.0,"Distance":63.5,"MatchLevel":"street","MatchQuality":{"Country":1.0,"State":1.0,"County":1.0,"City":1.0,"District":1.0,"PostalCode":1.0},"Location":{"LocationId":"NT_zgVWAQ5jNjc.4rggh8.MjC_l_1204186024_R","LocationType":"point","DisplayPosition":{"Latitude":48.77949,"Longitude":18.60838},"MapView":{"TopLeft":{"Latitude":48.77957,"Longitude":18.60821},"BottomRight":{"Latitude":48.77949,"Longitude":18.60838}},"Address":{"Label":"971 01 Prievidza, Slovenská Republika","Country":"SVK","State":"Trenčiansky kraj","County":"Prievidza","City":"Prievidza","District":"Prievidza","PostalCode":"971 01","AdditionalData":[{"value":"Slovenská Republika","key":"CountryName"},{"value":"Trenčiansky kraj","key":"StateName"},{"value":"Prievidza","key":"CountyName"}]},"MapReference":{"ReferenceId":"1204186024","Spot":0.0,"SideOfStreet":"right","CountryId":"20428682","StateId":"20491572","CountyId":"20491911","CityId":"20491992","DistrictId":"22186045"}}},{"Relevance":1.0,"Distance":64.1,"MatchLevel":"street","MatchQuality":{"Country":1.0,"State":1.0,"County":1.0,"City":1.0,"District":1.0,"PostalCode":1.0},"Location":{"LocationId":"NT_zgVWAQ5jNjc.4rggh8.MjC_l_888291580_R","LocationType":"point","DisplayPosition":{"Latitude":48.77957,"Longitude":18.60821},"MapView":{"TopLeft":{"Latitude":48.77963,"Longitude":18.60815},"BottomRight":{"Latitude":48.77957,"Longitude":18.60821}},"Address":{"Label":"971 01 Prievidza, Slovenská Republika","Country":"SVK","State":"Trenčiansky kraj","County":"Prievidza","City":"Prievidza","District":"Prievidza","PostalCode":"971 01","AdditionalData":[{"value":"Slovenská Republika","key":"CountryName"},{"value":"Trenčiansky kraj","key":"StateName"},{"value":"Prievidza","key":"CountyName"}]},"MapReference":{"ReferenceId":"888291580","Spot":0.0,"SideOfStreet":"right","CountryId":"20428682","StateId":"20491572","CountyId":"20491911","CityId":"20491992","DistrictId":"22186045"}}},{"Relevance":1.0,"Distance":64.1,"MatchLevel":"street","MatchQuality":{"Country":1.0,"State":1.0,"County":1.0,"City":1.0,"District":1.0,"PostalCode":1.0},"Location":{"LocationId":"NT_zgVWAQ5jNjc.4rggh8.MjC_l_888291578_R","LocationType":"point","DisplayPosition":{"Latitude":48.77957,"Longitude":18.60821},"MapView":{"TopLeft":{"Latitude":48.77957,"Longitude":18.60811},"BottomRight":{"Latitude":48.77942,"Longitude":18.60821}},"Address":{"Label":"971 01 Prievidza, Slovenská Republika","Country":"SVK","State":"Trenčiansky kraj","County":"Prievidza","City":"Prievidza","District":"Prievidza","PostalCode":"971 01","AdditionalData":[{"value":"Slovenská Republika","key":"CountryName"},{"value":"Trenčiansky kraj","key":"StateName"},{"value":"Prievidza","key":"CountyName"}]},"MapReference":{"ReferenceId":"888291578","Spot":1.0,"SideOfStreet":"right","CountryId":"20428682","StateId":"20491572","CountyId":"20491911","CityId":"20491992","DistrictId":"22186045"}}}]}]}}