{"Response":{"MetaInfo":{"Timestamp":"2020-03-28T10:18:02.071+0000","NextPageInformation":"2"},"View":[{"_type":"SearchResultsViewType","ViewId":0,"Result":[{"Relevance":1.0,"Distance":0.0,"Direction":0.0,"MatchLevel":"district","MatchQuality":{"Country":1.0,"State":1.0,"County":1.0,"City":1.0,"District":1.0,"PostalCode":1.0},"Location":{"LocationId":"NT_JlW7xo8gxxU5w05Id7gYFD","LocationType":"point","DisplayPosition":{"Latitude":48.7190128,"Longitude":11.2235352},"MapView":{"TopLeft":{"Latitude":48.72222,"Longitude":11.21453},"BottomRight":{"Latitude":48.71826,"Longitude":11.22537}},"Address":{"Label":"Rödenhof, Neuburg an der Donau, Bayern, Deutschland","Country":"DEU","State":"Bayern","County":"Neuburg-Schrobenhausen","City":"Neuburg an der Donau","District":"Rödenhof","PostalCode":"86633","AdditionalData":[{"value":"Deutschland","key":"CountryName"},{"value":"Bayern","key":"StateName"},{"value":"Neuburg-Schrobenhausen","key":"CountyName"}]},"MapReference":{"ReferenceId":"79583681","SideOfStreet":"neither","CountryId":"20147700","StateId":"20177250","CountyId":"20178764","CityId":"20178809","DistrictId":"20178816"}}},{"Relevance":1.0,"Distance":38.5,"MatchLevel":"street","MatchQuality":{"Country":1.0,"State":1.0,"County":1.0,"City":1.0,"District":1.0,"Street":[1.0],"PostalCode":1.0},"Location":{"LocationId":"NT_2a0n7zTk5Gli5w2D8fIPQD_l_545242338_R","LocationType":"point","DisplayPosition":{"Latitude":48.7186725,"Longitude":11.2234411},"MapView":{"TopLeft":{"Latitude":48.71949,"Longitude":11.22092},"BottomRight":{"Latitude":48.71846,"Longitude":11.22421}},"Address":{"Label":"Rödenhof, 86633 Neuburg an der Donau, Deutschland","Country":"DEU","State":"Bayern","County":"Neuburg-Schrobenhausen","City":"Neuburg an der Donau","District":"Rödenhof","Street":"Rödenhof","PostalCode":"86633","AdditionalData":[{"value":"Deutschland","key":"CountryName"},{"value":"Bayern","key":"StateName"},{"value":"Neuburg-Schrobenhausen","key":"CountyName"}]},"MapReference":{"ReferenceId":"545242338","Spot":0.23,"SideOfStreet":"right","CountryId":"20147700","StateId":"20177250","CountyId":"20178764","CityId":"20178809","DistrictId":"20178816"}}},{"Relevance":1.0,"Distance":39.7,"MatchLevel":"houseNumber","MatchQuality":{"Country":1.0,"State":1.0,"County":1.0,"City":1.0,"District":1.0,"Street":[1.0],"HouseNumber":1.0,"PostalCode":1.0},"MatchType":"interpolated","Location":{"LocationId":"NT_aiYbuanUA6F4bXv9vRVDzA_xA","LocationType":"point","DisplayPosition":{"Latitude":48.71871,"Longitude":11.22437},"MapView":{"TopLeft":{"Latitude":48.7198342,"Longitude":11.2226661},"BottomRight":{"Latitude":48.7175858,"Longitude":11.2260739}},"Address":{"Label":"Am Eichet 1, 86633 Neuburg an der Donau, Deutschland","Country":"DEU","State":"Bayern","County":"Neuburg-Schrobenhausen","City":"Neuburg an der Donau","District":"Rödenhof","Street":"Am Eichet","HouseNumber":"1","PostalCode":"86633","AdditionalData":[{"value":"Deutschland","key":"CountryName"},{"value":"Bayern","key":"StateName"},{"value":"Neuburg-Schrobenhausen","key":"CountyName"}]},"MapReference":{"ReferenceId":"545242336","Spot":0.31,"SideOfStreet":"left","CountryId":"20147700","StateId":"20177250","CountyId":"20178764","CityId":"20178809","DistrictId":"20178816","AddressId":"183106013","RoadLinkId":"32895170"}}},{"Relevance":1.0,"Distance":57.5,"MatchLevel":"street","MatchQuality":{"Country":1.0,"State":1.0,"County":1.0,"City":1.0,"District":1.0,"Street":[1.0],"PostalCode":1.0},"Location":{"LocationId":"NT_GtQ5gasLirkHQzmQ9gRQ9B_l_1069908654_R","LocationType":"point","DisplayPosition":{"Latitude":48.71857,"Longitude":11.22313},"MapView":{"TopLeft":{"Latitude":48.71872,"Longitude":11.22265},"BottomRight":{"Latitude":48.71857,"Longitude":11.22313}},"Address":{"Label":"B16, 86633 Neuburg an der Donau, Deutschland","Country":"DEU","State":"Bayern","County":"Neuburg-Schrobenhausen","City":"Neuburg an der Donau","District":"Rödenhof","Street":"B16","PostalCode":"86633","AdditionalData":[{"value":"Deutschland","key":"CountryName"},{"value":"Bayern","key":"StateName"},{"value":"Neuburg-Schrobenhausen","key":"CountyName"}]},"MapReference":{"ReferenceId":"1069908654","Spot":0.0,"SideOfStreet":"right","CountryId":"20147700","StateId":"20177250","CountyId":"20178764","CityId":"20178809","DistrictId":"20178816"}}},{"Relevance":1.0,"Distance":59.1,"MatchLevel":"street","MatchQuality":{"Country":1.0,"State":1.0,"County":1.0,"City":1.0,"District":1.0,"Street":[1.0],"PostalCode":1.0},"Location":{"LocationId":"NT_GtQ5gasLirkHQzmQ9gRQ9B_l_1069908653_R","LocationType":"point","DisplayPosition":{"Latitude":48.7184931,"Longitude":11.2233653},"MapView":{"TopLeft":{"Latitude":48.71857,"Longitude":11.22313},"BottomRight":{"Latitude":48.7184,"Longitude":11.22365}},"Address":{"Label":"B16, 86633 Neuburg an der Donau, Deutschland","Country":"DEU","State":"Bayern","County":"Neuburg-Schrobenhausen","City":"Neuburg an der Donau","District":"Rödenhof","Street":"B16","PostalCode":"86633","AdditionalData":[{"value":"Deutschland","key":"CountryName"},{"value":"Bayern","key":"StateName"},{"value":"Neuburg-Schrobenhausen","key":"CountyName"}]},"MapReference":{"ReferenceId":"1069908653","Spot":0.55,"SideOfStreet":"right","CountryId":"20147700","StateId":"20177250","CountyId":"20178764","CityId":"20178809","DistrictId":"20178816"}}},{"Relevance":1.0,"Distance":68.7,"MatchLevel":"street","MatchQuality":{"Country":1.0,"State":1.0,"County":1.0,"City":1.0,"District":1.0,"Street":[1.0],"PostalCode":1.0},"Location":{"LocationId":"NT_GtQ5gasLirkHQzmQ9gRQ9B_l_1069908651_R","LocationType":"point","DisplayPosition":{"Latitude":48.7184,"Longitude":11.22365},"MapView":{"TopLeft":{"Latitude":48.7184,"Longitude":11.22365},"BottomRight":{"Latitude":48.71826,"Longitude":11.2241}},"Address":{"Label":"B16, 86633 Neuburg an der Donau, Deutschland","Country":"DEU","State":"Bayern","County":"Neuburg-Schrobenhausen","City":"Neuburg an der Donau","District":"Rödenhof","Street":"B16","PostalCode":"86633","AdditionalData":[{"value":"Deutschland","key":"CountryName"},{"value":"Bayern","key":"StateName"},{"value":"Neuburg-Schrobenhausen","key":"CountyName"}]},"MapReference":{"ReferenceId":"1069908651","Spot":1.0,"SideOfStreet":"right","CountryId":"20147700","StateId":"20177250","CountyId":"20178764","CityId":"20178809","DistrictId":"20178816"}}},{"Relevance":1.0,"Distance":69.2,"MatchLevel":"houseNumber","MatchQuality":{"Country":1.0,"State":1.0,"County":1.0,"City":1.0,"District":1.0,"Street":[1.0],"HouseNumber":1.0,"PostalCode":1.0},"MatchType":"interpolated","Location":{"LocationId":"NT_aiYbuanUA6F4bXv9vRVDzA_1A","LocationType":"point","DisplayPosition":{"Latitude":48.71976,"Longitude":11.22322},"MapView":{"TopLeft":{"Latitude":48.7208842,"Longitude":11.2215161},"BottomRight":{"Latitude":48.7186358,"Longitude":11.2249239}},"Address":{"Label":"Am Eichet 5, 86633 Neuburg an der Donau, Deutschland","Country":"DEU","State":"Bayern","County":"Neuburg-Schrobenhausen","City":"Neuburg an der Donau","District":"Rödenhof","Street":"Am Eichet","HouseNumber":"5","PostalCode":"86633","AdditionalData":[{"value":"Deutschland","key":"CountryName"},{"value":"Bayern","key":"StateName"},{"value":"Neuburg-Schrobenhausen","key":"CountyName"}]},"MapReference":{"ReferenceId":"79583689","Spot":0.36,"SideOfStreet":"left","CountryId":"20147700","StateId":"20177250","CountyId":"20178764","CityId":"20178809","DistrictId":"20178816","AddressId":"184987744","RoadLinkId":"32553574"}}},{"Relevance":1.0,"Distance":70.2,"MatchLevel":"street","MatchQuality":{"Country":1.0,"State":1.0,"County":1.0,"City":1.0,"PostalCode":1.0},"Location":{"LocationId":"NT_TKyx7benBPj8F-gJUblZjB_l_79583701_R","LocationType":"point","DisplayPosition":{"Latitude":48.7183954,"Longitude":11.2233326},"MapView":{"TopLeft":{"Latitude":48.71901,"Longitude":11.22146},"BottomRight":{"Latitude":48.71816,"Longitude":11.22405}},"Address":{"Label":"86633 Neuburg an der Donau, Deutschland","Country":"DEU","State":"Bayern","County":"Neuburg-Schrobenhausen","City":"Neuburg an der Donau","PostalCode":"86633","AdditionalData":[{"value":"Deutschland","key":"CountryName"},{"value":"Bayern","key":"StateName"},{"value":"Neuburg-Schrobenhausen","key":"CountyName"}]},"MapReference":{"ReferenceId":"79583701","Spot":0.28,"SideOfStreet":"right","CountryId":"20147700","StateId":"20177250","CountyId":"20178764","CityId":"20178809"}}},{"Relevance":1.0,"Distance":72.6,"MatchLevel":"street","MatchQuality":{"Country":1.0,"State":1.0,"County":1.0,"City":1.0,"District":1.0,"Street":[1.0],"PostalCode":1.0},"Location":{"LocationId":"NT_GtQ5gasLirkHQzmQ9gRQ9B_l_1070146284_R","LocationType":"point","DisplayPosition":{"Latitude":48.71872,"Longitude":11.22265},"MapView":{"TopLeft":{"Latitude":48.71924,"Longitude":11.22107},"BottomRight":{"Latitude":48.71872,"Longitude":11.22265}},"Address":{"Label":"B16, 86633 Neuburg an der Donau, Deutschland","Country":"DEU","State":"Bayern","County":"Neuburg-Schrobenhausen","City":"Neuburg an der Donau","District":"Rödenhof","Street":"B16","PostalCode":"86633","AdditionalData":[{"value":"Deutschland","key":"CountryName"},{"value":"Bayern","key":"StateName"},{"value":"Neuburg-Schrobenhausen","key":"CountyName"}]},"MapReference":{"ReferenceId":"1070146284","Spot":0.0,"SideOfStreet":"right","CountryId":"20147700","StateId":"20177250","CountyId":"20178764","CityId":"20178809","DistrictId":"20178816"}}},{"Relevance":1.0,"Distance":78.9,"MatchLevel":"street","MatchQuality":{"Country":1.0,"State":1.0,"County":1.0,"City":1.0,"District":1.0,"Street":[1.0],"PostalCode":1.0},"Location":{"LocationId":"NT_aiYbuanUA6F4bXv9vRVDzA_l_545242337_L","LocationType":"point","DisplayPosition":{"Latitude":48.71846,"Longitude":11.22421},"MapView":{"TopLeft":{"Latitude":48.71846,"Longitude":11.2241},"BottomRight":{"Latitude":48.71826,"Longitude":11.22421}},"Address":{"Label":"Am Eichet, 86633 Neuburg an der Donau, Deutschland","Country":"DEU","State":"Bayern","County":"Neuburg-Schrobenhausen","City":"Neuburg an der Donau","District":"Rödenhof","Street":"Am Eichet","PostalCode":"86633","AdditionalData":[{"value":"Deutschland","key":"CountryName"},{"value":"Bayern","key":"StateName"},{"value":"Neuburg-Schrobenhausen","key":"CountyName"}]},"MapReference":{"ReferenceId":"545242337","Spot":1.0,"SideOfStreet":"left","CountryId":"20147700","StateId":"20177250","CountyId":"20178764","CityId":"20178809","DistrictId":"20178816"}}}]}]}}