{"Response":{"MetaInfo":{"Timestamp":"2020-03-28T11:37:07.548+0000","NextPageInformation":"2"},"View":[{"_type":"SearchResultsViewType","ViewId":0,"Result":[{"Relevance":1.0,"Distance":-7.5,"MatchLevel":"landmark","MatchQuality":{"Country":1.0,"State":1.0,"County":1.0,"City":1.0,"District":1.0,"PostalCode":1.0,"Name":1.0},"Location":{"LocationId":"NT_NylDRjzZOy2EU8wHJanIVD","LocationType":"hospital","Name":"Univ. Nemoc. L. Pasteura","DisplayPosition":{"Latitude":48.7073,"Longitude":21.2551},"MapView":{"TopLeft":{"Latitude":48.70981,"Longitude":21.25158},"BottomRight":{"Latitude":48.70478,"Longitude":21.25849}},"Address":{"Label":"040 01 Košice, Slovenská Republika","Country":"SVK","State":"Košický kraj","County":"Košice","City":"Košice","District":"Košice IV","PostalCode":"040 01","AdditionalData":[{"value":"Slovenská Republika","key":"CountryName"},{"value":"Košický kraj","key":"StateName"},{"value":"Košice","key":"CountyName"}]},"MapReference":{"CountryId":"20428682","StateId":"20488628","CountyId":"20488897","CityId":"20488898","DistrictId":"20488902","PlaceId":"557057014"}}},{"Relevance":1.0,"Distance":0.0,"Direction":0.0,"MatchLevel":"district","MatchQuality":{"Country":1.0,"State":1.0,"County":1.0,"City":1.0,"District":1.0,"PostalCode":1.0},"Location":{"LocationId":"NT_PtWKDRAv.wjgE.4bywvPFD","LocationType":"point","DisplayPosition":{"Latitude":48.7092102,"Longitude":21.2538699},"MapView":{"TopLeft":{"Latitude":48.72658,"Longitude":21.21607},"BottomRight":{"Latitude":48.64502,"Longitude":21.35628}},"Address":{"Label":"Košice IV, Košice, Košický kraj, Slovenská Republika","Country":"SVK","State":"Košický kraj","County":"Košice","City":"Košice","District":"Košice IV","PostalCode":"040 01","AdditionalData":[{"value":"Slovenská Republika","key":"CountryName"},{"value":"Košický kraj","key":"StateName"},{"value":"Košice","key":"CountyName"}]},"MapReference":{"ReferenceId":"851500246","SideOfStreet":"neither","CountryId":"20428682","StateId":"20488628","CountyId":"20488897","CityId":"20488898","DistrictId":"20488902"}}},{"Relevance":1.0,"Distance":5.6,"MatchLevel":"houseNumber","MatchQuality":{"Country":1.0,"State":1.0,"County":1.0,"City":1.0,"District":1.0,"Street":[1.0],"HouseNumber":1.0,"PostalCode":1.0},"MatchType":"interpolated","Location":{"LocationId":"NT_M0-GaWSMAOEjhBmL9omesA_0IDN","LocationType":"point","DisplayPosition":{"Latitude":48.70923,"Longitude":21.25373},"MapView":{"TopLeft":{"Latitude":48.7103542,"Longitude":21.2520264},"BottomRight":{"Latitude":48.7081058,"Longitude":21.2554336}},"Address":{"Label":"Pri Nemocnici 424, 040 01 Košice, Slovenská Republika","Country":"SVK","State":"Košický kraj","County":"Košice","City":"Košice","District":"Košice IV","Street":"Pri Nemocnici","HouseNumber":"424","PostalCode":"040 01","AdditionalData":[{"value":"Slovenská Republika","key":"CountryName"},{"value":"Košický kraj","key":"StateName"},{"value":"Košice","key":"CountyName"}]},"MapReference":{"ReferenceId":"786667390","Spot":0.96,"SideOfStreet":"right","CountryId":"20428682","StateId":"20488628","CountyId":"20488897","CityId":"20488898","DistrictId":"20488902","AddressId":"589709388","RoadLinkId":"179294392"}}},{"Relevance":1.0,"Distance":9.8,"MatchLevel":"street","MatchQuality":{"Country":1.0,"State":1.0,"County":1.0,"City":1.0,"District":1.0,"Street":[1.0],"PostalCode":1.0},"Location":{"LocationId":"NT_M0-GaWSMAOEjhBmL9omesA_l_786667393_R","LocationType":"point","DisplayPosition":{"Latitude":48.70926,"Longitude":21.25376},"MapView":{"TopLeft":{"Latitude":48.70964,"Longitude":21.25361},"BottomRight":{"Latitude":48.70926,"Longitude":21.25377}},"Address":{"Label":"Pri Nemocnici, 040 01 Košice, Slovenská Republika","Country":"SVK","State":"Košický kraj","County":"Košice","City":"Košice","District":"Košice IV","Street":"Pri Nemocnici","PostalCode":"040 01","AdditionalData":[{"value":"Slovenská Republika","key":"CountryName"},{"value":"Košický kraj","key":"StateName"},{"value":"Košice","key":"CountyName"}]},"MapReference":{"ReferenceId":"786667393","Spot":0.0,"SideOfStreet":"right","CountryId":"20428682","StateId":"20488628","CountyId":"20488897","CityId":"20488898","DistrictId":"20488902"}}},{"Relevance":1.0,"Distance":37.6,"MatchLevel":"houseNumber","MatchQuality":{"Country":1.0,"State":1.0,"County":1.0,"City":1.0,"District":1.0,"Street":[1.0],"HouseNumber":1.0,"PostalCode":1.0},"MatchType":"interpolated","Location":{"LocationId":"NT_M0-GaWSMAOEjhBmL9omesA_0kDOvEDM","LocationType":"point","DisplayPosition":{"Latitude":48.70942,"Longitude":21.25345},"MapView":{"TopLeft":{"Latitude":48.7105442,"Longitude":21.2517464},"BottomRight":{"Latitude":48.7082958,"Longitude":21.2551536}},"Address":{"Label":"Pri Nemocnici 498/10, 040 01 Košice, Slovenská Republika","Country":"SVK","State":"Košický kraj","County":"Košice","City":"Košice","District":"Košice IV","Street":"Pri Nemocnici","HouseNumber":"498/10","PostalCode":"040 01","AdditionalData":[{"value":"Slovenská Republika","key":"CountryName"},{"value":"Košický kraj","key":"StateName"},{"value":"Košice","key":"CountyName"}]},"MapReference":{"ReferenceId":"786667398","Spot":0.15,"SideOfStreet":"right","CountryId":"20428682","StateId":"20488628","CountyId":"20488897","CityId":"20488898","DistrictId":"20488902","AddressId":"300205310","RoadLinkId":"179294401"}}},{"Relevance":1.0,"Distance":53.0,"MatchLevel":"houseNumber","MatchQuality":{"Country":1.0,"State":1.0,"County":1.0,"City":1.0,"District":1.0,"Street":[1.0],"HouseNumber":1.0,"PostalCode":1.0},"MatchType":"interpolated","Location":{"LocationId":"NT_M0-GaWSMAOEjhBmL9omesA_0kTOvETM","LocationType":"point","DisplayPosition":{"Latitude":48.70962,"Longitude":21.2535},"MapView":{"TopLeft":{"Latitude":48.7107442,"Longitude":21.2517964},"BottomRight":{"Latitude":48.7084958,"Longitude":21.2552036}},"Address":{"Label":"Pri Nemocnici 499/11, 040 01 Košice, Slovenská Republika","Country":"SVK","State":"Košický kraj","County":"Košice","City":"Košice","District":"Košice IV","Street":"Pri Nemocnici","HouseNumber":"499/11","PostalCode":"040 01","AdditionalData":[{"value":"Slovenská Republika","key":"CountryName"},{"value":"Košický kraj","key":"StateName"},{"value":"Košice","key":"CountyName"}]},"MapReference":{"ReferenceId":"786667394","Spot":0.53,"SideOfStreet":"left","CountryId":"20428682","StateId":"20488628","CountyId":"20488897","CityId":"20488898","DistrictId":"20488902","AddressId":"299984575","RoadLinkId":"179294400"}}},{"Relevance":1.0,"Distance":54.3,"MatchLevel":"houseNumber","MatchQuality":{"Country":1.0,"State":1.0,"County":1.0,"City":1.0,"District":1.0,"Street":[1.0],"HouseNumber":1.0,"PostalCode":1.0},"MatchType":"interpolated","Location":{"LocationId":"NT_M0-GaWSMAOEjhBmL9omesA_0kDOvcD","LocationType":"point","DisplayPosition":{"Latitude":48.70932,"Longitude":21.25309},"MapView":{"TopLeft":{"Latitude":48.7104442,"Longitude":21.2513864},"BottomRight":{"Latitude":48.7081958,"Longitude":21.2547936}},"Address":{"Label":"Pri Nemocnici 498/7, 040 01 Košice, Slovenská Republika","Country":"SVK","State":"Košický kraj","County":"Košice","City":"Košice","District":"Košice IV","Street":"Pri Nemocnici","HouseNumber":"498/7","PostalCode":"040 01","AdditionalData":[{"value":"Slovenská Republika","key":"CountryName"},{"value":"Košický kraj","key":"StateName"},{"value":"Košice","key":"CountyName"}]},"MapReference":{"ReferenceId":"786667399","Spot":0.36,"SideOfStreet":"right","CountryId":"20428682","StateId":"20488628","CountyId":"20488897","CityId":"20488898","DistrictId":"20488902","AddressId":"299784670","RoadLinkId":"179294399"}}},{"Relevance":1.0,"Distance":55.5,"MatchLevel":"street","MatchQuality":{"Country":1.0,"State":1.0,"County":1.0,"City":1.0,"District":1.0,"Street":[1.0],"PostalCode":1.0},"Location":{"LocationId":"NT_M0-GaWSMAOEjhBmL9omesA_l_786667396_R","LocationType":"point","DisplayPosition":{"Latitude":48.70959,"Longitude":21.25338},"MapView":{"TopLeft":{"Latitude":48.70984,"Longitude":21.25323},"BottomRight":{"Latitude":48.70959,"Longitude":21.25338}},"Address":{"Label":"Pri Nemocnici, 040 01 Košice, Slovenská Republika","Country":"SVK","State":"Košický kraj","County":"Košice","City":"Košice","District":"Košice IV","Street":"Pri Nemocnici","PostalCode":"040 01","AdditionalData":[{"value":"Slovenská Republika","key":"CountryName"},{"value":"Košický kraj","key":"StateName"},{"value":"Košice","key":"CountyName"}]},"MapReference":{"ReferenceId":"786667396","Spot":0.0,"SideOfStreet":"right","CountryId":"20428682","StateId":"20488628","CountyId":"20488897","CityId":"20488898","DistrictId":"20488902"}}},{"Relevance":1.0,"Distance":73.0,"MatchLevel":"street","MatchQuality":{"Country":1.0,"State":1.0,"County":1.0,"City":1.0,"District":1.0,"Street":[1.0],"PostalCode":1.0},"Location":{"LocationId":"NT_M0-GaWSMAOEjhBmL9omesA_l_786667400_R","LocationType":"point","DisplayPosition":{"Latitude":48.70928,"Longitude":21.25288},"MapView":{"TopLeft":{"Latitude":48.70948,"Longitude":21.25281},"BottomRight":{"Latitude":48.70928,"Longitude":21.25288}},"Address":{"Label":"Pri Nemocnici, 040 01 Košice, Slovenská Republika","Country":"SVK","State":"Košický kraj","County":"Košice","City":"Košice","District":"Košice IV","Street":"Pri Nemocnici","PostalCode":"040 01","AdditionalData":[{"value":"Slovenská Republika","key":"CountryName"},{"value":"Košický kraj","key":"StateName"},{"value":"Košice","key":"CountyName"}]},"MapReference":{"ReferenceId":"786667400","Spot":0.0,"SideOfStreet":"right","CountryId":"20428682","StateId":"20488628","CountyId":"20488897","CityId":"20488898","DistrictId":"20488902"}}},{"Relevance":1.0,"Distance":79.0,"MatchLevel":"houseNumber","MatchQuality":{"Country":1.0,"State":1.0,"County":1.0,"City":1.0,"District":1.0,"Street":[1.0],"HouseNumber":1.0,"PostalCode":1.0},"MatchType":"interpolated","Location":{"LocationId":"NT_M0-GaWSMAOEjhBmL9omesA_0kTOvEjM","LocationType":"point","DisplayPosition":{"Latitude":48.70988,"Longitude":21.25351},"MapView":{"TopLeft":{"Latitude":48.7110042,"Longitude":21.2518064},"BottomRight":{"Latitude":48.7087558,"Longitude":21.2552136}},"Address":{"Label":"Pri Nemocnici 499/12, 040 01 Košice, Slovenská Republika","Country":"SVK","State":"Košický kraj","County":"Košice","City":"Košice","District":"Košice IV","Street":"Pri Nemocnici","HouseNumber":"499/12","PostalCode":"040 01","AdditionalData":[{"value":"Slovenská Republika","key":"CountryName"},{"value":"Košický kraj","key":"StateName"},{"value":"Košice","key":"CountyName"}]},"MapReference":{"ReferenceId":"786667401","Spot":0.92,"SideOfStreet":"left","CountryId":"20428682","StateId":"20488628","CountyId":"20488897","CityId":"20488898","DistrictId":"20488902","AddressId":"299833627","RoadLinkId":"179294403"}}}]}]}}