{"Response":{"MetaInfo":{"Timestamp":"2020-03-28T11:47:23.180+0000","NextPageInformation":"2"},"View":[{"_type":"SearchResultsViewType","ViewId":0,"Result":[{"Relevance":1.0,"Distance":0.0,"Direction":0.0,"MatchLevel":"city","MatchQuality":{"Country":1.0,"State":1.0,"County":1.0,"City":1.0,"PostalCode":1.0},"Location":{"LocationId":"NT_vWWq.s8VJvxBZ3G3u9jxbC","LocationType":"point","DisplayPosition":{"Latitude":48.7718765,"Longitude":2.4008234},"MapView":{"TopLeft":{"Latitude":48.77718,"Longitude":2.39795},"BottomRight":{"Latitude":48.74978,"Longitude":2.44251}},"Address":{"Label":"Choisy-le-Roi, Île-de-France, France","Country":"FRA","State":"Île-de-France","County":"Val-de-Marne","City":"Choisy-le-Roi","PostalCode":"94600","AdditionalData":[{"value":"France","key":"CountryName"},{"value":"Île-de-France","key":"StateName"},{"value":"Val-de-Marne","key":"CountyName"}]},"MapReference":{"ReferenceId":"56211695","SideOfStreet":"neither","CountryId":"20000001","StateId":"20002126","CountyId":"20005328","CityId":"20005362"}}},{"Relevance":1.0,"Distance":5.4,"MatchLevel":"houseNumber","MatchQuality":{"Country":1.0,"State":1.0,"County":1.0,"City":1.0,"Street":[1.0],"HouseNumber":1.0,"PostalCode":1.0},"MatchType":"interpolated","Location":{"LocationId":"NT_I8.FeQH8RKrnQPiSLJYzPB_3ID","LocationType":"point","DisplayPosition":{"Latitude":48.77188,"Longitude":2.40066},"MapView":{"TopLeft":{"Latitude":48.7730042,"Longitude":2.3989543},"BottomRight":{"Latitude":48.7707558,"Longitude":2.4023657}},"Address":{"Label":"72 Boulevard de Stalingrad, 94600 Choisy-le-Roi, France","Country":"FRA","State":"Île-de-France","County":"Val-de-Marne","City":"Choisy-le-Roi","Street":"Boulevard de Stalingrad","HouseNumber":"72","PostalCode":"94600","AdditionalData":[{"value":"France","key":"CountryName"},{"value":"Île-de-France","key":"StateName"},{"value":"Val-de-Marne","key":"CountyName"}]},"MapReference":{"ReferenceId":"56230165","Spot":0.73,"SideOfStreet":"right","CountryId":"20000001","StateId":"20002126","CountyId":"20005328","CityId":"20005362","AddressId":"301418507","RoadLinkId":"43717286"}}},{"Relevance":1.0,"Distance":18.0,"MatchLevel":"houseNumber","MatchQuality":{"Country":1.0,"State":1.0,"County":1.0,"City":1.0,"Street":[1.0],"HouseNumber":1.0,"PostalCode":1.0},"MatchType":"interpolated","Location":{"LocationId":"NT_0XkjuFWdd5AoYTozikn85D_yMD","LocationType":"point","DisplayPosition":{"Latitude":48.77205,"Longitude":2.40089},"MapView":{"TopLeft":{"Latitude":48.7731742,"Longitude":2.3991843},"BottomRight":{"Latitude":48.7709258,"Longitude":2.4025957}},"Address":{"Label":"23 Passage Bertrand, 94600 Choisy-le-Roi, France","Country":"FRA","State":"Île-de-France","County":"Val-de-Marne","City":"Choisy-le-Roi","Street":"Passage Bertrand","HouseNumber":"23","PostalCode":"94600","AdditionalData":[{"value":"France","key":"CountryName"},{"value":"Île-de-France","key":"StateName"},{"value":"Val-de-Marne","key":"CountyName"}]},"MapReference":{"ReferenceId":"56209668","Spot":0.16,"SideOfStreet":"right","CountryId":"20000001","StateId":"20002126","CountyId":"20005328","CityId":"20005362","AddressId":"301279762","RoadLinkId":"43515633"}}},{"Relevance":1.0,"Distance":19.8,"MatchLevel":"houseNumber","MatchQuality":{"Country":1.0,"State":1.0,"County":1.0,"City":1.0,"Street":[1.0],"HouseNumber":1.0,"PostalCode":1.0},"MatchType":"interpolated","Location":{"LocationId":"NT_EzZqhrR1kJjNNsChw4MYdC_2ED","LocationType":"point","DisplayPosition":{"Latitude":48.77173,"Longitude":2.40067},"MapView":{"TopLeft":{"Latitude":48.7728542,"Longitude":2.3989643},"BottomRight":{"Latitude":48.7706058,"Longitude":2.4023757}},"Address":{"Label":"61 Boulevard de Stalingrad, 94320 Thiais, France","Country":"FRA","State":"Île-de-France","County":"Val-de-Marne","City":"Thiais","Street":"Boulevard de Stalingrad","HouseNumber":"61","PostalCode":"94320","AdditionalData":[{"value":"France","key":"CountryName"},{"value":"Île-de-France","key":"StateName"},{"value":"Val-de-Marne","key":"CountyName"}]},"MapReference":{"ReferenceId":"64911056","Spot":0.5,"SideOfStreet":"left","CountryId":"20000001","StateId":"20002126","CountyId":"20005328","CityId":"20005443","AddressId":"381201068","RoadLinkId":"43611213"}}},{"Relevance":1.0,"Distance":24.7,"MatchLevel":"houseNumber","MatchQuality":{"Country":1.0,"State":1.0,"County":1.0,"City":1.0,"Street":[1.0],"HouseNumber":1.0,"PostalCode":1.0},"MatchType":"interpolated","Location":{"LocationId":"NT_EzZqhrR1kJjNNsChw4MYdC_2cD","LocationType":"point","DisplayPosition":{"Latitude":48.77191,"Longitude":2.40049},"MapView":{"TopLeft":{"Latitude":48.7730342,"Longitude":2.3987843},"BottomRight":{"Latitude":48.7707858,"Longitude":2.4021957}},"Address":{"Label":"67 Boulevard de Stalingrad, 94320 Thiais, France","Country":"FRA","State":"Île-de-France","County":"Val-de-Marne","City":"Thiais","Street":"Boulevard de Stalingrad","HouseNumber":"67","PostalCode":"94320","AdditionalData":[{"value":"France","key":"CountryName"},{"value":"Île-de-France","key":"StateName"},{"value":"Val-de-Marne","key":"CountyName"}]},"MapReference":{"ReferenceId":"64911057","Spot":0.06,"SideOfStreet":"left","CountryId":"20000001","StateId":"20002126","CountyId":"20005328","CityId":"20005443","AddressId":"383316903","RoadLinkId":"43602166"}}},{"Relevance":1.0,"Distance":33.2,"MatchLevel":"houseNumber","MatchQuality":{"Country":1.0,"State":1.0,"County":1.0,"City":1.0,"Street":[1.0],"HouseNumber":1.0,"PostalCode":1.0},"MatchType":"interpolated","Location":{"LocationId":"NT_I8.FeQH8RKrnQPiSLJYzPB_3YD","LocationType":"point","DisplayPosition":{"Latitude":48.7721,"Longitude":2.4005},"MapView":{"TopLeft":{"Latitude":48.7732242,"Longitude":2.3987943},"BottomRight":{"Latitude":48.7709758,"Longitude":2.4022057}},"Address":{"Label":"76 Boulevard de Stalingrad, 94600 Choisy-le-Roi, France","Country":"FRA","State":"Île-de-France","County":"Val-de-Marne","City":"Choisy-le-Roi","Street":"Boulevard de Stalingrad","HouseNumber":"76","PostalCode":"94600","AdditionalData":[{"value":"France","key":"CountryName"},{"value":"Île-de-France","key":"StateName"},{"value":"Val-de-Marne","key":"CountyName"}]},"MapReference":{"ReferenceId":"1220578344","Spot":0.47,"SideOfStreet":"right","CountryId":"20000001","StateId":"20002126","CountyId":"20005328","CityId":"20005362","AddressId":"301311439","RoadLinkId":"537751720"}}},{"Relevance":1.0,"Distance":37.5,"MatchLevel":"houseNumber","MatchQuality":{"Country":1.0,"State":1.0,"County":1.0,"City":1.0,"Street":[1.0],"HouseNumber":1.0,"PostalCode":1.0},"MatchType":"interpolated","Location":{"LocationId":"NT_I8.FeQH8RKrnQPiSLJYzPB_2QD","LocationType":"point","DisplayPosition":{"Latitude":48.77154,"Longitude":2.40086},"MapView":{"TopLeft":{"Latitude":48.7726642,"Longitude":2.3991543},"BottomRight":{"Latitude":48.7704158,"Longitude":2.4025657}},"Address":{"Label":"64 Boulevard de Stalingrad, 94600 Choisy-le-Roi, France","Country":"FRA","State":"Île-de-France","County":"Val-de-Marne","City":"Choisy-le-Roi","Street":"Boulevard de Stalingrad","HouseNumber":"64","PostalCode":"94600","AdditionalData":[{"value":"France","key":"CountryName"},{"value":"Île-de-France","key":"StateName"},{"value":"Val-de-Marne","key":"CountyName"}]},"MapReference":{"ReferenceId":"56462622","Spot":0.9,"SideOfStreet":"right","CountryId":"20000001","StateId":"20002126","CountyId":"20005328","CityId":"20005362","AddressId":"301391937","RoadLinkId":"43372950"}}},{"Relevance":1.0,"Distance":55.1,"MatchLevel":"houseNumber","MatchQuality":{"Country":1.0,"State":1.0,"County":1.0,"City":1.0,"Street":[1.0],"HouseNumber":1.0,"PostalCode":1.0},"MatchType":"interpolated","Location":{"LocationId":"NT_I8.FeQH8RKrnQPiSLJYzPB_4AD","LocationType":"point","DisplayPosition":{"Latitude":48.77229,"Longitude":2.40038},"MapView":{"TopLeft":{"Latitude":48.7734142,"Longitude":2.3986743},"BottomRight":{"Latitude":48.7711658,"Longitude":2.4020857}},"Address":{"Label":"80 Boulevard de Stalingrad, 94600 Choisy-le-Roi, France","Country":"FRA","State":"Île-de-France","County":"Val-de-Marne","City":"Choisy-le-Roi","Street":"Boulevard de Stalingrad","HouseNumber":"80","PostalCode":"94600","AdditionalData":[{"value":"France","key":"CountryName"},{"value":"Île-de-France","key":"StateName"},{"value":"Val-de-Marne","key":"CountyName"}]},"MapReference":{"ReferenceId":"1220578345","Spot":0.16,"SideOfStreet":"right","CountryId":"20000001","StateId":"20002126","CountyId":"20005328","CityId":"20005362","AddressId":"301311437","RoadLinkId":"537751721"}}},{"Relevance":1.0,"Distance":85.3,"MatchLevel":"houseNumber","MatchQuality":{"Country":1.0,"State":1.0,"County":1.0,"City":1.0,"Street":[1.0],"HouseNumber":1.0,"PostalCode":1.0},"MatchType":"interpolated","Location":{"LocationId":"NT_9-erkKH84.PxoFe-luQ0KA_l_56227746_L_0QD","LocationType":"point","DisplayPosition":{"Latitude":48.7712386,"Longitude":2.3999824},"MapView":{"TopLeft":{"Latitude":48.7723628,"Longitude":2.3982767},"BottomRight":{"Latitude":48.7701145,"Longitude":2.401688}},"Address":{"Label":"44 Villa des Aubépines, 94320 Thiais, France","Country":"FRA","State":"Île-de-France","County":"Val-de-Marne","City":"Thiais","Street":"Villa des Aubépines","HouseNumber":"44","PostalCode":"94320","AdditionalData":[{"value":"France","key":"CountryName"},{"value":"Île-de-France","key":"StateName"},{"value":"Val-de-Marne","key":"CountyName"}]},"MapReference":{"ReferenceId":"56227746","Spot":0.73,"SideOfStreet":"left","CountryId":"20000001","StateId":"20002126","CountyId":"20005328","CityId":"20005443"}}},{"Relevance":1.0,"Distance":86.8,"MatchLevel":"street","MatchQuality":{"Country":1.0,"State":1.0,"County":1.0,"City":1.0,"PostalCode":1.0},"Location":{"LocationId":"NT_cibW7MAXBiUONSVx1qtp8C_l_56209537_R","LocationType":"point","DisplayPosition":{"Latitude":48.77254,"Longitude":2.4002},"MapView":{"TopLeft":{"Latitude":48.77254,"Longitude":2.39988},"BottomRight":{"Latitude":48.7724,"Longitude":2.4002}},"Address":{"Label":"94320 Thiais, France","Country":"FRA","State":"Île-de-France","County":"Val-de-Marne","City":"Thiais","PostalCode":"94320","AdditionalData":[{"value":"France","key":"CountryName"},{"value":"Île-de-France","key":"StateName"},{"value":"Val-de-Marne","key":"CountyName"}]},"MapReference":{"ReferenceId":"56209537","Spot":1.0,"SideOfStreet":"right","CountryId":"20000001","StateId":"20002126","CountyId":"20005328","CityId":"20005443"}}}]}]}}