{"Response":{"MetaInfo":{"Timestamp":"2020-03-28T10:31:26.646+0000","NextPageInformation":"2"},"View":[{"_type":"SearchResultsViewType","ViewId":0,"Result":[{"Relevance":1.0,"Distance":0.0,"Direction":0.0,"MatchLevel":"district","MatchQuality":{"Country":1.0,"State":1.0,"County":1.0,"City":1.0,"District":1.0,"PostalCode":1.0},"Location":{"LocationId":"NT_NDnFQgGBB8DR0msPcqmS1D","LocationType":"point","DisplayPosition":{"Latitude":48.7446315,"Longitude":-3.4528156},"MapView":{"TopLeft":{"Latitude":48.75893,"Longitude":-3.47182},"BottomRight":{"Latitude":48.73195,"Longitude":-3.4309}},"Address":{"Label":"Le Rest, Lannion, Bretagne, France","Country":"FRA","State":"Bretagne","County":"Côtes-d'Armor","City":"Lannion","District":"Le Rest","PostalCode":"22300","AdditionalData":[{"value":"France","key":"CountryName"},{"value":"Bretagne","key":"StateName"},{"value":"Côtes-d'Armor","key":"CountyName"}]},"MapReference":{"ReferenceId":"956404249","SideOfStreet":"neither","CountryId":"20000001","StateId":"20060199","CountyId":"20060200","CityId":"20060527"}}},{"Relevance":1.0,"Distance":21.7,"MatchLevel":"street","MatchQuality":{"Country":1.0,"State":1.0,"County":1.0,"City":1.0,"Street":[1.0],"PostalCode":1.0},"Location":{"LocationId":"NT_SrsFfG0yl4OJs7QHmpLKWB_l_1228823513_R","LocationType":"point","DisplayPosition":{"Latitude":48.7444583,"Longitude":-3.4529521},"MapView":{"TopLeft":{"Latitude":48.74463,"Longitude":-3.45317},"BottomRight":{"Latitude":48.74437,"Longitude":-3.45284}},"Address":{"Label":"Rue de Placenn Ar Guer, 22300 Lannion, France","Country":"FRA","State":"Bretagne","County":"Côtes-d'Armor","City":"Lannion","Street":"Rue de Placenn Ar Guer","PostalCode":"22300","AdditionalData":[{"value":"France","key":"CountryName"},{"value":"Bretagne","key":"StateName"},{"value":"Côtes-d'Armor","key":"CountyName"}]},"MapReference":{"ReferenceId":"1228823513","Spot":0.34,"SideOfStreet":"right","CountryId":"20000001","StateId":"20060199","CountyId":"20060200","CityId":"20060527"}}},{"Relevance":1.0,"Distance":29.1,"MatchLevel":"street","MatchQuality":{"Country":1.0,"State":1.0,"County":1.0,"City":1.0,"Street":[1.0],"PostalCode":1.0},"Location":{"LocationId":"NT_SrsFfG0yl4OJs7QHmpLKWB_l_1228823492_R","LocationType":"point","DisplayPosition":{"Latitude":48.74437,"Longitude":-3.45284},"MapView":{"TopLeft":{"Latitude":48.74437,"Longitude":-3.45284},"BottomRight":{"Latitude":48.7442,"Longitude":-3.45263}},"Address":{"Label":"Rue de Placenn Ar Guer, 22300 Lannion, France","Country":"FRA","State":"Bretagne","County":"Côtes-d'Armor","City":"Lannion","Street":"Rue de Placenn Ar Guer","PostalCode":"22300","AdditionalData":[{"value":"France","key":"CountryName"},{"value":"Bretagne","key":"StateName"},{"value":"Côtes-d'Armor","key":"CountyName"}]},"MapReference":{"ReferenceId":"1228823492","Spot":1.0,"SideOfStreet":"right","CountryId":"20000001","StateId":"20060199","CountyId":"20060200","CityId":"20060527"}}},{"Relevance":1.0,"Distance":29.1,"MatchLevel":"street","MatchQuality":{"Country":1.0,"State":1.0,"County":1.0,"City":1.0,"PostalCode":1.0},"Location":{"LocationId":"NT_juUp4nRK0-mmbjCEoc8LBD_l_76717611_R","LocationType":"point","DisplayPosition":{"Latitude":48.74437,"Longitude":-3.45284},"MapView":{"TopLeft":{"Latitude":48.74437,"Longitude":-3.45301},"BottomRight":{"Latitude":48.74402,"Longitude":-3.45284}},"Address":{"Label":"22300 Lannion, France","Country":"FRA","State":"Bretagne","County":"Côtes-d'Armor","City":"Lannion","PostalCode":"22300","AdditionalData":[{"value":"France","key":"CountryName"},{"value":"Bretagne","key":"StateName"},{"value":"Côtes-d'Armor","key":"CountyName"}]},"MapReference":{"ReferenceId":"76717611","Spot":1.0,"SideOfStreet":"right","CountryId":"20000001","StateId":"20060199","CountyId":"20060200","CityId":"20060527"}}},{"Relevance":1.0,"Distance":49.9,"MatchLevel":"street","MatchQuality":{"Country":1.0,"State":1.0,"County":1.0,"City":1.0,"Street":[1.0],"PostalCode":1.0},"Location":{"LocationId":"NT_SrsFfG0yl4OJs7QHmpLKWB_l_1228823491_R","LocationType":"point","DisplayPosition":{"Latitude":48.7442,"Longitude":-3.45263},"MapView":{"TopLeft":{"Latitude":48.7442,"Longitude":-3.45263},"BottomRight":{"Latitude":48.74403,"Longitude":-3.45243}},"Address":{"Label":"Rue de Placenn Ar Guer, 22300 Lannion, France","Country":"FRA","State":"Bretagne","County":"Côtes-d'Armor","City":"Lannion","Street":"Rue de Placenn Ar Guer","PostalCode":"22300","AdditionalData":[{"value":"France","key":"CountryName"},{"value":"Bretagne","key":"StateName"},{"value":"Côtes-d'Armor","key":"CountyName"}]},"MapReference":{"ReferenceId":"1228823491","Spot":1.0,"SideOfStreet":"right","CountryId":"20000001","StateId":"20060199","CountyId":"20060200","CityId":"20060527"}}},{"Relevance":1.0,"Distance":50.9,"MatchLevel":"houseNumber","MatchQuality":{"Country":1.0,"State":1.0,"County":1.0,"City":1.0,"Street":[1.0],"HouseNumber":1.0,"PostalCode":1.0},"MatchType":"interpolated","Location":{"LocationId":"NT_NqFaglDboCWkkrKUCI1QeA_xA","LocationType":"point","DisplayPosition":{"Latitude":48.74422,"Longitude":-3.4522},"MapView":{"TopLeft":{"Latitude":48.7453442,"Longitude":-3.4539048},"BottomRight":{"Latitude":48.7430958,"Longitude":-3.4504952}},"Address":{"Label":"1 Côte du Rest, 22300 Lannion, France","Country":"FRA","State":"Bretagne","County":"Côtes-d'Armor","City":"Lannion","Street":"Côte du Rest","HouseNumber":"1","PostalCode":"22300","AdditionalData":[{"value":"France","key":"CountryName"},{"value":"Bretagne","key":"StateName"},{"value":"Côtes-d'Armor","key":"CountyName"}]},"MapReference":{"ReferenceId":"1228823483","Spot":1.0,"SideOfStreet":"left","CountryId":"20000001","StateId":"20060199","CountyId":"20060200","CityId":"20060527","AddressId":"320389135","RoadLinkId":"547853256"}}},{"Relevance":1.0,"Distance":52.8,"MatchLevel":"houseNumber","MatchQuality":{"Country":1.0,"State":1.0,"County":1.0,"City":1.0,"Street":[1.0],"HouseNumber":1.0,"PostalCode":1.0},"MatchType":"interpolated","Location":{"LocationId":"NT_SrsFfG0yl4OJs7QHmpLKWB_2IE","LocationType":"point","DisplayPosition":{"Latitude":48.74486,"Longitude":-3.45346},"MapView":{"TopLeft":{"Latitude":48.7459842,"Longitude":-3.4551648},"BottomRight":{"Latitude":48.7437358,"Longitude":-3.4517552}},"Address":{"Label":"6B Rue de Placenn Ar Guer, 22300 Lannion, France","Country":"FRA","State":"Bretagne","County":"Côtes-d'Armor","City":"Lannion","Street":"Rue de Placenn Ar Guer","HouseNumber":"6B","PostalCode":"22300","AdditionalData":[{"value":"France","key":"CountryName"},{"value":"Bretagne","key":"StateName"},{"value":"Côtes-d'Armor","key":"CountyName"}]},"MapReference":{"ReferenceId":"1228823514","Spot":0.37,"SideOfStreet":"right","CountryId":"20000001","StateId":"20060199","CountyId":"20060200","CityId":"20060527","AddressId":"570411901","RoadLinkId":"547853291"}}},{"Relevance":1.0,"Distance":63.6,"MatchLevel":"houseNumber","MatchQuality":{"Country":1.0,"State":1.0,"County":1.0,"City":1.0,"Street":[1.0],"HouseNumber":1.0,"PostalCode":1.0},"MatchType":"interpolated","Location":{"LocationId":"NT_NqFaglDboCWkkrKUCI1QeA_4IE","LocationType":"point","DisplayPosition":{"Latitude":48.74454,"Longitude":-3.45196},"MapView":{"TopLeft":{"Latitude":48.7456642,"Longitude":-3.4536648},"BottomRight":{"Latitude":48.7434158,"Longitude":-3.4502552}},"Address":{"Label":"8B Côte du Rest, 22300 Lannion, France","Country":"FRA","State":"Bretagne","County":"Côtes-d'Armor","City":"Lannion","Street":"Côte du Rest","HouseNumber":"8B","PostalCode":"22300","AdditionalData":[{"value":"France","key":"CountryName"},{"value":"Bretagne","key":"StateName"},{"value":"Côtes-d'Armor","key":"CountyName"}]},"MapReference":{"ReferenceId":"1228823484","Spot":0.63,"SideOfStreet":"right","CountryId":"20000001","StateId":"20060199","CountyId":"20060200","CityId":"20060527","AddressId":"570386415","RoadLinkId":"547853257"}}},{"Relevance":1.0,"Distance":69.2,"MatchLevel":"houseNumber","MatchQuality":{"Country":1.0,"State":1.0,"County":1.0,"City":1.0,"Street":[1.0],"HouseNumber":1.0,"PostalCode":1.0},"MatchType":"interpolated","Location":{"LocationId":"NT_-8sL70HFXOls6It9Ykl2bC_yAD","LocationType":"point","DisplayPosition":{"Latitude":48.74401,"Longitude":-3.45278},"MapView":{"TopLeft":{"Latitude":48.7451342,"Longitude":-3.4544847},"BottomRight":{"Latitude":48.7428858,"Longitude":-3.4510753}},"Address":{"Label":"20 Route de Coat Quillin, 22300 Lannion, France","Country":"FRA","State":"Bretagne","County":"Côtes-d'Armor","City":"Lannion","Street":"Route de Coat Quillin","HouseNumber":"20","PostalCode":"22300","AdditionalData":[{"value":"France","key":"CountryName"},{"value":"Bretagne","key":"StateName"},{"value":"Côtes-d'Armor","key":"CountyName"}]},"MapReference":{"ReferenceId":"76717610","Spot":0.4,"SideOfStreet":"right","CountryId":"20000001","StateId":"20060199","CountyId":"20060200","CityId":"20060527","AddressId":"716404827","RoadLinkId":"47630778"}}},{"Relevance":1.0,"Distance":70.4,"MatchLevel":"houseNumber","MatchQuality":{"Country":1.0,"State":1.0,"County":1.0,"City":1.0,"Street":[1.0],"HouseNumber":1.0,"PostalCode":1.0},"MatchType":"interpolated","Location":{"LocationId":"NT_YuRYUU4cyjX8sMrsq1t7tD_xYD","LocationType":"point","DisplayPosition":{"Latitude":48.74525,"Longitude":-3.45241},"MapView":{"TopLeft":{"Latitude":48.7463742,"Longitude":-3.4541148},"BottomRight":{"Latitude":48.7441258,"Longitude":-3.4507052}},"Address":{"Label":"16 Impasse Auguste Liegard, 22300 Lannion, France","Country":"FRA","State":"Bretagne","County":"Côtes-d'Armor","City":"Lannion","Street":"Impasse Auguste Liegard","HouseNumber":"16","PostalCode":"22300","AdditionalData":[{"value":"France","key":"CountryName"},{"value":"Bretagne","key":"StateName"},{"value":"Côtes-d'Armor","key":"CountyName"}]},"MapReference":{"ReferenceId":"1132143716","Spot":0.76,"SideOfStreet":"left","CountryId":"20000001","StateId":"20060199","CountyId":"20060200","CityId":"20060527","AddressId":"716408517","RoadLinkId":"442061958"}}}]}]}}