{"Response":{"MetaInfo":{"Timestamp":"2020-03-28T11:50:02.978+0000","NextPageInformation":"2"},"View":[{"_type":"SearchResultsViewType","ViewId":0,"Result":[{"Relevance":1.0,"Distance":0.0,"Direction":0.0,"MatchLevel":"city","MatchQuality":{"Country":1.0,"State":1.0,"County":1.0,"City":1.0,"PostalCode":1.0},"Location":{"LocationId":"NT_U5xIBV3C2dxbiYtVanYhGA","LocationType":"point","DisplayPosition":{"Latitude":48.7142857,"Longitude":0.4308448},"MapView":{"TopLeft":{"Latitude":48.7321,"Longitude":0.39664},"BottomRight":{"Latitude":48.68345,"Longitude":0.49206}},"Address":{"Label":"Sainte-Gauburge-Sainte-Colombe, Normandie, France","Country":"FRA","State":"Normandie","County":"Orne","City":"Sainte-Gauburge-Sainte-Colombe","PostalCode":"61370","AdditionalData":[{"value":"France","key":"CountryName"},{"value":"Normandie","key":"StateName"},{"value":"Orne","key":"CountyName"}]},"MapReference":{"ReferenceId":"568414120","SideOfStreet":"neither","CountryId":"20000001","StateId":"20057204","CountyId":"20075162","CityId":"20076308"}}},{"Relevance":1.0,"Distance":2.5,"MatchLevel":"houseNumber","MatchQuality":{"Country":1.0,"State":1.0,"County":1.0,"City":1.0,"Street":[1.0],"HouseNumber":1.0,"PostalCode":1.0},"MatchType":"interpolated","Location":{"LocationId":"NT_GhEk3wv0lll.DR0DUL5jYB_ycD","LocationType":"point","DisplayPosition":{"Latitude":48.71423,"Longitude":0.43089},"MapView":{"TopLeft":{"Latitude":48.7153542,"Longitude":0.4291863},"BottomRight":{"Latitude":48.7131058,"Longitude":0.4325937}},"Address":{"Label":"27 Grande Rue, 61370 Sainte-Gauburge-Sainte-Colombe, France","Country":"FRA","State":"Normandie","County":"Orne","City":"Sainte-Gauburge-Sainte-Colombe","Street":"Grande Rue","HouseNumber":"27","PostalCode":"61370","AdditionalData":[{"value":"France","key":"CountryName"},{"value":"Normandie","key":"StateName"},{"value":"Orne","key":"CountyName"}]},"MapReference":{"ReferenceId":"568414119","Spot":0.89,"SideOfStreet":"right","CountryId":"20000001","StateId":"20057204","CountyId":"20075162","CityId":"20076308","AddressId":"379114147","RoadLinkId":"46994112"}}},{"Relevance":1.0,"Distance":5.1,"MatchLevel":"houseNumber","MatchQuality":{"Country":1.0,"State":1.0,"County":1.0,"City":1.0,"Street":[1.0],"HouseNumber":1.0,"PostalCode":1.0},"MatchType":"interpolated","Location":{"LocationId":"NT_GhEk3wv0lll.DR0DUL5jYB_yUD","LocationType":"point","DisplayPosition":{"Latitude":48.71423,"Longitude":0.43077},"MapView":{"TopLeft":{"Latitude":48.7153542,"Longitude":0.4290663},"BottomRight":{"Latitude":48.7131058,"Longitude":0.4324737}},"Address":{"Label":"25 Grande Rue, 61370 Sainte-Gauburge-Sainte-Colombe, France","Country":"FRA","State":"Normandie","County":"Orne","City":"Sainte-Gauburge-Sainte-Colombe","Street":"Grande Rue","HouseNumber":"25","PostalCode":"61370","AdditionalData":[{"value":"France","key":"CountryName"},{"value":"Normandie","key":"StateName"},{"value":"Orne","key":"CountyName"}]},"MapReference":{"ReferenceId":"568414120","Spot":0.12,"SideOfStreet":"right","CountryId":"20000001","StateId":"20057204","CountyId":"20075162","CityId":"20076308","AddressId":"321653481","RoadLinkId":"47513984"}}},{"Relevance":1.0,"Distance":12.7,"MatchLevel":"houseNumber","MatchQuality":{"Country":1.0,"State":1.0,"County":1.0,"City":1.0,"Street":[1.0],"HouseNumber":1.0,"PostalCode":1.0},"MatchType":"interpolated","Location":{"LocationId":"NT_FYmPHv.gwG-ZNXOfTUOrgA_yA","LocationType":"point","DisplayPosition":{"Latitude":48.71418,"Longitude":0.43091},"MapView":{"TopLeft":{"Latitude":48.7153042,"Longitude":0.4292063},"BottomRight":{"Latitude":48.7130558,"Longitude":0.4326137}},"Address":{"Label":"2 Place du Marché, 61370 Sainte-Gauburge-Sainte-Colombe, France","Country":"FRA","State":"Normandie","County":"Orne","City":"Sainte-Gauburge-Sainte-Colombe","Street":"Place du Marché","HouseNumber":"2","PostalCode":"61370","AdditionalData":[{"value":"France","key":"CountryName"},{"value":"Normandie","key":"StateName"},{"value":"Orne","key":"CountyName"}]},"MapReference":{"ReferenceId":"568414121","Spot":0.86,"SideOfStreet":"left","CountryId":"20000001","StateId":"20057204","CountyId":"20075162","CityId":"20076308","AddressId":"321691957","RoadLinkId":"47680227"}}},{"Relevance":1.0,"Distance":29.2,"MatchLevel":"street","MatchQuality":{"Country":1.0,"State":1.0,"County":1.0,"City":1.0,"Street":[1.0],"PostalCode":1.0},"Location":{"LocationId":"NT_FYmPHv.gwG-ZNXOfTUOrgA_l_568414123_L","LocationType":"point","DisplayPosition":{"Latitude":48.71422,"Longitude":0.43123},"MapView":{"TopLeft":{"Latitude":48.71422,"Longitude":0.43123},"BottomRight":{"Latitude":48.71402,"Longitude":0.43136}},"Address":{"Label":"Place du Marché, 61370 Sainte-Gauburge-Sainte-Colombe, France","Country":"FRA","State":"Normandie","County":"Orne","City":"Sainte-Gauburge-Sainte-Colombe","Street":"Place du Marché","PostalCode":"61370","AdditionalData":[{"value":"France","key":"CountryName"},{"value":"Normandie","key":"StateName"},{"value":"Orne","key":"CountyName"}]},"MapReference":{"ReferenceId":"568414123","Spot":1.0,"SideOfStreet":"left","CountryId":"20000001","StateId":"20057204","CountyId":"20075162","CityId":"20076308"}}},{"Relevance":1.0,"Distance":34.8,"MatchLevel":"houseNumber","MatchQuality":{"Country":1.0,"State":1.0,"County":1.0,"City":1.0,"Street":[1.0],"HouseNumber":1.0,"PostalCode":1.0},"MatchType":"interpolated","Location":{"LocationId":"NT_UOp2xG7qjiFdcWOjZWpO3C_zA","LocationType":"point","DisplayPosition":{"Latitude":48.71455,"Longitude":0.43114},"MapView":{"TopLeft":{"Latitude":48.7156742,"Longitude":0.4294363},"BottomRight":{"Latitude":48.7134258,"Longitude":0.4328437}},"Address":{"Label":"3 Rue de l'Ancienne Église, 61370 Sainte-Gauburge-Sainte-Colombe, France","Country":"FRA","State":"Normandie","County":"Orne","City":"Sainte-Gauburge-Sainte-Colombe","Street":"Rue de l'Ancienne Église","HouseNumber":"3","PostalCode":"61370","AdditionalData":[{"value":"France","key":"CountryName"},{"value":"Normandie","key":"StateName"},{"value":"Orne","key":"CountyName"}]},"MapReference":{"ReferenceId":"1047109453","Spot":0.21,"SideOfStreet":"left","CountryId":"20000001","StateId":"20057204","CountyId":"20075162","CityId":"20076308","AddressId":"570146063","RoadLinkId":"367213100"}}},{"Relevance":1.0,"Distance":38.7,"MatchLevel":"houseNumber","MatchQuality":{"Country":1.0,"State":1.0,"County":1.0,"City":1.0,"Street":[1.0],"HouseNumber":1.0,"PostalCode":1.0},"MatchType":"interpolated","Location":{"LocationId":"NT_GhEk3wv0lll.DR0DUL5jYB_zMD","LocationType":"point","DisplayPosition":{"Latitude":48.71421,"Longitude":0.43136},"MapView":{"TopLeft":{"Latitude":48.7153342,"Longitude":0.4296563},"BottomRight":{"Latitude":48.7130858,"Longitude":0.4330637}},"Address":{"Label":"33 Grande Rue, 61370 Sainte-Gauburge-Sainte-Colombe, France","Country":"FRA","State":"Normandie","County":"Orne","City":"Sainte-Gauburge-Sainte-Colombe","Street":"Grande Rue","HouseNumber":"33","PostalCode":"61370","AdditionalData":[{"value":"France","key":"CountryName"},{"value":"Normandie","key":"StateName"},{"value":"Orne","key":"CountyName"}]},"MapReference":{"ReferenceId":"568414116","Spot":0.91,"SideOfStreet":"right","CountryId":"20000001","StateId":"20057204","CountyId":"20075162","CityId":"20076308","AddressId":"379126787","RoadLinkId":"46913846"}}},{"Relevance":1.0,"Distance":49.8,"MatchLevel":"houseNumber","MatchQuality":{"Country":1.0,"State":1.0,"County":1.0,"City":1.0,"Street":[1.0],"HouseNumber":1.0,"PostalCode":1.0},"MatchType":"interpolated","Location":{"LocationId":"NT_-AosK32T8RqgqHjEO3DckD_yA","LocationType":"point","DisplayPosition":{"Latitude":48.71432,"Longitude":0.43014},"MapView":{"TopLeft":{"Latitude":48.7154442,"Longitude":0.4284363},"BottomRight":{"Latitude":48.7131958,"Longitude":0.4318437}},"Address":{"Label":"2 Rue de la Gare, 61370 Sainte-Gauburge-Sainte-Colombe, France","Country":"FRA","State":"Normandie","County":"Orne","City":"Sainte-Gauburge-Sainte-Colombe","Street":"Rue de la Gare","HouseNumber":"2","PostalCode":"61370","AdditionalData":[{"value":"France","key":"CountryName"},{"value":"Normandie","key":"StateName"},{"value":"Orne","key":"CountyName"}]},"MapReference":{"ReferenceId":"57269597","Spot":0.07,"SideOfStreet":"right","CountryId":"20000001","StateId":"20057204","CountyId":"20075162","CityId":"20076308","AddressId":"321689874","RoadLinkId":"47678382"}}},{"Relevance":1.0,"Distance":57.7,"MatchLevel":"houseNumber","MatchQuality":{"Country":1.0,"State":1.0,"County":1.0,"City":1.0,"Street":[1.0],"HouseNumber":1.0,"PostalCode":1.0},"MatchType":"interpolated","Location":{"LocationId":"NT_FYmPHv.gwG-ZNXOfTUOrgA_xQD","LocationType":"point","DisplayPosition":{"Latitude":48.71398,"Longitude":0.43148},"MapView":{"TopLeft":{"Latitude":48.7151042,"Longitude":0.4297763},"BottomRight":{"Latitude":48.7128558,"Longitude":0.4331837}},"Address":{"Label":"14 Place du Marché, 61370 Sainte-Gauburge-Sainte-Colombe, France","Country":"FRA","State":"Normandie","County":"Orne","City":"Sainte-Gauburge-Sainte-Colombe","Street":"Place du Marché","HouseNumber":"14","PostalCode":"61370","AdditionalData":[{"value":"France","key":"CountryName"},{"value":"Normandie","key":"StateName"},{"value":"Orne","key":"CountyName"}]},"MapReference":{"ReferenceId":"568414122","Spot":0.0,"SideOfStreet":"right","CountryId":"20000001","StateId":"20057204","CountyId":"20075162","CityId":"20076308","AddressId":"379154195","RoadLinkId":"47862145"}}},{"Relevance":1.0,"Distance":60.5,"MatchLevel":"houseNumber","MatchQuality":{"Country":1.0,"State":1.0,"County":1.0,"City":1.0,"Street":[1.0],"HouseNumber":1.0,"PostalCode":1.0},"MatchType":"interpolated","Location":{"LocationId":"NT_ap7LZ2jfkeY2TnW1w1.VZB_yA","LocationType":"point","DisplayPosition":{"Latitude":48.71387,"Longitude":0.43145},"MapView":{"TopLeft":{"Latitude":48.7149942,"Longitude":0.4297463},"BottomRight":{"Latitude":48.7127458,"Longitude":0.4331537}},"Address":{"Label":"2 Rue de Vauferment, 61370 Sainte-Gauburge-Sainte-Colombe, France","Country":"FRA","State":"Normandie","County":"Orne","City":"Sainte-Gauburge-Sainte-Colombe","Street":"Rue de Vauferment","HouseNumber":"2","PostalCode":"61370","AdditionalData":[{"value":"France","key":"CountryName"},{"value":"Normandie","key":"StateName"},{"value":"Orne","key":"CountyName"}]},"MapReference":{"ReferenceId":"568414112","Spot":0.08,"SideOfStreet":"left","CountryId":"20000001","StateId":"20057204","CountyId":"20075162","CityId":"20076308","AddressId":"570175071","RoadLinkId":"47202710"}}}]}]}}