{"Response":{"MetaInfo":{"Timestamp":"2020-03-28T11:50:12.483+0000","NextPageInformation":"2"},"View":[{"_type":"SearchResultsViewType","ViewId":0,"Result":[{"Relevance":1.0,"Distance":0.0,"Direction":0.0,"MatchLevel":"city","MatchQuality":{"Country":1.0,"State":1.0,"County":1.0,"City":1.0,"PostalCode":1.0},"Location":{"LocationId":"NT_i7bydmpIkQe7UQI2.NUsgD","LocationType":"point","DisplayPosition":{"Latitude":48.750737,"Longitude":6.160936},"MapView":{"TopLeft":{"Latitude":48.77496,"Longitude":6.14877},"BottomRight":{"Latitude":48.74527,"Longitude":6.17603}},"Address":{"Label":"Bouxières-aux-Dames, Grand Est, France","Country":"FRA","State":"Grand Est","County":"Meurthe-et-Moselle","City":"Bouxières-aux-Dames","PostalCode":"54136","AdditionalData":[{"value":"France","key":"CountryName"},{"value":"Grand Est","key":"StateName"},{"value":"Meurthe-et-Moselle","key":"CountyName"}]},"MapReference":{"ReferenceId":"836175190","SideOfStreet":"neither","CountryId":"20000001","StateId":"20002047","CountyId":"20019877","CityId":"20020147"}}},{"Relevance":1.0,"Distance":13.5,"MatchLevel":"houseNumber","MatchQuality":{"Country":1.0,"State":1.0,"County":1.0,"City":1.0,"Street":[1.0],"HouseNumber":1.0,"PostalCode":1.0},"MatchType":"interpolated","Location":{"LocationId":"NT_iSswjSBYYZXVQNz9q3uL5B_xYjQ","LocationType":"point","DisplayPosition":{"Latitude":48.7506,"Longitude":6.16081},"MapView":{"TopLeft":{"Latitude":48.7517242,"Longitude":6.159105},"BottomRight":{"Latitude":48.7494758,"Longitude":6.162515}},"Address":{"Label":"16B Rue Raymond Poincaré, 54136 Bouxières-aux-Dames, France","Country":"FRA","State":"Grand Est","County":"Meurthe-et-Moselle","City":"Bouxières-aux-Dames","Street":"Rue Raymond Poincaré","HouseNumber":"16B","PostalCode":"54136","AdditionalData":[{"value":"France","key":"CountryName"},{"value":"Grand Est","key":"StateName"},{"value":"Meurthe-et-Moselle","key":"CountyName"}]},"MapReference":{"ReferenceId":"836175188","Spot":0.76,"SideOfStreet":"right","CountryId":"20000001","StateId":"20002047","CountyId":"20019877","CityId":"20020147","AddressId":"317707494","RoadLinkId":"219379247"}}},{"Relevance":1.0,"Distance":17.5,"MatchLevel":"houseNumber","MatchQuality":{"Country":1.0,"State":1.0,"County":1.0,"City":1.0,"Street":[1.0],"HouseNumber":1.0,"PostalCode":1.0},"MatchType":"interpolated","Location":{"LocationId":"NT_iSswjSBYYZXVQNz9q3uL5B_l_836175189_R_xgD","LocationType":"point","DisplayPosition":{"Latitude":48.7506858,"Longitude":6.1606503},"MapView":{"TopLeft":{"Latitude":48.7518099,"Longitude":6.1589454},"BottomRight":{"Latitude":48.7495616,"Longitude":6.1623553}},"Address":{"Label":"18 Rue Raymond Poincaré, 54136 Bouxières-aux-Dames, France","Country":"FRA","State":"Grand Est","County":"Meurthe-et-Moselle","City":"Bouxières-aux-Dames","Street":"Rue Raymond Poincaré","HouseNumber":"18","PostalCode":"54136","AdditionalData":[{"value":"France","key":"CountryName"},{"value":"Grand Est","key":"StateName"},{"value":"Meurthe-et-Moselle","key":"CountyName"}]},"MapReference":{"ReferenceId":"836175189","Spot":0.6,"SideOfStreet":"right","CountryId":"20000001","StateId":"20002047","CountyId":"20019877","CityId":"20020147"}}},{"Relevance":1.0,"Distance":19.2,"MatchLevel":"street","MatchQuality":{"Country":1.0,"State":1.0,"County":1.0,"City":1.0,"PostalCode":1.0},"Location":{"LocationId":"NT_aCmzueLCfKGMKTio654MCC_l_836723039_R","LocationType":"point","DisplayPosition":{"Latitude":48.75065,"Longitude":6.16071},"MapView":{"TopLeft":{"Latitude":48.75065,"Longitude":6.16044},"BottomRight":{"Latitude":48.75046,"Longitude":6.16071}},"Address":{"Label":"54136 Bouxières-aux-Dames, France","Country":"FRA","State":"Grand Est","County":"Meurthe-et-Moselle","City":"Bouxières-aux-Dames","PostalCode":"54136","AdditionalData":[{"value":"France","key":"CountryName"},{"value":"Grand Est","key":"StateName"},{"value":"Meurthe-et-Moselle","key":"CountyName"}]},"MapReference":{"ReferenceId":"836723039","Spot":1.0,"SideOfStreet":"right","CountryId":"20000001","StateId":"20002047","CountyId":"20019877","CityId":"20020147"}}},{"Relevance":1.0,"Distance":23.2,"MatchLevel":"houseNumber","MatchQuality":{"Country":1.0,"State":1.0,"County":1.0,"City":1.0,"Street":[1.0],"HouseNumber":1.0,"PostalCode":1.0},"MatchType":"interpolated","Location":{"LocationId":"NT_iSswjSBYYZXVQNz9q3uL5B_xgD","LocationType":"point","DisplayPosition":{"Latitude":48.75072,"Longitude":6.16059},"MapView":{"TopLeft":{"Latitude":48.7518442,"Longitude":6.158885},"BottomRight":{"Latitude":48.7495958,"Longitude":6.162295}},"Address":{"Label":"18 Rue Raymond Poincaré, 54136 Bouxières-aux-Dames, France","Country":"FRA","State":"Grand Est","County":"Meurthe-et-Moselle","City":"Bouxières-aux-Dames","Street":"Rue Raymond Poincaré","HouseNumber":"18","PostalCode":"54136","AdditionalData":[{"value":"France","key":"CountryName"},{"value":"Grand Est","key":"StateName"},{"value":"Meurthe-et-Moselle","key":"CountyName"}]},"MapReference":{"ReferenceId":"836175190","Spot":0.03,"SideOfStreet":"right","CountryId":"20000001","StateId":"20002047","CountyId":"20019877","CityId":"20020147","AddressId":"379611936","RoadLinkId":"219379251"}}},{"Relevance":1.0,"Distance":33.7,"MatchLevel":"houseNumber","MatchQuality":{"Country":1.0,"State":1.0,"County":1.0,"City":1.0,"Street":[1.0],"HouseNumber":1.0,"PostalCode":1.0},"MatchType":"interpolated","Location":{"LocationId":"NT_iSswjSBYYZXVQNz9q3uL5B_xQD","LocationType":"point","DisplayPosition":{"Latitude":48.75045,"Longitude":6.16115},"MapView":{"TopLeft":{"Latitude":48.7515742,"Longitude":6.159445},"BottomRight":{"Latitude":48.7493258,"Longitude":6.162855}},"Address":{"Label":"14 Rue Raymond Poincaré, 54136 Bouxières-aux-Dames, France","Country":"FRA","State":"Grand Est","County":"Meurthe-et-Moselle","City":"Bouxières-aux-Dames","Street":"Rue Raymond Poincaré","HouseNumber":"14","PostalCode":"54136","AdditionalData":[{"value":"France","key":"CountryName"},{"value":"Grand Est","key":"StateName"},{"value":"Meurthe-et-Moselle","key":"CountyName"}]},"MapReference":{"ReferenceId":"836175192","Spot":0.99,"SideOfStreet":"right","CountryId":"20000001","StateId":"20002047","CountyId":"20019877","CityId":"20020147","AddressId":"379579374","RoadLinkId":"219379253"}}},{"Relevance":1.0,"Distance":47.7,"MatchLevel":"street","MatchQuality":{"Country":1.0,"State":1.0,"County":1.0,"City":1.0,"PostalCode":1.0},"Location":{"LocationId":"NT_aCmzueLCfKGMKTio654MCC_l_836723038_R","LocationType":"point","DisplayPosition":{"Latitude":48.75046,"Longitude":6.16044},"MapView":{"TopLeft":{"Latitude":48.75046,"Longitude":6.16022},"BottomRight":{"Latitude":48.75029,"Longitude":6.16044}},"Address":{"Label":"54136 Bouxières-aux-Dames, France","Country":"FRA","State":"Grand Est","County":"Meurthe-et-Moselle","City":"Bouxières-aux-Dames","PostalCode":"54136","AdditionalData":[{"value":"France","key":"CountryName"},{"value":"Grand Est","key":"StateName"},{"value":"Meurthe-et-Moselle","key":"CountyName"}]},"MapReference":{"ReferenceId":"836723038","Spot":1.0,"SideOfStreet":"right","CountryId":"20000001","StateId":"20002047","CountyId":"20019877","CityId":"20020147"}}},{"Relevance":1.0,"Distance":68.0,"MatchLevel":"houseNumber","MatchQuality":{"Country":1.0,"State":1.0,"County":1.0,"City":1.0,"Street":[1.0],"HouseNumber":1.0,"PostalCode":1.0},"MatchType":"interpolated","Location":{"LocationId":"NT_LFlFtU.TEX7ax0Dy9qTxJB_1A","LocationType":"point","DisplayPosition":{"Latitude":48.75136,"Longitude":6.16077},"MapView":{"TopLeft":{"Latitude":48.7524842,"Longitude":6.159065},"BottomRight":{"Latitude":48.7502358,"Longitude":6.162475}},"Address":{"Label":"5 Rue Arsène Galilé, 54136 Bouxières-aux-Dames, France","Country":"FRA","State":"Grand Est","County":"Meurthe-et-Moselle","City":"Bouxières-aux-Dames","Street":"Rue Arsène Galilé","HouseNumber":"5","PostalCode":"54136","AdditionalData":[{"value":"France","key":"CountryName"},{"value":"Grand Est","key":"StateName"},{"value":"Meurthe-et-Moselle","key":"CountyName"}]},"MapReference":{"ReferenceId":"1037178991","Spot":0.51,"SideOfStreet":"right","CountryId":"20000001","StateId":"20002047","CountyId":"20019877","CityId":"20020147","AddressId":"317619727","RoadLinkId":"359058435"}}},{"Relevance":1.0,"Distance":72.3,"MatchLevel":"street","MatchQuality":{"Country":1.0,"State":1.0,"County":1.0,"City":1.0,"Street":[1.0],"PostalCode":1.0},"Location":{"LocationId":"NT_KgOUADOvUlZP2zJG93CpiA_l_58847314_R","LocationType":"point","DisplayPosition":{"Latitude":48.75029,"Longitude":6.16022},"MapView":{"TopLeft":{"Latitude":48.75047,"Longitude":6.15944},"BottomRight":{"Latitude":48.75029,"Longitude":6.16022}},"Address":{"Label":"Échangeur de Bouxières-aux-Dames, 54136 Bouxières-aux-Dames, France","Country":"FRA","State":"Grand Est","County":"Meurthe-et-Moselle","City":"Bouxières-aux-Dames","Street":"Échangeur de Bouxières-aux-Dames","PostalCode":"54136","AdditionalData":[{"value":"France","key":"CountryName"},{"value":"Grand Est","key":"StateName"},{"value":"Meurthe-et-Moselle","key":"CountyName"}]},"MapReference":{"ReferenceId":"58847314","Spot":0.0,"SideOfStreet":"right","CountryId":"20000001","StateId":"20002047","CountyId":"20019877","CityId":"20020147"}}},{"Relevance":1.0,"Distance":72.3,"MatchLevel":"street","MatchQuality":{"Country":1.0,"State":1.0,"County":1.0,"City":1.0,"Street":[1.0],"PostalCode":1.0},"Location":{"LocationId":"NT_KgOUADOvUlZP2zJG93CpiA_l_58847317_L","LocationType":"point","DisplayPosition":{"Latitude":48.75029,"Longitude":6.16022},"MapView":{"TopLeft":{"Latitude":48.75029,"Longitude":6.15987},"BottomRight":{"Latitude":48.75015,"Longitude":6.16022}},"Address":{"Label":"Échangeur de Bouxières-aux-Dames, 54136 Bouxières-aux-Dames, France","Country":"FRA","State":"Grand Est","County":"Meurthe-et-Moselle","City":"Bouxières-aux-Dames","Street":"Échangeur de Bouxières-aux-Dames","PostalCode":"54136","AdditionalData":[{"value":"France","key":"CountryName"},{"value":"Grand Est","key":"StateName"},{"value":"Meurthe-et-Moselle","key":"CountyName"}]},"MapReference":{"ReferenceId":"58847317","Spot":1.0,"SideOfStreet":"left","CountryId":"20000001","StateId":"20002047","CountyId":"20019877","CityId":"20020147"}}}]}]}}