{"Response":{"MetaInfo":{"Timestamp":"2020-03-28T11:00:58.079+0000","NextPageInformation":"2"},"View":[{"_type":"SearchResultsViewType","ViewId":0,"Result":[{"Relevance":1.0,"Distance":0.0,"Direction":0.0,"MatchLevel":"district","MatchQuality":{"Country":1.0,"State":1.0,"County":1.0,"City":1.0,"District":1.0,"PostalCode":1.0},"Location":{"LocationId":"NT_H5j8KWnIirr1094RXzvWIC","LocationType":"point","DisplayPosition":{"Latitude":48.7640748,"Longitude":8.2458061},"MapView":{"TopLeft":{"Latitude":48.79873,"Longitude":8.17819},"BottomRight":{"Latitude":48.73773,"Longitude":8.28367}},"Address":{"Label":"Baden-Baden, Baden-Württemberg, Deutschland","Country":"DEU","State":"Baden-Württemberg","County":"Baden-Baden","City":"Baden-Baden","District":"Baden-Baden","PostalCode":"76530","AdditionalData":[{"value":"Deutschland","key":"CountryName"},{"value":"Baden-Württemberg","key":"StateName"},{"value":"Baden-Baden","key":"CountyName"}]},"MapReference":{"ReferenceId":"53218670","SideOfStreet":"neither","CountryId":"20147700","StateId":"20171489","CountyId":"20173221","CityId":"20173222","DistrictId":"20173232"}}},{"Relevance":1.0,"Distance":29.4,"MatchLevel":"street","MatchQuality":{"Country":1.0,"State":1.0,"County":1.0,"City":1.0,"District":1.0,"Street":[1.0],"PostalCode":1.0},"Location":{"LocationId":"NT_ZgUkC5loSzE3caTlbGjNnB_l_773611902_R","LocationType":"point","DisplayPosition":{"Latitude":48.764336,"Longitude":8.2457421},"MapView":{"TopLeft":{"Latitude":48.76552,"Longitude":8.244},"BottomRight":{"Latitude":48.76383,"Longitude":8.24761}},"Address":{"Label":"Paracelsusweg, 76530 Baden-Baden, Deutschland","Country":"DEU","State":"Baden-Württemberg","County":"Baden-Baden","City":"Baden-Baden","District":"Baden-Baden","Street":"Paracelsusweg","PostalCode":"76530","AdditionalData":[{"value":"Deutschland","key":"CountryName"},{"value":"Baden-Württemberg","key":"StateName"},{"value":"Baden-Baden","key":"CountyName"}]},"MapReference":{"ReferenceId":"773611902","Spot":0.44,"SideOfStreet":"right","CountryId":"20147700","StateId":"20171489","CountyId":"20173221","CityId":"20173222","DistrictId":"20173232"}}},{"Relevance":1.0,"Distance":68.5,"MatchLevel":"houseNumber","MatchQuality":{"Country":1.0,"State":1.0,"County":1.0,"City":1.0,"District":1.0,"Street":[1.0],"HouseNumber":1.0,"PostalCode":1.0},"MatchType":"interpolated","Location":{"LocationId":"NT_8fcM.STcX-3APiDPbqh5.D_l_53218608_R_zA","LocationType":"point","DisplayPosition":{"Latitude":48.7635418,"Longitude":8.246275},"MapView":{"TopLeft":{"Latitude":48.764666,"Longitude":8.2445696},"BottomRight":{"Latitude":48.7624177,"Longitude":8.2479804}},"Address":{"Label":"Seufzerallee 3, 76530 Baden-Baden, Deutschland","Country":"DEU","State":"Baden-Württemberg","County":"Baden-Baden","City":"Baden-Baden","District":"Baden-Baden","Street":"Seufzerallee","HouseNumber":"3","PostalCode":"76530","AdditionalData":[{"value":"Deutschland","key":"CountryName"},{"value":"Baden-Württemberg","key":"StateName"},{"value":"Baden-Baden","key":"CountyName"}]},"MapReference":{"ReferenceId":"53218608","Spot":0.5,"SideOfStreet":"right","CountryId":"20147700","StateId":"20171489","CountyId":"20173221","CityId":"20173222","DistrictId":"20173232"}}},{"Relevance":1.0,"Distance":74.6,"MatchLevel":"street","MatchQuality":{"Country":1.0,"State":1.0,"County":1.0,"City":1.0,"District":1.0,"Street":[1.0],"PostalCode":1.0},"Location":{"LocationId":"NT_bF9DwohKsTFBxhrN3XdcdB_l_810401319_L","LocationType":"point","DisplayPosition":{"Latitude":48.76371,"Longitude":8.24666},"MapView":{"TopLeft":{"Latitude":48.76375,"Longitude":8.24666},"BottomRight":{"Latitude":48.76369,"Longitude":8.24668}},"Address":{"Label":"Rotenbachtalstraße, 76530 Baden-Baden, Deutschland","Country":"DEU","State":"Baden-Württemberg","County":"Baden-Baden","City":"Baden-Baden","District":"Baden-Baden","Street":"Rotenbachtalstraße","PostalCode":"76530","AdditionalData":[{"value":"Deutschland","key":"CountryName"},{"value":"Baden-Württemberg","key":"StateName"},{"value":"Baden-Baden","key":"CountyName"}]},"MapReference":{"ReferenceId":"810401319","Spot":0.33,"SideOfStreet":"left","CountryId":"20147700","StateId":"20171489","CountyId":"20173221","CityId":"20173222","DistrictId":"20173232"}}},{"Relevance":1.0,"Distance":76.4,"MatchLevel":"street","MatchQuality":{"Country":1.0,"State":1.0,"County":1.0,"City":1.0,"District":1.0,"Street":[1.0],"PostalCode":1.0},"Location":{"LocationId":"NT_8fcM.STcX-3APiDPbqh5.D_l_53218617_L","LocationType":"point","DisplayPosition":{"Latitude":48.76339,"Longitude":8.24589},"MapView":{"TopLeft":{"Latitude":48.76339,"Longitude":8.24497},"BottomRight":{"Latitude":48.76321,"Longitude":8.24589}},"Address":{"Label":"Seufzerallee, 76530 Baden-Baden, Deutschland","Country":"DEU","State":"Baden-Württemberg","County":"Baden-Baden","City":"Baden-Baden","District":"Baden-Baden","Street":"Seufzerallee","PostalCode":"76530","AdditionalData":[{"value":"Deutschland","key":"CountryName"},{"value":"Baden-Württemberg","key":"StateName"},{"value":"Baden-Baden","key":"CountyName"}]},"MapReference":{"ReferenceId":"53218617","Spot":1.0,"SideOfStreet":"left","CountryId":"20147700","StateId":"20171489","CountyId":"20173221","CityId":"20173222","DistrictId":"20173232"}}},{"Relevance":1.0,"Distance":76.4,"MatchLevel":"street","MatchQuality":{"Country":1.0,"State":1.0,"County":1.0,"City":1.0,"District":1.0,"PostalCode":1.0},"Location":{"LocationId":"NT_boYY0GuEIbkq.iXOgKGUJB_l_53218639_R","LocationType":"point","DisplayPosition":{"Latitude":48.76339,"Longitude":8.24589},"MapView":{"TopLeft":{"Latitude":48.76339,"Longitude":8.24589},"BottomRight":{"Latitude":48.76313,"Longitude":8.24607}},"Address":{"Label":"76530 Baden-Baden, Deutschland","Country":"DEU","State":"Baden-Württemberg","County":"Baden-Baden","City":"Baden-Baden","District":"Baden-Baden","PostalCode":"76530","AdditionalData":[{"value":"Deutschland","key":"CountryName"},{"value":"Baden-Württemberg","key":"StateName"},{"value":"Baden-Baden","key":"CountyName"}]},"MapReference":{"ReferenceId":"53218639","Spot":1.0,"SideOfStreet":"right","CountryId":"20147700","StateId":"20171489","CountyId":"20173221","CityId":"20173222","DistrictId":"20173232"}}},{"Relevance":1.0,"Distance":76.4,"MatchLevel":"street","MatchQuality":{"Country":1.0,"State":1.0,"County":1.0,"City":1.0,"District":1.0,"Street":[1.0],"PostalCode":1.0},"Location":{"LocationId":"NT_8fcM.STcX-3APiDPbqh5.D_l_53218587_L","LocationType":"point","DisplayPosition":{"Latitude":48.76369,"Longitude":8.24667},"MapView":{"TopLeft":{"Latitude":48.76544,"Longitude":8.24667},"BottomRight":{"Latitude":48.76369,"Longitude":8.25083}},"Address":{"Label":"Seufzerallee, 76530 Baden-Baden, Deutschland","Country":"DEU","State":"Baden-Württemberg","County":"Baden-Baden","City":"Baden-Baden","District":"Baden-Baden","Street":"Seufzerallee","PostalCode":"76530","AdditionalData":[{"value":"Deutschland","key":"CountryName"},{"value":"Baden-Württemberg","key":"StateName"},{"value":"Baden-Baden","key":"CountyName"}]},"MapReference":{"ReferenceId":"53218587","Spot":0.0,"SideOfStreet":"left","CountryId":"20147700","StateId":"20171489","CountyId":"20173221","CityId":"20173222","DistrictId":"20173232"}}},{"Relevance":1.0,"Distance":76.4,"MatchLevel":"street","MatchQuality":{"Country":1.0,"State":1.0,"County":1.0,"City":1.0,"District":1.0,"Street":[1.0],"PostalCode":1.0},"Location":{"LocationId":"NT_bF9DwohKsTFBxhrN3XdcdB_l_810395318_L","LocationType":"point","DisplayPosition":{"Latitude":48.76369,"Longitude":8.24667},"MapView":{"TopLeft":{"Latitude":48.76369,"Longitude":8.24667},"BottomRight":{"Latitude":48.76364,"Longitude":8.24702}},"Address":{"Label":"Rotenbachtalstraße, 76530 Baden-Baden, Deutschland","Country":"DEU","State":"Baden-Württemberg","County":"Baden-Baden","City":"Baden-Baden","District":"Baden-Baden","Street":"Rotenbachtalstraße","PostalCode":"76530","AdditionalData":[{"value":"Deutschland","key":"CountryName"},{"value":"Baden-Württemberg","key":"StateName"},{"value":"Baden-Baden","key":"CountyName"}]},"MapReference":{"ReferenceId":"810395318","Spot":1.0,"SideOfStreet":"left","CountryId":"20147700","StateId":"20171489","CountyId":"20173221","CityId":"20173222","DistrictId":"20173232"}}},{"Relevance":1.0,"Distance":88.4,"MatchLevel":"houseNumber","MatchQuality":{"Country":1.0,"State":1.0,"County":1.0,"City":1.0,"District":1.0,"Street":[1.0],"HouseNumber":1.0,"PostalCode":1.0},"MatchType":"interpolated","Location":{"LocationId":"NT_bF9DwohKsTFBxhrN3XdcdB_1A","LocationType":"point","DisplayPosition":{"Latitude":48.76397,"Longitude":8.2472},"MapView":{"TopLeft":{"Latitude":48.7650942,"Longitude":8.2454946},"BottomRight":{"Latitude":48.7628458,"Longitude":8.2489054}},"Address":{"Label":"Rotenbachtalstraße 5, 76530 Baden-Baden, Deutschland","Country":"DEU","State":"Baden-Württemberg","County":"Baden-Baden","City":"Baden-Baden","District":"Baden-Baden","Street":"Rotenbachtalstraße","HouseNumber":"5","PostalCode":"76530","AdditionalData":[{"value":"Deutschland","key":"CountryName"},{"value":"Baden-Württemberg","key":"StateName"},{"value":"Baden-Baden","key":"CountyName"}]},"MapReference":{"ReferenceId":"810401320","Spot":0.71,"SideOfStreet":"left","CountryId":"20147700","StateId":"20171489","CountyId":"20173221","CityId":"20173222","DistrictId":"20173232","AddressId":"180049660","RoadLinkId":"197727115"}}},{"Relevance":1.0,"Distance":89.9,"MatchLevel":"houseNumber","MatchQuality":{"Country":1.0,"State":1.0,"County":1.0,"City":1.0,"District":1.0,"Street":[1.0],"HouseNumber":1.0,"PostalCode":1.0},"MatchType":"interpolated","Location":{"LocationId":"NT_bF9DwohKsTFBxhrN3XdcdB_xA","LocationType":"point","DisplayPosition":{"Latitude":48.76352,"Longitude":8.24683},"MapView":{"TopLeft":{"Latitude":48.7646442,"Longitude":8.2451246},"BottomRight":{"Latitude":48.7623958,"Longitude":8.2485354}},"Address":{"Label":"Rotenbachtalstraße 1, 76530 Baden-Baden, Deutschland","Country":"DEU","State":"Baden-Württemberg","County":"Baden-Baden","City":"Baden-Baden","District":"Baden-Baden","Street":"Rotenbachtalstraße","HouseNumber":"1","PostalCode":"76530","AdditionalData":[{"value":"Deutschland","key":"CountryName"},{"value":"Baden-Württemberg","key":"StateName"},{"value":"Baden-Baden","key":"CountyName"}]},"MapReference":{"ReferenceId":"810395319","Spot":0.0,"SideOfStreet":"left","CountryId":"20147700","StateId":"20171489","CountyId":"20173221","CityId":"20173222","DistrictId":"20173232","AddressId":"179804612","RoadLinkId":"553406547"}}}]}]}}