{"Response":{"MetaInfo":{"Timestamp":"2020-03-28T10:20:24.547+0000","NextPageInformation":"2"},"View":[{"_type":"SearchResultsViewType","ViewId":0,"Result":[{"Relevance":1.0,"Distance":0.0,"Direction":0.0,"MatchLevel":"city","MatchQuality":{"Country":1.0,"State":1.0,"County":1.0,"City":1.0,"PostalCode":1.0},"Location":{"LocationId":"NT_TCDn5l4o1FOPMlXbOpEMHB","LocationType":"point","DisplayPosition":{"Latitude":48.742435,"Longitude":8.8637867},"MapView":{"TopLeft":{"Latitude":48.80308,"Longitude":8.80015},"BottomRight":{"Latitude":48.71692,"Longitude":8.93257}},"Address":{"Label":"Weil der Stadt, Baden-Württemberg, Deutschland","Country":"DEU","State":"Baden-Württemberg","County":"Böblingen","City":"Weil der Stadt","PostalCode":"71263","AdditionalData":[{"value":"Deutschland","key":"CountryName"},{"value":"Baden-Württemberg","key":"StateName"},{"value":"Böblingen","key":"CountyName"}]},"MapReference":{"ReferenceId":"1203709986","SideOfStreet":"neither","CountryId":"20147700","StateId":"20171489","CountyId":"20171515","CityId":"20171599"}}},{"Relevance":1.0,"Distance":26.6,"MatchLevel":"houseNumber","MatchQuality":{"Country":1.0,"State":1.0,"County":1.0,"City":1.0,"Street":[1.0],"HouseNumber":1.0,"PostalCode":1.0},"MatchType":"interpolated","Location":{"LocationId":"NT_ikzW3-QVqwhGs8pCJ44eiA_3UD","LocationType":"point","DisplayPosition":{"Latitude":48.74237,"Longitude":8.86338},"MapView":{"TopLeft":{"Latitude":48.7434942,"Longitude":8.8616753},"BottomRight":{"Latitude":48.7412458,"Longitude":8.8650847}},"Address":{"Label":"Ostelsheimer Steige 75, 71263 Weil der Stadt, Deutschland","Country":"DEU","State":"Baden-Württemberg","County":"Böblingen","City":"Weil der Stadt","Street":"Ostelsheimer Steige","HouseNumber":"75","PostalCode":"71263","AdditionalData":[{"value":"Deutschland","key":"CountryName"},{"value":"Baden-Württemberg","key":"StateName"},{"value":"Böblingen","key":"CountyName"}]},"MapReference":{"ReferenceId":"72691946","Spot":0.67,"SideOfStreet":"right","CountryId":"20147700","StateId":"20171489","CountyId":"20171515","CityId":"20171599","AddressId":"621600295","RoadLinkId":"38780185"}}},{"Relevance":1.0,"Distance":79.4,"MatchLevel":"landmark","MatchQuality":{"Country":1.0,"State":1.0,"Name":1.0},"Location":{"LocationId":"NT_D83t7hHuHTbGuxzeLUXilC","LocationType":"woodland","Name":"Steckental","DisplayPosition":{"Latitude":48.73526,"Longitude":8.86359},"MapView":{"TopLeft":{"Latitude":48.74438,"Longitude":8.84542},"BottomRight":{"Latitude":48.72614,"Longitude":8.87594}},"Address":{"Label":"Deutschland","Country":"DEU","State":"Baden-Württemberg","AdditionalData":[{"value":"Deutschland","key":"CountryName"},{"value":"Baden-Württemberg","key":"StateName"}]},"MapReference":{"CountryId":"20147700","StateId":"20171489","PlaceId":"50598743"}}},{"Relevance":1.0,"Distance":190.5,"MatchLevel":"street","MatchQuality":{"Country":1.0,"State":1.0,"County":1.0,"City":1.0,"PostalCode":1.0},"Location":{"LocationId":"NT_fBo-.3j2eWO10wcJI7A0SC_l_72687211_R","LocationType":"point","DisplayPosition":{"Latitude":48.7440617,"Longitude":8.8629734},"MapView":{"TopLeft":{"Latitude":48.74483,"Longitude":8.83901},"BottomRight":{"Latitude":48.73871,"Longitude":8.86527}},"Address":{"Label":"71263 Weil der Stadt, Deutschland","Country":"DEU","State":"Baden-Württemberg","County":"Böblingen","City":"Weil der Stadt","PostalCode":"71263","AdditionalData":[{"value":"Deutschland","key":"CountryName"},{"value":"Baden-Württemberg","key":"StateName"},{"value":"Böblingen","key":"CountyName"}]},"MapReference":{"ReferenceId":"72687211","Spot":0.91,"SideOfStreet":"right","CountryId":"20147700","StateId":"20171489","CountyId":"20171515","CityId":"20171599"}}},{"Relevance":1.0,"Distance":265.1,"MatchLevel":"houseNumber","MatchQuality":{"Country":1.0,"State":1.0,"County":1.0,"City":1.0,"Street":[1.0],"HouseNumber":1.0,"PostalCode":1.0},"MatchType":"interpolated","Location":{"LocationId":"NT_ikzW3-QVqwhGs8pCJ44eiA_1MD","LocationType":"point","DisplayPosition":{"Latitude":48.74428,"Longitude":8.86633},"MapView":{"TopLeft":{"Latitude":48.7454042,"Longitude":8.8646252},"BottomRight":{"Latitude":48.7431558,"Longitude":8.8680348}},"Address":{"Label":"Ostelsheimer Steige 53, 71263 Weil der Stadt, Deutschland","Country":"DEU","State":"Baden-Württemberg","County":"Böblingen","City":"Weil der Stadt","Street":"Ostelsheimer Steige","HouseNumber":"53","PostalCode":"71263","AdditionalData":[{"value":"Deutschland","key":"CountryName"},{"value":"Baden-Württemberg","key":"StateName"},{"value":"Böblingen","key":"CountyName"}]},"MapReference":{"ReferenceId":"72683606","Spot":0.3,"SideOfStreet":"left","CountryId":"20147700","StateId":"20171489","CountyId":"20171515","CityId":"20171599","AddressId":"382280940","RoadLinkId":"38631300"}}},{"Relevance":1.0,"Distance":285.6,"MatchLevel":"street","MatchQuality":{"Country":1.0,"State":1.0,"County":1.0,"City":1.0,"Street":[1.0],"PostalCode":1.0},"Location":{"LocationId":"NT_ikzW3-QVqwhGs8pCJ44eiA_l_72687459_R","LocationType":"point","DisplayPosition":{"Latitude":48.74481,"Longitude":8.86527},"MapView":{"TopLeft":{"Latitude":48.7453,"Longitude":8.86527},"BottomRight":{"Latitude":48.74481,"Longitude":8.86599}},"Address":{"Label":"Ostelsheimer Steige, 71263 Weil der Stadt, Deutschland","Country":"DEU","State":"Baden-Württemberg","County":"Böblingen","City":"Weil der Stadt","Street":"Ostelsheimer Steige","PostalCode":"71263","AdditionalData":[{"value":"Deutschland","key":"CountryName"},{"value":"Baden-Württemberg","key":"StateName"},{"value":"Böblingen","key":"CountyName"}]},"MapReference":{"ReferenceId":"72687459","Spot":0.0,"SideOfStreet":"right","CountryId":"20147700","StateId":"20171489","CountyId":"20171515","CityId":"20171599"}}},{"Relevance":1.0,"Distance":288.9,"MatchLevel":"houseNumber","MatchQuality":{"Country":1.0,"State":1.0,"County":1.0,"City":1.0,"Street":[1.0],"HouseNumber":1.0,"PostalCode":1.0},"MatchType":"interpolated","Location":{"LocationId":"NT_4yUMn9dx0cWWYDCQjJBOKB_4A","LocationType":"point","DisplayPosition":{"Latitude":48.74353,"Longitude":8.86736},"MapView":{"TopLeft":{"Latitude":48.7446542,"Longitude":8.8656553},"BottomRight":{"Latitude":48.7424058,"Longitude":8.8690647}},"Address":{"Label":"Malersbuckel 8, 71263 Weil der Stadt, Deutschland","Country":"DEU","State":"Baden-Württemberg","County":"Böblingen","City":"Weil der Stadt","Street":"Malersbuckel","HouseNumber":"8","PostalCode":"71263","AdditionalData":[{"value":"Deutschland","key":"CountryName"},{"value":"Baden-Württemberg","key":"StateName"},{"value":"Böblingen","key":"CountyName"}]},"MapReference":{"ReferenceId":"72683607","Spot":0.51,"SideOfStreet":"right","CountryId":"20147700","StateId":"20171489","CountyId":"20171515","CityId":"20171599","AddressId":"180486528","RoadLinkId":"38239306"}}},{"Relevance":1.0,"Distance":310.7,"MatchLevel":"houseNumber","MatchQuality":{"Country":1.0,"State":1.0,"County":1.0,"City":1.0,"Street":[1.0],"HouseNumber":1.0,"PostalCode":1.0},"MatchType":"interpolated","Location":{"LocationId":"NT_4yUMn9dx0cWWYDCQjJBOKB_xAD","LocationType":"point","DisplayPosition":{"Latitude":48.74384,"Longitude":8.86745},"MapView":{"TopLeft":{"Latitude":48.7449642,"Longitude":8.8657453},"BottomRight":{"Latitude":48.7427158,"Longitude":8.8691547}},"Address":{"Label":"Malersbuckel 10, 71263 Weil der Stadt, Deutschland","Country":"DEU","State":"Baden-Württemberg","County":"Böblingen","City":"Weil der Stadt","Street":"Malersbuckel","HouseNumber":"10","PostalCode":"71263","AdditionalData":[{"value":"Deutschland","key":"CountryName"},{"value":"Baden-Württemberg","key":"StateName"},{"value":"Böblingen","key":"CountyName"}]},"MapReference":{"ReferenceId":"773229109","Spot":0.06,"SideOfStreet":"right","CountryId":"20147700","StateId":"20171489","CountyId":"20171515","CityId":"20171599","AddressId":"179960675","RoadLinkId":"166894716"}}},{"Relevance":1.0,"Distance":377.3,"MatchLevel":"houseNumber","MatchQuality":{"Country":1.0,"State":1.0,"County":1.0,"City":1.0,"Street":[1.0],"HouseNumber":1.0,"PostalCode":1.0},"MatchType":"interpolated","Location":{"LocationId":"NT_ikzW3-QVqwhGs8pCJ44eiA_1AD","LocationType":"point","DisplayPosition":{"Latitude":48.74537,"Longitude":8.86608},"MapView":{"TopLeft":{"Latitude":48.7464942,"Longitude":8.8643752},"BottomRight":{"Latitude":48.7442458,"Longitude":8.8677848}},"Address":{"Label":"Ostelsheimer Steige 50, 71263 Weil der Stadt, Deutschland","Country":"DEU","State":"Baden-Württemberg","County":"Böblingen","City":"Weil der Stadt","Street":"Ostelsheimer Steige","HouseNumber":"50","PostalCode":"71263","AdditionalData":[{"value":"Deutschland","key":"CountryName"},{"value":"Baden-Württemberg","key":"StateName"},{"value":"Böblingen","key":"CountyName"}]},"MapReference":{"ReferenceId":"540909204","Spot":0.07,"SideOfStreet":"left","CountryId":"20147700","StateId":"20171489","CountyId":"20171515","CityId":"20171599","AddressId":"177949231","RoadLinkId":"38568259"}}},{"Relevance":1.0,"Distance":402.2,"MatchLevel":"houseNumber","MatchQuality":{"Country":1.0,"State":1.0,"County":1.0,"City":1.0,"Street":[1.0],"HouseNumber":1.0,"PostalCode":1.0},"MatchType":"interpolated","Location":{"LocationId":"NT_xq-kCPHPUtdqOG.hSYBGpD_zA","LocationType":"point","DisplayPosition":{"Latitude":48.74528,"Longitude":8.86009},"MapView":{"TopLeft":{"Latitude":48.7464042,"Longitude":8.8583852},"BottomRight":{"Latitude":48.7441558,"Longitude":8.8617948}},"Address":{"Label":"Taläcker 3, 71263 Weil der Stadt, Deutschland","Country":"DEU","State":"Baden-Württemberg","County":"Böblingen","City":"Weil der Stadt","Street":"Taläcker","HouseNumber":"3","PostalCode":"71263","AdditionalData":[{"value":"Deutschland","key":"CountryName"},{"value":"Baden-Württemberg","key":"StateName"},{"value":"Böblingen","key":"CountyName"}]},"MapReference":{"ReferenceId":"773222165","Spot":0.01,"SideOfStreet":"right","CountryId":"20147700","StateId":"20171489","CountyId":"20171515","CityId":"20171599","AddressId":"208805052","RoadLinkId":"166885614"}}}]}]}}