{"Response":{"MetaInfo":{"Timestamp":"2020-03-28T11:36:57.009+0000","NextPageInformation":"2"},"View":[{"_type":"SearchResultsViewType","ViewId":0,"Result":[{"Relevance":1.0,"Distance":0.0,"Direction":0.0,"MatchLevel":"district","MatchQuality":{"Country":1.0,"State":1.0,"County":1.0,"City":1.0,"District":1.0,"PostalCode":1.0},"Location":{"LocationId":"NT_skCHzhzJhNaoGhN8P6zqaC","LocationType":"point","DisplayPosition":{"Latitude":48.7206156,"Longitude":18.2580603},"MapView":{"TopLeft":{"Latitude":48.73545,"Longitude":18.23812},"BottomRight":{"Latitude":48.70995,"Longitude":18.28651}},"Address":{"Label":"Bánovce nad Bebravou, Trenčiansky kraj, Slovenská Republika","Country":"SVK","State":"Trenčiansky kraj","County":"Bánovce nad Bebravou","City":"Bánovce nad Bebravou","District":"Bánovce nad Bebravou","PostalCode":"957 01","AdditionalData":[{"value":"Slovenská Republika","key":"CountryName"},{"value":"Trenčiansky kraj","key":"StateName"},{"value":"Bánovce nad Bebravou","key":"CountyName"}]},"MapReference":{"ReferenceId":"851552661","SideOfStreet":"neither","CountryId":"20428682","StateId":"20491572","CountyId":"20491573","CityId":"20491574","DistrictId":"22185806"}}},{"Relevance":1.0,"Distance":17.4,"MatchLevel":"houseNumber","MatchQuality":{"Country":1.0,"State":1.0,"County":1.0,"City":1.0,"District":1.0,"Street":[1.0],"HouseNumber":1.0,"PostalCode":1.0},"MatchType":"interpolated","Location":{"LocationId":"NT_eAAxRVhXnJLBfzwKJCUlxD_xczN0A","LocationType":"point","DisplayPosition":{"Latitude":48.72088,"Longitude":18.25831},"MapView":{"TopLeft":{"Latitude":48.7220042,"Longitude":18.256606},"BottomRight":{"Latitude":48.7197558,"Longitude":18.260014}},"Address":{"Label":"Hviezdoslavova 1774, 957 01 Bánovce nad Bebravou, Slovenská Republika","Country":"SVK","State":"Trenčiansky kraj","County":"Bánovce nad Bebravou","City":"Bánovce nad Bebravou","District":"Bánovce nad Bebravou","Street":"Hviezdoslavova","HouseNumber":"1774","PostalCode":"957 01","AdditionalData":[{"value":"Slovenská Republika","key":"CountryName"},{"value":"Trenčiansky kraj","key":"StateName"},{"value":"Bánovce nad Bebravou","key":"CountyName"}]},"MapReference":{"ReferenceId":"709059760","Spot":0.54,"SideOfStreet":"left","CountryId":"20428682","StateId":"20491572","CountyId":"20491573","CityId":"20491574","DistrictId":"22185806","AddressId":"299557222","RoadLinkId":"114360369"}}},{"Relevance":1.0,"Distance":29.3,"MatchLevel":"street","MatchQuality":{"Country":1.0,"State":1.0,"County":1.0,"City":1.0,"District":1.0,"PostalCode":1.0},"Location":{"LocationId":"NT_RuoXmpoRSOvkHIe5BL6mID_l_947138167_R","LocationType":"point","DisplayPosition":{"Latitude":48.72056,"Longitude":18.25767},"MapView":{"TopLeft":{"Latitude":48.72061,"Longitude":18.25724},"BottomRight":{"Latitude":48.72004,"Longitude":18.25767}},"Address":{"Label":"957 01 Bánovce nad Bebravou, Slovenská Republika","Country":"SVK","State":"Trenčiansky kraj","County":"Bánovce nad Bebravou","City":"Bánovce nad Bebravou","District":"Bánovce nad Bebravou","PostalCode":"957 01","AdditionalData":[{"value":"Slovenská Republika","key":"CountryName"},{"value":"Trenčiansky kraj","key":"StateName"},{"value":"Bánovce nad Bebravou","key":"CountyName"}]},"MapReference":{"ReferenceId":"947138167","Spot":0.78,"SideOfStreet":"right","CountryId":"20428682","StateId":"20491572","CountyId":"20491573","CityId":"20491574","DistrictId":"22185806"}}},{"Relevance":1.0,"Distance":41.8,"MatchLevel":"street","MatchQuality":{"Country":1.0,"State":1.0,"County":1.0,"City":1.0,"District":1.0,"PostalCode":1.0},"Location":{"LocationId":"NT_RuoXmpoRSOvkHIe5BL6mID_l_947141827_R","LocationType":"point","DisplayPosition":{"Latitude":48.72061,"Longitude":18.25749},"MapView":{"TopLeft":{"Latitude":48.72061,"Longitude":18.2571},"BottomRight":{"Latitude":48.72009,"Longitude":18.25749}},"Address":{"Label":"957 01 Bánovce nad Bebravou, Slovenská Republika","Country":"SVK","State":"Trenčiansky kraj","County":"Bánovce nad Bebravou","City":"Bánovce nad Bebravou","District":"Bánovce nad Bebravou","PostalCode":"957 01","AdditionalData":[{"value":"Slovenská Republika","key":"CountryName"},{"value":"Trenčiansky kraj","key":"StateName"},{"value":"Bánovce nad Bebravou","key":"CountyName"}]},"MapReference":{"ReferenceId":"947141827","Spot":1.0,"SideOfStreet":"right","CountryId":"20428682","StateId":"20491572","CountyId":"20491573","CityId":"20491574","DistrictId":"22185806"}}},{"Relevance":1.0,"Distance":41.8,"MatchLevel":"street","MatchQuality":{"Country":1.0,"State":1.0,"County":1.0,"City":1.0,"District":1.0,"PostalCode":1.0},"Location":{"LocationId":"NT_RuoXmpoRSOvkHIe5BL6mID_l_947138168_R","LocationType":"point","DisplayPosition":{"Latitude":48.72061,"Longitude":18.25749},"MapView":{"TopLeft":{"Latitude":48.72067,"Longitude":18.25733},"BottomRight":{"Latitude":48.72061,"Longitude":18.25749}},"Address":{"Label":"957 01 Bánovce nad Bebravou, Slovenská Republika","Country":"SVK","State":"Trenčiansky kraj","County":"Bánovce nad Bebravou","City":"Bánovce nad Bebravou","District":"Bánovce nad Bebravou","PostalCode":"957 01","AdditionalData":[{"value":"Slovenská Republika","key":"CountryName"},{"value":"Trenčiansky kraj","key":"StateName"},{"value":"Bánovce nad Bebravou","key":"CountyName"}]},"MapReference":{"ReferenceId":"947138168","Spot":0.0,"SideOfStreet":"right","CountryId":"20428682","StateId":"20491572","CountyId":"20491573","CityId":"20491574","DistrictId":"22185806"}}},{"Relevance":1.0,"Distance":53.6,"MatchLevel":"street","MatchQuality":{"Country":1.0,"State":1.0,"County":1.0,"City":1.0,"District":1.0,"PostalCode":1.0},"Location":{"LocationId":"NT_RuoXmpoRSOvkHIe5BL6mID_l_709059766_L","LocationType":"point","DisplayPosition":{"Latitude":48.72014,"Longitude":18.25794},"MapView":{"TopLeft":{"Latitude":48.72014,"Longitude":18.25784},"BottomRight":{"Latitude":48.72001,"Longitude":18.25794}},"Address":{"Label":"957 01 Bánovce nad Bebravou, Slovenská Republika","Country":"SVK","State":"Trenčiansky kraj","County":"Bánovce nad Bebravou","City":"Bánovce nad Bebravou","District":"Bánovce nad Bebravou","PostalCode":"957 01","AdditionalData":[{"value":"Slovenská Republika","key":"CountryName"},{"value":"Trenčiansky kraj","key":"StateName"},{"value":"Bánovce nad Bebravou","key":"CountyName"}]},"MapReference":{"ReferenceId":"709059766","Spot":1.0,"SideOfStreet":"left","CountryId":"20428682","StateId":"20491572","CountyId":"20491573","CityId":"20491574","DistrictId":"22185806"}}},{"Relevance":1.0,"Distance":54.3,"MatchLevel":"houseNumber","MatchQuality":{"Country":1.0,"State":1.0,"County":1.0,"City":1.0,"District":1.0,"Street":[1.0],"HouseNumber":1.0,"PostalCode":1.0},"MatchType":"interpolated","Location":{"LocationId":"NT_BKx.5SiIP6ZxJsr2m3jloA_xgTNwA","LocationType":"point","DisplayPosition":{"Latitude":48.72095,"Longitude":18.25752},"MapView":{"TopLeft":{"Latitude":48.7220742,"Longitude":18.255816},"BottomRight":{"Latitude":48.7198258,"Longitude":18.259224}},"Address":{"Label":"Janka Jesenského 1850, 957 01 Bánovce nad Bebravou, Slovenská Republika","Country":"SVK","State":"Trenčiansky kraj","County":"Bánovce nad Bebravou","City":"Bánovce nad Bebravou","District":"Bánovce nad Bebravou","Street":"Janka Jesenského","HouseNumber":"1850","PostalCode":"957 01","AdditionalData":[{"value":"Slovenská Republika","key":"CountryName"},{"value":"Trenčiansky kraj","key":"StateName"},{"value":"Bánovce nad Bebravou","key":"CountyName"}]},"MapReference":{"ReferenceId":"947141829","Spot":0.76,"SideOfStreet":"left","CountryId":"20428682","StateId":"20491572","CountyId":"20491573","CityId":"20491574","DistrictId":"22185806","AddressId":"299811953","RoadLinkId":"294960509"}}},{"Relevance":1.0,"Distance":56.3,"MatchLevel":"houseNumber","MatchQuality":{"Country":1.0,"State":1.0,"County":1.0,"City":1.0,"District":1.0,"Street":[1.0],"HouseNumber":1.0,"PostalCode":1.0},"MatchType":"interpolated","Location":{"LocationId":"NT_hDO6lLMq0WkwQ5z6i7XpGC_xETO58yM","LocationType":"point","DisplayPosition":{"Latitude":48.72117,"Longitude":18.25867},"MapView":{"TopLeft":{"Latitude":48.7222942,"Longitude":18.256966},"BottomRight":{"Latitude":48.7200458,"Longitude":18.260374}},"Address":{"Label":"Sládkovičova 1199/3, 957 01 Bánovce nad Bebravou, Slovenská Republika","Country":"SVK","State":"Trenčiansky kraj","County":"Bánovce nad Bebravou","City":"Bánovce nad Bebravou","District":"Bánovce nad Bebravou","Street":"Sládkovičova","HouseNumber":"1199/3","PostalCode":"957 01","AdditionalData":[{"value":"Slovenská Republika","key":"CountryName"},{"value":"Trenčiansky kraj","key":"StateName"},{"value":"Bánovce nad Bebravou","key":"CountyName"}]},"MapReference":{"ReferenceId":"709059738","Spot":0.98,"SideOfStreet":"left","CountryId":"20428682","StateId":"20491572","CountyId":"20491573","CityId":"20491574","DistrictId":"22185806","AddressId":"300100652","RoadLinkId":"114360347"}}},{"Relevance":1.0,"Distance":60.4,"MatchLevel":"houseNumber","MatchQuality":{"Country":1.0,"State":1.0,"County":1.0,"City":1.0,"District":1.0,"Street":[1.0],"HouseNumber":1.0,"PostalCode":1.0},"MatchType":"interpolated","Location":{"LocationId":"NT_eAAxRVhXnJLBfzwKJCUlxD_yMzLzA","LocationType":"point","DisplayPosition":{"Latitude":48.72008,"Longitude":18.25857},"MapView":{"TopLeft":{"Latitude":48.7212042,"Longitude":18.2568661},"BottomRight":{"Latitude":48.7189558,"Longitude":18.2602739}},"Address":{"Label":"Hviezdoslavova 23/3, 957 01 Bánovce nad Bebravou, Slovenská Republika","Country":"SVK","State":"Trenčiansky kraj","County":"Bánovce nad Bebravou","City":"Bánovce nad Bebravou","District":"Bánovce nad Bebravou","Street":"Hviezdoslavova","HouseNumber":"23/3","PostalCode":"957 01","AdditionalData":[{"value":"Slovenská Republika","key":"CountryName"},{"value":"Trenčiansky kraj","key":"StateName"},{"value":"Bánovce nad Bebravou","key":"CountyName"}]},"MapReference":{"ReferenceId":"709059771","Spot":0.46,"SideOfStreet":"left","CountryId":"20428682","StateId":"20491572","CountyId":"20491573","CityId":"20491574","DistrictId":"22185806","AddressId":"300119073","RoadLinkId":"114360380"}}},{"Relevance":1.0,"Distance":63.2,"MatchLevel":"houseNumber","MatchQuality":{"Country":1.0,"State":1.0,"County":1.0,"City":1.0,"District":1.0,"Street":[1.0],"HouseNumber":1.0,"PostalCode":1.0},"MatchType":"interpolated","Location":{"LocationId":"NT_hDO6lLMq0WkwQ5z6i7XpGC_xETO58CN","LocationType":"point","DisplayPosition":{"Latitude":48.72128,"Longitude":18.25849},"MapView":{"TopLeft":{"Latitude":48.7224042,"Longitude":18.256786},"BottomRight":{"Latitude":48.7201558,"Longitude":18.260194}},"Address":{"Label":"Sládkovičova 1199/4, 957 01 Bánovce nad Bebravou, Slovenská Republika","Country":"SVK","State":"Trenčiansky kraj","County":"Bánovce nad Bebravou","City":"Bánovce nad Bebravou","District":"Bánovce nad Bebravou","Street":"Sládkovičova","HouseNumber":"1199/4","PostalCode":"957 01","AdditionalData":[{"value":"Slovenská Republika","key":"CountryName"},{"value":"Trenčiansky kraj","key":"StateName"},{"value":"Bánovce nad Bebravou","key":"CountyName"}]},"MapReference":{"ReferenceId":"709059735","Spot":0.34,"SideOfStreet":"left","CountryId":"20428682","StateId":"20491572","CountyId":"20491573","CityId":"20491574","DistrictId":"22185806","AddressId":"299609828","RoadLinkId":"114360344"}}}]}]}}