{"Response":{"MetaInfo":{"Timestamp":"2020-03-28T10:22:32.204+0000","NextPageInformation":"2"},"View":[{"_type":"SearchResultsViewType","ViewId":0,"Result":[{"Relevance":1.0,"Distance":0.0,"Direction":0.0,"MatchLevel":"district","MatchQuality":{"Country":1.0,"State":1.0,"County":1.0,"City":1.0,"District":1.0,"PostalCode":1.0},"Location":{"LocationId":"NT_noDAjnK5vQgvHw15T84c2C","LocationType":"point","DisplayPosition":{"Latitude":48.7413968,"Longitude":9.3002614},"MapView":{"TopLeft":{"Latitude":48.76424,"Longitude":9.28807},"BottomRight":{"Latitude":48.71659,"Longitude":9.36947}},"Address":{"Label":"Esslingen am Neckar, Baden-Württemberg, Deutschland","Country":"DEU","State":"Baden-Württemberg","County":"Esslingen","City":"Esslingen am Neckar","District":"Esslingen am Neckar","PostalCode":"73728","AdditionalData":[{"value":"Deutschland","key":"CountryName"},{"value":"Baden-Württemberg","key":"StateName"},{"value":"Esslingen","key":"CountyName"}]},"MapReference":{"ReferenceId":"1209618856","SideOfStreet":"neither","CountryId":"20147700","StateId":"20171489","CountyId":"20171626","CityId":"20171663","DistrictId":"20171669"}}},{"Relevance":1.0,"Distance":17.3,"MatchLevel":"houseNumber","MatchQuality":{"Country":1.0,"State":1.0,"County":1.0,"City":1.0,"District":1.0,"Street":[1.0],"HouseNumber":1.0,"PostalCode":1.0},"MatchType":"interpolated","Location":{"LocationId":"NT_Plv.XQhXLPxT2k77UXJIRB_xQD","LocationType":"point","DisplayPosition":{"Latitude":48.74148,"Longitude":9.29988},"MapView":{"TopLeft":{"Latitude":48.7426042,"Longitude":9.2981753},"BottomRight":{"Latitude":48.7403558,"Longitude":9.3015847}},"Address":{"Label":"Kollwitzstraße 14, 73728 Esslingen am Neckar, Deutschland","Country":"DEU","State":"Baden-Württemberg","County":"Esslingen","City":"Esslingen am Neckar","District":"Esslingen am Neckar","Street":"Kollwitzstraße","HouseNumber":"14","PostalCode":"73728","AdditionalData":[{"value":"Deutschland","key":"CountryName"},{"value":"Baden-Württemberg","key":"StateName"},{"value":"Esslingen","key":"CountyName"}]},"MapReference":{"ReferenceId":"537982083","Spot":0.34,"SideOfStreet":"right","CountryId":"20147700","StateId":"20171489","CountyId":"20171626","CityId":"20171663","DistrictId":"20171669","AddressId":"178767181","RoadLinkId":"38799717"}}},{"Relevance":1.0,"Distance":30.6,"MatchLevel":"houseNumber","MatchQuality":{"Country":1.0,"State":1.0,"County":1.0,"City":1.0,"District":1.0,"Street":[1.0],"HouseNumber":1.0,"PostalCode":1.0},"MatchType":"interpolated","Location":{"LocationId":"NT_StDyVfIqeDcmf8BO9yy.oA_yYD","LocationType":"point","DisplayPosition":{"Latitude":48.74107,"Longitude":9.30013},"MapView":{"TopLeft":{"Latitude":48.7421942,"Longitude":9.2984254},"BottomRight":{"Latitude":48.7399458,"Longitude":9.3018346}},"Address":{"Label":"Martinstraße 26, 73728 Esslingen am Neckar, Deutschland","Country":"DEU","State":"Baden-Württemberg","County":"Esslingen","City":"Esslingen am Neckar","District":"Esslingen am Neckar","Street":"Martinstraße","HouseNumber":"26","PostalCode":"73728","AdditionalData":[{"value":"Deutschland","key":"CountryName"},{"value":"Baden-Württemberg","key":"StateName"},{"value":"Esslingen","key":"CountyName"}]},"MapReference":{"ReferenceId":"52865614","Spot":0.73,"SideOfStreet":"right","CountryId":"20147700","StateId":"20171489","CountyId":"20171626","CityId":"20171663","DistrictId":"20171669","AddressId":"179268853","RoadLinkId":"38700676"}}},{"Relevance":1.0,"Distance":37.9,"MatchLevel":"houseNumber","MatchQuality":{"Country":1.0,"State":1.0,"County":1.0,"City":1.0,"District":1.0,"Street":[1.0],"HouseNumber":1.0,"PostalCode":1.0},"MatchType":"interpolated","Location":{"LocationId":"NT_Plv.XQhXLPxT2k77UXJIRB_l_537982082_R_xID","LocationType":"point","DisplayPosition":{"Latitude":48.741195,"Longitude":9.29976},"MapView":{"TopLeft":{"Latitude":48.7423192,"Longitude":9.2980554},"BottomRight":{"Latitude":48.7400709,"Longitude":9.3014647}},"Address":{"Label":"Kollwitzstraße 12, 73728 Esslingen am Neckar, Deutschland","Country":"DEU","State":"Baden-Württemberg","County":"Esslingen","City":"Esslingen am Neckar","District":"Esslingen am Neckar","Street":"Kollwitzstraße","HouseNumber":"12","PostalCode":"73728","AdditionalData":[{"value":"Deutschland","key":"CountryName"},{"value":"Baden-Württemberg","key":"StateName"},{"value":"Esslingen","key":"CountyName"}]},"MapReference":{"ReferenceId":"537982082","Spot":0.5,"SideOfStreet":"right","CountryId":"20147700","StateId":"20171489","CountyId":"20171626","CityId":"20171663","DistrictId":"20171669"}}},{"Relevance":1.0,"Distance":38.3,"MatchLevel":"houseNumber","MatchQuality":{"Country":1.0,"State":1.0,"County":1.0,"City":1.0,"District":1.0,"Street":[1.0],"HouseNumber":1.0,"PostalCode":1.0},"MatchType":"interpolated","Location":{"LocationId":"NT_xLPwG38sC0F-DAWTc3A.gD_xkzLxA","LocationType":"point","DisplayPosition":{"Latitude":48.74184,"Longitude":9.30066},"MapView":{"TopLeft":{"Latitude":48.7429642,"Longitude":9.2989553},"BottomRight":{"Latitude":48.7407158,"Longitude":9.3023647}},"Address":{"Label":"Schelztorstraße 19/1, 73728 Esslingen am Neckar, Deutschland","Country":"DEU","State":"Baden-Württemberg","County":"Esslingen","City":"Esslingen am Neckar","District":"Esslingen am Neckar","Street":"Schelztorstraße","HouseNumber":"19/1","PostalCode":"73728","AdditionalData":[{"value":"Deutschland","key":"CountryName"},{"value":"Baden-Württemberg","key":"StateName"},{"value":"Esslingen","key":"CountyName"}]},"MapReference":{"ReferenceId":"52866360","Spot":0.73,"SideOfStreet":"left","CountryId":"20147700","StateId":"20171489","CountyId":"20171626","CityId":"20171663","DistrictId":"20171669","AddressId":"179165975","RoadLinkId":"38861913"}}},{"Relevance":1.0,"Distance":38.9,"MatchLevel":"street","MatchQuality":{"Country":1.0,"State":1.0,"County":1.0,"City":1.0,"District":1.0,"Street":[1.0],"PostalCode":1.0},"Location":{"LocationId":"NT_axawIcHXyi4M1m13B6pOtC_l_589246716_R","LocationType":"point","DisplayPosition":{"Latitude":48.74125,"Longitude":9.29978},"MapView":{"TopLeft":{"Latitude":48.7413,"Longitude":9.29931},"BottomRight":{"Latitude":48.74125,"Longitude":9.29978}},"Address":{"Label":"Platz der Deutschen Einheit, 73728 Esslingen am Neckar, Deutschland","Country":"DEU","State":"Baden-Württemberg","County":"Esslingen","City":"Esslingen am Neckar","District":"Esslingen am Neckar","Street":"Platz der Deutschen Einheit","PostalCode":"73728","AdditionalData":[{"value":"Deutschland","key":"CountryName"},{"value":"Baden-Württemberg","key":"StateName"},{"value":"Esslingen","key":"CountyName"}]},"MapReference":{"ReferenceId":"589246716","Spot":0.0,"SideOfStreet":"right","CountryId":"20147700","StateId":"20171489","CountyId":"20171626","CityId":"20171663","DistrictId":"20171669"}}},{"Relevance":1.0,"Distance":47.7,"MatchLevel":"street","MatchQuality":{"Country":1.0,"State":1.0,"County":1.0,"City":1.0,"District":1.0,"Street":[1.0],"PostalCode":1.0},"Location":{"LocationId":"NT_StDyVfIqeDcmf8BO9yy.oA_l_52865615_R","LocationType":"point","DisplayPosition":{"Latitude":48.74114,"Longitude":9.29974},"MapView":{"TopLeft":{"Latitude":48.74125,"Longitude":9.29923},"BottomRight":{"Latitude":48.74114,"Longitude":9.29974}},"Address":{"Label":"Martinstraße, 73728 Esslingen am Neckar, Deutschland","Country":"DEU","State":"Baden-Württemberg","County":"Esslingen","City":"Esslingen am Neckar","District":"Esslingen am Neckar","Street":"Martinstraße","PostalCode":"73728","AdditionalData":[{"value":"Deutschland","key":"CountryName"},{"value":"Baden-Württemberg","key":"StateName"},{"value":"Esslingen","key":"CountyName"}]},"MapReference":{"ReferenceId":"52865615","Spot":0.0,"SideOfStreet":"right","CountryId":"20147700","StateId":"20171489","CountyId":"20171626","CityId":"20171663","DistrictId":"20171669"}}},{"Relevance":1.0,"Distance":47.7,"MatchLevel":"street","MatchQuality":{"Country":1.0,"State":1.0,"County":1.0,"City":1.0,"District":1.0,"Street":[1.0],"PostalCode":1.0},"Location":{"LocationId":"NT_Plv.XQhXLPxT2k77UXJIRB_l_53227234_R","LocationType":"point","DisplayPosition":{"Latitude":48.74114,"Longitude":9.29974},"MapView":{"TopLeft":{"Latitude":48.74114,"Longitude":9.29965},"BottomRight":{"Latitude":48.74099,"Longitude":9.29974}},"Address":{"Label":"Kollwitzstraße, 73728 Esslingen am Neckar, Deutschland","Country":"DEU","State":"Baden-Württemberg","County":"Esslingen","City":"Esslingen am Neckar","District":"Esslingen am Neckar","Street":"Kollwitzstraße","PostalCode":"73728","AdditionalData":[{"value":"Deutschland","key":"CountryName"},{"value":"Baden-Württemberg","key":"StateName"},{"value":"Esslingen","key":"CountyName"}]},"MapReference":{"ReferenceId":"53227234","Spot":1.0,"SideOfStreet":"right","CountryId":"20147700","StateId":"20171489","CountyId":"20171626","CityId":"20171663","DistrictId":"20171669"}}},{"Relevance":1.0,"Distance":63.7,"MatchLevel":"street","MatchQuality":{"Country":1.0,"State":1.0,"County":1.0,"City":1.0,"District":1.0,"Street":[1.0],"PostalCode":1.0},"Location":{"LocationId":"NT_axawIcHXyi4M1m13B6pOtC_l_53227235_R","LocationType":"point","DisplayPosition":{"Latitude":48.74099,"Longitude":9.29965},"MapView":{"TopLeft":{"Latitude":48.74125,"Longitude":9.29923},"BottomRight":{"Latitude":48.74099,"Longitude":9.29965}},"Address":{"Label":"Platz der Deutschen Einheit, 73728 Esslingen am Neckar, Deutschland","Country":"DEU","State":"Baden-Württemberg","County":"Esslingen","City":"Esslingen am Neckar","District":"Esslingen am Neckar","Street":"Platz der Deutschen Einheit","PostalCode":"73728","AdditionalData":[{"value":"Deutschland","key":"CountryName"},{"value":"Baden-Württemberg","key":"StateName"},{"value":"Esslingen","key":"CountyName"}]},"MapReference":{"ReferenceId":"53227235","Spot":0.0,"SideOfStreet":"right","CountryId":"20147700","StateId":"20171489","CountyId":"20171626","CityId":"20171663","DistrictId":"20171669"}}},{"Relevance":1.0,"Distance":63.7,"MatchLevel":"street","MatchQuality":{"Country":1.0,"State":1.0,"County":1.0,"City":1.0,"District":1.0,"Street":[1.0],"PostalCode":1.0},"Location":{"LocationId":"NT_Plv.XQhXLPxT2k77UXJIRB_l_53114339_R","LocationType":"point","DisplayPosition":{"Latitude":48.74099,"Longitude":9.29965},"MapView":{"TopLeft":{"Latitude":48.74099,"Longitude":9.29949},"BottomRight":{"Latitude":48.7406,"Longitude":9.29965}},"Address":{"Label":"Kollwitzstraße, 73728 Esslingen am Neckar, Deutschland","Country":"DEU","State":"Baden-Württemberg","County":"Esslingen","City":"Esslingen am Neckar","District":"Esslingen am Neckar","Street":"Kollwitzstraße","PostalCode":"73728","AdditionalData":[{"value":"Deutschland","key":"CountryName"},{"value":"Baden-Württemberg","key":"StateName"},{"value":"Esslingen","key":"CountyName"}]},"MapReference":{"ReferenceId":"53114339","Spot":1.0,"SideOfStreet":"right","CountryId":"20147700","StateId":"20171489","CountyId":"20171626","CityId":"20171663","DistrictId":"20171669"}}}]}]}}