{"Response":{"MetaInfo":{"Timestamp":"2020-03-28T11:40:54.106+0000","NextPageInformation":"2"},"View":[{"_type":"SearchResultsViewType","ViewId":0,"Result":[{"Relevance":1.0,"Distance":0.0,"Direction":0.0,"MatchLevel":"district","MatchQuality":{"Country":1.0,"State":1.0,"County":1.0,"City":1.0,"District":1.0,"PostalCode":1.0},"Location":{"LocationId":"NT_noDAjnK5vQgvHw15T84c2C","LocationType":"point","DisplayPosition":{"Latitude":48.7431395,"Longitude":9.3393712},"MapView":{"TopLeft":{"Latitude":48.76424,"Longitude":9.28807},"BottomRight":{"Latitude":48.71659,"Longitude":9.36947}},"Address":{"Label":"Esslingen am Neckar, Baden-Württemberg, Deutschland","Country":"DEU","State":"Baden-Württemberg","County":"Esslingen","City":"Esslingen am Neckar","District":"Esslingen am Neckar","PostalCode":"73728","AdditionalData":[{"value":"Deutschland","key":"CountryName"},{"value":"Baden-Württemberg","key":"StateName"},{"value":"Esslingen","key":"CountyName"}]},"MapReference":{"ReferenceId":"1209618856","SideOfStreet":"neither","CountryId":"20147700","StateId":"20171489","CountyId":"20171626","CityId":"20171663","DistrictId":"20171669"}}},{"Relevance":1.0,"Distance":6.7,"MatchLevel":"houseNumber","MatchQuality":{"Country":1.0,"State":1.0,"County":1.0,"City":1.0,"District":1.0,"Street":[1.0],"HouseNumber":1.0,"PostalCode":1.0},"MatchType":"interpolated","Location":{"LocationId":"NT_Ats.JpcwJQrzfV5Uwr2FvC_5A","LocationType":"point","DisplayPosition":{"Latitude":48.74325,"Longitude":9.33929},"MapView":{"TopLeft":{"Latitude":48.7443742,"Longitude":9.3375853},"BottomRight":{"Latitude":48.7421258,"Longitude":9.3409947}},"Address":{"Label":"Esslinger Straße 9, 73732 Esslingen am Neckar, Deutschland","Country":"DEU","State":"Baden-Württemberg","County":"Esslingen","City":"Esslingen am Neckar","District":"Esslingen am Neckar","Street":"Esslinger Straße","HouseNumber":"9","PostalCode":"73732","AdditionalData":[{"value":"Deutschland","key":"CountryName"},{"value":"Baden-Württemberg","key":"StateName"},{"value":"Esslingen","key":"CountyName"}]},"MapReference":{"ReferenceId":"880425412","Spot":0.43,"SideOfStreet":"left","CountryId":"20147700","StateId":"20171489","CountyId":"20171626","CityId":"20171663","DistrictId":"20171669","AddressId":"178055279","RoadLinkId":"249065028"}}},{"Relevance":1.0,"Distance":31.6,"MatchLevel":"street","MatchQuality":{"Country":1.0,"State":1.0,"County":1.0,"City":1.0,"District":1.0,"Street":[1.0],"PostalCode":1.0},"Location":{"LocationId":"NT_Ats.JpcwJQrzfV5Uwr2FvC_l_52865084_R","LocationType":"point","DisplayPosition":{"Latitude":48.74323,"Longitude":9.33978},"MapView":{"TopLeft":{"Latitude":48.74324,"Longitude":9.33978},"BottomRight":{"Latitude":48.74323,"Longitude":9.34014}},"Address":{"Label":"Esslinger Straße, 73732 Esslingen am Neckar, Deutschland","Country":"DEU","State":"Baden-Württemberg","County":"Esslingen","City":"Esslingen am Neckar","District":"Esslingen am Neckar","Street":"Esslinger Straße","PostalCode":"73732","AdditionalData":[{"value":"Deutschland","key":"CountryName"},{"value":"Baden-Württemberg","key":"StateName"},{"value":"Esslingen","key":"CountyName"}]},"MapReference":{"ReferenceId":"52865084","Spot":0.0,"SideOfStreet":"right","CountryId":"20147700","StateId":"20171489","CountyId":"20171626","CityId":"20171663","DistrictId":"20171669"}}},{"Relevance":1.0,"Distance":41.7,"MatchLevel":"houseNumber","MatchQuality":{"Country":1.0,"State":1.0,"County":1.0,"City":1.0,"District":1.0,"Street":[1.0],"HouseNumber":1.0,"PostalCode":1.0},"MatchType":"interpolated","Location":{"LocationId":"NT_wU-r19huiWFRo4WN2SD0yC_0A","LocationType":"point","DisplayPosition":{"Latitude":48.74272,"Longitude":9.33933},"MapView":{"TopLeft":{"Latitude":48.7438442,"Longitude":9.3376253},"BottomRight":{"Latitude":48.7415958,"Longitude":9.3410347}},"Address":{"Label":"Christian-Fink-Straße 4, 73732 Esslingen am Neckar, Deutschland","Country":"DEU","State":"Baden-Württemberg","County":"Esslingen","City":"Esslingen am Neckar","District":"Esslingen am Neckar","Street":"Christian-Fink-Straße","HouseNumber":"4","PostalCode":"73732","AdditionalData":[{"value":"Deutschland","key":"CountryName"},{"value":"Baden-Württemberg","key":"StateName"},{"value":"Esslingen","key":"CountyName"}]},"MapReference":{"ReferenceId":"52864994","Spot":0.38,"SideOfStreet":"left","CountryId":"20147700","StateId":"20171489","CountyId":"20171626","CityId":"20171663","DistrictId":"20171669","AddressId":"178938050","RoadLinkId":"38787798"}}},{"Relevance":1.0,"Distance":53.3,"MatchLevel":"houseNumber","MatchQuality":{"Country":1.0,"State":1.0,"County":1.0,"City":1.0,"District":1.0,"Street":[1.0],"HouseNumber":1.0,"PostalCode":1.0},"MatchType":"interpolated","Location":{"LocationId":"NT_bg45gPPk1wy-ApDifxYBaD_xA","LocationType":"point","DisplayPosition":{"Latitude":48.74353,"Longitude":9.34002},"MapView":{"TopLeft":{"Latitude":48.7446542,"Longitude":9.3383153},"BottomRight":{"Latitude":48.7424058,"Longitude":9.3417247}},"Address":{"Label":"Anhäuserstraße 1, 73732 Esslingen am Neckar, Deutschland","Country":"DEU","State":"Baden-Württemberg","County":"Esslingen","City":"Esslingen am Neckar","District":"Esslingen am Neckar","Street":"Anhäuserstraße","HouseNumber":"1","PostalCode":"73732","AdditionalData":[{"value":"Deutschland","key":"CountryName"},{"value":"Baden-Württemberg","key":"StateName"},{"value":"Esslingen","key":"CountyName"}]},"MapReference":{"ReferenceId":"721130910","Spot":0.57,"SideOfStreet":"left","CountryId":"20147700","StateId":"20171489","CountyId":"20171626","CityId":"20171663","DistrictId":"20171669","AddressId":"178206362","RoadLinkId":"125522222"}}},{"Relevance":1.0,"Distance":56.9,"MatchLevel":"street","MatchQuality":{"Country":1.0,"State":1.0,"County":1.0,"City":1.0,"District":1.0,"Street":[1.0],"PostalCode":1.0},"Location":{"LocationId":"NT_Ats.JpcwJQrzfV5Uwr2FvC_l_880425413_L","LocationType":"point","DisplayPosition":{"Latitude":48.74329,"Longitude":9.33863},"MapView":{"TopLeft":{"Latitude":48.7433,"Longitude":9.33849},"BottomRight":{"Latitude":48.74329,"Longitude":9.33863}},"Address":{"Label":"Esslinger Straße, 73732 Esslingen am Neckar, Deutschland","Country":"DEU","State":"Baden-Württemberg","County":"Esslingen","City":"Esslingen am Neckar","District":"Esslingen am Neckar","Street":"Esslinger Straße","PostalCode":"73732","AdditionalData":[{"value":"Deutschland","key":"CountryName"},{"value":"Baden-Württemberg","key":"StateName"},{"value":"Esslingen","key":"CountyName"}]},"MapReference":{"ReferenceId":"880425413","Spot":0.0,"SideOfStreet":"left","CountryId":"20147700","StateId":"20171489","CountyId":"20171626","CityId":"20171663","DistrictId":"20171669"}}},{"Relevance":1.0,"Distance":67.9,"MatchLevel":"houseNumber","MatchQuality":{"Country":1.0,"State":1.0,"County":1.0,"City":1.0,"District":1.0,"Street":[1.0],"HouseNumber":1.0,"PostalCode":1.0},"MatchType":"interpolated","Location":{"LocationId":"NT_JEQam1Ar-GwbEv0DLI.nzD_0A","LocationType":"point","DisplayPosition":{"Latitude":48.74376,"Longitude":9.33891},"MapView":{"TopLeft":{"Latitude":48.7448842,"Longitude":9.3372053},"BottomRight":{"Latitude":48.7426358,"Longitude":9.3406147}},"Address":{"Label":"Hessengasse 4, 73732 Esslingen am Neckar, Deutschland","Country":"DEU","State":"Baden-Württemberg","County":"Esslingen","City":"Esslingen am Neckar","District":"Esslingen am Neckar","Street":"Hessengasse","HouseNumber":"4","PostalCode":"73732","AdditionalData":[{"value":"Deutschland","key":"CountryName"},{"value":"Baden-Württemberg","key":"StateName"},{"value":"Esslingen","key":"CountyName"}]},"MapReference":{"ReferenceId":"52865275","Spot":0.86,"SideOfStreet":"right","CountryId":"20147700","StateId":"20171489","CountyId":"20171626","CityId":"20171663","DistrictId":"20171669","AddressId":"178950681","RoadLinkId":"38499661"}}},{"Relevance":1.0,"Distance":73.0,"MatchLevel":"houseNumber","MatchQuality":{"Country":1.0,"State":1.0,"County":1.0,"City":1.0,"District":1.0,"Street":[1.0],"HouseNumber":1.0,"PostalCode":1.0},"MatchType":"interpolated","Location":{"LocationId":"NT_bg45gPPk1wy-ApDifxYBaD_1A","LocationType":"point","DisplayPosition":{"Latitude":48.74386,"Longitude":9.33969},"MapView":{"TopLeft":{"Latitude":48.7449842,"Longitude":9.3379853},"BottomRight":{"Latitude":48.7427358,"Longitude":9.3413947}},"Address":{"Label":"Anhäuserstraße 5, 73732 Esslingen am Neckar, Deutschland","Country":"DEU","State":"Baden-Württemberg","County":"Esslingen","City":"Esslingen am Neckar","District":"Esslingen am Neckar","Street":"Anhäuserstraße","HouseNumber":"5","PostalCode":"73732","AdditionalData":[{"value":"Deutschland","key":"CountryName"},{"value":"Baden-Württemberg","key":"StateName"},{"value":"Esslingen","key":"CountyName"}]},"MapReference":{"ReferenceId":"721130911","Spot":0.51,"SideOfStreet":"left","CountryId":"20147700","StateId":"20171489","CountyId":"20171626","CityId":"20171663","DistrictId":"20171669","AddressId":"178248139","RoadLinkId":"125522223"}}},{"Relevance":1.0,"Distance":80.1,"MatchLevel":"houseNumber","MatchQuality":{"Country":1.0,"State":1.0,"County":1.0,"City":1.0,"District":1.0,"Street":[1.0],"HouseNumber":1.0,"PostalCode":1.0},"MatchType":"interpolated","Location":{"LocationId":"NT_Ats.JpcwJQrzfV5Uwr2FvC_xA","LocationType":"point","DisplayPosition":{"Latitude":48.74325,"Longitude":9.34045},"MapView":{"TopLeft":{"Latitude":48.7443742,"Longitude":9.3387453},"BottomRight":{"Latitude":48.7421258,"Longitude":9.3421547}},"Address":{"Label":"Esslinger Straße 1, 73732 Esslingen am Neckar, Deutschland","Country":"DEU","State":"Baden-Württemberg","County":"Esslingen","City":"Esslingen am Neckar","District":"Esslingen am Neckar","Street":"Esslinger Straße","HouseNumber":"1","PostalCode":"73732","AdditionalData":[{"value":"Deutschland","key":"CountryName"},{"value":"Baden-Württemberg","key":"StateName"},{"value":"Esslingen","key":"CountyName"}]},"MapReference":{"ReferenceId":"52865083","Spot":0.44,"SideOfStreet":"right","CountryId":"20147700","StateId":"20171489","CountyId":"20171626","CityId":"20171663","DistrictId":"20171669","AddressId":"177483376","RoadLinkId":"38351230"}}},{"Relevance":1.0,"Distance":82.0,"MatchLevel":"street","MatchQuality":{"Country":1.0,"State":1.0,"County":1.0,"City":1.0,"District":1.0,"Street":[1.0],"PostalCode":1.0},"Location":{"LocationId":"NT_JEQam1Ar-GwbEv0DLI.nzD_l_52865272_R","LocationType":"point","DisplayPosition":{"Latitude":48.74383,"Longitude":9.33898},"MapView":{"TopLeft":{"Latitude":48.74397,"Longitude":9.33898},"BottomRight":{"Latitude":48.74383,"Longitude":9.33922}},"Address":{"Label":"Hessengasse, 73732 Esslingen am Neckar, Deutschland","Country":"DEU","State":"Baden-Württemberg","County":"Esslingen","City":"Esslingen am Neckar","District":"Esslingen am Neckar","Street":"Hessengasse","PostalCode":"73732","AdditionalData":[{"value":"Deutschland","key":"CountryName"},{"value":"Baden-Württemberg","key":"StateName"},{"value":"Esslingen","key":"CountyName"}]},"MapReference":{"ReferenceId":"52865272","Spot":0.0,"SideOfStreet":"right","CountryId":"20147700","StateId":"20171489","CountyId":"20171626","CityId":"20171663","DistrictId":"20171669"}}}]}]}}