{"Response":{"MetaInfo":{"Timestamp":"2020-03-28T11:14:45.788+0000","NextPageInformation":"2"},"View":[{"_type":"SearchResultsViewType","ViewId":0,"Result":[{"Relevance":1.0,"Distance":0.0,"Direction":0.0,"MatchLevel":"city","MatchQuality":{"Country":1.0,"State":1.0,"County":1.0,"City":1.0,"PostalCode":1.0},"Location":{"LocationId":"NT_3Zr9VzAv9Sm-VuLiuaZ9SA","LocationType":"point","DisplayPosition":{"Latitude":48.7247462,"Longitude":-3.4417563},"MapView":{"TopLeft":{"Latitude":48.78651,"Longitude":-3.56621},"BottomRight":{"Latitude":48.70409,"Longitude":-3.38771}},"Address":{"Label":"Lannion, Bretagne, France","Country":"FRA","State":"Bretagne","County":"Côtes-d'Armor","City":"Lannion","PostalCode":"22300","AdditionalData":[{"value":"France","key":"CountryName"},{"value":"Bretagne","key":"StateName"},{"value":"Côtes-d'Armor","key":"CountyName"}]},"MapReference":{"ReferenceId":"840320462","SideOfStreet":"neither","CountryId":"20000001","StateId":"20060199","CountyId":"20060200","CityId":"20060527"}}},{"Relevance":1.0,"Distance":80.3,"MatchLevel":"houseNumber","MatchQuality":{"Country":1.0,"State":1.0,"County":1.0,"City":1.0,"Street":[1.0],"HouseNumber":1.0,"PostalCode":1.0},"MatchType":"interpolated","Location":{"LocationId":"NT_gXUDRbgxaU.oFPPPYqFb.A_3ID","LocationType":"point","DisplayPosition":{"Latitude":48.72542,"Longitude":-3.4413},"MapView":{"TopLeft":{"Latitude":48.7265442,"Longitude":-3.4430041},"BottomRight":{"Latitude":48.7242958,"Longitude":-3.4395959}},"Address":{"Label":"72 Boulevard Louis Guilloux, 22300 Lannion, France","Country":"FRA","State":"Bretagne","County":"Côtes-d'Armor","City":"Lannion","Street":"Boulevard Louis Guilloux","HouseNumber":"72","PostalCode":"22300","AdditionalData":[{"value":"France","key":"CountryName"},{"value":"Bretagne","key":"StateName"},{"value":"Côtes-d'Armor","key":"CountyName"}]},"MapReference":{"ReferenceId":"1045017085","Spot":0.91,"SideOfStreet":"right","CountryId":"20000001","StateId":"20060199","CountyId":"20060200","CityId":"20060527","AddressId":"732364296","RoadLinkId":"365259470"}}},{"Relevance":1.0,"Distance":82.6,"MatchLevel":"houseNumber","MatchQuality":{"Country":1.0,"State":1.0,"County":1.0,"City":1.0,"Street":[1.0],"HouseNumber":1.0,"PostalCode":1.0},"MatchType":"interpolated","Location":{"LocationId":"NT_gXUDRbgxaU.oFPPPYqFb.A_3QD","LocationType":"point","DisplayPosition":{"Latitude":48.72533,"Longitude":-3.44105},"MapView":{"TopLeft":{"Latitude":48.7264542,"Longitude":-3.4427541},"BottomRight":{"Latitude":48.7242058,"Longitude":-3.4393459}},"Address":{"Label":"74 Boulevard Louis Guilloux, 22300 Lannion, France","Country":"FRA","State":"Bretagne","County":"Côtes-d'Armor","City":"Lannion","Street":"Boulevard Louis Guilloux","HouseNumber":"74","PostalCode":"22300","AdditionalData":[{"value":"France","key":"CountryName"},{"value":"Bretagne","key":"StateName"},{"value":"Côtes-d'Armor","key":"CountyName"}]},"MapReference":{"ReferenceId":"1183530762","Spot":0.58,"SideOfStreet":"left","CountryId":"20000001","StateId":"20060199","CountyId":"20060200","CityId":"20060527","AddressId":"732361125","RoadLinkId":"491905202"}}},{"Relevance":1.0,"Distance":84.9,"MatchLevel":"street","MatchQuality":{"Country":1.0,"State":1.0,"County":1.0,"City":1.0,"Street":[1.0],"PostalCode":1.0},"Location":{"LocationId":"NT_gXUDRbgxaU.oFPPPYqFb.A_l_1045017086_R","LocationType":"point","DisplayPosition":{"Latitude":48.72543,"Longitude":-3.44124},"MapView":{"TopLeft":{"Latitude":48.7255,"Longitude":-3.44124},"BottomRight":{"Latitude":48.72543,"Longitude":-3.44106}},"Address":{"Label":"Boulevard Louis Guilloux, 22300 Lannion, France","Country":"FRA","State":"Bretagne","County":"Côtes-d'Armor","City":"Lannion","Street":"Boulevard Louis Guilloux","PostalCode":"22300","AdditionalData":[{"value":"France","key":"CountryName"},{"value":"Bretagne","key":"StateName"},{"value":"Côtes-d'Armor","key":"CountyName"}]},"MapReference":{"ReferenceId":"1045017086","Spot":0.0,"SideOfStreet":"right","CountryId":"20000001","StateId":"20060199","CountyId":"20060200","CityId":"20060527"}}},{"Relevance":1.0,"Distance":95.9,"MatchLevel":"street","MatchQuality":{"Country":1.0,"State":1.0,"County":1.0,"City":1.0,"Street":[1.0],"PostalCode":1.0},"Location":{"LocationId":"NT_B4bZ9bAUYkZLdiwinQCj-A_l_1183346433_R","LocationType":"point","DisplayPosition":{"Latitude":48.72545,"Longitude":-3.441},"MapView":{"TopLeft":{"Latitude":48.72548,"Longitude":-3.441},"BottomRight":{"Latitude":48.72539,"Longitude":-3.44051}},"Address":{"Label":"Rond-Point Kerampichon, 22300 Lannion, France","Country":"FRA","State":"Bretagne","County":"Côtes-d'Armor","City":"Lannion","Street":"Rond-Point Kerampichon","PostalCode":"22300","AdditionalData":[{"value":"France","key":"CountryName"},{"value":"Bretagne","key":"StateName"},{"value":"Côtes-d'Armor","key":"CountyName"}]},"MapReference":{"ReferenceId":"1183346433","Spot":0.0,"SideOfStreet":"right","CountryId":"20000001","StateId":"20060199","CountyId":"20060200","CityId":"20060527"}}},{"Relevance":1.0,"Distance":96.9,"MatchLevel":"street","MatchQuality":{"Country":1.0,"State":1.0,"County":1.0,"City":1.0,"Street":[1.0],"PostalCode":1.0},"Location":{"LocationId":"NT_gBJ-Syg3zr5hS4SraI52PB_l_774488365_R","LocationType":"point","DisplayPosition":{"Latitude":48.72388,"Longitude":-3.4419},"MapView":{"TopLeft":{"Latitude":48.7253,"Longitude":-3.44383},"BottomRight":{"Latitude":48.72366,"Longitude":-3.4419}},"Address":{"Label":"Rue du Docteur Jacques Feuillu, 22300 Lannion, France","Country":"FRA","State":"Bretagne","County":"Côtes-d'Armor","City":"Lannion","Street":"Rue du Docteur Jacques Feuillu","PostalCode":"22300","AdditionalData":[{"value":"France","key":"CountryName"},{"value":"Bretagne","key":"StateName"},{"value":"Côtes-d'Armor","key":"CountyName"}]},"MapReference":{"ReferenceId":"774488365","Spot":0.0,"SideOfStreet":"right","CountryId":"20000001","StateId":"20060199","CountyId":"20060200","CityId":"20060527"}}},{"Relevance":1.0,"Distance":98.2,"MatchLevel":"street","MatchQuality":{"Country":1.0,"State":1.0,"County":1.0,"City":1.0,"Street":[1.0],"PostalCode":1.0},"Location":{"LocationId":"NT_B4bZ9bAUYkZLdiwinQCj-A_l_1183346432_L","LocationType":"point","DisplayPosition":{"Latitude":48.7255,"Longitude":-3.44106},"MapView":{"TopLeft":{"Latitude":48.7255,"Longitude":-3.44106},"BottomRight":{"Latitude":48.72545,"Longitude":-3.441}},"Address":{"Label":"Rond-Point Kerampichon, 22300 Lannion, France","Country":"FRA","State":"Bretagne","County":"Côtes-d'Armor","City":"Lannion","Street":"Rond-Point Kerampichon","PostalCode":"22300","AdditionalData":[{"value":"France","key":"CountryName"},{"value":"Bretagne","key":"StateName"},{"value":"Côtes-d'Armor","key":"CountyName"}]},"MapReference":{"ReferenceId":"1183346432","Spot":1.0,"SideOfStreet":"left","CountryId":"20000001","StateId":"20060199","CountyId":"20060200","CityId":"20060527"}}},{"Relevance":1.0,"Distance":98.2,"MatchLevel":"street","MatchQuality":{"Country":1.0,"State":1.0,"County":1.0,"City":1.0,"Street":[1.0],"PostalCode":1.0},"Location":{"LocationId":"NT_B4bZ9bAUYkZLdiwinQCj-A_l_545547582_L","LocationType":"point","DisplayPosition":{"Latitude":48.7255,"Longitude":-3.44106},"MapView":{"TopLeft":{"Latitude":48.72561,"Longitude":-3.44109},"BottomRight":{"Latitude":48.7255,"Longitude":-3.44106}},"Address":{"Label":"Rond-Point Kerampichon, 22300 Lannion, France","Country":"FRA","State":"Bretagne","County":"Côtes-d'Armor","City":"Lannion","Street":"Rond-Point Kerampichon","PostalCode":"22300","AdditionalData":[{"value":"France","key":"CountryName"},{"value":"Bretagne","key":"StateName"},{"value":"Côtes-d'Armor","key":"CountyName"}]},"MapReference":{"ReferenceId":"545547582","Spot":0.0,"SideOfStreet":"left","CountryId":"20000001","StateId":"20060199","CountyId":"20060200","CityId":"20060527"}}},{"Relevance":1.0,"Distance":99.3,"MatchLevel":"houseNumber","MatchQuality":{"Country":1.0,"State":1.0,"County":1.0,"City":1.0,"Street":[1.0],"HouseNumber":1.0,"PostalCode":1.0},"MatchType":"interpolated","Location":{"LocationId":"NT_qjKZ7OWT0kaTVr5p6MK7qD_l_1186976984_L_1cD","LocationType":"point","DisplayPosition":{"Latitude":48.7257705,"Longitude":-3.4418222},"MapView":{"TopLeft":{"Latitude":48.7268947,"Longitude":-3.4435263},"BottomRight":{"Latitude":48.7246463,"Longitude":-3.4401181}},"Address":{"Label":"57 Boulevard Louis Guilloux, 22300 Lannion, France","Country":"FRA","State":"Bretagne","County":"Côtes-d'Armor","City":"Lannion","Street":"Boulevard Louis Guilloux","HouseNumber":"57","PostalCode":"22300","AdditionalData":[{"value":"France","key":"CountryName"},{"value":"Bretagne","key":"StateName"},{"value":"Côtes-d'Armor","key":"CountyName"}]},"MapReference":{"ReferenceId":"1186976984","Spot":0.5,"SideOfStreet":"left","CountryId":"20000001","StateId":"20060199","CountyId":"20060200","CityId":"20060527"}}},{"Relevance":1.0,"Distance":104.1,"MatchLevel":"houseNumber","MatchQuality":{"Country":1.0,"State":1.0,"County":1.0,"City":1.0,"Street":[1.0],"HouseNumber":1.0,"PostalCode":1.0},"MatchType":"interpolated","Location":{"LocationId":"NT_Nbel-ipSyGk4Kbj-EP0qKC_2A","LocationType":"point","DisplayPosition":{"Latitude":48.72432,"Longitude":-3.44032},"MapView":{"TopLeft":{"Latitude":48.7254442,"Longitude":-3.4420241},"BottomRight":{"Latitude":48.7231958,"Longitude":-3.4386159}},"Address":{"Label":"6 Chemin de Convenant Bellec, 22300 Lannion, France","Country":"FRA","State":"Bretagne","County":"Côtes-d'Armor","City":"Lannion","Street":"Chemin de Convenant Bellec","HouseNumber":"6","PostalCode":"22300","AdditionalData":[{"value":"France","key":"CountryName"},{"value":"Bretagne","key":"StateName"},{"value":"Côtes-d'Armor","key":"CountyName"}]},"MapReference":{"ReferenceId":"545553815","Spot":0.44,"SideOfStreet":"left","CountryId":"20000001","StateId":"20060199","CountyId":"20060200","CityId":"20060527","AddressId":"375385399","RoadLinkId":"47984891"}}}]}]}}