{"Response":{"MetaInfo":{"Timestamp":"2020-03-28T11:41:53.681+0000","NextPageInformation":"2"},"View":[{"_type":"SearchResultsViewType","ViewId":0,"Result":[{"Relevance":1.0,"Distance":0.0,"Direction":0.0,"MatchLevel":"district","MatchQuality":{"Country":1.0,"State":1.0,"County":1.0,"City":1.0,"District":1.0,"PostalCode":1.0},"Location":{"LocationId":"NT_JaskIH0XJaEC0RxhM6OB2C","LocationType":"point","DisplayPosition":{"Latitude":48.7837716,"Longitude":9.1612843},"MapView":{"TopLeft":{"Latitude":48.80475,"Longitude":9.07518},"BottomRight":{"Latitude":48.75541,"Longitude":9.17151}},"Address":{"Label":"West, Stuttgart, Baden-Württemberg, Deutschland","Country":"DEU","State":"Baden-Württemberg","County":"Stuttgart","City":"Stuttgart","District":"West","PostalCode":"70176","AdditionalData":[{"value":"Deutschland","key":"CountryName"},{"value":"Baden-Württemberg","key":"StateName"},{"value":"Stuttgart","key":"CountyName"}]},"MapReference":{"ReferenceId":"589249951","SideOfStreet":"neither","CountryId":"20147700","StateId":"20171489","CountyId":"20171490","CityId":"20171491","DistrictId":"20315095"}}},{"Relevance":1.0,"Distance":6.9,"MatchLevel":"houseNumber","MatchQuality":{"Country":1.0,"State":1.0,"County":1.0,"City":1.0,"District":1.0,"Street":[1.0],"HouseNumber":1.0,"PostalCode":1.0},"MatchType":"interpolated","Location":{"LocationId":"NT_Va6Aqa.-VusBVh.rQNZF0B_yYD","LocationType":"point","DisplayPosition":{"Latitude":48.78351,"Longitude":9.16138},"MapView":{"TopLeft":{"Latitude":48.7846342,"Longitude":9.1596739},"BottomRight":{"Latitude":48.7823858,"Longitude":9.1630861}},"Address":{"Label":"Kornbergstraße 26, 70176 Stuttgart, Deutschland","Country":"DEU","State":"Baden-Württemberg","County":"Stuttgart","City":"Stuttgart","District":"West","Street":"Kornbergstraße","HouseNumber":"26","PostalCode":"70176","AdditionalData":[{"value":"Deutschland","key":"CountryName"},{"value":"Baden-Württemberg","key":"StateName"},{"value":"Stuttgart","key":"CountyName"}]},"MapReference":{"ReferenceId":"52853177","Spot":0.19,"SideOfStreet":"left","CountryId":"20147700","StateId":"20171489","CountyId":"20171490","CityId":"20171491","DistrictId":"20315095","AddressId":"169143466","RoadLinkId":"38449775"}}},{"Relevance":1.0,"Distance":44.4,"MatchLevel":"houseNumber","MatchQuality":{"Country":1.0,"State":1.0,"County":1.0,"City":1.0,"District":1.0,"Street":[1.0],"HouseNumber":1.0,"PostalCode":1.0},"MatchType":"interpolated","Location":{"LocationId":"NT_0I0R8t4ngmospQI8WqmAdC_0cD","LocationType":"point","DisplayPosition":{"Latitude":48.78423,"Longitude":9.16167},"MapView":{"TopLeft":{"Latitude":48.7853542,"Longitude":9.1599639},"BottomRight":{"Latitude":48.7831058,"Longitude":9.1633761}},"Address":{"Label":"Hegelstraße 47, 70174 Stuttgart, Deutschland","Country":"DEU","State":"Baden-Württemberg","County":"Stuttgart","City":"Stuttgart","District":"Mitte","Street":"Hegelstraße","HouseNumber":"47","PostalCode":"70174","AdditionalData":[{"value":"Deutschland","key":"CountryName"},{"value":"Baden-Württemberg","key":"StateName"},{"value":"Stuttgart","key":"CountyName"}]},"MapReference":{"ReferenceId":"809590230","Spot":1.0,"SideOfStreet":"left","CountryId":"20147700","StateId":"20171489","CountyId":"20171490","CityId":"20171491","DistrictId":"20315089","AddressId":"170292002","RoadLinkId":"196927090"}}},{"Relevance":1.0,"Distance":46.4,"MatchLevel":"houseNumber","MatchQuality":{"Country":1.0,"State":1.0,"County":1.0,"City":1.0,"District":1.0,"Street":[1.0],"HouseNumber":1.0,"PostalCode":1.0},"MatchType":"interpolated","Location":{"LocationId":"NT_Va6Aqa.-VusBVh.rQNZF0B_ygTQ","LocationType":"point","DisplayPosition":{"Latitude":48.78337,"Longitude":9.16095},"MapView":{"TopLeft":{"Latitude":48.7844942,"Longitude":9.1592439},"BottomRight":{"Latitude":48.7822458,"Longitude":9.1626561}},"Address":{"Label":"Kornbergstraße 28A, 70176 Stuttgart, Deutschland","Country":"DEU","State":"Baden-Württemberg","County":"Stuttgart","City":"Stuttgart","District":"West","Street":"Kornbergstraße","HouseNumber":"28A","PostalCode":"70176","AdditionalData":[{"value":"Deutschland","key":"CountryName"},{"value":"Baden-Württemberg","key":"StateName"},{"value":"Stuttgart","key":"CountyName"}]},"MapReference":{"ReferenceId":"52853178","Spot":0.9,"SideOfStreet":"left","CountryId":"20147700","StateId":"20171489","CountyId":"20171490","CityId":"20171491","DistrictId":"20315095","AddressId":"169721707","RoadLinkId":"38515327"}}},{"Relevance":1.0,"Distance":48.4,"MatchLevel":"houseNumber","MatchQuality":{"Country":1.0,"State":1.0,"County":1.0,"City":1.0,"District":1.0,"Street":[1.0],"HouseNumber":1.0,"PostalCode":1.0},"MatchType":"interpolated","Location":{"LocationId":"NT_KSYJy9EiEBZb.zj7OpBWkB_3YzLxA","LocationType":"point","DisplayPosition":{"Latitude":48.78401,"Longitude":9.16064},"MapView":{"TopLeft":{"Latitude":48.7851342,"Longitude":9.1589339},"BottomRight":{"Latitude":48.7828858,"Longitude":9.1623461}},"Address":{"Label":"Falkertstraße 76/1, 70176 Stuttgart, Deutschland","Country":"DEU","State":"Baden-Württemberg","County":"Stuttgart","City":"Stuttgart","District":"West","Street":"Falkertstraße","HouseNumber":"76/1","PostalCode":"70176","AdditionalData":[{"value":"Deutschland","key":"CountryName"},{"value":"Baden-Württemberg","key":"StateName"},{"value":"Stuttgart","key":"CountyName"}]},"MapReference":{"ReferenceId":"52852628","Spot":0.54,"SideOfStreet":"right","CountryId":"20147700","StateId":"20171489","CountyId":"20171490","CityId":"20171491","DistrictId":"20315095","AddressId":"168354800","RoadLinkId":"38710747"}}},{"Relevance":1.0,"Distance":59.2,"MatchLevel":"houseNumber","MatchQuality":{"Country":1.0,"State":1.0,"County":1.0,"City":1.0,"District":1.0,"Street":[1.0],"HouseNumber":1.0,"PostalCode":1.0},"MatchType":"interpolated","Location":{"LocationId":"NT_0I0R8t4ngmospQI8WqmAdC_1ED","LocationType":"point","DisplayPosition":{"Latitude":48.78438,"Longitude":9.161},"MapView":{"TopLeft":{"Latitude":48.7855042,"Longitude":9.1592939},"BottomRight":{"Latitude":48.7832558,"Longitude":9.1627061}},"Address":{"Label":"Hegelstraße 51, 70174 Stuttgart, Deutschland","Country":"DEU","State":"Baden-Württemberg","County":"Stuttgart","City":"Stuttgart","District":"Mitte","Street":"Hegelstraße","HouseNumber":"51","PostalCode":"70174","AdditionalData":[{"value":"Deutschland","key":"CountryName"},{"value":"Baden-Württemberg","key":"StateName"},{"value":"Stuttgart","key":"CountyName"}]},"MapReference":{"ReferenceId":"809590228","Spot":0.96,"SideOfStreet":"left","CountryId":"20147700","StateId":"20171489","CountyId":"20171490","CityId":"20171491","DistrictId":"20315089","AddressId":"168663910","RoadLinkId":"196927088"}}},{"Relevance":1.0,"Distance":66.2,"MatchLevel":"houseNumber","MatchQuality":{"Country":1.0,"State":1.0,"County":1.0,"City":1.0,"District":1.0,"Street":[1.0],"HouseNumber":1.0,"PostalCode":1.0},"MatchType":"interpolated","Location":{"LocationId":"NT_KSYJy9EiEBZb.zj7OpBWkB_3AD","LocationType":"point","DisplayPosition":{"Latitude":48.78314,"Longitude":9.16126},"MapView":{"TopLeft":{"Latitude":48.7842642,"Longitude":9.1595539},"BottomRight":{"Latitude":48.7820158,"Longitude":9.1629661}},"Address":{"Label":"Falkertstraße 70, 70176 Stuttgart, Deutschland","Country":"DEU","State":"Baden-Württemberg","County":"Stuttgart","City":"Stuttgart","District":"West","Street":"Falkertstraße","HouseNumber":"70","PostalCode":"70176","AdditionalData":[{"value":"Deutschland","key":"CountryName"},{"value":"Baden-Württemberg","key":"StateName"},{"value":"Stuttgart","key":"CountyName"}]},"MapReference":{"ReferenceId":"52852627","Spot":0.22,"SideOfStreet":"right","CountryId":"20147700","StateId":"20171489","CountyId":"20171490","CityId":"20171491","DistrictId":"20315095","AddressId":"170140696","RoadLinkId":"38936048"}}},{"Relevance":1.0,"Distance":69.1,"MatchLevel":"houseNumber","MatchQuality":{"Country":1.0,"State":1.0,"County":1.0,"City":1.0,"District":1.0,"Street":[1.0],"HouseNumber":1.0,"PostalCode":1.0},"MatchType":"interpolated","Location":{"LocationId":"NT_jsRB3EW5qzjK7m6ZjnQkHD_2AD","LocationType":"point","DisplayPosition":{"Latitude":48.7843,"Longitude":9.16178},"MapView":{"TopLeft":{"Latitude":48.7854242,"Longitude":9.1600739},"BottomRight":{"Latitude":48.7831758,"Longitude":9.1634861}},"Address":{"Label":"Hegelstraße 60, 70174 Stuttgart, Deutschland","Country":"DEU","State":"Baden-Württemberg","County":"Stuttgart","City":"Stuttgart","District":"Mitte","Street":"Hegelstraße","HouseNumber":"60","PostalCode":"70174","AdditionalData":[{"value":"Deutschland","key":"CountryName"},{"value":"Baden-Württemberg","key":"StateName"},{"value":"Stuttgart","key":"CountyName"}]},"MapReference":{"ReferenceId":"809590233","Spot":0.01,"SideOfStreet":"right","CountryId":"20147700","StateId":"20171489","CountyId":"20171490","CityId":"20171491","DistrictId":"20315089","AddressId":"168694627","RoadLinkId":"196927093"}}},{"Relevance":1.0,"Distance":72.5,"MatchLevel":"street","MatchQuality":{"Country":1.0,"State":1.0,"County":1.0,"City":1.0,"District":1.0,"Street":[1.0],"PostalCode":1.0},"Location":{"LocationId":"NT_0I0R8t4ngmospQI8WqmAdC_l_809590227_L","LocationType":"point","DisplayPosition":{"Latitude":48.78439,"Longitude":9.16097},"MapView":{"TopLeft":{"Latitude":48.78454,"Longitude":9.16057},"BottomRight":{"Latitude":48.78439,"Longitude":9.16097}},"Address":{"Label":"Hegelstraße, 70174 Stuttgart, Deutschland","Country":"DEU","State":"Baden-Württemberg","County":"Stuttgart","City":"Stuttgart","District":"Mitte","Street":"Hegelstraße","PostalCode":"70174","AdditionalData":[{"value":"Deutschland","key":"CountryName"},{"value":"Baden-Württemberg","key":"StateName"},{"value":"Stuttgart","key":"CountyName"}]},"MapReference":{"ReferenceId":"809590227","Spot":0.0,"SideOfStreet":"left","CountryId":"20147700","StateId":"20171489","CountyId":"20171490","CityId":"20171491","DistrictId":"20315089"}}},{"Relevance":1.0,"Distance":74.2,"MatchLevel":"street","MatchQuality":{"Country":1.0,"State":1.0,"County":1.0,"City":1.0,"District":1.0,"PostalCode":1.0},"Location":{"LocationId":"NT_qh9D-1r1Au63Yy9ey0qaTD_l_839108253_L","LocationType":"point","DisplayPosition":{"Latitude":48.7831186,"Longitude":9.1614932},"MapView":{"TopLeft":{"Latitude":48.78366,"Longitude":9.16131},"BottomRight":{"Latitude":48.78306,"Longitude":9.16319}},"Address":{"Label":"70176 Stuttgart, Deutschland","Country":"DEU","State":"Baden-Württemberg","County":"Stuttgart","City":"Stuttgart","District":"West","PostalCode":"70176","AdditionalData":[{"value":"Deutschland","key":"CountryName"},{"value":"Baden-Württemberg","key":"StateName"},{"value":"Stuttgart","key":"CountyName"}]},"MapReference":{"ReferenceId":"839108253","Spot":0.1,"SideOfStreet":"left","CountryId":"20147700","StateId":"20171489","CountyId":"20171490","CityId":"20171491","DistrictId":"20315095"}}}]}]}}