{"Response":{"MetaInfo":{"Timestamp":"2020-03-28T10:20:31.854+0000","NextPageInformation":"2"},"View":[{"_type":"SearchResultsViewType","ViewId":0,"Result":[{"Relevance":1.0,"Distance":0.0,"Direction":0.0,"MatchLevel":"district","MatchQuality":{"Country":1.0,"State":1.0,"County":1.0,"City":1.0,"District":1.0,"PostalCode":1.0},"Location":{"LocationId":"NT_uRDfKFA9EJBse.tPvh66iD","LocationType":"point","DisplayPosition":{"Latitude":48.7796373,"Longitude":8.0583796},"MapView":{"TopLeft":{"Latitude":48.78277,"Longitude":8.05164},"BottomRight":{"Latitude":48.77577,"Longitude":8.06467}},"Address":{"Label":"Söllingen, Rheinmünster, Baden-Württemberg, Deutschland","Country":"DEU","State":"Baden-Württemberg","County":"Rastatt","City":"Rheinmünster","District":"Söllingen","PostalCode":"77836","AdditionalData":[{"value":"Deutschland","key":"CountryName"},{"value":"Baden-Württemberg","key":"StateName"},{"value":"Rastatt","key":"CountyName"}]},"MapReference":{"ReferenceId":"72927764","SideOfStreet":"neither","CountryId":"20147700","StateId":"20171489","CountyId":"20173425","CityId":"20173541","DistrictId":"20173543"}}},{"Relevance":1.0,"Distance":7.4,"MatchLevel":"houseNumber","MatchQuality":{"Country":1.0,"State":1.0,"County":1.0,"City":1.0,"District":1.0,"Street":[1.0],"HouseNumber":1.0,"PostalCode":1.0},"MatchType":"interpolated","Location":{"LocationId":"NT_m.6IIp7NuOQPjEoct0rGJD_zEE","LocationType":"point","DisplayPosition":{"Latitude":48.77964,"Longitude":8.0585},"MapView":{"TopLeft":{"Latitude":48.7807642,"Longitude":8.056794},"BottomRight":{"Latitude":48.7785158,"Longitude":8.060206}},"Address":{"Label":"Neue Straße 3A, 77836 Rheinmünster, Deutschland","Country":"DEU","State":"Baden-Württemberg","County":"Rastatt","City":"Rheinmünster","District":"Söllingen","Street":"Neue Straße","HouseNumber":"3A","PostalCode":"77836","AdditionalData":[{"value":"Deutschland","key":"CountryName"},{"value":"Baden-Württemberg","key":"StateName"},{"value":"Rastatt","key":"CountyName"}]},"MapReference":{"ReferenceId":"72927776","Spot":0.39,"SideOfStreet":"left","CountryId":"20147700","StateId":"20171489","CountyId":"20173425","CityId":"20173541","DistrictId":"20173543","AddressId":"179758862","RoadLinkId":"38599085"}}},{"Relevance":1.0,"Distance":52.3,"MatchLevel":"houseNumber","MatchQuality":{"Country":1.0,"State":1.0,"County":1.0,"City":1.0,"District":1.0,"Street":[1.0],"HouseNumber":1.0,"PostalCode":1.0},"MatchType":"interpolated","Location":{"LocationId":"NT_mqj.AyGpPk43h8.w0Lyw1B_yA","LocationType":"point","DisplayPosition":{"Latitude":48.77914,"Longitude":8.05874},"MapView":{"TopLeft":{"Latitude":48.7802642,"Longitude":8.0570341},"BottomRight":{"Latitude":48.7780158,"Longitude":8.0604459}},"Address":{"Label":"Schulstraße 2, 77836 Rheinmünster, Deutschland","Country":"DEU","State":"Baden-Württemberg","County":"Rastatt","City":"Rheinmünster","District":"Söllingen","Street":"Schulstraße","HouseNumber":"2","PostalCode":"77836","AdditionalData":[{"value":"Deutschland","key":"CountryName"},{"value":"Baden-Württemberg","key":"StateName"},{"value":"Rastatt","key":"CountyName"}]},"MapReference":{"ReferenceId":"76865836","Spot":0.69,"SideOfStreet":"left","CountryId":"20147700","StateId":"20171489","CountyId":"20173425","CityId":"20173541","DistrictId":"20173543","AddressId":"177325704","RoadLinkId":"38130156"}}},{"Relevance":1.0,"Distance":53.3,"MatchLevel":"houseNumber","MatchQuality":{"Country":1.0,"State":1.0,"County":1.0,"City":1.0,"District":1.0,"Street":[1.0],"HouseNumber":1.0,"PostalCode":1.0},"MatchType":"interpolated","Location":{"LocationId":"NT_ZEMRlSPg95mqFLmpuDXPsB_xkTQ","LocationType":"point","DisplayPosition":{"Latitude":48.78017,"Longitude":8.05794},"MapView":{"TopLeft":{"Latitude":48.7812942,"Longitude":8.056234},"BottomRight":{"Latitude":48.7790458,"Longitude":8.059646}},"Address":{"Label":"Poststraße 19A, 77836 Rheinmünster, Deutschland","Country":"DEU","State":"Baden-Württemberg","County":"Rastatt","City":"Rheinmünster","District":"Söllingen","Street":"Poststraße","HouseNumber":"19A","PostalCode":"77836","AdditionalData":[{"value":"Deutschland","key":"CountryName"},{"value":"Baden-Württemberg","key":"StateName"},{"value":"Rastatt","key":"CountyName"}]},"MapReference":{"ReferenceId":"72927818","Spot":0.4,"SideOfStreet":"right","CountryId":"20147700","StateId":"20171489","CountyId":"20173425","CityId":"20173541","DistrictId":"20173543","AddressId":"179129308","RoadLinkId":"38300341"}}},{"Relevance":1.0,"Distance":59.8,"MatchLevel":"houseNumber","MatchQuality":{"Country":1.0,"State":1.0,"County":1.0,"City":1.0,"District":1.0,"Street":[1.0],"HouseNumber":1.0,"PostalCode":1.0},"MatchType":"interpolated","Location":{"LocationId":"NT_ZEMRlSPg95mqFLmpuDXPsB_yQD","LocationType":"point","DisplayPosition":{"Latitude":48.77985,"Longitude":8.05763},"MapView":{"TopLeft":{"Latitude":48.7809742,"Longitude":8.055924},"BottomRight":{"Latitude":48.7787258,"Longitude":8.059336}},"Address":{"Label":"Poststraße 24, 77836 Rheinmünster, Deutschland","Country":"DEU","State":"Baden-Württemberg","County":"Rastatt","City":"Rheinmünster","District":"Söllingen","Street":"Poststraße","HouseNumber":"24","PostalCode":"77836","AdditionalData":[{"value":"Deutschland","key":"CountryName"},{"value":"Baden-Württemberg","key":"StateName"},{"value":"Rastatt","key":"CountyName"}]},"MapReference":{"ReferenceId":"72927783","Spot":0.71,"SideOfStreet":"left","CountryId":"20147700","StateId":"20171489","CountyId":"20173425","CityId":"20173541","DistrictId":"20173543","AddressId":"179628074","RoadLinkId":"38467337"}}},{"Relevance":1.0,"Distance":70.3,"MatchLevel":"houseNumber","MatchQuality":{"Country":1.0,"State":1.0,"County":1.0,"City":1.0,"District":1.0,"Street":[1.0],"HouseNumber":1.0,"PostalCode":1.0},"MatchType":"interpolated","Location":{"LocationId":"NT_ZEMRlSPg95mqFLmpuDXPsB_yED","LocationType":"point","DisplayPosition":{"Latitude":48.77955,"Longitude":8.05736},"MapView":{"TopLeft":{"Latitude":48.7806742,"Longitude":8.055654},"BottomRight":{"Latitude":48.7784258,"Longitude":8.059066}},"Address":{"Label":"Poststraße 21, 77836 Rheinmünster, Deutschland","Country":"DEU","State":"Baden-Württemberg","County":"Rastatt","City":"Rheinmünster","District":"Söllingen","Street":"Poststraße","HouseNumber":"21","PostalCode":"77836","AdditionalData":[{"value":"Deutschland","key":"CountryName"},{"value":"Baden-Württemberg","key":"StateName"},{"value":"Rastatt","key":"CountyName"}]},"MapReference":{"ReferenceId":"72927775","Spot":0.94,"SideOfStreet":"right","CountryId":"20147700","StateId":"20171489","CountyId":"20173425","CityId":"20173541","DistrictId":"20173543","AddressId":"179827213","RoadLinkId":"38422934"}}},{"Relevance":1.0,"Distance":80.7,"MatchLevel":"houseNumber","MatchQuality":{"Country":1.0,"State":1.0,"County":1.0,"City":1.0,"District":1.0,"Street":[1.0],"HouseNumber":1.0,"PostalCode":1.0},"MatchType":"interpolated","Location":{"LocationId":"NT_m.6IIp7NuOQPjEoct0rGJD_xA","LocationType":"point","DisplayPosition":{"Latitude":48.7793,"Longitude":8.05936},"MapView":{"TopLeft":{"Latitude":48.7804242,"Longitude":8.0576541},"BottomRight":{"Latitude":48.7781758,"Longitude":8.0610659}},"Address":{"Label":"Neue Straße 1, 77836 Rheinmünster, Deutschland","Country":"DEU","State":"Baden-Württemberg","County":"Rastatt","City":"Rheinmünster","District":"Söllingen","Street":"Neue Straße","HouseNumber":"1","PostalCode":"77836","AdditionalData":[{"value":"Deutschland","key":"CountryName"},{"value":"Baden-Württemberg","key":"StateName"},{"value":"Rastatt","key":"CountyName"}]},"MapReference":{"ReferenceId":"72927785","Spot":0.78,"SideOfStreet":"left","CountryId":"20147700","StateId":"20171489","CountyId":"20173425","CityId":"20173541","DistrictId":"20173543","AddressId":"180179987","RoadLinkId":"38758695"}}},{"Relevance":1.0,"Distance":111.6,"MatchLevel":"houseNumber","MatchQuality":{"Country":1.0,"State":1.0,"County":1.0,"City":1.0,"District":1.0,"Street":[1.0],"HouseNumber":1.0,"PostalCode":1.0},"MatchType":"interpolated","Location":{"LocationId":"NT_rDo-wN4pdRtY2.kvlx-VxC_yETQ","LocationType":"point","DisplayPosition":{"Latitude":48.78069,"Longitude":8.05894},"MapView":{"TopLeft":{"Latitude":48.7818142,"Longitude":8.057234},"BottomRight":{"Latitude":48.7795658,"Longitude":8.060646}},"Address":{"Label":"Rheinstraße 21A, 77836 Rheinmünster, Deutschland","Country":"DEU","State":"Baden-Württemberg","County":"Rastatt","City":"Rheinmünster","District":"Söllingen","Street":"Rheinstraße","HouseNumber":"21A","PostalCode":"77836","AdditionalData":[{"value":"Deutschland","key":"CountryName"},{"value":"Baden-Württemberg","key":"StateName"},{"value":"Rastatt","key":"CountyName"}]},"MapReference":{"ReferenceId":"72934110","Spot":0.79,"SideOfStreet":"left","CountryId":"20147700","StateId":"20171489","CountyId":"20173425","CityId":"20173541","DistrictId":"20173543","AddressId":"179615592","RoadLinkId":"38099318"}}},{"Relevance":1.0,"Distance":112.0,"MatchLevel":"houseNumber","MatchQuality":{"Country":1.0,"State":1.0,"County":1.0,"City":1.0,"District":1.0,"Street":[1.0],"HouseNumber":1.0,"PostalCode":1.0},"MatchType":"interpolated","Location":{"LocationId":"NT_4WVMZJPrnmj8sZN6mwhwEB_yA","LocationType":"point","DisplayPosition":{"Latitude":48.77979,"Longitude":8.05683},"MapView":{"TopLeft":{"Latitude":48.7809142,"Longitude":8.055124},"BottomRight":{"Latitude":48.7786658,"Longitude":8.058536}},"Address":{"Label":"Frühlingstraße 2, 77836 Rheinmünster, Deutschland","Country":"DEU","State":"Baden-Württemberg","County":"Rastatt","City":"Rheinmünster","District":"Söllingen","Street":"Frühlingstraße","HouseNumber":"2","PostalCode":"77836","AdditionalData":[{"value":"Deutschland","key":"CountryName"},{"value":"Baden-Württemberg","key":"StateName"},{"value":"Rastatt","key":"CountyName"}]},"MapReference":{"ReferenceId":"72927786","Spot":0.6,"SideOfStreet":"right","CountryId":"20147700","StateId":"20171489","CountyId":"20173425","CityId":"20173541","DistrictId":"20173543","AddressId":"180211935","RoadLinkId":"38341333"}}},{"Relevance":1.0,"Distance":112.8,"MatchLevel":"houseNumber","MatchQuality":{"Country":1.0,"State":1.0,"County":1.0,"City":1.0,"District":1.0,"Street":[1.0],"HouseNumber":1.0,"PostalCode":1.0},"MatchType":"interpolated","Location":{"LocationId":"NT_ZEMRlSPg95mqFLmpuDXPsB_xMD","LocationType":"point","DisplayPosition":{"Latitude":48.78068,"Longitude":8.0584},"MapView":{"TopLeft":{"Latitude":48.7818042,"Longitude":8.056694},"BottomRight":{"Latitude":48.7795558,"Longitude":8.060106}},"Address":{"Label":"Poststraße 13, 77836 Rheinmünster, Deutschland","Country":"DEU","State":"Baden-Württemberg","County":"Rastatt","City":"Rheinmünster","District":"Söllingen","Street":"Poststraße","HouseNumber":"13","PostalCode":"77836","AdditionalData":[{"value":"Deutschland","key":"CountryName"},{"value":"Baden-Württemberg","key":"StateName"},{"value":"Rastatt","key":"CountyName"}]},"MapReference":{"ReferenceId":"72927833","Spot":0.44,"SideOfStreet":"right","CountryId":"20147700","StateId":"20171489","CountyId":"20173425","CityId":"20173541","DistrictId":"20173543","AddressId":"179035367","RoadLinkId":"38951332"}}}]}]}}