{"Response":{"MetaInfo":{"Timestamp":"2020-03-28T11:43:48.567+0000","NextPageInformation":"2"},"View":[{"_type":"SearchResultsViewType","ViewId":0,"Result":[{"Relevance":1.0,"Distance":0.0,"Direction":0.0,"MatchLevel":"district","MatchQuality":{"Country":1.0,"State":1.0,"County":1.0,"City":1.0,"District":1.0,"PostalCode":1.0},"Location":{"LocationId":"NT_2K7bnSxRUpb6ve03h2MrdB","LocationType":"point","DisplayPosition":{"Latitude":48.7645292,"Longitude":9.1673976},"MapView":{"TopLeft":{"Latitude":48.77193,"Longitude":9.1147},"BottomRight":{"Latitude":48.73333,"Longitude":9.20132}},"Address":{"Label":"Süd, Stuttgart, Baden-Württemberg, Deutschland","Country":"DEU","State":"Baden-Württemberg","County":"Stuttgart","City":"Stuttgart","District":"Süd","PostalCode":"70178","AdditionalData":[{"value":"Deutschland","key":"CountryName"},{"value":"Baden-Württemberg","key":"StateName"},{"value":"Stuttgart","key":"CountyName"}]},"MapReference":{"ReferenceId":"1233997139","SideOfStreet":"neither","CountryId":"20147700","StateId":"20171489","CountyId":"20171490","CityId":"20171491","DistrictId":"20315094"}}},{"Relevance":1.0,"Distance":7.0,"MatchLevel":"houseNumber","MatchQuality":{"Country":1.0,"State":1.0,"County":1.0,"City":1.0,"District":1.0,"Street":[1.0],"HouseNumber":1.0,"PostalCode":1.0},"MatchType":"interpolated","Location":{"LocationId":"NT_Wac0MnOtSfBnTo1MtkrQrB_0A","LocationType":"point","DisplayPosition":{"Latitude":48.76452,"Longitude":9.1675},"MapView":{"TopLeft":{"Latitude":48.7656442,"Longitude":9.1657946},"BottomRight":{"Latitude":48.7633958,"Longitude":9.1692054}},"Address":{"Label":"Marienplatz 4, 70178 Stuttgart, Deutschland","Country":"DEU","State":"Baden-Württemberg","County":"Stuttgart","City":"Stuttgart","District":"Süd","Street":"Marienplatz","HouseNumber":"4","PostalCode":"70178","AdditionalData":[{"value":"Deutschland","key":"CountryName"},{"value":"Baden-Württemberg","key":"StateName"},{"value":"Stuttgart","key":"CountyName"}]},"MapReference":{"ReferenceId":"574365856","Spot":0.33,"SideOfStreet":"left","CountryId":"20147700","StateId":"20171489","CountyId":"20171490","CityId":"20171491","DistrictId":"20315094","AddressId":"167808826","RoadLinkId":"38861501"}}},{"Relevance":1.0,"Distance":22.8,"MatchLevel":"street","MatchQuality":{"Country":1.0,"State":1.0,"County":1.0,"City":1.0,"District":1.0,"Street":[1.0],"PostalCode":1.0},"Location":{"LocationId":"NT_Wac0MnOtSfBnTo1MtkrQrB_l_809565145_L","LocationType":"point","DisplayPosition":{"Latitude":48.76435,"Longitude":9.16755},"MapView":{"TopLeft":{"Latitude":48.76454,"Longitude":9.1675},"BottomRight":{"Latitude":48.76429,"Longitude":9.16786}},"Address":{"Label":"Marienplatz, 70178 Stuttgart, Deutschland","Country":"DEU","State":"Baden-Württemberg","County":"Stuttgart","City":"Stuttgart","District":"Süd","Street":"Marienplatz","PostalCode":"70178","AdditionalData":[{"value":"Deutschland","key":"CountryName"},{"value":"Baden-Württemberg","key":"StateName"},{"value":"Stuttgart","key":"CountyName"}]},"MapReference":{"ReferenceId":"809565145","Spot":0.18,"SideOfStreet":"left","CountryId":"20147700","StateId":"20171489","CountyId":"20171490","CityId":"20171491","DistrictId":"20315094"}}},{"Relevance":1.0,"Distance":25.5,"MatchLevel":"street","MatchQuality":{"Country":1.0,"State":1.0,"County":1.0,"City":1.0,"District":1.0,"Street":[1.0],"PostalCode":1.0},"Location":{"LocationId":"NT_BkEl7kQ7dNwVZUv6t4NUHB_l_574365858_R","LocationType":"point","DisplayPosition":{"Latitude":48.7643,"Longitude":9.1673976},"MapView":{"TopLeft":{"Latitude":48.7643,"Longitude":9.16731},"BottomRight":{"Latitude":48.76429,"Longitude":9.1675}},"Address":{"Label":"Böblinger Straße, 70178 Stuttgart, Deutschland","Country":"DEU","State":"Baden-Württemberg","County":"Stuttgart","City":"Stuttgart","District":"Süd","Street":"Böblinger Straße","PostalCode":"70178","AdditionalData":[{"value":"Deutschland","key":"CountryName"},{"value":"Baden-Württemberg","key":"StateName"},{"value":"Stuttgart","key":"CountyName"}]},"MapReference":{"ReferenceId":"574365858","Spot":0.54,"SideOfStreet":"right","CountryId":"20147700","StateId":"20171489","CountyId":"20171490","CityId":"20171491","DistrictId":"20315094"}}},{"Relevance":1.0,"Distance":33.9,"MatchLevel":"street","MatchQuality":{"Country":1.0,"State":1.0,"County":1.0,"City":1.0,"District":1.0,"Street":[1.0],"PostalCode":1.0},"Location":{"LocationId":"NT_Wac0MnOtSfBnTo1MtkrQrB_l_1233997138_L","LocationType":"point","DisplayPosition":{"Latitude":48.76454,"Longitude":9.16786},"MapView":{"TopLeft":{"Latitude":48.7646,"Longitude":9.16786},"BottomRight":{"Latitude":48.76454,"Longitude":9.16795}},"Address":{"Label":"Marienplatz, 70178 Stuttgart, Deutschland","Country":"DEU","State":"Baden-Württemberg","County":"Stuttgart","City":"Stuttgart","District":"Süd","Street":"Marienplatz","PostalCode":"70178","AdditionalData":[{"value":"Deutschland","key":"CountryName"},{"value":"Baden-Württemberg","key":"StateName"},{"value":"Stuttgart","key":"CountyName"}]},"MapReference":{"ReferenceId":"1233997138","Spot":0.0,"SideOfStreet":"left","CountryId":"20147700","StateId":"20171489","CountyId":"20171490","CityId":"20171491","DistrictId":"20315094"}}},{"Relevance":1.0,"Distance":38.5,"MatchLevel":"houseNumber","MatchQuality":{"Country":1.0,"State":1.0,"County":1.0,"City":1.0,"District":1.0,"Street":[1.0],"HouseNumber":1.0,"PostalCode":1.0},"MatchType":"interpolated","Location":{"LocationId":"NT_Wac0MnOtSfBnTo1MtkrQrB_2A","LocationType":"point","DisplayPosition":{"Latitude":48.76419,"Longitude":9.1675},"MapView":{"TopLeft":{"Latitude":48.7653142,"Longitude":9.1657946},"BottomRight":{"Latitude":48.7630658,"Longitude":9.1692054}},"Address":{"Label":"Marienplatz 6, 70178 Stuttgart, Deutschland","Country":"DEU","State":"Baden-Württemberg","County":"Stuttgart","City":"Stuttgart","District":"Süd","Street":"Marienplatz","HouseNumber":"6","PostalCode":"70178","AdditionalData":[{"value":"Deutschland","key":"CountryName"},{"value":"Baden-Württemberg","key":"StateName"},{"value":"Stuttgart","key":"CountyName"}]},"MapReference":{"ReferenceId":"984036756","Spot":0.56,"SideOfStreet":"left","CountryId":"20147700","StateId":"20171489","CountyId":"20171490","CityId":"20171491","DistrictId":"20315094","AddressId":"170225681","RoadLinkId":"315276194"}}},{"Relevance":1.0,"Distance":41.2,"MatchLevel":"street","MatchQuality":{"Country":1.0,"State":1.0,"County":1.0,"City":1.0,"District":1.0,"Street":[1.0],"PostalCode":1.0},"Location":{"LocationId":"NT_Wac0MnOtSfBnTo1MtkrQrB_l_1233997139_L","LocationType":"point","DisplayPosition":{"Latitude":48.7646,"Longitude":9.16795},"MapView":{"TopLeft":{"Latitude":48.76481,"Longitude":9.16795},"BottomRight":{"Latitude":48.7646,"Longitude":9.16808}},"Address":{"Label":"Marienplatz, 70178 Stuttgart, Deutschland","Country":"DEU","State":"Baden-Württemberg","County":"Stuttgart","City":"Stuttgart","District":"Süd","Street":"Marienplatz","PostalCode":"70178","AdditionalData":[{"value":"Deutschland","key":"CountryName"},{"value":"Baden-Württemberg","key":"StateName"},{"value":"Stuttgart","key":"CountyName"}]},"MapReference":{"ReferenceId":"1233997139","Spot":0.0,"SideOfStreet":"left","CountryId":"20147700","StateId":"20171489","CountyId":"20171490","CityId":"20171491","DistrictId":"20315094"}}},{"Relevance":1.0,"Distance":45.7,"MatchLevel":"houseNumber","MatchQuality":{"Country":1.0,"State":1.0,"County":1.0,"City":1.0,"District":1.0,"Street":[1.0],"HouseNumber":1.0,"PostalCode":1.0},"MatchType":"interpolated","Location":{"LocationId":"NT_BkEl7kQ7dNwVZUv6t4NUHB_4A","LocationType":"point","DisplayPosition":{"Latitude":48.76423,"Longitude":9.16688},"MapView":{"TopLeft":{"Latitude":48.7653542,"Longitude":9.1651746},"BottomRight":{"Latitude":48.7631058,"Longitude":9.1685854}},"Address":{"Label":"Böblinger Straße 8, 70178 Stuttgart, Deutschland","Country":"DEU","State":"Baden-Württemberg","County":"Stuttgart","City":"Stuttgart","District":"Süd","Street":"Böblinger Straße","HouseNumber":"8","PostalCode":"70178","AdditionalData":[{"value":"Deutschland","key":"CountryName"},{"value":"Baden-Württemberg","key":"StateName"},{"value":"Stuttgart","key":"CountyName"}]},"MapReference":{"ReferenceId":"574365857","Spot":0.75,"SideOfStreet":"left","CountryId":"20147700","StateId":"20171489","CountyId":"20171490","CityId":"20171491","DistrictId":"20315094","AddressId":"169094440","RoadLinkId":"38844718"}}},{"Relevance":1.0,"Distance":52.2,"MatchLevel":"street","MatchQuality":{"Country":1.0,"State":1.0,"County":1.0,"City":1.0,"District":1.0,"Street":[1.0],"PostalCode":1.0},"Location":{"LocationId":"NT_DFFkmy.sqPgTPKfJjSiciB_l_837316168_L","LocationType":"point","DisplayPosition":{"Latitude":48.7640649,"Longitude":9.1675047},"MapView":{"TopLeft":{"Latitude":48.76408,"Longitude":9.16713},"BottomRight":{"Latitude":48.7639,"Longitude":9.16757}},"Address":{"Label":"Möhringer Straße, 70178 Stuttgart, Deutschland","Country":"DEU","State":"Baden-Württemberg","County":"Stuttgart","City":"Stuttgart","District":"Süd","Street":"Möhringer Straße","PostalCode":"70178","AdditionalData":[{"value":"Deutschland","key":"CountryName"},{"value":"Baden-Württemberg","key":"StateName"},{"value":"Stuttgart","key":"CountyName"}]},"MapReference":{"ReferenceId":"837316168","Spot":0.86,"SideOfStreet":"left","CountryId":"20147700","StateId":"20171489","CountyId":"20171490","CityId":"20171491","DistrictId":"20315094"}}},{"Relevance":1.0,"Distance":54.9,"MatchLevel":"houseNumber","MatchQuality":{"Country":1.0,"State":1.0,"County":1.0,"City":1.0,"District":1.0,"Street":[1.0],"HouseNumber":1.0,"PostalCode":1.0},"MatchType":"interpolated","Location":{"LocationId":"NT_TtODeb0bQhBWQwYqzDgUND_5A","LocationType":"point","DisplayPosition":{"Latitude":48.76504,"Longitude":9.16707},"MapView":{"TopLeft":{"Latitude":48.7661642,"Longitude":9.1653645},"BottomRight":{"Latitude":48.7639158,"Longitude":9.1687755}},"Address":{"Label":"Arminstraße 9, 70178 Stuttgart, Deutschland","Country":"DEU","State":"Baden-Württemberg","County":"Stuttgart","City":"Stuttgart","District":"Süd","Street":"Arminstraße","HouseNumber":"9","PostalCode":"70178","AdditionalData":[{"value":"Deutschland","key":"CountryName"},{"value":"Baden-Württemberg","key":"StateName"},{"value":"Stuttgart","key":"CountyName"}]},"MapReference":{"ReferenceId":"52852339","Spot":0.65,"SideOfStreet":"right","CountryId":"20147700","StateId":"20171489","CountyId":"20171490","CityId":"20171491","DistrictId":"20315094","AddressId":"169490465","RoadLinkId":"38164245"}}}]}]}}