{"Response":{"MetaInfo":{"Timestamp":"2020-03-28T10:04:28.334+0000","NextPageInformation":"2"},"View":[{"_type":"SearchResultsViewType","ViewId":0,"Result":[{"Relevance":1.0,"Distance":0.0,"Direction":0.0,"MatchLevel":"district","MatchQuality":{"Country":1.0,"State":1.0,"County":1.0,"City":1.0,"District":1.0,"PostalCode":1.0},"Location":{"LocationId":"NT_y3VcP1RzDWjYJif.Q3dSPB","LocationType":"point","DisplayPosition":{"Latitude":48.7002444,"Longitude":10.2393156},"MapView":{"TopLeft":{"Latitude":48.70859,"Longitude":10.22756},"BottomRight":{"Latitude":48.69479,"Longitude":10.2578}},"Address":{"Label":"Nattheim, Baden-Württemberg, Deutschland","Country":"DEU","State":"Baden-Württemberg","County":"Heidenheim","City":"Nattheim","District":"Nattheim","PostalCode":"89564","AdditionalData":[{"value":"Deutschland","key":"CountryName"},{"value":"Baden-Württemberg","key":"StateName"},{"value":"Heidenheim","key":"CountyName"}]},"MapReference":{"ReferenceId":"540890004","SideOfStreet":"neither","CountryId":"20147700","StateId":"20171489","CountyId":"20172942","CityId":"20172986","DistrictId":"20172989"}}},{"Relevance":1.0,"Distance":11.5,"MatchLevel":"houseNumber","MatchQuality":{"Country":1.0,"State":1.0,"County":1.0,"City":1.0,"District":1.0,"Street":[1.0],"HouseNumber":1.0,"PostalCode":1.0},"MatchType":"interpolated","Location":{"LocationId":"NT_df6YRfN-IuWXN4swpzjfxB_xID","LocationType":"point","DisplayPosition":{"Latitude":48.70004,"Longitude":10.2393},"MapView":{"TopLeft":{"Latitude":48.7011642,"Longitude":10.2375967},"BottomRight":{"Latitude":48.6989158,"Longitude":10.2410033}},"Address":{"Label":"Heidenheimer Straße 12, 89564 Nattheim, Deutschland","Country":"DEU","State":"Baden-Württemberg","County":"Heidenheim","City":"Nattheim","District":"Nattheim","Street":"Heidenheimer Straße","HouseNumber":"12","PostalCode":"89564","AdditionalData":[{"value":"Deutschland","key":"CountryName"},{"value":"Baden-Württemberg","key":"StateName"},{"value":"Heidenheim","key":"CountyName"}]},"MapReference":{"ReferenceId":"881115995","Spot":0.73,"SideOfStreet":"right","CountryId":"20147700","StateId":"20171489","CountyId":"20172942","CityId":"20172986","DistrictId":"20172989","AddressId":"199174281","RoadLinkId":"249748052"}}},{"Relevance":1.0,"Distance":12.2,"MatchLevel":"street","MatchQuality":{"Country":1.0,"State":1.0,"County":1.0,"City":1.0,"District":1.0,"Street":[1.0],"PostalCode":1.0},"Location":{"LocationId":"NT_d5.FGJNG3UVhNFsmyxbrWA_l_537934454_R","LocationType":"point","DisplayPosition":{"Latitude":48.7002777,"Longitude":10.2391574},"MapView":{"TopLeft":{"Latitude":48.70029,"Longitude":10.23912},"BottomRight":{"Latitude":48.7001,"Longitude":10.23916}},"Address":{"Label":"Raiffeisenstraße, 89564 Nattheim, Deutschland","Country":"DEU","State":"Baden-Württemberg","County":"Heidenheim","City":"Nattheim","District":"Nattheim","Street":"Raiffeisenstraße","PostalCode":"89564","AdditionalData":[{"value":"Deutschland","key":"CountryName"},{"value":"Baden-Württemberg","key":"StateName"},{"value":"Heidenheim","key":"CountyName"}]},"MapReference":{"ReferenceId":"537934454","Spot":0.94,"SideOfStreet":"right","CountryId":"20147700","StateId":"20171489","CountyId":"20172942","CityId":"20172986","DistrictId":"20172989"}}},{"Relevance":1.0,"Distance":20.2,"MatchLevel":"houseNumber","MatchQuality":{"Country":1.0,"State":1.0,"County":1.0,"City":1.0,"District":1.0,"Street":[1.0],"HouseNumber":1.0,"PostalCode":1.0},"MatchType":"interpolated","Location":{"LocationId":"NT_..0.lyBU47qg-OVoEQLf3A_3A","LocationType":"point","DisplayPosition":{"Latitude":48.7003,"Longitude":10.23959},"MapView":{"TopLeft":{"Latitude":48.7014242,"Longitude":10.2378867},"BottomRight":{"Latitude":48.6991758,"Longitude":10.2412933}},"Address":{"Label":"Molkereistraße 7, 89564 Nattheim, Deutschland","Country":"DEU","State":"Baden-Württemberg","County":"Heidenheim","City":"Nattheim","District":"Nattheim","Street":"Molkereistraße","HouseNumber":"7","PostalCode":"89564","AdditionalData":[{"value":"Deutschland","key":"CountryName"},{"value":"Baden-Württemberg","key":"StateName"},{"value":"Heidenheim","key":"CountyName"}]},"MapReference":{"ReferenceId":"540889996","Spot":0.33,"SideOfStreet":"right","CountryId":"20147700","StateId":"20171489","CountyId":"20172942","CityId":"20172986","DistrictId":"20172989","AddressId":"177848118","RoadLinkId":"38326090"}}},{"Relevance":1.0,"Distance":39.0,"MatchLevel":"houseNumber","MatchQuality":{"Country":1.0,"State":1.0,"County":1.0,"City":1.0,"District":1.0,"Street":[1.0],"HouseNumber":1.0,"PostalCode":1.0},"MatchType":"interpolated","Location":{"LocationId":"NT_df6YRfN-IuWXN4swpzjfxB_xQD","LocationType":"point","DisplayPosition":{"Latitude":48.70021,"Longitude":10.23872},"MapView":{"TopLeft":{"Latitude":48.7013342,"Longitude":10.2370167},"BottomRight":{"Latitude":48.6990858,"Longitude":10.2404233}},"Address":{"Label":"Heidenheimer Straße 14, 89564 Nattheim, Deutschland","Country":"DEU","State":"Baden-Württemberg","County":"Heidenheim","City":"Nattheim","District":"Nattheim","Street":"Heidenheimer Straße","HouseNumber":"14","PostalCode":"89564","AdditionalData":[{"value":"Deutschland","key":"CountryName"},{"value":"Baden-Württemberg","key":"StateName"},{"value":"Heidenheim","key":"CountyName"}]},"MapReference":{"ReferenceId":"797992942","Spot":0.75,"SideOfStreet":"right","CountryId":"20147700","StateId":"20171489","CountyId":"20172942","CityId":"20172986","DistrictId":"20172989","AddressId":"177908033","RoadLinkId":"188366940"}}},{"Relevance":1.0,"Distance":54.0,"MatchLevel":"houseNumber","MatchQuality":{"Country":1.0,"State":1.0,"County":1.0,"City":1.0,"District":1.0,"Street":[1.0],"HouseNumber":1.0,"PostalCode":1.0},"MatchType":"interpolated","Location":{"LocationId":"NT_d5.FGJNG3UVhNFsmyxbrWA_y8iM","LocationType":"point","DisplayPosition":{"Latitude":48.70072,"Longitude":10.23917},"MapView":{"TopLeft":{"Latitude":48.7018442,"Longitude":10.2374667},"BottomRight":{"Latitude":48.6995958,"Longitude":10.2408733}},"Address":{"Label":"Raiffeisenstraße 2/2, 89564 Nattheim, Deutschland","Country":"DEU","State":"Baden-Württemberg","County":"Heidenheim","City":"Nattheim","District":"Nattheim","Street":"Raiffeisenstraße","HouseNumber":"2/2","PostalCode":"89564","AdditionalData":[{"value":"Deutschland","key":"CountryName"},{"value":"Baden-Württemberg","key":"StateName"},{"value":"Heidenheim","key":"CountyName"}]},"MapReference":{"ReferenceId":"537934441","Spot":0.42,"SideOfStreet":"right","CountryId":"20147700","StateId":"20171489","CountyId":"20172942","CityId":"20172986","DistrictId":"20172989","AddressId":"178570245","RoadLinkId":"38623346"}}},{"Relevance":1.0,"Distance":62.7,"MatchLevel":"houseNumber","MatchQuality":{"Country":1.0,"State":1.0,"County":1.0,"City":1.0,"District":1.0,"Street":[1.0],"HouseNumber":1.0,"PostalCode":1.0},"MatchType":"interpolated","Location":{"LocationId":"NT_df6YRfN-IuWXN4swpzjfxB_xAD","LocationType":"point","DisplayPosition":{"Latitude":48.69986,"Longitude":10.23994},"MapView":{"TopLeft":{"Latitude":48.7009842,"Longitude":10.2382367},"BottomRight":{"Latitude":48.6987358,"Longitude":10.2416433}},"Address":{"Label":"Heidenheimer Straße 10, 89564 Nattheim, Deutschland","Country":"DEU","State":"Baden-Württemberg","County":"Heidenheim","City":"Nattheim","District":"Nattheim","Street":"Heidenheimer Straße","HouseNumber":"10","PostalCode":"89564","AdditionalData":[{"value":"Deutschland","key":"CountryName"},{"value":"Baden-Württemberg","key":"StateName"},{"value":"Heidenheim","key":"CountyName"}]},"MapReference":{"ReferenceId":"1168148482","Spot":0.82,"SideOfStreet":"right","CountryId":"20147700","StateId":"20171489","CountyId":"20172942","CityId":"20172986","DistrictId":"20172989","AddressId":"199174280","RoadLinkId":"474840488"}}},{"Relevance":1.0,"Distance":75.5,"MatchLevel":"houseNumber","MatchQuality":{"Country":1.0,"State":1.0,"County":1.0,"City":1.0,"District":1.0,"Street":[1.0],"HouseNumber":1.0,"PostalCode":1.0},"MatchType":"interpolated","Location":{"LocationId":"NT_df6YRfN-IuWXN4swpzjfxB_xYD","LocationType":"point","DisplayPosition":{"Latitude":48.70035,"Longitude":10.23826},"MapView":{"TopLeft":{"Latitude":48.7014742,"Longitude":10.2365567},"BottomRight":{"Latitude":48.6992258,"Longitude":10.2399633}},"Address":{"Label":"Heidenheimer Straße 16, 89564 Nattheim, Deutschland","Country":"DEU","State":"Baden-Württemberg","County":"Heidenheim","City":"Nattheim","District":"Nattheim","Street":"Heidenheimer Straße","HouseNumber":"16","PostalCode":"89564","AdditionalData":[{"value":"Deutschland","key":"CountryName"},{"value":"Baden-Württemberg","key":"StateName"},{"value":"Heidenheim","key":"CountyName"}]},"MapReference":{"ReferenceId":"797992943","Spot":0.75,"SideOfStreet":"right","CountryId":"20147700","StateId":"20171489","CountyId":"20172942","CityId":"20172986","DistrictId":"20172989","AddressId":"179985425","RoadLinkId":"188366941"}}},{"Relevance":1.0,"Distance":75.5,"MatchLevel":"houseNumber","MatchQuality":{"Country":1.0,"State":1.0,"County":1.0,"City":1.0,"District":1.0,"Street":[1.0],"HouseNumber":1.0,"PostalCode":1.0},"MatchType":"interpolated","Location":{"LocationId":"NT_df6YRfN-IuWXN4swpzjfxB_48SM","LocationType":"point","DisplayPosition":{"Latitude":48.70007,"Longitude":10.24031},"MapView":{"TopLeft":{"Latitude":48.7011942,"Longitude":10.2386067},"BottomRight":{"Latitude":48.6989458,"Longitude":10.2420133}},"Address":{"Label":"Heidenheimer Straße 8/1, 89564 Nattheim, Deutschland","Country":"DEU","State":"Baden-Württemberg","County":"Heidenheim","City":"Nattheim","District":"Nattheim","Street":"Heidenheimer Straße","HouseNumber":"8/1","PostalCode":"89564","AdditionalData":[{"value":"Deutschland","key":"CountryName"},{"value":"Baden-Württemberg","key":"StateName"},{"value":"Heidenheim","key":"CountyName"}]},"MapReference":{"ReferenceId":"881115996","Spot":0.75,"SideOfStreet":"left","CountryId":"20147700","StateId":"20171489","CountyId":"20172942","CityId":"20172986","DistrictId":"20172989","AddressId":"199174286","RoadLinkId":"249748053"}}},{"Relevance":1.0,"Distance":86.9,"MatchLevel":"street","MatchQuality":{"Country":1.0,"State":1.0,"County":1.0,"City":1.0,"District":1.0,"Street":[1.0],"PostalCode":1.0},"Location":{"LocationId":"NT_Q-TT8trh9WQyhpyN9aoJbC_l_1168147840_R","LocationType":"point","DisplayPosition":{"Latitude":48.70038,"Longitude":10.23815},"MapView":{"TopLeft":{"Latitude":48.70038,"Longitude":10.23804},"BottomRight":{"Latitude":48.70023,"Longitude":10.23815}},"Address":{"Label":"Mörikestraße, 89564 Nattheim, Deutschland","Country":"DEU","State":"Baden-Württemberg","County":"Heidenheim","City":"Nattheim","District":"Nattheim","Street":"Mörikestraße","PostalCode":"89564","AdditionalData":[{"value":"Deutschland","key":"CountryName"},{"value":"Baden-Württemberg","key":"StateName"},{"value":"Heidenheim","key":"CountyName"}]},"MapReference":{"ReferenceId":"1168147840","Spot":1.0,"SideOfStreet":"right","CountryId":"20147700","StateId":"20171489","CountyId":"20172942","CityId":"20172986","DistrictId":"20172989"}}}]}]}}