{"Response":{"MetaInfo":{"Timestamp":"2020-03-28T10:01:18.869+0000","NextPageInformation":"2"},"View":[{"_type":"SearchResultsViewType","ViewId":0,"Result":[{"Relevance":1.0,"Distance":0.0,"Direction":0.0,"MatchLevel":"district","MatchQuality":{"Country":1.0,"State":1.0,"County":1.0,"City":1.0,"District":1.0,"PostalCode":1.0},"Location":{"LocationId":"NT_IoXy-ZjJiw5Mod.EDmn4xB","LocationType":"point","DisplayPosition":{"Latitude":48.7138101,"Longitude":21.2308248},"MapView":{"TopLeft":{"Latitude":48.73316,"Longitude":21.12069},"BottomRight":{"Latitude":48.57006,"Longitude":21.24713}},"Address":{"Label":"Košice II, Košice, Košický kraj, Slovenská Republika","Country":"SVK","State":"Košický kraj","County":"Košice","City":"Košice","District":"Košice II","PostalCode":"040 11","AdditionalData":[{"value":"Slovenská Republika","key":"CountryName"},{"value":"Košický kraj","key":"StateName"},{"value":"Košice","key":"CountyName"}]},"MapReference":{"ReferenceId":"585971248","SideOfStreet":"neither","CountryId":"20428682","StateId":"20488628","CountyId":"20488897","CityId":"20488898","DistrictId":"20488900"}}},{"Relevance":1.0,"Distance":4.7,"MatchLevel":"houseNumber","MatchQuality":{"Country":1.0,"State":1.0,"County":1.0,"City":1.0,"District":1.0,"Street":[1.0],"HouseNumber":1.0,"PostalCode":1.0},"MatchType":"interpolated","Location":{"LocationId":"NT_e9X9L9NhUT8M-DEo2PEIqB_yMTNxA","LocationType":"point","DisplayPosition":{"Latitude":48.71384,"Longitude":21.23087},"MapView":{"TopLeft":{"Latitude":48.7149642,"Longitude":21.2291663},"BottomRight":{"Latitude":48.7127158,"Longitude":21.2325737}},"Address":{"Label":"Toryská 2351, 040 11 Košice, Slovenská Republika","Country":"SVK","State":"Košický kraj","County":"Košice","City":"Košice","District":"Košice II","Street":"Toryská","HouseNumber":"2351","PostalCode":"040 11","AdditionalData":[{"value":"Slovenská Republika","key":"CountryName"},{"value":"Košický kraj","key":"StateName"},{"value":"Košice","key":"CountyName"}]},"MapReference":{"ReferenceId":"799803410","Spot":1.0,"SideOfStreet":"left","CountryId":"20428682","StateId":"20488628","CountyId":"20488897","CityId":"20488898","DistrictId":"20488900","AddressId":"676477341","RoadLinkId":"190601449"}}},{"Relevance":1.0,"Distance":4.7,"MatchLevel":"street","MatchQuality":{"Country":1.0,"State":1.0,"County":1.0,"City":1.0,"District":1.0,"PostalCode":1.0},"Location":{"LocationId":"NT_s7OKzFZvIkwmuB6vI6JsPB_l_799803408_R","LocationType":"point","DisplayPosition":{"Latitude":48.71384,"Longitude":21.23087},"MapView":{"TopLeft":{"Latitude":48.71393,"Longitude":21.23087},"BottomRight":{"Latitude":48.71384,"Longitude":21.23134}},"Address":{"Label":"040 11 Košice, Slovenská Republika","Country":"SVK","State":"Košický kraj","County":"Košice","City":"Košice","District":"Košice II","PostalCode":"040 11","AdditionalData":[{"value":"Slovenská Republika","key":"CountryName"},{"value":"Košický kraj","key":"StateName"},{"value":"Košice","key":"CountyName"}]},"MapReference":{"ReferenceId":"799803408","Spot":0.0,"SideOfStreet":"right","CountryId":"20428682","StateId":"20488628","CountyId":"20488897","CityId":"20488898","DistrictId":"20488900"}}},{"Relevance":1.0,"Distance":40.1,"MatchLevel":"street","MatchQuality":{"Country":1.0,"State":1.0,"County":1.0,"City":1.0,"District":1.0,"PostalCode":1.0},"Location":{"LocationId":"NT_s7OKzFZvIkwmuB6vI6JsPB_l_1183040021_L","LocationType":"point","DisplayPosition":{"Latitude":48.71393,"Longitude":21.23134},"MapView":{"TopLeft":{"Latitude":48.71396,"Longitude":21.23134},"BottomRight":{"Latitude":48.71393,"Longitude":21.23142}},"Address":{"Label":"040 11 Košice, Slovenská Republika","Country":"SVK","State":"Košický kraj","County":"Košice","City":"Košice","District":"Košice II","PostalCode":"040 11","AdditionalData":[{"value":"Slovenská Republika","key":"CountryName"},{"value":"Košický kraj","key":"StateName"},{"value":"Košice","key":"CountyName"}]},"MapReference":{"ReferenceId":"1183040021","Spot":0.0,"SideOfStreet":"left","CountryId":"20428682","StateId":"20488628","CountyId":"20488897","CityId":"20488898","DistrictId":"20488900"}}},{"Relevance":1.0,"Distance":46.7,"MatchLevel":"street","MatchQuality":{"Country":1.0,"State":1.0,"County":1.0,"City":1.0,"District":1.0,"PostalCode":1.0},"Location":{"LocationId":"NT_s7OKzFZvIkwmuB6vI6JsPB_l_1183040022_L","LocationType":"point","DisplayPosition":{"Latitude":48.71396,"Longitude":21.23142},"MapView":{"TopLeft":{"Latitude":48.71412,"Longitude":21.23142},"BottomRight":{"Latitude":48.71396,"Longitude":21.23165}},"Address":{"Label":"040 11 Košice, Slovenská Republika","Country":"SVK","State":"Košický kraj","County":"Košice","City":"Košice","District":"Košice II","PostalCode":"040 11","AdditionalData":[{"value":"Slovenská Republika","key":"CountryName"},{"value":"Košický kraj","key":"StateName"},{"value":"Košice","key":"CountyName"}]},"MapReference":{"ReferenceId":"1183040022","Spot":0.0,"SideOfStreet":"left","CountryId":"20428682","StateId":"20488628","CountyId":"20488897","CityId":"20488898","DistrictId":"20488900"}}},{"Relevance":1.0,"Distance":48.6,"MatchLevel":"street","MatchQuality":{"Country":1.0,"State":1.0,"County":1.0,"City":1.0,"District":1.0,"PostalCode":1.0},"Location":{"LocationId":"NT_s7OKzFZvIkwmuB6vI6JsPB_l_1183040023_L","LocationType":"point","DisplayPosition":{"Latitude":48.7140436,"Longitude":21.2313852},"MapView":{"TopLeft":{"Latitude":48.71432,"Longitude":21.23127},"BottomRight":{"Latitude":48.71396,"Longitude":21.23142}},"Address":{"Label":"040 11 Košice, Slovenská Republika","Country":"SVK","State":"Košický kraj","County":"Košice","City":"Košice","District":"Košice II","PostalCode":"040 11","AdditionalData":[{"value":"Slovenská Republika","key":"CountryName"},{"value":"Košický kraj","key":"StateName"},{"value":"Košice","key":"CountyName"}]},"MapReference":{"ReferenceId":"1183040023","Spot":0.23,"SideOfStreet":"left","CountryId":"20428682","StateId":"20488628","CountyId":"20488897","CityId":"20488898","DistrictId":"20488900"}}},{"Relevance":1.0,"Distance":49.3,"MatchLevel":"street","MatchQuality":{"Country":1.0,"State":1.0,"County":1.0,"City":1.0,"District":1.0,"PostalCode":1.0},"Location":{"LocationId":"NT_s7OKzFZvIkwmuB6vI6JsPB_l_1183052685_R","LocationType":"point","DisplayPosition":{"Latitude":48.7142518,"Longitude":21.2307651},"MapView":{"TopLeft":{"Latitude":48.71432,"Longitude":21.23053},"BottomRight":{"Latitude":48.71422,"Longitude":21.23127}},"Address":{"Label":"040 11 Košice, Slovenská Republika","Country":"SVK","State":"Košický kraj","County":"Košice","City":"Košice","District":"Košice II","PostalCode":"040 11","AdditionalData":[{"value":"Slovenská Republika","key":"CountryName"},{"value":"Košický kraj","key":"StateName"},{"value":"Košice","key":"CountyName"}]},"MapReference":{"ReferenceId":"1183052685","Spot":0.32,"SideOfStreet":"right","CountryId":"20428682","StateId":"20488628","CountyId":"20488897","CityId":"20488898","DistrictId":"20488900"}}},{"Relevance":1.0,"Distance":49.6,"MatchLevel":"street","MatchQuality":{"Country":1.0,"State":1.0,"County":1.0,"City":1.0,"District":1.0,"PostalCode":1.0},"Location":{"LocationId":"NT_s7OKzFZvIkwmuB6vI6JsPB_l_1183299234_R","LocationType":"point","DisplayPosition":{"Latitude":48.7142047,"Longitude":21.2305107},"MapView":{"TopLeft":{"Latitude":48.71422,"Longitude":21.2288},"BottomRight":{"Latitude":48.71339,"Longitude":21.23053}},"Address":{"Label":"040 11 Košice, Slovenská Republika","Country":"SVK","State":"Košický kraj","County":"Košice","City":"Košice","District":"Košice II","PostalCode":"040 11","AdditionalData":[{"value":"Slovenská Republika","key":"CountryName"},{"value":"Košický kraj","key":"StateName"},{"value":"Košice","key":"CountyName"}]},"MapReference":{"ReferenceId":"1183299234","Spot":0.99,"SideOfStreet":"right","CountryId":"20428682","StateId":"20488628","CountyId":"20488897","CityId":"20488898","DistrictId":"20488900"}}},{"Relevance":1.0,"Distance":50.5,"MatchLevel":"street","MatchQuality":{"Country":1.0,"State":1.0,"County":1.0,"City":1.0,"District":1.0,"PostalCode":1.0},"Location":{"LocationId":"NT_s7OKzFZvIkwmuB6vI6JsPB_l_1183053302_R","LocationType":"point","DisplayPosition":{"Latitude":48.71422,"Longitude":21.23053},"MapView":{"TopLeft":{"Latitude":48.71422,"Longitude":21.22916},"BottomRight":{"Latitude":48.71401,"Longitude":21.23053}},"Address":{"Label":"040 11 Košice, Slovenská Republika","Country":"SVK","State":"Košický kraj","County":"Košice","City":"Košice","District":"Košice II","PostalCode":"040 11","AdditionalData":[{"value":"Slovenská Republika","key":"CountryName"},{"value":"Košický kraj","key":"StateName"},{"value":"Košice","key":"CountyName"}]},"MapReference":{"ReferenceId":"1183053302","Spot":1.0,"SideOfStreet":"right","CountryId":"20428682","StateId":"20488628","CountyId":"20488897","CityId":"20488898","DistrictId":"20488900"}}},{"Relevance":1.0,"Distance":55.9,"MatchLevel":"street","MatchQuality":{"Country":1.0,"State":1.0,"County":1.0,"City":1.0,"District":1.0,"PostalCode":1.0},"Location":{"LocationId":"NT_s7OKzFZvIkwmuB6vI6JsPB_l_799803407_L","LocationType":"point","DisplayPosition":{"Latitude":48.7133112,"Longitude":21.2309167},"MapView":{"TopLeft":{"Latitude":48.71393,"Longitude":21.23091},"BottomRight":{"Latitude":48.71331,"Longitude":21.23153}},"Address":{"Label":"040 11 Košice, Slovenská Republika","Country":"SVK","State":"Košický kraj","County":"Košice","City":"Košice","District":"Košice II","PostalCode":"040 11","AdditionalData":[{"value":"Slovenská Republika","key":"CountryName"},{"value":"Košický kraj","key":"StateName"},{"value":"Košice","key":"CountyName"}]},"MapReference":{"ReferenceId":"799803407","Spot":0.01,"SideOfStreet":"left","CountryId":"20428682","StateId":"20488628","CountyId":"20488897","CityId":"20488898","DistrictId":"20488900"}}}]}]}}