{"Response":{"MetaInfo":{"Timestamp":"2020-03-28T11:43:54.164+0000","NextPageInformation":"2"},"View":[{"_type":"SearchResultsViewType","ViewId":0,"Result":[{"Relevance":1.0,"Distance":0.0,"Direction":0.0,"MatchLevel":"district","MatchQuality":{"Country":1.0,"State":1.0,"County":1.0,"City":1.0,"District":1.0,"PostalCode":1.0},"Location":{"LocationId":"NT_FAPoaz0zD5AjUxmi6ylmLC","LocationType":"point","DisplayPosition":{"Latitude":48.8077662,"Longitude":13.5466613},"MapView":{"TopLeft":{"Latitude":48.82031,"Longitude":13.53539},"BottomRight":{"Latitude":48.79861,"Longitude":13.55712}},"Address":{"Label":"Freyung, Bayern, Deutschland","Country":"DEU","State":"Bayern","County":"Freyung-Grafenau","City":"Freyung","District":"Freyung","PostalCode":"94078","AdditionalData":[{"value":"Deutschland","key":"CountryName"},{"value":"Bayern","key":"StateName"},{"value":"Freyung-Grafenau","key":"CountyName"}]},"MapReference":{"ReferenceId":"545092981","SideOfStreet":"neither","CountryId":"20147700","StateId":"20177250","CountyId":"20179679","CityId":"20179683","DistrictId":"20179685"}}},{"Relevance":1.0,"Distance":5.1,"MatchLevel":"houseNumber","MatchQuality":{"Country":1.0,"State":1.0,"County":1.0,"City":1.0,"District":1.0,"Street":[1.0],"HouseNumber":1.0,"PostalCode":1.0},"MatchType":"interpolated","Location":{"LocationId":"NT_UReQl0whGjnPdoB220vTEC_1A","LocationType":"point","DisplayPosition":{"Latitude":48.80781,"Longitude":13.54664},"MapView":{"TopLeft":{"Latitude":48.8089342,"Longitude":13.5449331},"BottomRight":{"Latitude":48.8066858,"Longitude":13.5483469}},"Address":{"Label":"Schulgasse 5, 94078 Freyung, Deutschland","Country":"DEU","State":"Bayern","County":"Freyung-Grafenau","City":"Freyung","District":"Freyung","Street":"Schulgasse","HouseNumber":"5","PostalCode":"94078","AdditionalData":[{"value":"Deutschland","key":"CountryName"},{"value":"Bayern","key":"StateName"},{"value":"Freyung-Grafenau","key":"CountyName"}]},"MapReference":{"ReferenceId":"1012182688","Spot":0.53,"SideOfStreet":"left","CountryId":"20147700","StateId":"20177250","CountyId":"20179679","CityId":"20179683","DistrictId":"20179685","AddressId":"186088291","RoadLinkId":"336353793"}}},{"Relevance":1.0,"Distance":20.4,"MatchLevel":"street","MatchQuality":{"Country":1.0,"State":1.0,"County":1.0,"City":1.0,"District":1.0,"PostalCode":1.0},"Location":{"LocationId":"NT_mzpbABe7SV8.zfa.jZSKDA_l_545092821_L","LocationType":"point","DisplayPosition":{"Latitude":48.8077259,"Longitude":13.5469335},"MapView":{"TopLeft":{"Latitude":48.80777,"Longitude":13.54686},"BottomRight":{"Latitude":48.80723,"Longitude":13.54694}},"Address":{"Label":"94078 Freyung, Deutschland","Country":"DEU","State":"Bayern","County":"Freyung-Grafenau","City":"Freyung","District":"Freyung","PostalCode":"94078","AdditionalData":[{"value":"Deutschland","key":"CountryName"},{"value":"Bayern","key":"StateName"},{"value":"Freyung-Grafenau","key":"CountyName"}]},"MapReference":{"ReferenceId":"545092821","Spot":0.92,"SideOfStreet":"left","CountryId":"20147700","StateId":"20177250","CountyId":"20179679","CityId":"20179683","DistrictId":"20179685"}}},{"Relevance":1.0,"Distance":30.3,"MatchLevel":"houseNumber","MatchQuality":{"Country":1.0,"State":1.0,"County":1.0,"City":1.0,"District":1.0,"Street":[1.0],"HouseNumber":1.0,"PostalCode":1.0},"MatchType":"interpolated","Location":{"LocationId":"NT_UReQl0whGjnPdoB220vTEC_2A","LocationType":"point","DisplayPosition":{"Latitude":48.80802,"Longitude":13.54639},"MapView":{"TopLeft":{"Latitude":48.8091442,"Longitude":13.5446831},"BottomRight":{"Latitude":48.8068958,"Longitude":13.5480969}},"Address":{"Label":"Schulgasse 6, 94078 Freyung, Deutschland","Country":"DEU","State":"Bayern","County":"Freyung-Grafenau","City":"Freyung","District":"Freyung","Street":"Schulgasse","HouseNumber":"6","PostalCode":"94078","AdditionalData":[{"value":"Deutschland","key":"CountryName"},{"value":"Bayern","key":"StateName"},{"value":"Freyung-Grafenau","key":"CountyName"}]},"MapReference":{"ReferenceId":"1012182690","Spot":0.6,"SideOfStreet":"right","CountryId":"20147700","StateId":"20177250","CountyId":"20179679","CityId":"20179683","DistrictId":"20179685","AddressId":"185402452","RoadLinkId":"336353794"}}},{"Relevance":1.0,"Distance":32.9,"MatchLevel":"houseNumber","MatchQuality":{"Country":1.0,"State":1.0,"County":1.0,"City":1.0,"District":1.0,"Street":[1.0],"HouseNumber":1.0,"PostalCode":1.0},"MatchType":"interpolated","Location":{"LocationId":"NT_UReQl0whGjnPdoB220vTEC_xA","LocationType":"point","DisplayPosition":{"Latitude":48.80774,"Longitude":13.54709},"MapView":{"TopLeft":{"Latitude":48.8088642,"Longitude":13.5453831},"BottomRight":{"Latitude":48.8066158,"Longitude":13.5487969}},"Address":{"Label":"Schulgasse 1, 94078 Freyung, Deutschland","Country":"DEU","State":"Bayern","County":"Freyung-Grafenau","City":"Freyung","District":"Freyung","Street":"Schulgasse","HouseNumber":"1","PostalCode":"94078","AdditionalData":[{"value":"Deutschland","key":"CountryName"},{"value":"Bayern","key":"StateName"},{"value":"Freyung-Grafenau","key":"CountyName"}]},"MapReference":{"ReferenceId":"545092783","Spot":0.73,"SideOfStreet":"left","CountryId":"20147700","StateId":"20177250","CountyId":"20179679","CityId":"20179683","DistrictId":"20179685","AddressId":"182834021","RoadLinkId":"33081172"}}},{"Relevance":1.0,"Distance":42.0,"MatchLevel":"houseNumber","MatchQuality":{"Country":1.0,"State":1.0,"County":1.0,"City":1.0,"District":1.0,"Street":[1.0],"HouseNumber":1.0,"PostalCode":1.0},"MatchType":"interpolated","Location":{"LocationId":"NT_6U34nA7hqUQtPjerIbYHAB_xID","LocationType":"point","DisplayPosition":{"Latitude":48.80815,"Longitude":13.54749},"MapView":{"TopLeft":{"Latitude":48.8092742,"Longitude":13.5457831},"BottomRight":{"Latitude":48.8070258,"Longitude":13.5491969}},"Address":{"Label":"Stadtplatz 12, 94078 Freyung, Deutschland","Country":"DEU","State":"Bayern","County":"Freyung-Grafenau","City":"Freyung","District":"Freyung","Street":"Stadtplatz","HouseNumber":"12","PostalCode":"94078","AdditionalData":[{"value":"Deutschland","key":"CountryName"},{"value":"Bayern","key":"StateName"},{"value":"Freyung-Grafenau","key":"CountyName"}]},"MapReference":{"ReferenceId":"547332311","Spot":0.71,"SideOfStreet":"left","CountryId":"20147700","StateId":"20177250","CountyId":"20179679","CityId":"20179683","DistrictId":"20179685","AddressId":"185312094","RoadLinkId":"33771792"}}},{"Relevance":1.0,"Distance":43.2,"MatchLevel":"houseNumber","MatchQuality":{"Country":1.0,"State":1.0,"County":1.0,"City":1.0,"District":1.0,"Street":[1.0],"HouseNumber":1.0,"PostalCode":1.0},"MatchType":"interpolated","Location":{"LocationId":"NT_mpu5gpGNr3y.oyife7ddJC_xA","LocationType":"point","DisplayPosition":{"Latitude":48.80792,"Longitude":13.54612},"MapView":{"TopLeft":{"Latitude":48.8090442,"Longitude":13.5444131},"BottomRight":{"Latitude":48.8067958,"Longitude":13.5478269}},"Address":{"Label":"Rathausplatz 1, 94078 Freyung, Deutschland","Country":"DEU","State":"Bayern","County":"Freyung-Grafenau","City":"Freyung","District":"Freyung","Street":"Rathausplatz","HouseNumber":"1","PostalCode":"94078","AdditionalData":[{"value":"Deutschland","key":"CountryName"},{"value":"Bayern","key":"StateName"},{"value":"Freyung-Grafenau","key":"CountyName"}]},"MapReference":{"ReferenceId":"1012182689","Spot":0.44,"SideOfStreet":"left","CountryId":"20147700","StateId":"20177250","CountyId":"20179679","CityId":"20179683","DistrictId":"20179685","AddressId":"182796033","RoadLinkId":"336353795"}}},{"Relevance":1.0,"Distance":43.3,"MatchLevel":"houseNumber","MatchQuality":{"Country":1.0,"State":1.0,"County":1.0,"City":1.0,"District":1.0,"Street":[1.0],"HouseNumber":1.0,"PostalCode":1.0},"MatchType":"interpolated","Location":{"LocationId":"NT_6U34nA7hqUQtPjerIbYHAB_xYD","LocationType":"point","DisplayPosition":{"Latitude":48.80759,"Longitude":13.54746},"MapView":{"TopLeft":{"Latitude":48.8087142,"Longitude":13.5457531},"BottomRight":{"Latitude":48.8064658,"Longitude":13.5491669}},"Address":{"Label":"Stadtplatz 16, 94078 Freyung, Deutschland","Country":"DEU","State":"Bayern","County":"Freyung-Grafenau","City":"Freyung","District":"Freyung","Street":"Stadtplatz","HouseNumber":"16","PostalCode":"94078","AdditionalData":[{"value":"Deutschland","key":"CountryName"},{"value":"Bayern","key":"StateName"},{"value":"Freyung-Grafenau","key":"CountyName"}]},"MapReference":{"ReferenceId":"545092981","Spot":0.17,"SideOfStreet":"left","CountryId":"20147700","StateId":"20177250","CountyId":"20179679","CityId":"20179683","DistrictId":"20179685","AddressId":"184728261","RoadLinkId":"33427536"}}},{"Relevance":1.0,"Distance":43.6,"MatchLevel":"houseNumber","MatchQuality":{"Country":1.0,"State":1.0,"County":1.0,"City":1.0,"District":1.0,"Street":[1.0],"HouseNumber":1.0,"PostalCode":1.0},"MatchType":"interpolated","Location":{"LocationId":"NT_UReQl0whGjnPdoB220vTEC_xUD","LocationType":"point","DisplayPosition":{"Latitude":48.80813,"Longitude":13.54644},"MapView":{"TopLeft":{"Latitude":48.8092542,"Longitude":13.5447331},"BottomRight":{"Latitude":48.8070058,"Longitude":13.5481469}},"Address":{"Label":"Schulgasse 15, 94078 Freyung, Deutschland","Country":"DEU","State":"Bayern","County":"Freyung-Grafenau","City":"Freyung","District":"Freyung","Street":"Schulgasse","HouseNumber":"15","PostalCode":"94078","AdditionalData":[{"value":"Deutschland","key":"CountryName"},{"value":"Bayern","key":"StateName"},{"value":"Freyung-Grafenau","key":"CountyName"}]},"MapReference":{"ReferenceId":"773360788","Spot":0.1,"SideOfStreet":"left","CountryId":"20147700","StateId":"20177250","CountyId":"20179679","CityId":"20179683","DistrictId":"20179685","AddressId":"184152293","RoadLinkId":"167173603"}}},{"Relevance":1.0,"Distance":45.3,"MatchLevel":"houseNumber","MatchQuality":{"Country":1.0,"State":1.0,"County":1.0,"City":1.0,"District":1.0,"Street":[1.0],"HouseNumber":1.0,"PostalCode":1.0},"MatchType":"interpolated","Location":{"LocationId":"NT_6U34nA7hqUQtPjerIbYHAB_xgD","LocationType":"point","DisplayPosition":{"Latitude":48.80744,"Longitude":13.54738},"MapView":{"TopLeft":{"Latitude":48.8085642,"Longitude":13.5456731},"BottomRight":{"Latitude":48.8063158,"Longitude":13.5490869}},"Address":{"Label":"Stadtplatz 18, 94078 Freyung, Deutschland","Country":"DEU","State":"Bayern","County":"Freyung-Grafenau","City":"Freyung","District":"Freyung","Street":"Stadtplatz","HouseNumber":"18","PostalCode":"94078","AdditionalData":[{"value":"Deutschland","key":"CountryName"},{"value":"Bayern","key":"StateName"},{"value":"Freyung-Grafenau","key":"CountyName"}]},"MapReference":{"ReferenceId":"773341769","Spot":0.27,"SideOfStreet":"left","CountryId":"20147700","StateId":"20177250","CountyId":"20179679","CityId":"20179683","DistrictId":"20179685","AddressId":"182047910","RoadLinkId":"167151242"}}}]}]}}