{"Response":{"MetaInfo":{"Timestamp":"2020-03-28T11:14:05.952+0000","NextPageInformation":"2"},"View":[{"_type":"SearchResultsViewType","ViewId":0,"Result":[{"Relevance":1.0,"Distance":-1.3,"MatchLevel":"landmark","MatchQuality":{"Country":1.0,"State":1.0,"County":1.0,"City":1.0,"District":1.0,"PostalCode":1.0,"Name":1.0},"Location":{"LocationId":"NT_aJa-jk4rQFLsUPhrnXIGaD","LocationType":"hospital","Name":"Institut Mutualiste Montsouris","DisplayPosition":{"Latitude":48.8227,"Longitude":2.33296},"MapView":{"TopLeft":{"Latitude":48.82377,"Longitude":2.33078},"BottomRight":{"Latitude":48.82162,"Longitude":2.33412}},"Address":{"Label":"75014 Paris, France","Country":"FRA","State":"Île-de-France","County":"Paris","City":"Paris","District":"14e Arrondissement","PostalCode":"75014","AdditionalData":[{"value":"France","key":"CountryName"},{"value":"Île-de-France","key":"StateName"},{"value":"Paris","key":"CountyName"}]},"MapReference":{"CountryId":"20000001","StateId":"20002126","CountyId":"20002127","CityId":"20002128","DistrictId":"20002143","PlaceId":"56169627"}}},{"Relevance":1.0,"Distance":0.0,"Direction":0.0,"MatchLevel":"district","MatchQuality":{"Country":1.0,"State":1.0,"County":1.0,"City":1.0,"District":1.0,"PostalCode":1.0},"Location":{"LocationId":"NT_N3ZisktvgKuGnOCe4rvMcC","LocationType":"point","DisplayPosition":{"Latitude":48.8229266,"Longitude":2.3322685},"MapView":{"TopLeft":{"Latitude":48.84373,"Longitude":2.30127},"BottomRight":{"Latitude":48.81586,"Longitude":2.34478}},"Address":{"Label":"14e Arrondissement, Paris, Île-de-France, France","Country":"FRA","State":"Île-de-France","County":"Paris","City":"Paris","District":"14e Arrondissement","PostalCode":"75014","AdditionalData":[{"value":"France","key":"CountryName"},{"value":"Île-de-France","key":"StateName"},{"value":"Paris","key":"CountyName"}]},"MapReference":{"ReferenceId":"1212976638","SideOfStreet":"neither","CountryId":"20000001","StateId":"20002126","CountyId":"20002127","CityId":"20002128","DistrictId":"20002143"}}},{"Relevance":1.0,"Distance":1.4,"MatchLevel":"landmark","MatchQuality":{"Country":1.0,"State":1.0,"County":1.0,"City":1.0,"District":1.0,"PostalCode":1.0,"Name":1.0},"Location":{"LocationId":"NT_jQbt8oO9i420GvOT2-JWhD","LocationType":"universityCollege","Name":"École Normale Supérieure Jourdan","DisplayPosition":{"Latitude":48.82258,"Longitude":2.3313},"MapView":{"TopLeft":{"Latitude":48.82324,"Longitude":2.33037},"BottomRight":{"Latitude":48.82192,"Longitude":2.33227}},"Address":{"Label":"75014 Paris, France","Country":"FRA","State":"Île-de-France","County":"Paris","City":"Paris","District":"14e Arrondissement","PostalCode":"75014","AdditionalData":[{"value":"France","key":"CountryName"},{"value":"Île-de-France","key":"StateName"},{"value":"Paris","key":"CountyName"}]},"MapReference":{"CountryId":"20000001","StateId":"20002126","CountyId":"20002127","CityId":"20002128","DistrictId":"20002143","PlaceId":"56169622"}}},{"Relevance":1.0,"Distance":27.4,"MatchLevel":"street","MatchQuality":{"Country":1.0,"State":1.0,"County":1.0,"City":1.0,"District":1.0,"PostalCode":1.0},"Location":{"LocationId":"NT_ACSCywXtnUFaln8W7v4XXA_l_1046667520_L","LocationType":"point","DisplayPosition":{"Latitude":48.8227657,"Longitude":2.3325511},"MapView":{"TopLeft":{"Latitude":48.82308,"Longitude":2.33205},"BottomRight":{"Latitude":48.82186,"Longitude":2.33273}},"Address":{"Label":"75014 Paris, France","Country":"FRA","State":"Île-de-France","County":"Paris","City":"Paris","District":"14e Arrondissement","PostalCode":"75014","AdditionalData":[{"value":"France","key":"CountryName"},{"value":"Île-de-France","key":"StateName"},{"value":"Paris","key":"CountyName"}]},"MapReference":{"ReferenceId":"1046667520","Spot":0.74,"SideOfStreet":"left","CountryId":"20000001","StateId":"20002126","CountyId":"20002127","CityId":"20002128","DistrictId":"20002143"}}},{"Relevance":1.0,"Distance":37.8,"MatchLevel":"street","MatchQuality":{"Country":1.0,"State":1.0,"County":1.0,"City":1.0,"District":1.0,"PostalCode":1.0},"Location":{"LocationId":"NT_ACSCywXtnUFaln8W7v4XXA_l_1046667521_L","LocationType":"point","DisplayPosition":{"Latitude":48.82308,"Longitude":2.33273},"MapView":{"TopLeft":{"Latitude":48.82332,"Longitude":2.33273},"BottomRight":{"Latitude":48.82308,"Longitude":2.33284}},"Address":{"Label":"75014 Paris, France","Country":"FRA","State":"Île-de-France","County":"Paris","City":"Paris","District":"14e Arrondissement","PostalCode":"75014","AdditionalData":[{"value":"France","key":"CountryName"},{"value":"Île-de-France","key":"StateName"},{"value":"Paris","key":"CountyName"}]},"MapReference":{"ReferenceId":"1046667521","Spot":0.0,"SideOfStreet":"left","CountryId":"20000001","StateId":"20002126","CountyId":"20002127","CityId":"20002128","DistrictId":"20002143"}}},{"Relevance":1.0,"Distance":92.0,"MatchLevel":"houseNumber","MatchQuality":{"Country":1.0,"State":1.0,"County":1.0,"City":1.0,"District":1.0,"Street":[1.0],"HouseNumber":1.0,"PostalCode":1.0},"MatchType":"interpolated","Location":{"LocationId":"NT_9g1n6qhZvoZFoRr6M7fpaA_1kD","LocationType":"point","DisplayPosition":{"Latitude":48.82376,"Longitude":2.33196},"MapView":{"TopLeft":{"Latitude":48.8248842,"Longitude":2.3302525},"BottomRight":{"Latitude":48.8226358,"Longitude":2.3336675}},"Address":{"Label":"59 Avenue Reille, 75014 Paris, France","Country":"FRA","State":"Île-de-France","County":"Paris","City":"Paris","District":"14e Arrondissement","Street":"Avenue Reille","HouseNumber":"59","PostalCode":"75014","AdditionalData":[{"value":"France","key":"CountryName"},{"value":"Île-de-France","key":"StateName"},{"value":"Paris","key":"CountyName"}]},"MapReference":{"ReferenceId":"56251766","Spot":0.08,"SideOfStreet":"right","CountryId":"20000001","StateId":"20002126","CountyId":"20002127","CityId":"20002128","DistrictId":"20002143","AddressId":"572296826","RoadLinkId":"43559569"}}},{"Relevance":1.0,"Distance":94.0,"MatchLevel":"houseNumber","MatchQuality":{"Country":1.0,"State":1.0,"County":1.0,"City":1.0,"District":1.0,"Street":[1.0],"HouseNumber":1.0,"PostalCode":1.0},"MatchType":"interpolated","Location":{"LocationId":"NT_9g1n6qhZvoZFoRr6M7fpaA_1YD","LocationType":"point","DisplayPosition":{"Latitude":48.82379,"Longitude":2.33235},"MapView":{"TopLeft":{"Latitude":48.8249142,"Longitude":2.3306425},"BottomRight":{"Latitude":48.8226658,"Longitude":2.3340575}},"Address":{"Label":"56 Avenue Reille, 75014 Paris, France","Country":"FRA","State":"Île-de-France","County":"Paris","City":"Paris","District":"14e Arrondissement","Street":"Avenue Reille","HouseNumber":"56","PostalCode":"75014","AdditionalData":[{"value":"France","key":"CountryName"},{"value":"Île-de-France","key":"StateName"},{"value":"Paris","key":"CountyName"}]},"MapReference":{"ReferenceId":"56251765","Spot":0.35,"SideOfStreet":"right","CountryId":"20000001","StateId":"20002126","CountyId":"20002127","CityId":"20002128","DistrictId":"20002143","AddressId":"572324369","RoadLinkId":"43425690"}}},{"Relevance":1.0,"Distance":95.6,"MatchLevel":"landmark","MatchQuality":{"Country":1.0,"State":1.0,"County":1.0,"City":1.0,"District":1.0,"PostalCode":1.0,"Name":1.0},"Location":{"LocationId":"NT_ZeTck67xGddbh-nHV9RhpC","LocationType":"park","Name":"Jardin de la Place Jules Hénaffe","DisplayPosition":{"Latitude":48.8238,"Longitude":2.33137},"MapView":{"TopLeft":{"Latitude":48.82395,"Longitude":2.3309},"BottomRight":{"Latitude":48.82365,"Longitude":2.33195}},"Address":{"Label":"75014 Paris, France","Country":"FRA","State":"Île-de-France","County":"Paris","City":"Paris","District":"14e Arrondissement","PostalCode":"75014","AdditionalData":[{"value":"France","key":"CountryName"},{"value":"Île-de-France","key":"StateName"},{"value":"Paris","key":"CountyName"}]},"MapReference":{"CountryId":"20000001","StateId":"20002126","CountyId":"20002127","CityId":"20002128","DistrictId":"20002143","PlaceId":"1505282553"}}},{"Relevance":1.0,"Distance":95.6,"MatchLevel":"street","MatchQuality":{"Country":1.0,"State":1.0,"County":1.0,"City":1.0,"District":1.0,"Street":[1.0],"PostalCode":1.0},"Location":{"LocationId":"NT_9g1n6qhZvoZFoRr6M7fpaA_l_962440869_R","LocationType":"point","DisplayPosition":{"Latitude":48.82376,"Longitude":2.33195},"MapView":{"TopLeft":{"Latitude":48.82376,"Longitude":2.33122},"BottomRight":{"Latitude":48.82368,"Longitude":2.33195}},"Address":{"Label":"Avenue Reille, 75014 Paris, France","Country":"FRA","State":"Île-de-France","County":"Paris","City":"Paris","District":"14e Arrondissement","Street":"Avenue Reille","PostalCode":"75014","AdditionalData":[{"value":"France","key":"CountryName"},{"value":"Île-de-France","key":"StateName"},{"value":"Paris","key":"CountyName"}]},"MapReference":{"ReferenceId":"962440869","Spot":1.0,"SideOfStreet":"right","CountryId":"20000001","StateId":"20002126","CountyId":"20002127","CityId":"20002128","DistrictId":"20002143"}}},{"Relevance":1.0,"Distance":99.0,"MatchLevel":"houseNumber","MatchQuality":{"Country":1.0,"State":1.0,"County":1.0,"City":1.0,"District":1.0,"Street":[1.0],"HouseNumber":1.0,"PostalCode":1.0},"MatchType":"interpolated","Location":{"LocationId":"NT_B3hXH2CW4YI9Dpq-x0aE8D_1ED","LocationType":"point","DisplayPosition":{"Latitude":48.82376,"Longitude":2.33293},"MapView":{"TopLeft":{"Latitude":48.8248842,"Longitude":2.3312225},"BottomRight":{"Latitude":48.8226358,"Longitude":2.3346375}},"Address":{"Label":"51 Square de Montsouris, 75014 Paris, France","Country":"FRA","State":"Île-de-France","County":"Paris","City":"Paris","District":"14e Arrondissement","Street":"Square de Montsouris","HouseNumber":"51","PostalCode":"75014","AdditionalData":[{"value":"France","key":"CountryName"},{"value":"Île-de-France","key":"StateName"},{"value":"Paris","key":"CountyName"}]},"MapReference":{"ReferenceId":"56251791","Spot":0.96,"SideOfStreet":"left","CountryId":"20000001","StateId":"20002126","CountyId":"20002127","CityId":"20002128","DistrictId":"20002143","AddressId":"321855377","RoadLinkId":"43790807"}}}]}]}}