{"Response":{"MetaInfo":{"Timestamp":"2020-03-28T11:44:53.958+0000","NextPageInformation":"2"},"View":[{"_type":"SearchResultsViewType","ViewId":0,"Result":[{"Relevance":1.0,"Distance":0.0,"Direction":0.0,"MatchLevel":"district","MatchQuality":{"Country":1.0,"State":1.0,"County":1.0,"City":1.0,"District":1.0,"PostalCode":1.0},"Location":{"LocationId":"NT_MIhGPCQlwr5cEKQjobXbMD","LocationType":"point","DisplayPosition":{"Latitude":48.8763901,"Longitude":9.0768582},"MapView":{"TopLeft":{"Latitude":48.88897,"Longitude":9.06293},"BottomRight":{"Latitude":48.86775,"Longitude":9.09773}},"Address":{"Label":"Schwieberdingen, Baden-Württemberg, Deutschland","Country":"DEU","State":"Baden-Württemberg","County":"Ludwigsburg","City":"Schwieberdingen","District":"Schwieberdingen","PostalCode":"71701","AdditionalData":[{"value":"Deutschland","key":"CountryName"},{"value":"Baden-Württemberg","key":"StateName"},{"value":"Ludwigsburg","key":"CountyName"}]},"MapReference":{"ReferenceId":"72719212","SideOfStreet":"neither","CountryId":"20147700","StateId":"20171489","CountyId":"20171968","CityId":"20172069","DistrictId":"20172071"}}},{"Relevance":1.0,"Distance":14.6,"MatchLevel":"houseNumber","MatchQuality":{"Country":1.0,"State":1.0,"County":1.0,"City":1.0,"District":1.0,"Street":[1.0],"HouseNumber":1.0,"PostalCode":1.0},"MatchType":"interpolated","Location":{"LocationId":"NT_zeDng.Nam.pjG4tBG3trMA_zED","LocationType":"point","DisplayPosition":{"Latitude":48.87625,"Longitude":9.07667},"MapView":{"TopLeft":{"Latitude":48.8773742,"Longitude":9.0749608},"BottomRight":{"Latitude":48.8751258,"Longitude":9.0783792}},"Address":{"Label":"Stuttgarter Straße 31, 71701 Schwieberdingen, Deutschland","Country":"DEU","State":"Baden-Württemberg","County":"Ludwigsburg","City":"Schwieberdingen","District":"Schwieberdingen","Street":"Stuttgarter Straße","HouseNumber":"31","PostalCode":"71701","AdditionalData":[{"value":"Deutschland","key":"CountryName"},{"value":"Baden-Württemberg","key":"StateName"},{"value":"Ludwigsburg","key":"CountyName"}]},"MapReference":{"ReferenceId":"916051818","Spot":1.0,"SideOfStreet":"right","CountryId":"20147700","StateId":"20171489","CountyId":"20171968","CityId":"20172069","DistrictId":"20172071","AddressId":"178040246","RoadLinkId":"273653085"}}},{"Relevance":1.0,"Distance":16.3,"MatchLevel":"houseNumber","MatchQuality":{"Country":1.0,"State":1.0,"County":1.0,"City":1.0,"District":1.0,"Street":[1.0],"HouseNumber":1.0,"PostalCode":1.0},"MatchType":"interpolated","Location":{"LocationId":"NT_zeDng.Nam.pjG4tBG3trMA_zUD","LocationType":"point","DisplayPosition":{"Latitude":48.87618,"Longitude":9.07689},"MapView":{"TopLeft":{"Latitude":48.8773042,"Longitude":9.0751808},"BottomRight":{"Latitude":48.8750558,"Longitude":9.0785992}},"Address":{"Label":"Stuttgarter Straße 35, 71701 Schwieberdingen, Deutschland","Country":"DEU","State":"Baden-Württemberg","County":"Ludwigsburg","City":"Schwieberdingen","District":"Schwieberdingen","Street":"Stuttgarter Straße","HouseNumber":"35","PostalCode":"71701","AdditionalData":[{"value":"Deutschland","key":"CountryName"},{"value":"Baden-Württemberg","key":"StateName"},{"value":"Ludwigsburg","key":"CountyName"}]},"MapReference":{"ReferenceId":"916237022","Spot":0.61,"SideOfStreet":"right","CountryId":"20147700","StateId":"20171489","CountyId":"20171968","CityId":"20172069","DistrictId":"20172071","AddressId":"180130967","RoadLinkId":"273781613"}}},{"Relevance":1.0,"Distance":22.3,"MatchLevel":"houseNumber","MatchQuality":{"Country":1.0,"State":1.0,"County":1.0,"City":1.0,"District":1.0,"Street":[1.0],"HouseNumber":1.0,"PostalCode":1.0},"MatchType":"interpolated","Location":{"LocationId":"NT_Deo5xa-25c-aX9JteL4-QD_0A","LocationType":"point","DisplayPosition":{"Latitude":48.87666,"Longitude":9.07683},"MapView":{"TopLeft":{"Latitude":48.8777842,"Longitude":9.0751207},"BottomRight":{"Latitude":48.8755358,"Longitude":9.0785393}},"Address":{"Label":"Sonnenstraße 4, 71701 Schwieberdingen, Deutschland","Country":"DEU","State":"Baden-Württemberg","County":"Ludwigsburg","City":"Schwieberdingen","District":"Schwieberdingen","Street":"Sonnenstraße","HouseNumber":"4","PostalCode":"71701","AdditionalData":[{"value":"Deutschland","key":"CountryName"},{"value":"Baden-Württemberg","key":"StateName"},{"value":"Ludwigsburg","key":"CountyName"}]},"MapReference":{"ReferenceId":"72719146","Spot":0.33,"SideOfStreet":"right","CountryId":"20147700","StateId":"20171489","CountyId":"20171968","CityId":"20172069","DistrictId":"20172071","AddressId":"178803413","RoadLinkId":"38698271"}}},{"Relevance":1.0,"Distance":24.7,"MatchLevel":"houseNumber","MatchQuality":{"Country":1.0,"State":1.0,"County":1.0,"City":1.0,"District":1.0,"Street":[1.0],"HouseNumber":1.0,"PostalCode":1.0},"MatchType":"interpolated","Location":{"LocationId":"NT_zeDng.Nam.pjG4tBG3trMA_ykD","LocationType":"point","DisplayPosition":{"Latitude":48.8763,"Longitude":9.07646},"MapView":{"TopLeft":{"Latitude":48.8774242,"Longitude":9.0747507},"BottomRight":{"Latitude":48.8751758,"Longitude":9.0781693}},"Address":{"Label":"Stuttgarter Straße 29, 71701 Schwieberdingen, Deutschland","Country":"DEU","State":"Baden-Württemberg","County":"Ludwigsburg","City":"Schwieberdingen","District":"Schwieberdingen","Street":"Stuttgarter Straße","HouseNumber":"29","PostalCode":"71701","AdditionalData":[{"value":"Deutschland","key":"CountryName"},{"value":"Baden-Württemberg","key":"StateName"},{"value":"Ludwigsburg","key":"CountyName"}]},"MapReference":{"ReferenceId":"72719284","Spot":0.55,"SideOfStreet":"right","CountryId":"20147700","StateId":"20171489","CountyId":"20171968","CityId":"20172069","DistrictId":"20172071","AddressId":"180455612","RoadLinkId":"38342556"}}},{"Relevance":1.0,"Distance":33.1,"MatchLevel":"houseNumber","MatchQuality":{"Country":1.0,"State":1.0,"County":1.0,"City":1.0,"District":1.0,"Street":[1.0],"HouseNumber":1.0,"PostalCode":1.0},"MatchType":"interpolated","Location":{"LocationId":"NT_zeDng.Nam.pjG4tBG3trMA_zczLxA","LocationType":"point","DisplayPosition":{"Latitude":48.87612,"Longitude":9.07705},"MapView":{"TopLeft":{"Latitude":48.8772442,"Longitude":9.0753408},"BottomRight":{"Latitude":48.8749958,"Longitude":9.0787592}},"Address":{"Label":"Stuttgarter Straße 37/1, 71701 Schwieberdingen, Deutschland","Country":"DEU","State":"Baden-Württemberg","County":"Ludwigsburg","City":"Schwieberdingen","District":"Schwieberdingen","Street":"Stuttgarter Straße","HouseNumber":"37/1","PostalCode":"71701","AdditionalData":[{"value":"Deutschland","key":"CountryName"},{"value":"Baden-Württemberg","key":"StateName"},{"value":"Ludwigsburg","key":"CountyName"}]},"MapReference":{"ReferenceId":"916237021","Spot":0.66,"SideOfStreet":"left","CountryId":"20147700","StateId":"20171489","CountyId":"20171968","CityId":"20172069","DistrictId":"20172071","AddressId":"179237172","RoadLinkId":"273781612"}}},{"Relevance":1.0,"Distance":37.5,"MatchLevel":"street","MatchQuality":{"Country":1.0,"State":1.0,"County":1.0,"City":1.0,"District":1.0,"Street":[1.0],"PostalCode":1.0},"Location":{"LocationId":"NT_ferrAObPpEB7IzkGZPqarD_l_72719204_R","LocationType":"point","DisplayPosition":{"Latitude":48.8766584,"Longitude":9.0765486},"MapView":{"TopLeft":{"Latitude":48.87666,"Longitude":9.07629},"BottomRight":{"Latitude":48.87636,"Longitude":9.07655}},"Address":{"Label":"Hintere Dorfgasse, 71701 Schwieberdingen, Deutschland","Country":"DEU","State":"Baden-Württemberg","County":"Ludwigsburg","City":"Schwieberdingen","District":"Schwieberdingen","Street":"Hintere Dorfgasse","PostalCode":"71701","AdditionalData":[{"value":"Deutschland","key":"CountryName"},{"value":"Baden-Württemberg","key":"StateName"},{"value":"Ludwigsburg","key":"CountyName"}]},"MapReference":{"ReferenceId":"72719204","Spot":0.99,"SideOfStreet":"right","CountryId":"20147700","StateId":"20171489","CountyId":"20171968","CityId":"20172069","DistrictId":"20172071"}}},{"Relevance":1.0,"Distance":38.9,"MatchLevel":"houseNumber","MatchQuality":{"Country":1.0,"State":1.0,"County":1.0,"City":1.0,"District":1.0,"Street":[1.0],"HouseNumber":1.0,"PostalCode":1.0},"MatchType":"interpolated","Location":{"LocationId":"NT_zeDng.Nam.pjG4tBG3trMA_yUD","LocationType":"point","DisplayPosition":{"Latitude":48.87637,"Longitude":9.07626},"MapView":{"TopLeft":{"Latitude":48.8774942,"Longitude":9.0745507},"BottomRight":{"Latitude":48.8752458,"Longitude":9.0779693}},"Address":{"Label":"Stuttgarter Straße 25, 71701 Schwieberdingen, Deutschland","Country":"DEU","State":"Baden-Württemberg","County":"Ludwigsburg","City":"Schwieberdingen","District":"Schwieberdingen","Street":"Stuttgarter Straße","HouseNumber":"25","PostalCode":"71701","AdditionalData":[{"value":"Deutschland","key":"CountryName"},{"value":"Baden-Württemberg","key":"StateName"},{"value":"Ludwigsburg","key":"CountyName"}]},"MapReference":{"ReferenceId":"574386119","Spot":0.1,"SideOfStreet":"right","CountryId":"20147700","StateId":"20171489","CountyId":"20171968","CityId":"20172069","DistrictId":"20172071","AddressId":"180421437","RoadLinkId":"38844067"}}},{"Relevance":1.0,"Distance":43.6,"MatchLevel":"houseNumber","MatchQuality":{"Country":1.0,"State":1.0,"County":1.0,"City":1.0,"District":1.0,"Street":[1.0],"HouseNumber":1.0,"PostalCode":1.0},"MatchType":"interpolated","Location":{"LocationId":"NT_ferrAObPpEB7IzkGZPqarD_2A","LocationType":"point","DisplayPosition":{"Latitude":48.87674,"Longitude":9.07658},"MapView":{"TopLeft":{"Latitude":48.8778642,"Longitude":9.0748707},"BottomRight":{"Latitude":48.8756158,"Longitude":9.0782893}},"Address":{"Label":"Hintere Dorfgasse 6, 71701 Schwieberdingen, Deutschland","Country":"DEU","State":"Baden-Württemberg","County":"Ludwigsburg","City":"Schwieberdingen","District":"Schwieberdingen","Street":"Hintere Dorfgasse","HouseNumber":"6","PostalCode":"71701","AdditionalData":[{"value":"Deutschland","key":"CountryName"},{"value":"Baden-Württemberg","key":"StateName"},{"value":"Ludwigsburg","key":"CountyName"}]},"MapReference":{"ReferenceId":"72719136","Spot":0.14,"SideOfStreet":"right","CountryId":"20147700","StateId":"20171489","CountyId":"20171968","CityId":"20172069","DistrictId":"20172071","AddressId":"177901804","RoadLinkId":"38054220"}}},{"Relevance":1.0,"Distance":46.3,"MatchLevel":"houseNumber","MatchQuality":{"Country":1.0,"State":1.0,"County":1.0,"City":1.0,"District":1.0,"Street":[1.0],"HouseNumber":1.0,"PostalCode":1.0},"MatchType":"interpolated","Location":{"LocationId":"NT_qqWxCjqnz2noewA2C8oK.A_1A","LocationType":"point","DisplayPosition":{"Latitude":48.87616,"Longitude":9.07755},"MapView":{"TopLeft":{"Latitude":48.8772842,"Longitude":9.0758408},"BottomRight":{"Latitude":48.8750358,"Longitude":9.0792592}},"Address":{"Label":"Ludwigsburger Straße 5, 71701 Schwieberdingen, Deutschland","Country":"DEU","State":"Baden-Württemberg","County":"Ludwigsburg","City":"Schwieberdingen","District":"Schwieberdingen","Street":"Ludwigsburger Straße","HouseNumber":"5","PostalCode":"71701","AdditionalData":[{"value":"Deutschland","key":"CountryName"},{"value":"Baden-Württemberg","key":"StateName"},{"value":"Ludwigsburg","key":"CountyName"}]},"MapReference":{"ReferenceId":"59391978","Spot":0.2,"SideOfStreet":"left","CountryId":"20147700","StateId":"20171489","CountyId":"20171968","CityId":"20172069","DistrictId":"20172071","AddressId":"178617494","RoadLinkId":"38977422"}}}]}]}}