{"Response":{"MetaInfo":{"Timestamp":"2020-03-28T11:50:36.591+0000","NextPageInformation":"2"},"View":[{"_type":"SearchResultsViewType","ViewId":0,"Result":[{"Relevance":1.0,"Distance":0.0,"Direction":0.0,"MatchLevel":"district","MatchQuality":{"Country":1.0,"State":1.0,"County":1.0,"City":1.0,"District":1.0,"PostalCode":1.0},"Location":{"LocationId":"NT_VdJ29-GnRWGksUoZSY8QeB","LocationType":"point","DisplayPosition":{"Latitude":48.8355585,"Longitude":2.3981731},"MapView":{"TopLeft":{"Latitude":48.85323,"Longitude":2.36527},"BottomRight":{"Latitude":48.81725,"Longitude":2.4698}},"Address":{"Label":"12e Arrondissement, Paris, Île-de-France, France","Country":"FRA","State":"Île-de-France","County":"Paris","City":"Paris","District":"12e Arrondissement","PostalCode":"75012","AdditionalData":[{"value":"France","key":"CountryName"},{"value":"Île-de-France","key":"StateName"},{"value":"Paris","key":"CountyName"}]},"MapReference":{"ReferenceId":"56249023","SideOfStreet":"neither","CountryId":"20000001","StateId":"20002126","CountyId":"20002127","CityId":"20002128","DistrictId":"20002141"}}},{"Relevance":1.0,"Distance":7.6,"MatchLevel":"houseNumber","MatchQuality":{"Country":1.0,"State":1.0,"County":1.0,"City":1.0,"District":1.0,"Street":[1.0],"HouseNumber":1.0,"PostalCode":1.0},"MatchType":"interpolated","Location":{"LocationId":"NT_gM8tF3biv8ixQepn9jrqOC_yA","LocationType":"point","DisplayPosition":{"Latitude":48.83554,"Longitude":2.39804},"MapView":{"TopLeft":{"Latitude":48.8366642,"Longitude":2.3963321},"BottomRight":{"Latitude":48.8344158,"Longitude":2.3997479}},"Address":{"Label":"2 Rue de Capri, 75012 Paris, France","Country":"FRA","State":"Île-de-France","County":"Paris","City":"Paris","District":"12e Arrondissement","Street":"Rue de Capri","HouseNumber":"2","PostalCode":"75012","AdditionalData":[{"value":"France","key":"CountryName"},{"value":"Île-de-France","key":"StateName"},{"value":"Paris","key":"CountyName"}]},"MapReference":{"ReferenceId":"56250098","Spot":0.15,"SideOfStreet":"right","CountryId":"20000001","StateId":"20002126","CountyId":"20002127","CityId":"20002128","DistrictId":"20002141","AddressId":"301743172","RoadLinkId":"43560105"}}},{"Relevance":1.0,"Distance":18.0,"MatchLevel":"houseNumber","MatchQuality":{"Country":1.0,"State":1.0,"County":1.0,"City":1.0,"District":1.0,"Street":[1.0],"HouseNumber":1.0,"PostalCode":1.0},"MatchType":"interpolated","Location":{"LocationId":"NT_QH.66aNfalnvOdknSwBHdA_2MD","LocationType":"point","DisplayPosition":{"Latitude":48.83533,"Longitude":2.39818},"MapView":{"TopLeft":{"Latitude":48.8364542,"Longitude":2.3964721},"BottomRight":{"Latitude":48.8342058,"Longitude":2.3998879}},"Address":{"Label":"63 Rue de Wattignies, 75012 Paris, France","Country":"FRA","State":"Île-de-France","County":"Paris","City":"Paris","District":"12e Arrondissement","Street":"Rue de Wattignies","HouseNumber":"63","PostalCode":"75012","AdditionalData":[{"value":"France","key":"CountryName"},{"value":"Île-de-France","key":"StateName"},{"value":"Paris","key":"CountyName"}]},"MapReference":{"ReferenceId":"56250142","Spot":0.65,"SideOfStreet":"right","CountryId":"20000001","StateId":"20002126","CountyId":"20002127","CityId":"20002128","DistrictId":"20002141","AddressId":"321965899","RoadLinkId":"43654561"}}},{"Relevance":1.0,"Distance":27.7,"MatchLevel":"street","MatchQuality":{"Country":1.0,"State":1.0,"County":1.0,"City":1.0,"District":1.0,"Street":[1.0],"PostalCode":1.0},"Location":{"LocationId":"NT_QH.66aNfalnvOdknSwBHdA_l_56250099_R","LocationType":"point","DisplayPosition":{"Latitude":48.83541,"Longitude":2.39787},"MapView":{"TopLeft":{"Latitude":48.83543,"Longitude":2.39776},"BottomRight":{"Latitude":48.83541,"Longitude":2.39787}},"Address":{"Label":"Rue de Wattignies, 75012 Paris, France","Country":"FRA","State":"Île-de-France","County":"Paris","City":"Paris","District":"12e Arrondissement","Street":"Rue de Wattignies","PostalCode":"75012","AdditionalData":[{"value":"France","key":"CountryName"},{"value":"Île-de-France","key":"StateName"},{"value":"Paris","key":"CountyName"}]},"MapReference":{"ReferenceId":"56250099","Spot":0.0,"SideOfStreet":"right","CountryId":"20000001","StateId":"20002126","CountyId":"20002127","CityId":"20002128","DistrictId":"20002141"}}},{"Relevance":1.0,"Distance":31.3,"MatchLevel":"houseNumber","MatchQuality":{"Country":1.0,"State":1.0,"County":1.0,"City":1.0,"District":1.0,"Street":[1.0],"HouseNumber":1.0,"PostalCode":1.0},"MatchType":"interpolated","Location":{"LocationId":"NT_QH.66aNfalnvOdknSwBHdA_1kD","LocationType":"point","DisplayPosition":{"Latitude":48.83545,"Longitude":2.3977},"MapView":{"TopLeft":{"Latitude":48.8365742,"Longitude":2.3959921},"BottomRight":{"Latitude":48.8343258,"Longitude":2.3994079}},"Address":{"Label":"59 Rue de Wattignies, 75012 Paris, France","Country":"FRA","State":"Île-de-France","County":"Paris","City":"Paris","District":"12e Arrondissement","Street":"Rue de Wattignies","HouseNumber":"59","PostalCode":"75012","AdditionalData":[{"value":"France","key":"CountryName"},{"value":"Île-de-France","key":"StateName"},{"value":"Paris","key":"CountyName"}]},"MapReference":{"ReferenceId":"1231570202","Spot":0.2,"SideOfStreet":"right","CountryId":"20000001","StateId":"20002126","CountyId":"20002127","CityId":"20002128","DistrictId":"20002141","AddressId":"301371630","RoadLinkId":"551175620"}}},{"Relevance":1.0,"Distance":43.0,"MatchLevel":"houseNumber","MatchQuality":{"Country":1.0,"State":1.0,"County":1.0,"City":1.0,"District":1.0,"Street":[1.0],"HouseNumber":1.0,"PostalCode":1.0},"MatchType":"interpolated","Location":{"LocationId":"NT_63sSDiAzLUOMmEDWKhuwrA_xQD","LocationType":"point","DisplayPosition":{"Latitude":48.83533,"Longitude":2.39766},"MapView":{"TopLeft":{"Latitude":48.8364542,"Longitude":2.3959521},"BottomRight":{"Latitude":48.8342058,"Longitude":2.3993679}},"Address":{"Label":"14 Rue de Madagascar, 75012 Paris, France","Country":"FRA","State":"Île-de-France","County":"Paris","City":"Paris","District":"12e Arrondissement","Street":"Rue de Madagascar","HouseNumber":"14","PostalCode":"75012","AdditionalData":[{"value":"France","key":"CountryName"},{"value":"Île-de-France","key":"StateName"},{"value":"Paris","key":"CountyName"}]},"MapReference":{"ReferenceId":"56250249","Spot":0.88,"SideOfStreet":"right","CountryId":"20000001","StateId":"20002126","CountyId":"20002127","CityId":"20002128","DistrictId":"20002141","AddressId":"301406279","RoadLinkId":"43412287"}}},{"Relevance":1.0,"Distance":54.2,"MatchLevel":"houseNumber","MatchQuality":{"Country":1.0,"State":1.0,"County":1.0,"City":1.0,"District":1.0,"Street":[1.0],"HouseNumber":1.0,"PostalCode":1.0},"MatchType":"interpolated","Location":{"LocationId":"NT_fhV1iYvAz3PvI72Up83uiA_xkD","LocationType":"point","DisplayPosition":{"Latitude":48.83523,"Longitude":2.39883},"MapView":{"TopLeft":{"Latitude":48.8363542,"Longitude":2.3971222},"BottomRight":{"Latitude":48.8341058,"Longitude":2.4005378}},"Address":{"Label":"19 Rue de Fécamp, 75012 Paris, France","Country":"FRA","State":"Île-de-France","County":"Paris","City":"Paris","District":"12e Arrondissement","Street":"Rue de Fécamp","HouseNumber":"19","PostalCode":"75012","AdditionalData":[{"value":"France","key":"CountryName"},{"value":"Île-de-France","key":"StateName"},{"value":"Paris","key":"CountyName"}]},"MapReference":{"ReferenceId":"56250141","Spot":0.08,"SideOfStreet":"left","CountryId":"20000001","StateId":"20002126","CountyId":"20002127","CityId":"20002128","DistrictId":"20002141","AddressId":"321753289","RoadLinkId":"43595042"}}},{"Relevance":1.0,"Distance":58.4,"MatchLevel":"houseNumber","MatchQuality":{"Country":1.0,"State":1.0,"County":1.0,"City":1.0,"District":1.0,"Street":[1.0],"HouseNumber":1.0,"PostalCode":1.0},"MatchType":"interpolated","Location":{"LocationId":"NT_CBmKFTe-qGsQi9t10HGg0A_2A","LocationType":"point","DisplayPosition":{"Latitude":48.83599,"Longitude":2.3975},"MapView":{"TopLeft":{"Latitude":48.8371142,"Longitude":2.3957921},"BottomRight":{"Latitude":48.8348658,"Longitude":2.3992079}},"Address":{"Label":"6 Rue de Gravelle, 75012 Paris, France","Country":"FRA","State":"Île-de-France","County":"Paris","City":"Paris","District":"12e Arrondissement","Street":"Rue de Gravelle","HouseNumber":"6","PostalCode":"75012","AdditionalData":[{"value":"France","key":"CountryName"},{"value":"Île-de-France","key":"StateName"},{"value":"Paris","key":"CountyName"}]},"MapReference":{"ReferenceId":"56250073","Spot":0.9,"SideOfStreet":"right","CountryId":"20000001","StateId":"20002126","CountyId":"20002127","CityId":"20002128","DistrictId":"20002141","AddressId":"301749855","RoadLinkId":"43469737"}}},{"Relevance":1.0,"Distance":61.1,"MatchLevel":"houseNumber","MatchQuality":{"Country":1.0,"State":1.0,"County":1.0,"City":1.0,"District":1.0,"Street":[1.0],"HouseNumber":1.0,"PostalCode":1.0},"MatchType":"interpolated","Location":{"LocationId":"NT_CBmKFTe-qGsQi9t10HGg0A_4A","LocationType":"point","DisplayPosition":{"Latitude":48.83608,"Longitude":2.39761},"MapView":{"TopLeft":{"Latitude":48.8372042,"Longitude":2.3959021},"BottomRight":{"Latitude":48.8349558,"Longitude":2.3993179}},"Address":{"Label":"8 Rue de Gravelle, 75012 Paris, France","Country":"FRA","State":"Île-de-France","County":"Paris","City":"Paris","District":"12e Arrondissement","Street":"Rue de Gravelle","HouseNumber":"8","PostalCode":"75012","AdditionalData":[{"value":"France","key":"CountryName"},{"value":"Île-de-France","key":"StateName"},{"value":"Paris","key":"CountyName"}]},"MapReference":{"ReferenceId":"56250001","Spot":0.07,"SideOfStreet":"right","CountryId":"20000001","StateId":"20002126","CountyId":"20002127","CityId":"20002128","DistrictId":"20002141","AddressId":"301329619","RoadLinkId":"43390543"}}},{"Relevance":1.0,"Distance":64.2,"MatchLevel":"houseNumber","MatchQuality":{"Country":1.0,"State":1.0,"County":1.0,"City":1.0,"District":1.0,"Street":[1.0],"HouseNumber":1.0,"PostalCode":1.0},"MatchType":"interpolated","Location":{"LocationId":"NT_fhV1iYvAz3PvI72Up83uiA_yAD","LocationType":"point","DisplayPosition":{"Latitude":48.83507,"Longitude":2.39864},"MapView":{"TopLeft":{"Latitude":48.8361942,"Longitude":2.3969322},"BottomRight":{"Latitude":48.8339458,"Longitude":2.4003478}},"Address":{"Label":"20 Rue de Fécamp, 75012 Paris, France","Country":"FRA","State":"Île-de-France","County":"Paris","City":"Paris","District":"12e Arrondissement","Street":"Rue de Fécamp","HouseNumber":"20","PostalCode":"75012","AdditionalData":[{"value":"France","key":"CountryName"},{"value":"Île-de-France","key":"StateName"},{"value":"Paris","key":"CountyName"}]},"MapReference":{"ReferenceId":"59127868","Spot":0.36,"SideOfStreet":"right","CountryId":"20000001","StateId":"20002126","CountyId":"20002127","CityId":"20002128","DistrictId":"20002141","AddressId":"301868292","RoadLinkId":"43572074"}}}]}]}}