{"Response":{"MetaInfo":{"Timestamp":"2020-03-28T11:43:45.957+0000","NextPageInformation":"2"},"View":[{"_type":"SearchResultsViewType","ViewId":0,"Result":[{"Relevance":1.0,"Distance":0.0,"Direction":0.0,"MatchLevel":"district","MatchQuality":{"Country":1.0,"State":1.0,"County":1.0,"City":1.0,"District":1.0,"PostalCode":1.0},"Location":{"LocationId":"NT_TUpOHpwVq3.OvLj-r89I1A","LocationType":"point","DisplayPosition":{"Latitude":48.8007645,"Longitude":9.7969601},"MapView":{"TopLeft":{"Latitude":48.81433,"Longitude":9.76364},"BottomRight":{"Latitude":48.78239,"Longitude":9.83477}},"Address":{"Label":"Schwäbisch Gmünd, Baden-Württemberg, Deutschland","Country":"DEU","State":"Baden-Württemberg","County":"Ostalbkreis","City":"Schwäbisch Gmünd","District":"Schwäbisch Gmünd","PostalCode":"73525","AdditionalData":[{"value":"Deutschland","key":"CountryName"},{"value":"Baden-Württemberg","key":"StateName"},{"value":"Ostalbkreis","key":"CountyName"}]},"MapReference":{"ReferenceId":"906747345","SideOfStreet":"neither","CountryId":"20147700","StateId":"20171489","CountyId":"20173009","CityId":"20173142","DistrictId":"20173151"}}},{"Relevance":1.0,"Distance":0.9,"MatchLevel":"street","MatchQuality":{"Country":1.0,"State":1.0,"County":1.0,"City":1.0,"District":1.0,"Street":[1.0],"PostalCode":1.0},"Location":{"LocationId":"NT_tlvMyN4lGNe6T2Tp8wl0RB_l_53258015_L","LocationType":"point","DisplayPosition":{"Latitude":48.8007725,"Longitude":9.7969577},"MapView":{"TopLeft":{"Latitude":48.8008,"Longitude":9.7965},"BottomRight":{"Latitude":48.80063,"Longitude":9.79705}},"Address":{"Label":"Bärengässle, 73525 Schwäbisch Gmünd, Deutschland","Country":"DEU","State":"Baden-Württemberg","County":"Ostalbkreis","City":"Schwäbisch Gmünd","District":"Schwäbisch Gmünd","Street":"Bärengässle","PostalCode":"73525","AdditionalData":[{"value":"Deutschland","key":"CountryName"},{"value":"Baden-Württemberg","key":"StateName"},{"value":"Ostalbkreis","key":"CountyName"}]},"MapReference":{"ReferenceId":"53258015","Spot":0.83,"SideOfStreet":"neither","CountryId":"20147700","StateId":"20171489","CountyId":"20173009","CityId":"20173142","DistrictId":"20173151"}}},{"Relevance":1.0,"Distance":5.0,"MatchLevel":"houseNumber","MatchQuality":{"Country":1.0,"State":1.0,"County":1.0,"City":1.0,"District":1.0,"Street":[1.0],"HouseNumber":1.0,"PostalCode":1.0},"MatchType":"interpolated","Location":{"LocationId":"NT_Q6kInipD-DNHIIdlt4t3UA_yUD","LocationType":"point","DisplayPosition":{"Latitude":48.80074,"Longitude":9.79708},"MapView":{"TopLeft":{"Latitude":48.8018642,"Longitude":9.7953733},"BottomRight":{"Latitude":48.7996158,"Longitude":9.7987867}},"Address":{"Label":"Marktplatz 25, 73525 Schwäbisch Gmünd, Deutschland","Country":"DEU","State":"Baden-Württemberg","County":"Ostalbkreis","City":"Schwäbisch Gmünd","District":"Schwäbisch Gmünd","Street":"Marktplatz","HouseNumber":"25","PostalCode":"73525","AdditionalData":[{"value":"Deutschland","key":"CountryName"},{"value":"Baden-Württemberg","key":"StateName"},{"value":"Ostalbkreis","key":"CountyName"}]},"MapReference":{"ReferenceId":"774499890","Spot":0.71,"SideOfStreet":"left","CountryId":"20147700","StateId":"20171489","CountyId":"20173009","CityId":"20173142","DistrictId":"20173151","AddressId":"249693719","RoadLinkId":"168160412"}}},{"Relevance":1.0,"Distance":8.5,"MatchLevel":"houseNumber","MatchQuality":{"Country":1.0,"State":1.0,"County":1.0,"City":1.0,"District":1.0,"Street":[1.0],"HouseNumber":1.0,"PostalCode":1.0},"MatchType":"interpolated","Location":{"LocationId":"NT_Q6kInipD-DNHIIdlt4t3UA_ycD","LocationType":"point","DisplayPosition":{"Latitude":48.80085,"Longitude":9.79702},"MapView":{"TopLeft":{"Latitude":48.8019742,"Longitude":9.7953133},"BottomRight":{"Latitude":48.7997258,"Longitude":9.7987267}},"Address":{"Label":"Marktplatz 27, 73525 Schwäbisch Gmünd, Deutschland","Country":"DEU","State":"Baden-Württemberg","County":"Ostalbkreis","City":"Schwäbisch Gmünd","District":"Schwäbisch Gmünd","Street":"Marktplatz","HouseNumber":"27","PostalCode":"73525","AdditionalData":[{"value":"Deutschland","key":"CountryName"},{"value":"Baden-Württemberg","key":"StateName"},{"value":"Ostalbkreis","key":"CountyName"}]},"MapReference":{"ReferenceId":"53258064","Spot":0.27,"SideOfStreet":"left","CountryId":"20147700","StateId":"20171489","CountyId":"20173009","CityId":"20173142","DistrictId":"20173151","AddressId":"177290080","RoadLinkId":"38864847"}}},{"Relevance":1.0,"Distance":24.8,"MatchLevel":"houseNumber","MatchQuality":{"Country":1.0,"State":1.0,"County":1.0,"City":1.0,"District":1.0,"Street":[1.0],"HouseNumber":1.0,"PostalCode":1.0},"MatchType":"interpolated","Location":{"LocationId":"NT_mLQ8byqmsoIGX2U0qU-9dC_2A","LocationType":"point","DisplayPosition":{"Latitude":48.80049,"Longitude":9.79676},"MapView":{"TopLeft":{"Latitude":48.8016142,"Longitude":9.7950533},"BottomRight":{"Latitude":48.7993658,"Longitude":9.7984667}},"Address":{"Label":"Freudental 6, 73525 Schwäbisch Gmünd, Deutschland","Country":"DEU","State":"Baden-Württemberg","County":"Ostalbkreis","City":"Schwäbisch Gmünd","District":"Schwäbisch Gmünd","Street":"Freudental","HouseNumber":"6","PostalCode":"73525","AdditionalData":[{"value":"Deutschland","key":"CountryName"},{"value":"Baden-Württemberg","key":"StateName"},{"value":"Ostalbkreis","key":"CountyName"}]},"MapReference":{"ReferenceId":"53258012","Spot":0.27,"SideOfStreet":"left","CountryId":"20147700","StateId":"20171489","CountyId":"20173009","CityId":"20173142","DistrictId":"20173151","AddressId":"177886568","RoadLinkId":"38598171"}}},{"Relevance":1.0,"Distance":29.9,"MatchLevel":"houseNumber","MatchQuality":{"Country":1.0,"State":1.0,"County":1.0,"City":1.0,"District":1.0,"Street":[1.0],"HouseNumber":1.0,"PostalCode":1.0},"MatchType":"interpolated","Location":{"LocationId":"NT_Q6kInipD-DNHIIdlt4t3UA_yED","LocationType":"point","DisplayPosition":{"Latitude":48.80054,"Longitude":9.79721},"MapView":{"TopLeft":{"Latitude":48.8016642,"Longitude":9.7955033},"BottomRight":{"Latitude":48.7994158,"Longitude":9.7989167}},"Address":{"Label":"Marktplatz 21, 73525 Schwäbisch Gmünd, Deutschland","Country":"DEU","State":"Baden-Württemberg","County":"Ostalbkreis","City":"Schwäbisch Gmünd","District":"Schwäbisch Gmünd","Street":"Marktplatz","HouseNumber":"21","PostalCode":"73525","AdditionalData":[{"value":"Deutschland","key":"CountryName"},{"value":"Baden-Württemberg","key":"StateName"},{"value":"Ostalbkreis","key":"CountyName"}]},"MapReference":{"ReferenceId":"774499889","Spot":0.38,"SideOfStreet":"left","CountryId":"20147700","StateId":"20171489","CountyId":"20173009","CityId":"20173142","DistrictId":"20173151","AddressId":"177345910","RoadLinkId":"168160411"}}},{"Relevance":1.0,"Distance":33.0,"MatchLevel":"houseNumber","MatchQuality":{"Country":1.0,"State":1.0,"County":1.0,"City":1.0,"District":1.0,"Street":[1.0],"HouseNumber":1.0,"PostalCode":1.0},"MatchType":"interpolated","Location":{"LocationId":"NT_vbtJzz5ljluqEDFi8qdPkB_zA","LocationType":"point","DisplayPosition":{"Latitude":48.80084,"Longitude":9.7964},"MapView":{"TopLeft":{"Latitude":48.8019642,"Longitude":9.7946933},"BottomRight":{"Latitude":48.7997158,"Longitude":9.7981067}},"Address":{"Label":"Mohrengäßle 3, 73525 Schwäbisch Gmünd, Deutschland","Country":"DEU","State":"Baden-Württemberg","County":"Ostalbkreis","City":"Schwäbisch Gmünd","District":"Schwäbisch Gmünd","Street":"Mohrengäßle","HouseNumber":"3","PostalCode":"73525","AdditionalData":[{"value":"Deutschland","key":"CountryName"},{"value":"Baden-Württemberg","key":"StateName"},{"value":"Ostalbkreis","key":"CountyName"}]},"MapReference":{"ReferenceId":"53258057","Spot":0.29,"SideOfStreet":"right","CountryId":"20147700","StateId":"20171489","CountyId":"20173009","CityId":"20173142","DistrictId":"20173151","AddressId":"179702961","RoadLinkId":"38665964"}}},{"Relevance":1.0,"Distance":36.7,"MatchLevel":"houseNumber","MatchQuality":{"Country":1.0,"State":1.0,"County":1.0,"City":1.0,"District":1.0,"Street":[1.0],"HouseNumber":1.0,"PostalCode":1.0},"MatchType":"interpolated","Location":{"LocationId":"NT_Q6kInipD-DNHIIdlt4t3UA_zED","LocationType":"point","DisplayPosition":{"Latitude":48.80109,"Longitude":9.79688},"MapView":{"TopLeft":{"Latitude":48.8022142,"Longitude":9.7951733},"BottomRight":{"Latitude":48.7999658,"Longitude":9.7985867}},"Address":{"Label":"Marktplatz 31, 73525 Schwäbisch Gmünd, Deutschland","Country":"DEU","State":"Baden-Württemberg","County":"Ostalbkreis","City":"Schwäbisch Gmünd","District":"Schwäbisch Gmünd","Street":"Marktplatz","HouseNumber":"31","PostalCode":"73525","AdditionalData":[{"value":"Deutschland","key":"CountryName"},{"value":"Baden-Württemberg","key":"StateName"},{"value":"Ostalbkreis","key":"CountyName"}]},"MapReference":{"ReferenceId":"53258067","Spot":0.44,"SideOfStreet":"left","CountryId":"20147700","StateId":"20171489","CountyId":"20173009","CityId":"20173142","DistrictId":"20173151","AddressId":"180199687","RoadLinkId":"38625425"}}},{"Relevance":1.0,"Distance":38.2,"MatchLevel":"houseNumber","MatchQuality":{"Country":1.0,"State":1.0,"County":1.0,"City":1.0,"District":1.0,"Street":[1.0],"HouseNumber":1.0,"PostalCode":1.0},"MatchType":"interpolated","Location":{"LocationId":"NT_Q6kInipD-DNHIIdlt4t3UA_xkD","LocationType":"point","DisplayPosition":{"Latitude":48.80046,"Longitude":9.79725},"MapView":{"TopLeft":{"Latitude":48.8015842,"Longitude":9.7955433},"BottomRight":{"Latitude":48.7993358,"Longitude":9.7989567}},"Address":{"Label":"Marktplatz 19, 73525 Schwäbisch Gmünd, Deutschland","Country":"DEU","State":"Baden-Württemberg","County":"Ostalbkreis","City":"Schwäbisch Gmünd","District":"Schwäbisch Gmünd","Street":"Marktplatz","HouseNumber":"19","PostalCode":"73525","AdditionalData":[{"value":"Deutschland","key":"CountryName"},{"value":"Baden-Württemberg","key":"StateName"},{"value":"Ostalbkreis","key":"CountyName"}]},"MapReference":{"ReferenceId":"53258061","Spot":0.7,"SideOfStreet":"left","CountryId":"20147700","StateId":"20171489","CountyId":"20173009","CityId":"20173142","DistrictId":"20173151","AddressId":"178964088","RoadLinkId":"38079174"}}},{"Relevance":1.0,"Distance":39.4,"MatchLevel":"street","MatchQuality":{"Country":1.0,"State":1.0,"County":1.0,"City":1.0,"District":1.0,"PostalCode":1.0},"Location":{"LocationId":"NT_GVY4JriqxD2MNjEUO82U8C_l_53258013_R","LocationType":"point","DisplayPosition":{"Latitude":48.8005232,"Longitude":9.7965653},"MapView":{"TopLeft":{"Latitude":48.80063,"Longitude":9.7965},"BottomRight":{"Latitude":48.80045,"Longitude":9.79661}},"Address":{"Label":"73525 Schwäbisch Gmünd, Deutschland","Country":"DEU","State":"Baden-Württemberg","County":"Ostalbkreis","City":"Schwäbisch Gmünd","District":"Schwäbisch Gmünd","PostalCode":"73525","AdditionalData":[{"value":"Deutschland","key":"CountryName"},{"value":"Baden-Württemberg","key":"StateName"},{"value":"Ostalbkreis","key":"CountyName"}]},"MapReference":{"ReferenceId":"53258013","Spot":0.41,"SideOfStreet":"right","CountryId":"20147700","StateId":"20171489","CountyId":"20173009","CityId":"20173142","DistrictId":"20173151"}}}]}]}}