{"Response":{"MetaInfo":{"Timestamp":"2020-03-28T11:13:04.328+0000","NextPageInformation":"2"},"View":[{"_type":"SearchResultsViewType","ViewId":0,"Result":[{"Relevance":1.0,"Distance":-2.0,"MatchLevel":"landmark","MatchQuality":{"Country":1.0,"State":1.0,"County":1.0,"City":1.0,"District":1.0,"Street":[1.0],"PostalCode":1.0,"Name":1.0},"Location":{"LocationId":"NT_wsL7vvHJlraGbYI9xbGVfC_p_ygbOE.4zsvi-8B4aNQJ6nB","LocationType":"hospital","Name":"Hôpital Robert Debré","DisplayPosition":{"Latitude":48.87843,"Longitude":2.4031},"MapView":{"TopLeft":{"Latitude":48.88161,"Longitude":2.40147},"BottomRight":{"Latitude":48.87835,"Longitude":2.40469}},"Address":{"Label":"Boulevard Sérurier, 75019 Paris, France","Country":"FRA","State":"Île-de-France","County":"Paris","City":"Paris","District":"19e Arrondissement","Street":"Boulevard Sérurier","PostalCode":"75019","AdditionalData":[{"value":"France","key":"CountryName"},{"value":"Île-de-France","key":"StateName"},{"value":"Paris","key":"CountyName"}]},"MapReference":{"CountryId":"20000001","StateId":"20002126","CountyId":"20002127","CityId":"20002128","DistrictId":"20002148","PlaceId":"51190458"}}},{"Relevance":1.0,"Distance":0.0,"Direction":0.0,"MatchLevel":"district","MatchQuality":{"Country":1.0,"State":1.0,"County":1.0,"City":1.0,"District":1.0,"PostalCode":1.0},"Location":{"LocationId":"NT_8e3rToXJMuVdDh5hDI7j2B","LocationType":"point","DisplayPosition":{"Latitude":48.8786021,"Longitude":2.4027525},"MapView":{"TopLeft":{"Latitude":48.90214,"Longitude":2.36461},"BottomRight":{"Latitude":48.87201,"Longitude":2.41064}},"Address":{"Label":"19e Arrondissement, Paris, Île-de-France, France","Country":"FRA","State":"Île-de-France","County":"Paris","City":"Paris","District":"19e Arrondissement","PostalCode":"75019","AdditionalData":[{"value":"France","key":"CountryName"},{"value":"Île-de-France","key":"StateName"},{"value":"Paris","key":"CountyName"}]},"MapReference":{"ReferenceId":"56238167","SideOfStreet":"neither","CountryId":"20000001","StateId":"20002126","CountyId":"20002127","CityId":"20002128","DistrictId":"20002148"}}},{"Relevance":1.0,"Distance":4.9,"MatchLevel":"houseNumber","MatchQuality":{"Country":1.0,"State":1.0,"County":1.0,"City":1.0,"District":1.0,"Street":[1.0],"HouseNumber":1.0,"PostalCode":1.0},"MatchType":"interpolated","Location":{"LocationId":"NT_Ue99V-OcNfbVnbq-hi5zjA_0gjQ","LocationType":"point","DisplayPosition":{"Latitude":48.8785,"Longitude":2.40276},"MapView":{"TopLeft":{"Latitude":48.8796242,"Longitude":2.4010507},"BottomRight":{"Latitude":48.8773758,"Longitude":2.4044693}},"Address":{"Label":"48B Boulevard Sérurier, 75019 Paris, France","Country":"FRA","State":"Île-de-France","County":"Paris","City":"Paris","District":"19e Arrondissement","Street":"Boulevard Sérurier","HouseNumber":"48B","PostalCode":"75019","AdditionalData":[{"value":"France","key":"CountryName"},{"value":"Île-de-France","key":"StateName"},{"value":"Paris","key":"CountyName"}]},"MapReference":{"ReferenceId":"803008853","Spot":0.97,"SideOfStreet":"right","CountryId":"20000001","StateId":"20002126","CountyId":"20002127","CityId":"20002128","DistrictId":"20002148","AddressId":"572194836","RoadLinkId":"192421534"}}},{"Relevance":1.0,"Distance":7.4,"MatchLevel":"houseNumber","MatchQuality":{"Country":1.0,"State":1.0,"County":1.0,"City":1.0,"District":1.0,"Street":[1.0],"HouseNumber":1.0,"PostalCode":1.0},"MatchType":"interpolated","Location":{"LocationId":"NT_Ue99V-OcNfbVnbq-hi5zjA_zgD","LocationType":"point","DisplayPosition":{"Latitude":48.87853,"Longitude":2.40259},"MapView":{"TopLeft":{"Latitude":48.8796542,"Longitude":2.4008807},"BottomRight":{"Latitude":48.8774058,"Longitude":2.4042993}},"Address":{"Label":"38 Boulevard Sérurier, 75019 Paris, France","Country":"FRA","State":"Île-de-France","County":"Paris","City":"Paris","District":"19e Arrondissement","Street":"Boulevard Sérurier","HouseNumber":"38","PostalCode":"75019","AdditionalData":[{"value":"France","key":"CountryName"},{"value":"Île-de-France","key":"StateName"},{"value":"Paris","key":"CountyName"}]},"MapReference":{"ReferenceId":"820890082","Spot":0.38,"SideOfStreet":"right","CountryId":"20000001","StateId":"20002126","CountyId":"20002127","CityId":"20002128","DistrictId":"20002148","AddressId":"301875735","RoadLinkId":"207400784"}}},{"Relevance":1.0,"Distance":8.0,"MatchLevel":"landmark","MatchQuality":{"Country":1.0,"State":1.0,"County":1.0,"City":1.0,"District":1.0,"PostalCode":1.0,"Name":1.0},"Location":{"LocationId":"NT_Q1cpMnrDeCsaemWxHL3PjA","LocationType":"park","Name":"Jardin Notre-Dame-de-Fatima","DisplayPosition":{"Latitude":48.87902,"Longitude":2.40229},"MapView":{"TopLeft":{"Latitude":48.8795,"Longitude":2.40167},"BottomRight":{"Latitude":48.87854,"Longitude":2.40311}},"Address":{"Label":"75019 Paris, France","Country":"FRA","State":"Île-de-France","County":"Paris","City":"Paris","District":"19e Arrondissement","PostalCode":"75019","AdditionalData":[{"value":"France","key":"CountryName"},{"value":"Île-de-France","key":"StateName"},{"value":"Paris","key":"CountyName"}]},"MapReference":{"CountryId":"20000001","StateId":"20002126","CountyId":"20002127","CityId":"20002128","DistrictId":"20002148","PlaceId":"1507865654"}}},{"Relevance":1.0,"Distance":8.0,"MatchLevel":"street","MatchQuality":{"Country":1.0,"State":1.0,"County":1.0,"City":1.0,"District":1.0,"PostalCode":1.0},"Location":{"LocationId":"NT_fFsUJf8GoNFemmq8jHVGqD_l_805974152_R","LocationType":"point","DisplayPosition":{"Latitude":48.8786558,"Longitude":2.4026787},"MapView":{"TopLeft":{"Latitude":48.87886,"Longitude":2.40254},"BottomRight":{"Latitude":48.87854,"Longitude":2.40279}},"Address":{"Label":"75019 Paris, France","Country":"FRA","State":"Île-de-France","County":"Paris","City":"Paris","District":"19e Arrondissement","PostalCode":"75019","AdditionalData":[{"value":"France","key":"CountryName"},{"value":"Île-de-France","key":"StateName"},{"value":"Paris","key":"CountyName"}]},"MapReference":{"ReferenceId":"805974152","Spot":0.44,"SideOfStreet":"right","CountryId":"20000001","StateId":"20002126","CountyId":"20002127","CityId":"20002128","DistrictId":"20002148"}}},{"Relevance":1.0,"Distance":11.3,"MatchLevel":"street","MatchQuality":{"Country":1.0,"State":1.0,"County":1.0,"City":1.0,"District":1.0,"Street":[1.0],"PostalCode":1.0},"Location":{"LocationId":"NT_Ue99V-OcNfbVnbq-hi5zjA_l_803008854_R","LocationType":"point","DisplayPosition":{"Latitude":48.8785007,"Longitude":2.4027356},"MapView":{"TopLeft":{"Latitude":48.87852,"Longitude":2.40262},"BottomRight":{"Latitude":48.8785,"Longitude":2.40274}},"Address":{"Label":"Boulevard Sérurier, 75019 Paris, France","Country":"FRA","State":"Île-de-France","County":"Paris","City":"Paris","District":"19e Arrondissement","Street":"Boulevard Sérurier","PostalCode":"75019","AdditionalData":[{"value":"France","key":"CountryName"},{"value":"Île-de-France","key":"StateName"},{"value":"Paris","key":"CountyName"}]},"MapReference":{"ReferenceId":"803008854","Spot":0.04,"SideOfStreet":"right","CountryId":"20000001","StateId":"20002126","CountyId":"20002127","CityId":"20002128","DistrictId":"20002148"}}},{"Relevance":1.0,"Distance":17.0,"MatchLevel":"street","MatchQuality":{"Country":1.0,"State":1.0,"County":1.0,"City":1.0,"District":1.0,"Street":[1.0],"PostalCode":1.0},"Location":{"LocationId":"NT_Ue99V-OcNfbVnbq-hi5zjA_l_970375005_R","LocationType":"point","DisplayPosition":{"Latitude":48.87854,"Longitude":2.40254},"MapView":{"TopLeft":{"Latitude":48.8786,"Longitude":2.40236},"BottomRight":{"Latitude":48.87854,"Longitude":2.40254}},"Address":{"Label":"Boulevard Sérurier, 75019 Paris, France","Country":"FRA","State":"Île-de-France","County":"Paris","City":"Paris","District":"19e Arrondissement","Street":"Boulevard Sérurier","PostalCode":"75019","AdditionalData":[{"value":"France","key":"CountryName"},{"value":"Île-de-France","key":"StateName"},{"value":"Paris","key":"CountyName"}]},"MapReference":{"ReferenceId":"970375005","Spot":0.0,"SideOfStreet":"right","CountryId":"20000001","StateId":"20002126","CountyId":"20002127","CityId":"20002128","DistrictId":"20002148"}}},{"Relevance":1.0,"Distance":27.0,"MatchLevel":"street","MatchQuality":{"Country":1.0,"State":1.0,"County":1.0,"City":1.0,"District":1.0,"PostalCode":1.0},"Location":{"LocationId":"NT_fFsUJf8GoNFemmq8jHVGqD_l_970375007_R","LocationType":"point","DisplayPosition":{"Latitude":48.87872,"Longitude":2.40243},"MapView":{"TopLeft":{"Latitude":48.87895,"Longitude":2.40236},"BottomRight":{"Latitude":48.8786,"Longitude":2.40245}},"Address":{"Label":"75019 Paris, France","Country":"FRA","State":"Île-de-France","County":"Paris","City":"Paris","District":"19e Arrondissement","PostalCode":"75019","AdditionalData":[{"value":"France","key":"CountryName"},{"value":"Île-de-France","key":"StateName"},{"value":"Paris","key":"CountyName"}]},"MapReference":{"ReferenceId":"970375007","Spot":0.37,"SideOfStreet":"right","CountryId":"20000001","StateId":"20002126","CountyId":"20002127","CityId":"20002128","DistrictId":"20002148"}}},{"Relevance":1.0,"Distance":28.1,"MatchLevel":"houseNumber","MatchQuality":{"Country":1.0,"State":1.0,"County":1.0,"City":1.0,"District":1.0,"Street":[1.0],"HouseNumber":1.0,"PostalCode":1.0},"MatchType":"interpolated","Location":{"LocationId":"NT_Ue99V-OcNfbVnbq-hi5zjA_1UD","LocationType":"point","DisplayPosition":{"Latitude":48.87838,"Longitude":2.40257},"MapView":{"TopLeft":{"Latitude":48.8795042,"Longitude":2.4008607},"BottomRight":{"Latitude":48.8772558,"Longitude":2.4042793}},"Address":{"Label":"55 Boulevard Sérurier, 75019 Paris, France","Country":"FRA","State":"Île-de-France","County":"Paris","City":"Paris","District":"19e Arrondissement","Street":"Boulevard Sérurier","HouseNumber":"55","PostalCode":"75019","AdditionalData":[{"value":"France","key":"CountryName"},{"value":"Île-de-France","key":"StateName"},{"value":"Paris","key":"CountyName"}]},"MapReference":{"ReferenceId":"970374998","Spot":0.36,"SideOfStreet":"left","CountryId":"20000001","StateId":"20002126","CountyId":"20002127","CityId":"20002128","DistrictId":"20002148","AddressId":"301786647","RoadLinkId":"306748470"}}}]}]}}