{"Response":{"MetaInfo":{"Timestamp":"2020-03-28T10:28:25.009+0000","NextPageInformation":"2"},"View":[{"_type":"SearchResultsViewType","ViewId":0,"Result":[{"Relevance":1.0,"Distance":0.0,"Direction":0.0,"MatchLevel":"city","MatchQuality":{"Country":1.0,"State":1.0,"County":1.0,"City":1.0,"PostalCode":1.0},"Location":{"LocationId":"NT_lv8GJZbyu.ldAQaPnLAATD","LocationType":"point","DisplayPosition":{"Latitude":48.802058,"Longitude":2.060741},"MapView":{"TopLeft":{"Latitude":48.82287,"Longitude":2.04829},"BottomRight":{"Latitude":48.79007,"Longitude":2.08317}},"Address":{"Label":"Saint-Cyr-l'École, Île-de-France, France","Country":"FRA","State":"Île-de-France","County":"Yvelines","City":"Saint-Cyr-l'École","PostalCode":"78210","AdditionalData":[{"value":"France","key":"CountryName"},{"value":"Île-de-France","key":"StateName"},{"value":"Yvelines","key":"CountyName"}]},"MapReference":{"ReferenceId":"763517672","SideOfStreet":"neither","CountryId":"20000001","StateId":"20002126","CountyId":"20003702","CityId":"20004345"}}},{"Relevance":1.0,"Distance":13.0,"MatchLevel":"houseNumber","MatchQuality":{"Country":1.0,"State":1.0,"County":1.0,"City":1.0,"Street":[1.0],"HouseNumber":1.0,"PostalCode":1.0},"MatchType":"interpolated","Location":{"LocationId":"NT_nuk-7k4xkCOZQbg8Sng31B_1cjQ","LocationType":"point","DisplayPosition":{"Latitude":48.80219,"Longitude":2.06113},"MapView":{"TopLeft":{"Latitude":48.8033142,"Longitude":2.0594233},"BottomRight":{"Latitude":48.8010658,"Longitude":2.0628367}},"Address":{"Label":"57B Rue Gabriel Péri, 78210 Saint-Cyr-l'École, France","Country":"FRA","State":"Île-de-France","County":"Yvelines","City":"Saint-Cyr-l'École","Street":"Rue Gabriel Péri","HouseNumber":"57B","PostalCode":"78210","AdditionalData":[{"value":"France","key":"CountryName"},{"value":"Île-de-France","key":"StateName"},{"value":"Yvelines","key":"CountyName"}]},"MapReference":{"ReferenceId":"1216617866","Spot":0.42,"SideOfStreet":"left","CountryId":"20000001","StateId":"20002126","CountyId":"20003702","CityId":"20004345","AddressId":"321973999","RoadLinkId":"532985008"}}},{"Relevance":1.0,"Distance":30.3,"MatchLevel":"houseNumber","MatchQuality":{"Country":1.0,"State":1.0,"County":1.0,"City":1.0,"Street":[1.0],"HouseNumber":1.0,"PostalCode":1.0},"MatchType":"interpolated","Location":{"LocationId":"NT_nuk-7k4xkCOZQbg8Sng31B_2MD","LocationType":"point","DisplayPosition":{"Latitude":48.80238,"Longitude":2.06079},"MapView":{"TopLeft":{"Latitude":48.8035042,"Longitude":2.0590833},"BottomRight":{"Latitude":48.8012558,"Longitude":2.0624967}},"Address":{"Label":"63 Rue Gabriel Péri, 78210 Saint-Cyr-l'École, France","Country":"FRA","State":"Île-de-France","County":"Yvelines","City":"Saint-Cyr-l'École","Street":"Rue Gabriel Péri","HouseNumber":"63","PostalCode":"78210","AdditionalData":[{"value":"France","key":"CountryName"},{"value":"Île-de-France","key":"StateName"},{"value":"Yvelines","key":"CountyName"}]},"MapReference":{"ReferenceId":"1216617867","Spot":0.03,"SideOfStreet":"left","CountryId":"20000001","StateId":"20002126","CountyId":"20003702","CityId":"20004345","AddressId":"321973993","RoadLinkId":"532985009"}}},{"Relevance":1.0,"Distance":43.9,"MatchLevel":"houseNumber","MatchQuality":{"Country":1.0,"State":1.0,"County":1.0,"City":1.0,"Street":[1.0],"HouseNumber":1.0,"PostalCode":1.0},"MatchType":"interpolated","Location":{"LocationId":"NT_v9g-qmEPsnG0ehnPOl4m7B_0A","LocationType":"point","DisplayPosition":{"Latitude":48.80166,"Longitude":2.06039},"MapView":{"TopLeft":{"Latitude":48.8027842,"Longitude":2.0586833},"BottomRight":{"Latitude":48.8005358,"Longitude":2.0620967}},"Address":{"Label":"4 Rue du Collège Technique, 78210 Saint-Cyr-l'École, France","Country":"FRA","State":"Île-de-France","County":"Yvelines","City":"Saint-Cyr-l'École","Street":"Rue du Collège Technique","HouseNumber":"4","PostalCode":"78210","AdditionalData":[{"value":"France","key":"CountryName"},{"value":"Île-de-France","key":"StateName"},{"value":"Yvelines","key":"CountyName"}]},"MapReference":{"ReferenceId":"56332118","Spot":0.86,"SideOfStreet":"right","CountryId":"20000001","StateId":"20002126","CountyId":"20003702","CityId":"20004345","AddressId":"322319495","RoadLinkId":"43672839"}}},{"Relevance":1.0,"Distance":45.3,"MatchLevel":"street","MatchQuality":{"Country":1.0,"State":1.0,"County":1.0,"City":1.0,"Street":[1.0],"PostalCode":1.0},"Location":{"LocationId":"NT_nuk-7k4xkCOZQbg8Sng31B_l_943298916_L","LocationType":"point","DisplayPosition":{"Latitude":48.80206,"Longitude":2.06136},"MapView":{"TopLeft":{"Latitude":48.80206,"Longitude":2.06136},"BottomRight":{"Latitude":48.80203,"Longitude":2.06141}},"Address":{"Label":"Rue Gabriel Péri, 78210 Saint-Cyr-l'École, France","Country":"FRA","State":"Île-de-France","County":"Yvelines","City":"Saint-Cyr-l'École","Street":"Rue Gabriel Péri","PostalCode":"78210","AdditionalData":[{"value":"France","key":"CountryName"},{"value":"Île-de-France","key":"StateName"},{"value":"Yvelines","key":"CountyName"}]},"MapReference":{"ReferenceId":"943298916","Spot":1.0,"SideOfStreet":"left","CountryId":"20000001","StateId":"20002126","CountyId":"20003702","CityId":"20004345"}}},{"Relevance":1.0,"Distance":47.2,"MatchLevel":"houseNumber","MatchQuality":{"Country":1.0,"State":1.0,"County":1.0,"City":1.0,"Street":[1.0],"HouseNumber":1.0,"PostalCode":1.0},"MatchType":"interpolated","Location":{"LocationId":"NT_19DlXfH6oX2n.ftl2zTyxB_yA","LocationType":"point","DisplayPosition":{"Latitude":48.80176,"Longitude":2.06126},"MapView":{"TopLeft":{"Latitude":48.8028842,"Longitude":2.0595533},"BottomRight":{"Latitude":48.8006358,"Longitude":2.0629667}},"Address":{"Label":"2 Rue Mansart, 78210 Saint-Cyr-l'École, France","Country":"FRA","State":"Île-de-France","County":"Yvelines","City":"Saint-Cyr-l'École","Street":"Rue Mansart","HouseNumber":"2","PostalCode":"78210","AdditionalData":[{"value":"France","key":"CountryName"},{"value":"Île-de-France","key":"StateName"},{"value":"Yvelines","key":"CountyName"}]},"MapReference":{"ReferenceId":"56332117","Spot":0.58,"SideOfStreet":"left","CountryId":"20000001","StateId":"20002126","CountyId":"20003702","CityId":"20004345","AddressId":"322145067","RoadLinkId":"43590296"}}},{"Relevance":1.0,"Distance":47.9,"MatchLevel":"houseNumber","MatchQuality":{"Country":1.0,"State":1.0,"County":1.0,"City":1.0,"Street":[1.0],"HouseNumber":1.0,"PostalCode":1.0},"MatchType":"interpolated","Location":{"LocationId":"NT_K9NHF7nkOlahv4blIy..lC_yA","LocationType":"point","DisplayPosition":{"Latitude":48.80215,"Longitude":2.06138},"MapView":{"TopLeft":{"Latitude":48.8032742,"Longitude":2.0596733},"BottomRight":{"Latitude":48.8010258,"Longitude":2.0630867}},"Address":{"Label":"2 Rue Marceau, 78210 Saint-Cyr-l'École, France","Country":"FRA","State":"Île-de-France","County":"Yvelines","City":"Saint-Cyr-l'École","Street":"Rue Marceau","HouseNumber":"2","PostalCode":"78210","AdditionalData":[{"value":"France","key":"CountryName"},{"value":"Île-de-France","key":"StateName"},{"value":"Yvelines","key":"CountyName"}]},"MapReference":{"ReferenceId":"59126149","Spot":0.44,"SideOfStreet":"right","CountryId":"20000001","StateId":"20002126","CountyId":"20003702","CityId":"20004345","AddressId":"605616645","RoadLinkId":"43587015"}}},{"Relevance":1.0,"Distance":55.3,"MatchLevel":"houseNumber","MatchQuality":{"Country":1.0,"State":1.0,"County":1.0,"City":1.0,"Street":[1.0],"HouseNumber":1.0,"PostalCode":1.0},"MatchType":"interpolated","Location":{"LocationId":"NT_0.BhveV3Tnfyaanaj9h0nA_xUD","LocationType":"point","DisplayPosition":{"Latitude":48.80226,"Longitude":2.06147},"MapView":{"TopLeft":{"Latitude":48.8033842,"Longitude":2.0597633},"BottomRight":{"Latitude":48.8011358,"Longitude":2.0631767}},"Address":{"Label":"15 Rue Yves Farges, 78210 Saint-Cyr-l'École, France","Country":"FRA","State":"Île-de-France","County":"Yvelines","City":"Saint-Cyr-l'École","Street":"Rue Yves Farges","HouseNumber":"15","PostalCode":"78210","AdditionalData":[{"value":"France","key":"CountryName"},{"value":"Île-de-France","key":"StateName"},{"value":"Yvelines","key":"CountyName"}]},"MapReference":{"ReferenceId":"943293112","Spot":0.98,"SideOfStreet":"left","CountryId":"20000001","StateId":"20002126","CountyId":"20003702","CityId":"20004345","AddressId":"572095544","RoadLinkId":"292915228"}}},{"Relevance":1.0,"Distance":75.5,"MatchLevel":"houseNumber","MatchQuality":{"Country":1.0,"State":1.0,"County":1.0,"City":1.0,"Street":[1.0],"HouseNumber":1.0,"PostalCode":1.0},"MatchType":"interpolated","Location":{"LocationId":"NT_nuk-7k4xkCOZQbg8Sng31B_1MD","LocationType":"point","DisplayPosition":{"Latitude":48.80181,"Longitude":2.06175},"MapView":{"TopLeft":{"Latitude":48.8029342,"Longitude":2.0600433},"BottomRight":{"Latitude":48.8006858,"Longitude":2.0634567}},"Address":{"Label":"53 Rue Gabriel Péri, 78210 Saint-Cyr-l'École, France","Country":"FRA","State":"Île-de-France","County":"Yvelines","City":"Saint-Cyr-l'École","Street":"Rue Gabriel Péri","HouseNumber":"53","PostalCode":"78210","AdditionalData":[{"value":"France","key":"CountryName"},{"value":"Île-de-France","key":"StateName"},{"value":"Yvelines","key":"CountyName"}]},"MapReference":{"ReferenceId":"1216617872","Spot":0.03,"SideOfStreet":"left","CountryId":"20000001","StateId":"20002126","CountyId":"20003702","CityId":"20004345","AddressId":"399132488","RoadLinkId":"532985013"}}},{"Relevance":1.0,"Distance":80.4,"MatchLevel":"houseNumber","MatchQuality":{"Country":1.0,"State":1.0,"County":1.0,"City":1.0,"Street":[1.0],"HouseNumber":1.0,"PostalCode":1.0},"MatchType":"interpolated","Location":{"LocationId":"NT_19DlXfH6oX2n.ftl2zTyxB_xAD","LocationType":"point","DisplayPosition":{"Latitude":48.8013,"Longitude":2.06094},"MapView":{"TopLeft":{"Latitude":48.8024242,"Longitude":2.0592333},"BottomRight":{"Latitude":48.8001758,"Longitude":2.0626467}},"Address":{"Label":"10 Rue Mansart, 78210 Saint-Cyr-l'École, France","Country":"FRA","State":"Île-de-France","County":"Yvelines","City":"Saint-Cyr-l'École","Street":"Rue Mansart","HouseNumber":"10","PostalCode":"78210","AdditionalData":[{"value":"France","key":"CountryName"},{"value":"Île-de-France","key":"StateName"},{"value":"Yvelines","key":"CountyName"}]},"MapReference":{"ReferenceId":"56332192","Spot":0.57,"SideOfStreet":"left","CountryId":"20000001","StateId":"20002126","CountyId":"20003702","CityId":"20004345","AddressId":"322106867","RoadLinkId":"43797379"}}}]}]}}