{"Response":{"MetaInfo":{"Timestamp":"2020-03-28T11:52:26.857+0000","NextPageInformation":"2"},"View":[{"_type":"SearchResultsViewType","ViewId":0,"Result":[{"Relevance":1.0,"Distance":0.0,"Direction":0.0,"MatchLevel":"district","MatchQuality":{"Country":1.0,"State":1.0,"County":1.0,"City":1.0,"District":1.0,"PostalCode":1.0},"Location":{"LocationId":"NT_ciFrAPbBuDjwY.lZpAfneA","LocationType":"point","DisplayPosition":{"Latitude":48.8764605,"Longitude":2.3598364},"MapView":{"TopLeft":{"Latitude":48.88429,"Longitude":2.34788},"BottomRight":{"Latitude":48.86729,"Longitude":2.37677}},"Address":{"Label":"10e Arrondissement, Paris, Île-de-France, France","Country":"FRA","State":"Île-de-France","County":"Paris","City":"Paris","District":"10e Arrondissement","PostalCode":"75010","AdditionalData":[{"value":"France","key":"CountryName"},{"value":"Île-de-France","key":"StateName"},{"value":"Paris","key":"CountyName"}]},"MapReference":{"ReferenceId":"1212913898","SideOfStreet":"neither","CountryId":"20000001","StateId":"20002126","CountyId":"20002127","CityId":"20002128","DistrictId":"20002139"}}},{"Relevance":1.0,"Distance":22.9,"MatchLevel":"street","MatchQuality":{"Country":1.0,"State":1.0,"County":1.0,"City":1.0,"District":1.0,"PostalCode":1.0},"Location":{"LocationId":"NT_hL3KrTyJCs1onAqzAqKNtD_l_732298700_R","LocationType":"point","DisplayPosition":{"Latitude":48.8762576,"Longitude":2.3597817},"MapView":{"TopLeft":{"Latitude":48.87645,"Longitude":2.35907},"BottomRight":{"Latitude":48.87625,"Longitude":2.35981}},"Address":{"Label":"75010 Paris, France","Country":"FRA","State":"Île-de-France","County":"Paris","City":"Paris","District":"10e Arrondissement","PostalCode":"75010","AdditionalData":[{"value":"France","key":"CountryName"},{"value":"Île-de-France","key":"StateName"},{"value":"Paris","key":"CountyName"}]},"MapReference":{"ReferenceId":"732298700","Spot":0.04,"SideOfStreet":"right","CountryId":"20000001","StateId":"20002126","CountyId":"20002127","CityId":"20002128","DistrictId":"20002139"}}},{"Relevance":1.0,"Distance":23.5,"MatchLevel":"street","MatchQuality":{"Country":1.0,"State":1.0,"County":1.0,"City":1.0,"District":1.0,"PostalCode":1.0},"Location":{"LocationId":"NT_hL3KrTyJCs1onAqzAqKNtD_l_812362827_R","LocationType":"point","DisplayPosition":{"Latitude":48.87625,"Longitude":2.35981},"MapView":{"TopLeft":{"Latitude":48.87625,"Longitude":2.35981},"BottomRight":{"Latitude":48.87617,"Longitude":2.3601}},"Address":{"Label":"75010 Paris, France","Country":"FRA","State":"Île-de-France","County":"Paris","City":"Paris","District":"10e Arrondissement","PostalCode":"75010","AdditionalData":[{"value":"France","key":"CountryName"},{"value":"Île-de-France","key":"StateName"},{"value":"Paris","key":"CountyName"}]},"MapReference":{"ReferenceId":"812362827","Spot":1.0,"SideOfStreet":"right","CountryId":"20000001","StateId":"20002126","CountyId":"20002127","CityId":"20002128","DistrictId":"20002139"}}},{"Relevance":1.0,"Distance":23.5,"MatchLevel":"street","MatchQuality":{"Country":1.0,"State":1.0,"County":1.0,"City":1.0,"District":1.0,"PostalCode":1.0},"Location":{"LocationId":"NT_hL3KrTyJCs1onAqzAqKNtD_l_1046647592_L","LocationType":"point","DisplayPosition":{"Latitude":48.87625,"Longitude":2.35981},"MapView":{"TopLeft":{"Latitude":48.87625,"Longitude":2.35955},"BottomRight":{"Latitude":48.87608,"Longitude":2.35981}},"Address":{"Label":"75010 Paris, France","Country":"FRA","State":"Île-de-France","County":"Paris","City":"Paris","District":"10e Arrondissement","PostalCode":"75010","AdditionalData":[{"value":"France","key":"CountryName"},{"value":"Île-de-France","key":"StateName"},{"value":"Paris","key":"CountyName"}]},"MapReference":{"ReferenceId":"1046647592","Spot":1.0,"SideOfStreet":"left","CountryId":"20000001","StateId":"20002126","CountyId":"20002127","CityId":"20002128","DistrictId":"20002139"}}},{"Relevance":1.0,"Distance":46.8,"MatchLevel":"houseNumber","MatchQuality":{"Country":1.0,"State":1.0,"County":1.0,"City":1.0,"District":1.0,"Street":[1.0],"HouseNumber":1.0,"PostalCode":1.0},"MatchType":"interpolated","Location":{"LocationId":"NT_UupoqV591mq32CpvOou-fC_l_56239452_R_xMTM","LocationType":"point","DisplayPosition":{"Latitude":48.8759367,"Longitude":2.35957},"MapView":{"TopLeft":{"Latitude":48.8770608,"Longitude":2.3578607},"BottomRight":{"Latitude":48.8748125,"Longitude":2.3612792}},"Address":{"Label":"131 Place du 11 Novembre 1918, 75010 Paris, France","Country":"FRA","State":"Île-de-France","County":"Paris","City":"Paris","District":"10e Arrondissement","Street":"Place du 11 Novembre 1918","HouseNumber":"131","PostalCode":"75010","AdditionalData":[{"value":"France","key":"CountryName"},{"value":"Île-de-France","key":"StateName"},{"value":"Paris","key":"CountyName"}]},"MapReference":{"ReferenceId":"56239452","Spot":0.67,"SideOfStreet":"right","CountryId":"20000001","StateId":"20002126","CountyId":"20002127","CityId":"20002128","DistrictId":"20002139"}}},{"Relevance":1.0,"Distance":47.2,"MatchLevel":"street","MatchQuality":{"Country":1.0,"State":1.0,"County":1.0,"City":1.0,"District":1.0,"PostalCode":1.0},"Location":{"LocationId":"NT_hL3KrTyJCs1onAqzAqKNtD_l_1045245283_R","LocationType":"point","DisplayPosition":{"Latitude":48.87608,"Longitude":2.35955},"MapView":{"TopLeft":{"Latitude":48.87632,"Longitude":2.35828},"BottomRight":{"Latitude":48.87608,"Longitude":2.35955}},"Address":{"Label":"75010 Paris, France","Country":"FRA","State":"Île-de-France","County":"Paris","City":"Paris","District":"10e Arrondissement","PostalCode":"75010","AdditionalData":[{"value":"France","key":"CountryName"},{"value":"Île-de-France","key":"StateName"},{"value":"Paris","key":"CountyName"}]},"MapReference":{"ReferenceId":"1045245283","Spot":0.0,"SideOfStreet":"right","CountryId":"20000001","StateId":"20002126","CountyId":"20002127","CityId":"20002128","DistrictId":"20002139"}}},{"Relevance":1.0,"Distance":47.2,"MatchLevel":"street","MatchQuality":{"Country":1.0,"State":1.0,"County":1.0,"City":1.0,"District":1.0,"PostalCode":1.0},"Location":{"LocationId":"NT_hL3KrTyJCs1onAqzAqKNtD_l_1046647591_R","LocationType":"point","DisplayPosition":{"Latitude":48.87608,"Longitude":2.35955},"MapView":{"TopLeft":{"Latitude":48.87608,"Longitude":2.35946},"BottomRight":{"Latitude":48.87596,"Longitude":2.35955}},"Address":{"Label":"75010 Paris, France","Country":"FRA","State":"Île-de-France","County":"Paris","City":"Paris","District":"10e Arrondissement","PostalCode":"75010","AdditionalData":[{"value":"France","key":"CountryName"},{"value":"Île-de-France","key":"StateName"},{"value":"Paris","key":"CountyName"}]},"MapReference":{"ReferenceId":"1046647591","Spot":1.0,"SideOfStreet":"right","CountryId":"20000001","StateId":"20002126","CountyId":"20002127","CityId":"20002128","DistrictId":"20002139"}}},{"Relevance":1.0,"Distance":50.7,"MatchLevel":"houseNumber","MatchQuality":{"Country":1.0,"State":1.0,"County":1.0,"City":1.0,"District":1.0,"Street":[1.0],"HouseNumber":1.0,"PostalCode":1.0},"MatchType":"interpolated","Location":{"LocationId":"NT_ihnP6qg3c.Wu0YWLkVdZ4B_yA","LocationType":"point","DisplayPosition":{"Latitude":48.87601,"Longitude":2.35914},"MapView":{"TopLeft":{"Latitude":48.8771342,"Longitude":2.3574308},"BottomRight":{"Latitude":48.8748858,"Longitude":2.3608492}},"Address":{"Label":"2 Rue du 8 Mai 1945, 75010 Paris, France","Country":"FRA","State":"Île-de-France","County":"Paris","City":"Paris","District":"10e Arrondissement","Street":"Rue du 8 Mai 1945","HouseNumber":"2","PostalCode":"75010","AdditionalData":[{"value":"France","key":"CountryName"},{"value":"Île-de-France","key":"StateName"},{"value":"Paris","key":"CountyName"}]},"MapReference":{"ReferenceId":"56239453","Spot":0.28,"SideOfStreet":"right","CountryId":"20000001","StateId":"20002126","CountyId":"20002127","CityId":"20002128","DistrictId":"20002139","AddressId":"768570502","RoadLinkId":"43353939"}}},{"Relevance":1.0,"Distance":51.9,"MatchLevel":"houseNumber","MatchQuality":{"Country":1.0,"State":1.0,"County":1.0,"City":1.0,"District":1.0,"Street":[1.0],"HouseNumber":1.0,"PostalCode":1.0},"MatchType":"interpolated","Location":{"LocationId":"NT_2VICxF5MgSUm-lluygk.GC_l_1247479755_L_xQTM","LocationType":"point","DisplayPosition":{"Latitude":48.8761184,"Longitude":2.3605824},"MapView":{"TopLeft":{"Latitude":48.8772426,"Longitude":2.3588732},"BottomRight":{"Latitude":48.8749943,"Longitude":2.3622917}},"Address":{"Label":"141 Rue du Faubourg Saint-Martin, 75010 Paris, France","Country":"FRA","State":"Île-de-France","County":"Paris","City":"Paris","District":"10e Arrondissement","Street":"Rue du Faubourg Saint-Martin","HouseNumber":"141","PostalCode":"75010","AdditionalData":[{"value":"France","key":"CountryName"},{"value":"Île-de-France","key":"StateName"},{"value":"Paris","key":"CountyName"}]},"MapReference":{"ReferenceId":"1247479755","Spot":0.52,"SideOfStreet":"left","CountryId":"20000001","StateId":"20002126","CountyId":"20002127","CityId":"20002128","DistrictId":"20002139"}}},{"Relevance":1.0,"Distance":56.1,"MatchLevel":"street","MatchQuality":{"Country":1.0,"State":1.0,"County":1.0,"City":1.0,"District":1.0,"PostalCode":1.0},"Location":{"LocationId":"NT_hL3KrTyJCs1onAqzAqKNtD_l_786868881_R","LocationType":"point","DisplayPosition":{"Latitude":48.87645,"Longitude":2.35907},"MapView":{"TopLeft":{"Latitude":48.87661,"Longitude":2.35844},"BottomRight":{"Latitude":48.87645,"Longitude":2.35907}},"Address":{"Label":"75010 Paris, France","Country":"FRA","State":"Île-de-France","County":"Paris","City":"Paris","District":"10e Arrondissement","PostalCode":"75010","AdditionalData":[{"value":"France","key":"CountryName"},{"value":"Île-de-France","key":"StateName"},{"value":"Paris","key":"CountyName"}]},"MapReference":{"ReferenceId":"786868881","Spot":0.0,"SideOfStreet":"right","CountryId":"20000001","StateId":"20002126","CountyId":"20002127","CityId":"20002128","DistrictId":"20002139"}}}]}]}}