{"Response":{"MetaInfo":{"Timestamp":"2020-03-28T11:12:49.203+0000","NextPageInformation":"2"},"View":[{"_type":"SearchResultsViewType","ViewId":0,"Result":[{"Relevance":1.0,"Distance":0.0,"Direction":0.0,"MatchLevel":"district","MatchQuality":{"Country":1.0,"State":1.0,"County":1.0,"City":1.0,"District":1.0,"PostalCode":1.0},"Location":{"LocationId":"NT_8e3rToXJMuVdDh5hDI7j2B","LocationType":"point","DisplayPosition":{"Latitude":48.8740456,"Longitude":2.3799902},"MapView":{"TopLeft":{"Latitude":48.90214,"Longitude":2.36461},"BottomRight":{"Latitude":48.87201,"Longitude":2.41064}},"Address":{"Label":"19e Arrondissement, Paris, Île-de-France, France","Country":"FRA","State":"Île-de-France","County":"Paris","City":"Paris","District":"19e Arrondissement","PostalCode":"75019","AdditionalData":[{"value":"France","key":"CountryName"},{"value":"Île-de-France","key":"StateName"},{"value":"Paris","key":"CountyName"}]},"MapReference":{"ReferenceId":"56238167","SideOfStreet":"neither","CountryId":"20000001","StateId":"20002126","CountyId":"20002127","CityId":"20002128","DistrictId":"20002148"}}},{"Relevance":1.0,"Distance":8.0,"MatchLevel":"houseNumber","MatchQuality":{"Country":1.0,"State":1.0,"County":1.0,"City":1.0,"District":1.0,"Street":[1.0],"HouseNumber":1.0,"PostalCode":1.0},"MatchType":"interpolated","Location":{"LocationId":"NT_agwJsGz0e-35xFST7QuDWA_3A","LocationType":"point","DisplayPosition":{"Latitude":48.87399,"Longitude":2.37992},"MapView":{"TopLeft":{"Latitude":48.8751142,"Longitude":2.3782108},"BottomRight":{"Latitude":48.8728658,"Longitude":2.3816292}},"Address":{"Label":"7 Rue du Général Lasalle, 75019 Paris, France","Country":"FRA","State":"Île-de-France","County":"Paris","City":"Paris","District":"19e Arrondissement","Street":"Rue du Général Lasalle","HouseNumber":"7","PostalCode":"75019","AdditionalData":[{"value":"France","key":"CountryName"},{"value":"Île-de-France","key":"StateName"},{"value":"Paris","key":"CountyName"}]},"MapReference":{"ReferenceId":"56239875","Spot":0.12,"SideOfStreet":"right","CountryId":"20000001","StateId":"20002126","CountyId":"20002127","CityId":"20002128","DistrictId":"20002148","AddressId":"301431391","RoadLinkId":"43561571"}}},{"Relevance":1.0,"Distance":15.4,"MatchLevel":"houseNumber","MatchQuality":{"Country":1.0,"State":1.0,"County":1.0,"City":1.0,"District":1.0,"Street":[1.0],"HouseNumber":1.0,"PostalCode":1.0},"MatchType":"interpolated","Location":{"LocationId":"NT_85MUidBTfOSX3dtxwiT51B_xYD","LocationType":"point","DisplayPosition":{"Latitude":48.87403,"Longitude":2.37968},"MapView":{"TopLeft":{"Latitude":48.8751542,"Longitude":2.3779708},"BottomRight":{"Latitude":48.8729058,"Longitude":2.3813892}},"Address":{"Label":"16 Rue Rampal, 75019 Paris, France","Country":"FRA","State":"Île-de-France","County":"Paris","City":"Paris","District":"19e Arrondissement","Street":"Rue Rampal","HouseNumber":"16","PostalCode":"75019","AdditionalData":[{"value":"France","key":"CountryName"},{"value":"Île-de-France","key":"StateName"},{"value":"Paris","key":"CountyName"}]},"MapReference":{"ReferenceId":"1231935915","Spot":0.41,"SideOfStreet":"right","CountryId":"20000001","StateId":"20002126","CountyId":"20002127","CityId":"20002128","DistrictId":"20002148","AddressId":"572434968","RoadLinkId":"551622040"}}},{"Relevance":1.0,"Distance":25.2,"MatchLevel":"houseNumber","MatchQuality":{"Country":1.0,"State":1.0,"County":1.0,"City":1.0,"District":1.0,"Street":[1.0],"HouseNumber":1.0,"PostalCode":1.0},"MatchType":"interpolated","Location":{"LocationId":"NT_85MUidBTfOSX3dtxwiT51B_xgD","LocationType":"point","DisplayPosition":{"Latitude":48.8742,"Longitude":2.37964},"MapView":{"TopLeft":{"Latitude":48.8753242,"Longitude":2.3779308},"BottomRight":{"Latitude":48.8730758,"Longitude":2.3813492}},"Address":{"Label":"18 Rue Rampal, 75019 Paris, France","Country":"FRA","State":"Île-de-France","County":"Paris","City":"Paris","District":"19e Arrondissement","Street":"Rue Rampal","HouseNumber":"18","PostalCode":"75019","AdditionalData":[{"value":"France","key":"CountryName"},{"value":"Île-de-France","key":"StateName"},{"value":"Paris","key":"CountyName"}]},"MapReference":{"ReferenceId":"1231935990","Spot":0.19,"SideOfStreet":"right","CountryId":"20000001","StateId":"20002126","CountyId":"20002127","CityId":"20002128","DistrictId":"20002148","AddressId":"301314572","RoadLinkId":"551622124"}}},{"Relevance":1.0,"Distance":26.7,"MatchLevel":"houseNumber","MatchQuality":{"Country":1.0,"State":1.0,"County":1.0,"City":1.0,"District":1.0,"Street":[1.0],"HouseNumber":1.0,"PostalCode":1.0},"MatchType":"interpolated","Location":{"LocationId":"NT_85MUidBTfOSX3dtxwiT51B_xQD","LocationType":"point","DisplayPosition":{"Latitude":48.87382,"Longitude":2.37971},"MapView":{"TopLeft":{"Latitude":48.8749442,"Longitude":2.3780008},"BottomRight":{"Latitude":48.8726958,"Longitude":2.3814192}},"Address":{"Label":"14 Rue Rampal, 75019 Paris, France","Country":"FRA","State":"Île-de-France","County":"Paris","City":"Paris","District":"19e Arrondissement","Street":"Rue Rampal","HouseNumber":"14","PostalCode":"75019","AdditionalData":[{"value":"France","key":"CountryName"},{"value":"Île-de-France","key":"StateName"},{"value":"Paris","key":"CountyName"}]},"MapReference":{"ReferenceId":"1231935888","Spot":0.37,"SideOfStreet":"right","CountryId":"20000001","StateId":"20002126","CountyId":"20002127","CityId":"20002128","DistrictId":"20002148","AddressId":"301389712","RoadLinkId":"551621991"}}},{"Relevance":1.0,"Distance":46.3,"MatchLevel":"houseNumber","MatchQuality":{"Country":1.0,"State":1.0,"County":1.0,"City":1.0,"District":1.0,"Street":[1.0],"HouseNumber":1.0,"PostalCode":1.0},"MatchType":"interpolated","Location":{"LocationId":"NT_85MUidBTfOSX3dtxwiT51B_xAD","LocationType":"point","DisplayPosition":{"Latitude":48.87363,"Longitude":2.37972},"MapView":{"TopLeft":{"Latitude":48.8747542,"Longitude":2.3780108},"BottomRight":{"Latitude":48.8725058,"Longitude":2.3814292}},"Address":{"Label":"10 Rue Rampal, 75019 Paris, France","Country":"FRA","State":"Île-de-France","County":"Paris","City":"Paris","District":"19e Arrondissement","Street":"Rue Rampal","HouseNumber":"10","PostalCode":"75019","AdditionalData":[{"value":"France","key":"CountryName"},{"value":"Île-de-France","key":"StateName"},{"value":"Paris","key":"CountyName"}]},"MapReference":{"ReferenceId":"1231935887","Spot":0.48,"SideOfStreet":"right","CountryId":"20000001","StateId":"20002126","CountyId":"20002127","CityId":"20002128","DistrictId":"20002148","AddressId":"301389716","RoadLinkId":"551621990"}}},{"Relevance":1.0,"Distance":53.2,"MatchLevel":"houseNumber","MatchQuality":{"Country":1.0,"State":1.0,"County":1.0,"City":1.0,"District":1.0,"Street":[1.0],"HouseNumber":1.0,"PostalCode":1.0},"MatchType":"interpolated","Location":{"LocationId":"NT_85MUidBTfOSX3dtxwiT51B_yID","LocationType":"point","DisplayPosition":{"Latitude":48.87447,"Longitude":2.37959},"MapView":{"TopLeft":{"Latitude":48.8755942,"Longitude":2.3778808},"BottomRight":{"Latitude":48.8733458,"Longitude":2.3812992}},"Address":{"Label":"22 Rue Rampal, 75019 Paris, France","Country":"FRA","State":"Île-de-France","County":"Paris","City":"Paris","District":"19e Arrondissement","Street":"Rue Rampal","HouseNumber":"22","PostalCode":"75019","AdditionalData":[{"value":"France","key":"CountryName"},{"value":"Île-de-France","key":"StateName"},{"value":"Paris","key":"CountyName"}]},"MapReference":{"ReferenceId":"1231935991","Spot":0.26,"SideOfStreet":"right","CountryId":"20000001","StateId":"20002126","CountyId":"20002127","CityId":"20002128","DistrictId":"20002148","AddressId":"301314573","RoadLinkId":"551622125"}}},{"Relevance":1.0,"Distance":64.6,"MatchLevel":"houseNumber","MatchQuality":{"Country":1.0,"State":1.0,"County":1.0,"City":1.0,"District":1.0,"Street":[1.0],"HouseNumber":1.0,"PostalCode":1.0},"MatchType":"interpolated","Location":{"LocationId":"NT_85MUidBTfOSX3dtxwiT51B_4A","LocationType":"point","DisplayPosition":{"Latitude":48.87346,"Longitude":2.37973},"MapView":{"TopLeft":{"Latitude":48.8745842,"Longitude":2.3780208},"BottomRight":{"Latitude":48.8723358,"Longitude":2.3814392}},"Address":{"Label":"8 Rue Rampal, 75019 Paris, France","Country":"FRA","State":"Île-de-France","County":"Paris","City":"Paris","District":"19e Arrondissement","Street":"Rue Rampal","HouseNumber":"8","PostalCode":"75019","AdditionalData":[{"value":"France","key":"CountryName"},{"value":"Île-de-France","key":"StateName"},{"value":"Paris","key":"CountyName"}]},"MapReference":{"ReferenceId":"1231935886","Spot":0.78,"SideOfStreet":"right","CountryId":"20000001","StateId":"20002126","CountyId":"20002127","CityId":"20002128","DistrictId":"20002148","AddressId":"301389713","RoadLinkId":"551621989"}}},{"Relevance":1.0,"Distance":73.9,"MatchLevel":"houseNumber","MatchQuality":{"Country":1.0,"State":1.0,"County":1.0,"City":1.0,"District":1.0,"Street":[1.0],"HouseNumber":1.0,"PostalCode":1.0},"MatchType":"interpolated","Location":{"LocationId":"NT_3DcYeCNTkkY2kxEKNaUVyA_1QD","LocationType":"point","DisplayPosition":{"Latitude":48.87476,"Longitude":2.37997},"MapView":{"TopLeft":{"Latitude":48.8758842,"Longitude":2.3782608},"BottomRight":{"Latitude":48.8736358,"Longitude":2.3816792}},"Address":{"Label":"54 Rue Rébeval, 75019 Paris, France","Country":"FRA","State":"Île-de-France","County":"Paris","City":"Paris","District":"19e Arrondissement","Street":"Rue Rébeval","HouseNumber":"54","PostalCode":"75019","AdditionalData":[{"value":"France","key":"CountryName"},{"value":"Île-de-France","key":"StateName"},{"value":"Paris","key":"CountyName"}]},"MapReference":{"ReferenceId":"56239701","Spot":0.71,"SideOfStreet":"left","CountryId":"20000001","StateId":"20002126","CountyId":"20002127","CityId":"20002128","DistrictId":"20002148","AddressId":"301825938","RoadLinkId":"43322477"}}},{"Relevance":1.0,"Distance":83.3,"MatchLevel":"houseNumber","MatchQuality":{"Country":1.0,"State":1.0,"County":1.0,"City":1.0,"District":1.0,"Street":[1.0],"HouseNumber":1.0,"PostalCode":1.0},"MatchType":"interpolated","Location":{"LocationId":"NT_3DcYeCNTkkY2kxEKNaUVyA_1MD","LocationType":"point","DisplayPosition":{"Latitude":48.87477,"Longitude":2.3797},"MapView":{"TopLeft":{"Latitude":48.8758942,"Longitude":2.3779908},"BottomRight":{"Latitude":48.8736458,"Longitude":2.3814092}},"Address":{"Label":"53 Rue Rébeval, 75019 Paris, France","Country":"FRA","State":"Île-de-France","County":"Paris","City":"Paris","District":"19e Arrondissement","Street":"Rue Rébeval","HouseNumber":"53","PostalCode":"75019","AdditionalData":[{"value":"France","key":"CountryName"},{"value":"Île-de-France","key":"StateName"},{"value":"Paris","key":"CountyName"}]},"MapReference":{"ReferenceId":"1231745895","Spot":0.2,"SideOfStreet":"left","CountryId":"20000001","StateId":"20002126","CountyId":"20002127","CityId":"20002128","DistrictId":"20002148","AddressId":"301308377","RoadLinkId":"551374941"}}}]}]}}