{"Response":{"MetaInfo":{"Timestamp":"2020-03-28T10:29:08.620+0000","NextPageInformation":"2"},"View":[{"_type":"SearchResultsViewType","ViewId":0,"Result":[{"Relevance":1.0,"Distance":0.0,"Direction":0.0,"MatchLevel":"city","MatchQuality":{"Country":1.0,"State":1.0,"County":1.0,"City":1.0,"PostalCode":1.0},"Location":{"LocationId":"NT_WM9QLNTJcq790Y6r9oFLtC","LocationType":"point","DisplayPosition":{"Latitude":48.898863,"Longitude":5.3293031},"MapView":{"TopLeft":{"Latitude":48.92964,"Longitude":5.28422},"BottomRight":{"Latitude":48.88081,"Longitude":5.40686}},"Address":{"Label":"Pierrefitte-sur-Aire, Grand Est, France","Country":"FRA","State":"Grand Est","County":"Meuse","City":"Pierrefitte-sur-Aire","PostalCode":"55260","AdditionalData":[{"value":"France","key":"CountryName"},{"value":"Grand Est","key":"StateName"},{"value":"Meuse","key":"CountyName"}]},"MapReference":{"ReferenceId":"548709797","SideOfStreet":"neither","CountryId":"20000001","StateId":"20002047","CountyId":"20021659","CityId":"20022688"}}},{"Relevance":1.0,"Distance":8.0,"MatchLevel":"houseNumber","MatchQuality":{"Country":1.0,"State":1.0,"County":1.0,"City":1.0,"Street":[1.0],"HouseNumber":1.0,"PostalCode":1.0},"MatchType":"interpolated","Location":{"LocationId":"NT_OL.fCkuUGcA1P54E8b.DOB_1A","LocationType":"point","DisplayPosition":{"Latitude":48.8988,"Longitude":5.32925},"MapView":{"TopLeft":{"Latitude":48.8999242,"Longitude":5.32754},"BottomRight":{"Latitude":48.8976758,"Longitude":5.33096}},"Address":{"Label":"5 Rue du Four, 55260 Pierrefitte-sur-Aire, France","Country":"FRA","State":"Grand Est","County":"Meuse","City":"Pierrefitte-sur-Aire","Street":"Rue du Four","HouseNumber":"5","PostalCode":"55260","AdditionalData":[{"value":"France","key":"CountryName"},{"value":"Grand Est","key":"StateName"},{"value":"Meuse","key":"CountyName"}]},"MapReference":{"ReferenceId":"548709800","Spot":0.38,"SideOfStreet":"left","CountryId":"20000001","StateId":"20002047","CountyId":"20021659","CityId":"20022688","AddressId":"571618293","RoadLinkId":"44219799"}}},{"Relevance":1.0,"Distance":22.2,"MatchLevel":"houseNumber","MatchQuality":{"Country":1.0,"State":1.0,"County":1.0,"City":1.0,"Street":[1.0],"HouseNumber":1.0,"PostalCode":1.0},"MatchType":"interpolated","Location":{"LocationId":"NT_bQUf.RfpopywnvZDXwnnXA_1A","LocationType":"point","DisplayPosition":{"Latitude":48.89899,"Longitude":5.32965},"MapView":{"TopLeft":{"Latitude":48.9001142,"Longitude":5.32794},"BottomRight":{"Latitude":48.8978658,"Longitude":5.33136}},"Address":{"Label":"5 Rue de l'Église, 55260 Pierrefitte-sur-Aire, France","Country":"FRA","State":"Grand Est","County":"Meuse","City":"Pierrefitte-sur-Aire","Street":"Rue de l'Église","HouseNumber":"5","PostalCode":"55260","AdditionalData":[{"value":"France","key":"CountryName"},{"value":"Grand Est","key":"StateName"},{"value":"Meuse","key":"CountyName"}]},"MapReference":{"ReferenceId":"548709801","Spot":0.54,"SideOfStreet":"left","CountryId":"20000001","StateId":"20002047","CountyId":"20021659","CityId":"20022688","AddressId":"571514951","RoadLinkId":"44908876"}}},{"Relevance":1.0,"Distance":38.9,"MatchLevel":"houseNumber","MatchQuality":{"Country":1.0,"State":1.0,"County":1.0,"City":1.0,"Street":[1.0],"HouseNumber":1.0,"PostalCode":1.0},"MatchType":"interpolated","Location":{"LocationId":"NT_-KekGzsl4zJvF2Npv.HJVC_xEE","LocationType":"point","DisplayPosition":{"Latitude":48.89856,"Longitude":5.32957},"MapView":{"TopLeft":{"Latitude":48.8996842,"Longitude":5.32786},"BottomRight":{"Latitude":48.8974358,"Longitude":5.33128}},"Address":{"Label":"1A Rue de Condé, 55260 Pierrefitte-sur-Aire, France","Country":"FRA","State":"Grand Est","County":"Meuse","City":"Pierrefitte-sur-Aire","Street":"Rue de Condé","HouseNumber":"1A","PostalCode":"55260","AdditionalData":[{"value":"France","key":"CountryName"},{"value":"Grand Est","key":"StateName"},{"value":"Meuse","key":"CountyName"}]},"MapReference":{"ReferenceId":"548709798","Spot":0.35,"SideOfStreet":"right","CountryId":"20000001","StateId":"20002047","CountyId":"20021659","CityId":"20022688","AddressId":"571482174","RoadLinkId":"44307394"}}},{"Relevance":1.0,"Distance":40.1,"MatchLevel":"houseNumber","MatchQuality":{"Country":1.0,"State":1.0,"County":1.0,"City":1.0,"Street":[1.0],"HouseNumber":1.0,"PostalCode":1.0},"MatchType":"interpolated","Location":{"LocationId":"NT_-KekGzsl4zJvF2Npv.HJVC_3A","LocationType":"point","DisplayPosition":{"Latitude":48.89851,"Longitude":5.32919},"MapView":{"TopLeft":{"Latitude":48.8996342,"Longitude":5.32748},"BottomRight":{"Latitude":48.8973858,"Longitude":5.3309}},"Address":{"Label":"7 Rue de Condé, 55260 Pierrefitte-sur-Aire, France","Country":"FRA","State":"Grand Est","County":"Meuse","City":"Pierrefitte-sur-Aire","Street":"Rue de Condé","HouseNumber":"7","PostalCode":"55260","AdditionalData":[{"value":"France","key":"CountryName"},{"value":"Grand Est","key":"StateName"},{"value":"Meuse","key":"CountyName"}]},"MapReference":{"ReferenceId":"548709873","Spot":0.16,"SideOfStreet":"left","CountryId":"20000001","StateId":"20002047","CountyId":"20021659","CityId":"20022688","AddressId":"571484750","RoadLinkId":"44478267"}}},{"Relevance":1.0,"Distance":47.6,"MatchLevel":"street","MatchQuality":{"Country":1.0,"State":1.0,"County":1.0,"City":1.0,"Street":[1.0],"PostalCode":1.0},"Location":{"LocationId":"NT_OL.fCkuUGcA1P54E8b.DOB_l_548709803_L","LocationType":"point","DisplayPosition":{"Latitude":48.89926,"Longitude":5.32906},"MapView":{"TopLeft":{"Latitude":48.89948,"Longitude":5.3289},"BottomRight":{"Latitude":48.89926,"Longitude":5.32906}},"Address":{"Label":"Rue du Four, 55260 Pierrefitte-sur-Aire, France","Country":"FRA","State":"Grand Est","County":"Meuse","City":"Pierrefitte-sur-Aire","Street":"Rue du Four","PostalCode":"55260","AdditionalData":[{"value":"France","key":"CountryName"},{"value":"Grand Est","key":"StateName"},{"value":"Meuse","key":"CountyName"}]},"MapReference":{"ReferenceId":"548709803","Spot":0.0,"SideOfStreet":"left","CountryId":"20000001","StateId":"20002047","CountyId":"20021659","CityId":"20022688"}}},{"Relevance":1.0,"Distance":48.0,"MatchLevel":"street","MatchQuality":{"Country":1.0,"State":1.0,"County":1.0,"City":1.0,"Street":[1.0],"PostalCode":1.0},"Location":{"LocationId":"NT_bQUf.RfpopywnvZDXwnnXA_l_548709802_R","LocationType":"point","DisplayPosition":{"Latitude":48.8992912,"Longitude":5.3292193},"MapView":{"TopLeft":{"Latitude":48.89935,"Longitude":5.32906},"BottomRight":{"Latitude":48.89926,"Longitude":5.32952}},"Address":{"Label":"Rue de l'Église, 55260 Pierrefitte-sur-Aire, France","Country":"FRA","State":"Grand Est","County":"Meuse","City":"Pierrefitte-sur-Aire","Street":"Rue de l'Église","PostalCode":"55260","AdditionalData":[{"value":"France","key":"CountryName"},{"value":"Grand Est","key":"StateName"},{"value":"Meuse","key":"CountyName"}]},"MapReference":{"ReferenceId":"548709802","Spot":0.35,"SideOfStreet":"right","CountryId":"20000001","StateId":"20002047","CountyId":"20021659","CityId":"20022688"}}},{"Relevance":1.0,"Distance":52.7,"MatchLevel":"houseNumber","MatchQuality":{"Country":1.0,"State":1.0,"County":1.0,"City":1.0,"Street":[1.0],"HouseNumber":1.0,"PostalCode":1.0},"MatchType":"interpolated","Location":{"LocationId":"NT_ao-YSLqgSPhM5YTcYKYGJD_l_925833724_L_yA","LocationType":"point","DisplayPosition":{"Latitude":48.8985879,"Longitude":5.3298902},"MapView":{"TopLeft":{"Latitude":48.899712,"Longitude":5.3281802},"BottomRight":{"Latitude":48.8974637,"Longitude":5.3316002}},"Address":{"Label":"2 Rue Raymond Poincaré, 55260 Pierrefitte-sur-Aire, France","Country":"FRA","State":"Grand Est","County":"Meuse","City":"Pierrefitte-sur-Aire","Street":"Rue Raymond Poincaré","HouseNumber":"2","PostalCode":"55260","AdditionalData":[{"value":"France","key":"CountryName"},{"value":"Grand Est","key":"StateName"},{"value":"Meuse","key":"CountyName"}]},"MapReference":{"ReferenceId":"925833724","Spot":0.6,"SideOfStreet":"left","CountryId":"20000001","StateId":"20002047","CountyId":"20021659","CityId":"20022688"}}},{"Relevance":1.0,"Distance":69.9,"MatchLevel":"houseNumber","MatchQuality":{"Country":1.0,"State":1.0,"County":1.0,"City":1.0,"Street":[1.0],"HouseNumber":1.0,"PostalCode":1.0},"MatchType":"interpolated","Location":{"LocationId":"NT_nAqVIcEl19JnPIt0ntHsQD_zA","LocationType":"point","DisplayPosition":{"Latitude":48.89944,"Longitude":5.32873},"MapView":{"TopLeft":{"Latitude":48.9005642,"Longitude":5.32702},"BottomRight":{"Latitude":48.8983158,"Longitude":5.33044}},"Address":{"Label":"3 Rue des Canards, 55260 Pierrefitte-sur-Aire, France","Country":"FRA","State":"Grand Est","County":"Meuse","City":"Pierrefitte-sur-Aire","Street":"Rue des Canards","HouseNumber":"3","PostalCode":"55260","AdditionalData":[{"value":"France","key":"CountryName"},{"value":"Grand Est","key":"StateName"},{"value":"Meuse","key":"CountyName"}]},"MapReference":{"ReferenceId":"548709862","Spot":0.8,"SideOfStreet":"right","CountryId":"20000001","StateId":"20002047","CountyId":"20021659","CityId":"20022688","AddressId":"571499699","RoadLinkId":"44735507"}}},{"Relevance":1.0,"Distance":70.8,"MatchLevel":"houseNumber","MatchQuality":{"Country":1.0,"State":1.0,"County":1.0,"City":1.0,"Street":[1.0],"HouseNumber":1.0,"PostalCode":1.0},"MatchType":"interpolated","Location":{"LocationId":"NT_bQUf.RfpopywnvZDXwnnXA_xID","LocationType":"point","DisplayPosition":{"Latitude":48.89948,"Longitude":5.32954},"MapView":{"TopLeft":{"Latitude":48.9006042,"Longitude":5.32783},"BottomRight":{"Latitude":48.8983558,"Longitude":5.33125}},"Address":{"Label":"12 Rue de l'Église, 55260 Pierrefitte-sur-Aire, France","Country":"FRA","State":"Grand Est","County":"Meuse","City":"Pierrefitte-sur-Aire","Street":"Rue de l'Église","HouseNumber":"12","PostalCode":"55260","AdditionalData":[{"value":"France","key":"CountryName"},{"value":"Grand Est","key":"StateName"},{"value":"Meuse","key":"CountyName"}]},"MapReference":{"ReferenceId":"548709797","Spot":0.69,"SideOfStreet":"right","CountryId":"20000001","StateId":"20002047","CountyId":"20021659","CityId":"20022688","AddressId":"571617285","RoadLinkId":"44216348"}}}]}]}}