{"Response":{"MetaInfo":{"Timestamp":"2020-03-28T11:40:59.397+0000","NextPageInformation":"2"},"View":[{"_type":"SearchResultsViewType","ViewId":0,"Result":[{"Relevance":1.0,"Distance":0.0,"Direction":0.0,"MatchLevel":"district","MatchQuality":{"Country":1.0,"State":1.0,"County":1.0,"City":1.0,"District":1.0,"PostalCode":1.0},"Location":{"LocationId":"NT_Ag-q781rBfzHuMOsTBdbfD","LocationType":"point","DisplayPosition":{"Latitude":48.8181553,"Longitude":9.2724023},"MapView":{"TopLeft":{"Latitude":48.82434,"Longitude":9.25262},"BottomRight":{"Latitude":48.801,"Longitude":9.29361}},"Address":{"Label":"Fellbach, Baden-Württemberg, Deutschland","Country":"DEU","State":"Baden-Württemberg","County":"Rems-Murr-Kreis","City":"Fellbach","District":"Fellbach","PostalCode":"70734","AdditionalData":[{"value":"Deutschland","key":"CountryName"},{"value":"Baden-Württemberg","key":"StateName"},{"value":"Rems-Murr-Kreis","key":"CountyName"}]},"MapReference":{"ReferenceId":"1204973336","SideOfStreet":"neither","CountryId":"20147700","StateId":"20171489","CountyId":"20172131","CityId":"20172167","DistrictId":"20172169"}}},{"Relevance":1.0,"Distance":9.8,"MatchLevel":"houseNumber","MatchQuality":{"Country":1.0,"State":1.0,"County":1.0,"City":1.0,"District":1.0,"Street":[1.0],"HouseNumber":1.0,"PostalCode":1.0},"MatchType":"interpolated","Location":{"LocationId":"NT_.CA0SQ7SyUJndgtIL1coJC_xITNvED","LocationType":"point","DisplayPosition":{"Latitude":48.81827,"Longitude":9.27266},"MapView":{"TopLeft":{"Latitude":48.8193942,"Longitude":9.2709527},"BottomRight":{"Latitude":48.8171458,"Longitude":9.2743673}},"Address":{"Label":"Bahnhofstraße 125/1, 70736 Fellbach, Deutschland","Country":"DEU","State":"Baden-Württemberg","County":"Rems-Murr-Kreis","City":"Fellbach","District":"Fellbach","Street":"Bahnhofstraße","HouseNumber":"125/1","PostalCode":"70736","AdditionalData":[{"value":"Deutschland","key":"CountryName"},{"value":"Baden-Württemberg","key":"StateName"},{"value":"Rems-Murr-Kreis","key":"CountyName"}]},"MapReference":{"ReferenceId":"984009661","Spot":0.04,"SideOfStreet":"left","CountryId":"20147700","StateId":"20171489","CountyId":"20172131","CityId":"20172167","DistrictId":"20172169","AddressId":"179615862","RoadLinkId":"315254819"}}},{"Relevance":1.0,"Distance":26.5,"MatchLevel":"houseNumber","MatchQuality":{"Country":1.0,"State":1.0,"County":1.0,"City":1.0,"District":1.0,"Street":[1.0],"HouseNumber":1.0,"PostalCode":1.0},"MatchType":"interpolated","Location":{"LocationId":"NT_.CA0SQ7SyUJndgtIL1coJC_xIzM","LocationType":"point","DisplayPosition":{"Latitude":48.81799,"Longitude":9.27278},"MapView":{"TopLeft":{"Latitude":48.8191142,"Longitude":9.2710727},"BottomRight":{"Latitude":48.8168658,"Longitude":9.2744873}},"Address":{"Label":"Bahnhofstraße 123, 70736 Fellbach, Deutschland","Country":"DEU","State":"Baden-Württemberg","County":"Rems-Murr-Kreis","City":"Fellbach","District":"Fellbach","Street":"Bahnhofstraße","HouseNumber":"123","PostalCode":"70736","AdditionalData":[{"value":"Deutschland","key":"CountryName"},{"value":"Baden-Württemberg","key":"StateName"},{"value":"Rems-Murr-Kreis","key":"CountyName"}]},"MapReference":{"ReferenceId":"52874368","Spot":0.67,"SideOfStreet":"left","CountryId":"20147700","StateId":"20171489","CountyId":"20172131","CityId":"20172167","DistrictId":"20172169","AddressId":"179747638","RoadLinkId":"38977724"}}},{"Relevance":1.0,"Distance":36.3,"MatchLevel":"houseNumber","MatchQuality":{"Country":1.0,"State":1.0,"County":1.0,"City":1.0,"District":1.0,"Street":[1.0],"HouseNumber":1.0,"PostalCode":1.0},"MatchType":"interpolated","Location":{"LocationId":"NT_NwYXzstHeChl6kNffQpn6D_yA","LocationType":"point","DisplayPosition":{"Latitude":48.81828,"Longitude":9.27286},"MapView":{"TopLeft":{"Latitude":48.8194042,"Longitude":9.2711527},"BottomRight":{"Latitude":48.8171558,"Longitude":9.2745673}},"Address":{"Label":"Christofstraße 2, 70736 Fellbach, Deutschland","Country":"DEU","State":"Baden-Württemberg","County":"Rems-Murr-Kreis","City":"Fellbach","District":"Fellbach","Street":"Christofstraße","HouseNumber":"2","PostalCode":"70736","AdditionalData":[{"value":"Deutschland","key":"CountryName"},{"value":"Baden-Württemberg","key":"StateName"},{"value":"Rems-Murr-Kreis","key":"CountyName"}]},"MapReference":{"ReferenceId":"52874468","Spot":0.2,"SideOfStreet":"right","CountryId":"20147700","StateId":"20171489","CountyId":"20172131","CityId":"20172167","DistrictId":"20172169","AddressId":"180245835","RoadLinkId":"38401793"}}},{"Relevance":1.0,"Distance":36.6,"MatchLevel":"houseNumber","MatchQuality":{"Country":1.0,"State":1.0,"County":1.0,"City":1.0,"District":1.0,"Street":[1.0],"HouseNumber":1.0,"PostalCode":1.0},"MatchType":"interpolated","Location":{"LocationId":"NT_dfFu8MiV64iQ.wjdy9Ar.B_4A","LocationType":"point","DisplayPosition":{"Latitude":48.81797,"Longitude":9.27185},"MapView":{"TopLeft":{"Latitude":48.8190942,"Longitude":9.2701427},"BottomRight":{"Latitude":48.8168458,"Longitude":9.2735573}},"Address":{"Label":"Falkenstraße 8, 70736 Fellbach, Deutschland","Country":"DEU","State":"Baden-Württemberg","County":"Rems-Murr-Kreis","City":"Fellbach","District":"Fellbach","Street":"Falkenstraße","HouseNumber":"8","PostalCode":"70736","AdditionalData":[{"value":"Deutschland","key":"CountryName"},{"value":"Baden-Württemberg","key":"StateName"},{"value":"Rems-Murr-Kreis","key":"CountyName"}]},"MapReference":{"ReferenceId":"52874576","Spot":0.64,"SideOfStreet":"right","CountryId":"20147700","StateId":"20171489","CountyId":"20172131","CityId":"20172167","DistrictId":"20172169","AddressId":"178132418","RoadLinkId":"38597114"}}},{"Relevance":1.0,"Distance":53.0,"MatchLevel":"houseNumber","MatchQuality":{"Country":1.0,"State":1.0,"County":1.0,"City":1.0,"District":1.0,"Street":[1.0],"HouseNumber":1.0,"PostalCode":1.0},"MatchType":"interpolated","Location":{"LocationId":"NT_dfFu8MiV64iQ.wjdy9Ar.B_xQD","LocationType":"point","DisplayPosition":{"Latitude":48.81839,"Longitude":9.27169},"MapView":{"TopLeft":{"Latitude":48.8195142,"Longitude":9.2699827},"BottomRight":{"Latitude":48.8172658,"Longitude":9.2733973}},"Address":{"Label":"Falkenstraße 14, 70736 Fellbach, Deutschland","Country":"DEU","State":"Baden-Württemberg","County":"Rems-Murr-Kreis","City":"Fellbach","District":"Fellbach","Street":"Falkenstraße","HouseNumber":"14","PostalCode":"70736","AdditionalData":[{"value":"Deutschland","key":"CountryName"},{"value":"Baden-Württemberg","key":"StateName"},{"value":"Rems-Murr-Kreis","key":"CountyName"}]},"MapReference":{"ReferenceId":"52874577","Spot":0.12,"SideOfStreet":"right","CountryId":"20147700","StateId":"20171489","CountyId":"20172131","CityId":"20172167","DistrictId":"20172169","AddressId":"180209910","RoadLinkId":"38719970"}}},{"Relevance":1.0,"Distance":53.6,"MatchLevel":"street","MatchQuality":{"Country":1.0,"State":1.0,"County":1.0,"City":1.0,"District":1.0,"Street":[1.0],"PostalCode":1.0},"Location":{"LocationId":"NT_IRi8AuwXOZc7PPRC7-8vGA_l_52875484_R","LocationType":"point","DisplayPosition":{"Latitude":48.81833,"Longitude":9.27172},"MapView":{"TopLeft":{"Latitude":48.81833,"Longitude":9.27082},"BottomRight":{"Latitude":48.81816,"Longitude":9.27172}},"Address":{"Label":"Olgaweg, 70736 Fellbach, Deutschland","Country":"DEU","State":"Baden-Württemberg","County":"Rems-Murr-Kreis","City":"Fellbach","District":"Fellbach","Street":"Olgaweg","PostalCode":"70736","AdditionalData":[{"value":"Deutschland","key":"CountryName"},{"value":"Baden-Württemberg","key":"StateName"},{"value":"Rems-Murr-Kreis","key":"CountyName"}]},"MapReference":{"ReferenceId":"52875484","Spot":1.0,"SideOfStreet":"right","CountryId":"20147700","StateId":"20171489","CountyId":"20172131","CityId":"20172167","DistrictId":"20172169"}}},{"Relevance":1.0,"Distance":69.0,"MatchLevel":"houseNumber","MatchQuality":{"Country":1.0,"State":1.0,"County":1.0,"City":1.0,"District":1.0,"Street":[1.0],"HouseNumber":1.0,"PostalCode":1.0},"MatchType":"interpolated","Location":{"LocationId":"NT_2M.1WX2h.38Wx6cH1OB5ZC_yA","LocationType":"point","DisplayPosition":{"Latitude":48.8174,"Longitude":9.27257},"MapView":{"TopLeft":{"Latitude":48.8185242,"Longitude":9.2708628},"BottomRight":{"Latitude":48.8162758,"Longitude":9.2742772}},"Address":{"Label":"Wernerstraße 2, 70736 Fellbach, Deutschland","Country":"DEU","State":"Baden-Württemberg","County":"Rems-Murr-Kreis","City":"Fellbach","District":"Fellbach","Street":"Wernerstraße","HouseNumber":"2","PostalCode":"70736","AdditionalData":[{"value":"Deutschland","key":"CountryName"},{"value":"Baden-Württemberg","key":"StateName"},{"value":"Rems-Murr-Kreis","key":"CountyName"}]},"MapReference":{"ReferenceId":"52875838","Spot":0.53,"SideOfStreet":"left","CountryId":"20147700","StateId":"20171489","CountyId":"20172131","CityId":"20172167","DistrictId":"20172169","AddressId":"177529672","RoadLinkId":"38883138"}}},{"Relevance":1.0,"Distance":83.8,"MatchLevel":"houseNumber","MatchQuality":{"Country":1.0,"State":1.0,"County":1.0,"City":1.0,"District":1.0,"Street":[1.0],"HouseNumber":1.0,"PostalCode":1.0},"MatchType":"interpolated","Location":{"LocationId":"NT_.CA0SQ7SyUJndgtIL1coJC_xMTO","LocationType":"point","DisplayPosition":{"Latitude":48.81893,"Longitude":9.27238},"MapView":{"TopLeft":{"Latitude":48.8200542,"Longitude":9.2706727},"BottomRight":{"Latitude":48.8178058,"Longitude":9.2740873}},"Address":{"Label":"Bahnhofstraße 139, 70736 Fellbach, Deutschland","Country":"DEU","State":"Baden-Württemberg","County":"Rems-Murr-Kreis","City":"Fellbach","District":"Fellbach","Street":"Bahnhofstraße","HouseNumber":"139","PostalCode":"70736","AdditionalData":[{"value":"Deutschland","key":"CountryName"},{"value":"Baden-Württemberg","key":"StateName"},{"value":"Rems-Murr-Kreis","key":"CountyName"}]},"MapReference":{"ReferenceId":"984009662","Spot":0.26,"SideOfStreet":"left","CountryId":"20147700","StateId":"20171489","CountyId":"20172131","CityId":"20172167","DistrictId":"20172169","AddressId":"177493053","RoadLinkId":"315254820"}}},{"Relevance":1.0,"Distance":87.9,"MatchLevel":"houseNumber","MatchQuality":{"Country":1.0,"State":1.0,"County":1.0,"City":1.0,"District":1.0,"Street":[1.0],"HouseNumber":1.0,"PostalCode":1.0},"MatchType":"interpolated","Location":{"LocationId":"NT_HfvaPk60Se8I8CHqLFvDYB_1ID","LocationType":"point","DisplayPosition":{"Latitude":48.81893,"Longitude":9.27195},"MapView":{"TopLeft":{"Latitude":48.8200542,"Longitude":9.2702427},"BottomRight":{"Latitude":48.8178058,"Longitude":9.2736573}},"Address":{"Label":"Auberlenstraße 52, 70736 Fellbach, Deutschland","Country":"DEU","State":"Baden-Württemberg","County":"Rems-Murr-Kreis","City":"Fellbach","District":"Fellbach","Street":"Auberlenstraße","HouseNumber":"52","PostalCode":"70736","AdditionalData":[{"value":"Deutschland","key":"CountryName"},{"value":"Baden-Württemberg","key":"StateName"},{"value":"Rems-Murr-Kreis","key":"CountyName"}]},"MapReference":{"ReferenceId":"52874326","Spot":0.55,"SideOfStreet":"right","CountryId":"20147700","StateId":"20171489","CountyId":"20172131","CityId":"20172167","DistrictId":"20172169","AddressId":"179159094","RoadLinkId":"38897859"}}}]}]}}