{"Response":{"MetaInfo":{"Timestamp":"2020-03-28T11:10:51.918+0000","NextPageInformation":"2"},"View":[{"_type":"SearchResultsViewType","ViewId":0,"Result":[{"Relevance":1.0,"Distance":0.0,"Direction":0.0,"MatchLevel":"city","MatchQuality":{"Country":1.0,"State":1.0,"County":1.0,"City":1.0,"PostalCode":1.0},"Location":{"LocationId":"NT_LmsbbWylv.7p6m-o7NIBIA","LocationType":"point","DisplayPosition":{"Latitude":48.8961009,"Longitude":2.258639},"MapView":{"TopLeft":{"Latitude":48.90827,"Longitude":2.23061},"BottomRight":{"Latitude":48.887,"Longitude":2.28426}},"Address":{"Label":"Courbevoie, Île-de-France, France","Country":"FRA","State":"Île-de-France","County":"Hauts-de-Seine","City":"Courbevoie","PostalCode":"92400","AdditionalData":[{"value":"France","key":"CountryName"},{"value":"Île-de-France","key":"StateName"},{"value":"Hauts-de-Seine","key":"CountyName"}]},"MapReference":{"ReferenceId":"1213107984","SideOfStreet":"neither","CountryId":"20000001","StateId":"20002126","CountyId":"20005098","CityId":"20005135"}}},{"Relevance":1.0,"Distance":2.3,"MatchLevel":"houseNumber","MatchQuality":{"Country":1.0,"State":1.0,"County":1.0,"City":1.0,"Street":[1.0],"HouseNumber":1.0,"PostalCode":1.0},"MatchType":"interpolated","Location":{"LocationId":"NT_1tk9eGrio8Z-nNtKydtPgB_xIDV","LocationType":"point","DisplayPosition":{"Latitude":48.89608,"Longitude":2.25864},"MapView":{"TopLeft":{"Latitude":48.8972042,"Longitude":2.2569301},"BottomRight":{"Latitude":48.8949558,"Longitude":2.2603499}},"Address":{"Label":"12T Rue de la Montagne, 92400 Courbevoie, France","Country":"FRA","State":"Île-de-France","County":"Hauts-de-Seine","City":"Courbevoie","Street":"Rue de la Montagne","HouseNumber":"12T","PostalCode":"92400","AdditionalData":[{"value":"France","key":"CountryName"},{"value":"Île-de-France","key":"StateName"},{"value":"Hauts-de-Seine","key":"CountyName"}]},"MapReference":{"ReferenceId":"56259367","Spot":0.8,"SideOfStreet":"right","CountryId":"20000001","StateId":"20002126","CountyId":"20005098","CityId":"20005135","AddressId":"674270370","RoadLinkId":"43486076"}}},{"Relevance":1.0,"Distance":17.4,"MatchLevel":"houseNumber","MatchQuality":{"Country":1.0,"State":1.0,"County":1.0,"City":1.0,"Street":[1.0],"HouseNumber":1.0,"PostalCode":1.0},"MatchType":"interpolated","Location":{"LocationId":"NT_NvlhS62ou4PFrHhnNi662B_l_762792282_R_xQD","LocationType":"point","DisplayPosition":{"Latitude":48.89639,"Longitude":2.2586501},"MapView":{"TopLeft":{"Latitude":48.8975142,"Longitude":2.2569401},"BottomRight":{"Latitude":48.8952659,"Longitude":2.26036}},"Address":{"Label":"14 Boulevard Saint-Denis, 92400 Courbevoie, France","Country":"FRA","State":"Île-de-France","County":"Hauts-de-Seine","City":"Courbevoie","Street":"Boulevard Saint-Denis","HouseNumber":"14","PostalCode":"92400","AdditionalData":[{"value":"France","key":"CountryName"},{"value":"Île-de-France","key":"StateName"},{"value":"Hauts-de-Seine","key":"CountyName"}]},"MapReference":{"ReferenceId":"762792282","Spot":0.29,"SideOfStreet":"right","CountryId":"20000001","StateId":"20002126","CountyId":"20005098","CityId":"20005135"}}},{"Relevance":1.0,"Distance":43.2,"MatchLevel":"houseNumber","MatchQuality":{"Country":1.0,"State":1.0,"County":1.0,"City":1.0,"Street":[1.0],"HouseNumber":1.0,"PostalCode":1.0},"MatchType":"interpolated","Location":{"LocationId":"NT_NvlhS62ou4PFrHhnNi662B_xAD","LocationType":"point","DisplayPosition":{"Latitude":48.8963,"Longitude":2.25808},"MapView":{"TopLeft":{"Latitude":48.8974242,"Longitude":2.2563701},"BottomRight":{"Latitude":48.8951758,"Longitude":2.2597899}},"Address":{"Label":"10 Boulevard Saint-Denis, 92400 Courbevoie, France","Country":"FRA","State":"Île-de-France","County":"Hauts-de-Seine","City":"Courbevoie","Street":"Boulevard Saint-Denis","HouseNumber":"10","PostalCode":"92400","AdditionalData":[{"value":"France","key":"CountryName"},{"value":"Île-de-France","key":"StateName"},{"value":"Hauts-de-Seine","key":"CountyName"}]},"MapReference":{"ReferenceId":"762792285","Spot":0.4,"SideOfStreet":"right","CountryId":"20000001","StateId":"20002126","CountyId":"20005098","CityId":"20005135","AddressId":"572220426","RoadLinkId":"157022389"}}},{"Relevance":1.0,"Distance":46.6,"MatchLevel":"houseNumber","MatchQuality":{"Country":1.0,"State":1.0,"County":1.0,"City":1.0,"Street":[1.0],"HouseNumber":1.0,"PostalCode":1.0},"MatchType":"interpolated","Location":{"LocationId":"NT_UhE15MhG1Y0ZZieZ8vZ7.D_yA","LocationType":"point","DisplayPosition":{"Latitude":48.8965,"Longitude":2.25843},"MapView":{"TopLeft":{"Latitude":48.8976242,"Longitude":2.2567201},"BottomRight":{"Latitude":48.8953758,"Longitude":2.2601399}},"Address":{"Label":"2 Rue Saint-Thomas en Argonne, 92400 Courbevoie, France","Country":"FRA","State":"Île-de-France","County":"Hauts-de-Seine","City":"Courbevoie","Street":"Rue Saint-Thomas en Argonne","HouseNumber":"2","PostalCode":"92400","AdditionalData":[{"value":"France","key":"CountryName"},{"value":"Île-de-France","key":"StateName"},{"value":"Hauts-de-Seine","key":"CountyName"}]},"MapReference":{"ReferenceId":"56259153","Spot":0.2,"SideOfStreet":"right","CountryId":"20000001","StateId":"20002126","CountyId":"20005098","CityId":"20005135","AddressId":"572397097","RoadLinkId":"43757873"}}},{"Relevance":1.0,"Distance":51.6,"MatchLevel":"houseNumber","MatchQuality":{"Country":1.0,"State":1.0,"County":1.0,"City":1.0,"Street":[1.0],"HouseNumber":1.0,"PostalCode":1.0},"MatchType":"interpolated","Location":{"LocationId":"NT_NvlhS62ou4PFrHhnNi662B_0gD","LocationType":"point","DisplayPosition":{"Latitude":48.89647,"Longitude":2.25911},"MapView":{"TopLeft":{"Latitude":48.8975942,"Longitude":2.2574001},"BottomRight":{"Latitude":48.8953458,"Longitude":2.2608199}},"Address":{"Label":"48 Boulevard Saint-Denis, 92400 Courbevoie, France","Country":"FRA","State":"Île-de-France","County":"Hauts-de-Seine","City":"Courbevoie","Street":"Boulevard Saint-Denis","HouseNumber":"48","PostalCode":"92400","AdditionalData":[{"value":"France","key":"CountryName"},{"value":"Île-de-France","key":"StateName"},{"value":"Hauts-de-Seine","key":"CountyName"}]},"MapReference":{"ReferenceId":"762792283","Spot":0.0,"SideOfStreet":"right","CountryId":"20000001","StateId":"20002126","CountyId":"20005098","CityId":"20005135","AddressId":"321885343","RoadLinkId":"157022387"}}},{"Relevance":1.0,"Distance":56.8,"MatchLevel":"landmark","MatchQuality":{"Country":1.0,"State":1.0,"County":1.0,"City":1.0,"PostalCode":1.0,"Name":1.0},"Location":{"LocationId":"NT_m8dRymR-JccjlTSFhmA71A","LocationType":"park","Name":"Square de l'Hôtel de Ville","DisplayPosition":{"Latitude":48.89517,"Longitude":2.2578},"MapView":{"TopLeft":{"Latitude":48.89569,"Longitude":2.25657},"BottomRight":{"Latitude":48.89465,"Longitude":2.259}},"Address":{"Label":"92400 Courbevoie, France","Country":"FRA","State":"Île-de-France","County":"Hauts-de-Seine","City":"Courbevoie","PostalCode":"92400","AdditionalData":[{"value":"France","key":"CountryName"},{"value":"Île-de-France","key":"StateName"},{"value":"Hauts-de-Seine","key":"CountyName"}]},"MapReference":{"CountryId":"20000001","StateId":"20002126","CountyId":"20005098","CityId":"20005135","PlaceId":"1471862955"}}},{"Relevance":1.0,"Distance":83.7,"MatchLevel":"houseNumber","MatchQuality":{"Country":1.0,"State":1.0,"County":1.0,"City":1.0,"Street":[1.0],"HouseNumber":1.0,"PostalCode":1.0},"MatchType":"interpolated","Location":{"LocationId":"NT_NvlhS62ou4PFrHhnNi662B_2A","LocationType":"point","DisplayPosition":{"Latitude":48.89626,"Longitude":2.2575},"MapView":{"TopLeft":{"Latitude":48.8973842,"Longitude":2.2557901},"BottomRight":{"Latitude":48.8951358,"Longitude":2.2592099}},"Address":{"Label":"6 Boulevard Saint-Denis, 92400 Courbevoie, France","Country":"FRA","State":"Île-de-France","County":"Hauts-de-Seine","City":"Courbevoie","Street":"Boulevard Saint-Denis","HouseNumber":"6","PostalCode":"92400","AdditionalData":[{"value":"France","key":"CountryName"},{"value":"Île-de-France","key":"StateName"},{"value":"Hauts-de-Seine","key":"CountyName"}]},"MapReference":{"ReferenceId":"762792284","Spot":0.49,"SideOfStreet":"right","CountryId":"20000001","StateId":"20002126","CountyId":"20005098","CityId":"20005135","AddressId":"572286660","RoadLinkId":"157022388"}}},{"Relevance":1.0,"Distance":85.4,"MatchLevel":"street","MatchQuality":{"Country":1.0,"State":1.0,"County":1.0,"City":1.0,"PostalCode":1.0},"Location":{"LocationId":"NT_MQdcJYrxrtTV5G.02484lD_l_1086500209_L","LocationType":"point","DisplayPosition":{"Latitude":48.89534,"Longitude":2.2588},"MapView":{"TopLeft":{"Latitude":48.89534,"Longitude":2.25853},"BottomRight":{"Latitude":48.89523,"Longitude":2.2588}},"Address":{"Label":"92400 Courbevoie, France","Country":"FRA","State":"Île-de-France","County":"Hauts-de-Seine","City":"Courbevoie","PostalCode":"92400","AdditionalData":[{"value":"France","key":"CountryName"},{"value":"Île-de-France","key":"StateName"},{"value":"Hauts-de-Seine","key":"CountyName"}]},"MapReference":{"ReferenceId":"1086500209","Spot":1.0,"SideOfStreet":"left","CountryId":"20000001","StateId":"20002126","CountyId":"20005098","CityId":"20005135"}}},{"Relevance":1.0,"Distance":85.4,"MatchLevel":"street","MatchQuality":{"Country":1.0,"State":1.0,"County":1.0,"City":1.0,"PostalCode":1.0},"Location":{"LocationId":"NT_MQdcJYrxrtTV5G.02484lD_l_1086500207_R","LocationType":"point","DisplayPosition":{"Latitude":48.89534,"Longitude":2.2588},"MapView":{"TopLeft":{"Latitude":48.89534,"Longitude":2.2588},"BottomRight":{"Latitude":48.89514,"Longitude":2.25899}},"Address":{"Label":"92400 Courbevoie, France","Country":"FRA","State":"Île-de-France","County":"Hauts-de-Seine","City":"Courbevoie","PostalCode":"92400","AdditionalData":[{"value":"France","key":"CountryName"},{"value":"Île-de-France","key":"StateName"},{"value":"Hauts-de-Seine","key":"CountyName"}]},"MapReference":{"ReferenceId":"1086500207","Spot":1.0,"SideOfStreet":"right","CountryId":"20000001","StateId":"20002126","CountyId":"20005098","CityId":"20005135"}}}]}]}}