{"Response":{"MetaInfo":{"Timestamp":"2020-03-28T11:14:23.253+0000","NextPageInformation":"2"},"View":[{"_type":"SearchResultsViewType","ViewId":0,"Result":[{"Relevance":1.0,"Distance":0.0,"Direction":0.0,"MatchLevel":"district","MatchQuality":{"Country":1.0,"State":1.0,"County":1.0,"City":1.0,"District":1.0,"PostalCode":1.0},"Location":{"LocationId":"NT_N3ZisktvgKuGnOCe4rvMcC","LocationType":"point","DisplayPosition":{"Latitude":48.8379602,"Longitude":2.338986},"MapView":{"TopLeft":{"Latitude":48.84373,"Longitude":2.30127},"BottomRight":{"Latitude":48.81586,"Longitude":2.34478}},"Address":{"Label":"14e Arrondissement, Paris, Île-de-France, France","Country":"FRA","State":"Île-de-France","County":"Paris","City":"Paris","District":"14e Arrondissement","PostalCode":"75014","AdditionalData":[{"value":"France","key":"CountryName"},{"value":"Île-de-France","key":"StateName"},{"value":"Paris","key":"CountyName"}]},"MapReference":{"ReferenceId":"1212976638","SideOfStreet":"neither","CountryId":"20000001","StateId":"20002126","CountyId":"20002127","CityId":"20002128","DistrictId":"20002143"}}},{"Relevance":1.0,"Distance":5.6,"MatchLevel":"landmark","MatchQuality":{"Country":1.0,"State":1.0,"County":1.0,"City":1.0,"District":1.0,"Street":[1.0],"HouseNumber":1.0,"PostalCode":1.0,"Name":1.0},"Location":{"LocationId":"NT_snanWt90ePLw1kN.uMVkdB_p_csVRMJ7Pi0q8M1YgWA4XsD","LocationType":"hospital","Name":"Hôpital Cochin","DisplayPosition":{"Latitude":48.8374,"Longitude":2.3387},"MapView":{"TopLeft":{"Latitude":48.8385242,"Longitude":2.3369921},"BottomRight":{"Latitude":48.8362758,"Longitude":2.3404079}},"Address":{"Label":"27 Rue du Faubourg Saint-Jacques, 75014 Paris, France","Country":"FRA","State":"Île-de-France","County":"Paris","City":"Paris","District":"14e Arrondissement","Street":"Rue du Faubourg Saint-Jacques","HouseNumber":"27","PostalCode":"75014","AdditionalData":[{"value":"France","key":"CountryName"},{"value":"Île-de-France","key":"StateName"},{"value":"Paris","key":"CountyName"}]},"MapReference":{"CountryId":"20000001","StateId":"20002126","CountyId":"20002127","CityId":"20002128","DistrictId":"20002143","PlaceId":"51190422"}}},{"Relevance":1.0,"Distance":7.1,"MatchLevel":"houseNumber","MatchQuality":{"Country":1.0,"State":1.0,"County":1.0,"City":1.0,"District":1.0,"Street":[1.0],"HouseNumber":1.0,"PostalCode":1.0},"MatchType":"interpolated","Location":{"LocationId":"NT_X7kbDk2t8oqBVfcx2OvhBA_xQD","LocationType":"point","DisplayPosition":{"Latitude":48.838,"Longitude":2.33909},"MapView":{"TopLeft":{"Latitude":48.8391242,"Longitude":2.3373821},"BottomRight":{"Latitude":48.8368758,"Longitude":2.3407979}},"Address":{"Label":"14 Rue du Faubourg Saint-Jacques, 75014 Paris, France","Country":"FRA","State":"Île-de-France","County":"Paris","City":"Paris","District":"14e Arrondissement","Street":"Rue du Faubourg Saint-Jacques","HouseNumber":"14","PostalCode":"75014","AdditionalData":[{"value":"France","key":"CountryName"},{"value":"Île-de-France","key":"StateName"},{"value":"Paris","key":"CountyName"}]},"MapReference":{"ReferenceId":"1035397387","Spot":0.8,"SideOfStreet":"left","CountryId":"20000001","StateId":"20002126","CountyId":"20002127","CityId":"20002128","DistrictId":"20002143","AddressId":"301800803","RoadLinkId":"357295792"}}},{"Relevance":1.0,"Distance":17.9,"MatchLevel":"street","MatchQuality":{"Country":1.0,"State":1.0,"County":1.0,"City":1.0,"District":1.0,"PostalCode":1.0},"Location":{"LocationId":"NT_gXc14oTrBH38x8yzIfW38A_l_1132958844_L","LocationType":"point","DisplayPosition":{"Latitude":48.8378488,"Longitude":2.3391624},"MapView":{"TopLeft":{"Latitude":48.8381,"Longitude":2.33898},"BottomRight":{"Latitude":48.83756,"Longitude":2.33931}},"Address":{"Label":"75014 Paris, France","Country":"FRA","State":"Île-de-France","County":"Paris","City":"Paris","District":"14e Arrondissement","PostalCode":"75014","AdditionalData":[{"value":"France","key":"CountryName"},{"value":"Île-de-France","key":"StateName"},{"value":"Paris","key":"CountyName"}]},"MapReference":{"ReferenceId":"1132958844","Spot":0.54,"SideOfStreet":"left","CountryId":"20000001","StateId":"20002126","CountyId":"20002127","CityId":"20002128","DistrictId":"20002143"}}},{"Relevance":1.0,"Distance":18.8,"MatchLevel":"houseNumber","MatchQuality":{"Country":1.0,"State":1.0,"County":1.0,"City":1.0,"District":1.0,"Street":[1.0],"HouseNumber":1.0,"PostalCode":1.0},"MatchType":"interpolated","Location":{"LocationId":"NT_X7kbDk2t8oqBVfcx2OvhBA_xMD","LocationType":"point","DisplayPosition":{"Latitude":48.83809,"Longitude":2.33915},"MapView":{"TopLeft":{"Latitude":48.8392142,"Longitude":2.3374421},"BottomRight":{"Latitude":48.8369658,"Longitude":2.3408579}},"Address":{"Label":"13 Rue du Faubourg Saint-Jacques, 75014 Paris, France","Country":"FRA","State":"Île-de-France","County":"Paris","City":"Paris","District":"14e Arrondissement","Street":"Rue du Faubourg Saint-Jacques","HouseNumber":"13","PostalCode":"75014","AdditionalData":[{"value":"France","key":"CountryName"},{"value":"Île-de-France","key":"StateName"},{"value":"Paris","key":"CountyName"}]},"MapReference":{"ReferenceId":"1035397385","Spot":0.14,"SideOfStreet":"right","CountryId":"20000001","StateId":"20002126","CountyId":"20002127","CityId":"20002128","DistrictId":"20002143","AddressId":"301800801","RoadLinkId":"357295790"}}},{"Relevance":1.0,"Distance":28.4,"MatchLevel":"street","MatchQuality":{"Country":1.0,"State":1.0,"County":1.0,"City":1.0,"District":1.0,"PostalCode":1.0},"Location":{"LocationId":"NT_gXc14oTrBH38x8yzIfW38A_l_1132958845_L","LocationType":"point","DisplayPosition":{"Latitude":48.8381,"Longitude":2.33931},"MapView":{"TopLeft":{"Latitude":48.83828,"Longitude":2.33928},"BottomRight":{"Latitude":48.8381,"Longitude":2.33932}},"Address":{"Label":"75014 Paris, France","Country":"FRA","State":"Île-de-France","County":"Paris","City":"Paris","District":"14e Arrondissement","PostalCode":"75014","AdditionalData":[{"value":"France","key":"CountryName"},{"value":"Île-de-France","key":"StateName"},{"value":"Paris","key":"CountyName"}]},"MapReference":{"ReferenceId":"1132958845","Spot":0.0,"SideOfStreet":"left","CountryId":"20000001","StateId":"20002126","CountyId":"20002127","CityId":"20002128","DistrictId":"20002143"}}},{"Relevance":1.0,"Distance":30.9,"MatchLevel":"houseNumber","MatchQuality":{"Country":1.0,"State":1.0,"County":1.0,"City":1.0,"District":1.0,"Street":[1.0],"HouseNumber":1.0,"PostalCode":1.0},"MatchType":"interpolated","Location":{"LocationId":"NT_X7kbDk2t8oqBVfcx2OvhBA_yED","LocationType":"point","DisplayPosition":{"Latitude":48.83769,"Longitude":2.33889},"MapView":{"TopLeft":{"Latitude":48.8388142,"Longitude":2.3371821},"BottomRight":{"Latitude":48.8365658,"Longitude":2.3405979}},"Address":{"Label":"21 Rue du Faubourg Saint-Jacques, 75014 Paris, France","Country":"FRA","State":"Île-de-France","County":"Paris","City":"Paris","District":"14e Arrondissement","Street":"Rue du Faubourg Saint-Jacques","HouseNumber":"21","PostalCode":"75014","AdditionalData":[{"value":"France","key":"CountryName"},{"value":"Île-de-France","key":"StateName"},{"value":"Paris","key":"CountyName"}]},"MapReference":{"ReferenceId":"1132957786","Spot":0.57,"SideOfStreet":"right","CountryId":"20000001","StateId":"20002126","CountyId":"20002127","CityId":"20002128","DistrictId":"20002143","AddressId":"321872632","RoadLinkId":"442934277"}}},{"Relevance":1.0,"Distance":37.1,"MatchLevel":"houseNumber","MatchQuality":{"Country":1.0,"State":1.0,"County":1.0,"City":1.0,"District":1.0,"Street":[1.0],"HouseNumber":1.0,"PostalCode":1.0},"MatchType":"interpolated","Location":{"LocationId":"NT_X7kbDk2t8oqBVfcx2OvhBA_xAD","LocationType":"point","DisplayPosition":{"Latitude":48.83828,"Longitude":2.33928},"MapView":{"TopLeft":{"Latitude":48.8394042,"Longitude":2.337572},"BottomRight":{"Latitude":48.8371558,"Longitude":2.340988}},"Address":{"Label":"10 Rue du Faubourg Saint-Jacques, 75014 Paris, France","Country":"FRA","State":"Île-de-France","County":"Paris","City":"Paris","District":"14e Arrondissement","Street":"Rue du Faubourg Saint-Jacques","HouseNumber":"10","PostalCode":"75014","AdditionalData":[{"value":"France","key":"CountryName"},{"value":"Île-de-France","key":"StateName"},{"value":"Paris","key":"CountyName"}]},"MapReference":{"ReferenceId":"820985870","Spot":0.0,"SideOfStreet":"left","CountryId":"20000001","StateId":"20002126","CountyId":"20002127","CityId":"20002128","DistrictId":"20002143","AddressId":"301800805","RoadLinkId":"207517972"}}},{"Relevance":1.0,"Distance":42.3,"MatchLevel":"street","MatchQuality":{"Country":1.0,"State":1.0,"County":1.0,"City":1.0,"District":1.0,"PostalCode":1.0},"Location":{"LocationId":"NT_gXc14oTrBH38x8yzIfW38A_l_1132957787_R","LocationType":"point","DisplayPosition":{"Latitude":48.8375851,"Longitude":2.338886},"MapView":{"TopLeft":{"Latitude":48.8376,"Longitude":2.33883},"BottomRight":{"Latitude":48.83756,"Longitude":2.33898}},"Address":{"Label":"75014 Paris, France","Country":"FRA","State":"Île-de-France","County":"Paris","City":"Paris","District":"14e Arrondissement","PostalCode":"75014","AdditionalData":[{"value":"France","key":"CountryName"},{"value":"Île-de-France","key":"StateName"},{"value":"Paris","key":"CountyName"}]},"MapReference":{"ReferenceId":"1132957787","Spot":0.63,"SideOfStreet":"right","CountryId":"20000001","StateId":"20002126","CountyId":"20002127","CityId":"20002128","DistrictId":"20002143"}}},{"Relevance":1.0,"Distance":44.5,"MatchLevel":"street","MatchQuality":{"Country":1.0,"State":1.0,"County":1.0,"City":1.0,"District":1.0,"PostalCode":1.0},"Location":{"LocationId":"NT_gXc14oTrBH38x8yzIfW38A_l_1195827901_R","LocationType":"point","DisplayPosition":{"Latitude":48.83756,"Longitude":2.33898},"MapView":{"TopLeft":{"Latitude":48.83756,"Longitude":2.33898},"BottomRight":{"Latitude":48.83749,"Longitude":2.33924}},"Address":{"Label":"75014 Paris, France","Country":"FRA","State":"Île-de-France","County":"Paris","City":"Paris","District":"14e Arrondissement","PostalCode":"75014","AdditionalData":[{"value":"France","key":"CountryName"},{"value":"Île-de-France","key":"StateName"},{"value":"Paris","key":"CountyName"}]},"MapReference":{"ReferenceId":"1195827901","Spot":1.0,"SideOfStreet":"right","CountryId":"20000001","StateId":"20002126","CountyId":"20002127","CityId":"20002128","DistrictId":"20002143"}}}]}]}}