{"Response":{"MetaInfo":{"Timestamp":"2020-03-28T11:01:30.614+0000","NextPageInformation":"2"},"View":[{"_type":"SearchResultsViewType","ViewId":0,"Result":[{"Relevance":1.0,"Distance":-8.0,"MatchLevel":"landmark","MatchQuality":{"Country":1.0,"State":1.0,"County":1.0,"City":1.0,"District":1.0,"Street":[1.0],"PostalCode":1.0,"Name":1.0},"Location":{"LocationId":"NT_Ma1ehbjK9O8BhN.EAvTTyA_p_GiKlEZ50ufEhBWpyua7nJD","LocationType":"hospital","Name":"Siloah St. Trudpert Klinikum","DisplayPosition":{"Latitude":48.89776,"Longitude":8.67245},"MapView":{"TopLeft":{"Latitude":48.89896,"Longitude":8.67223},"BottomRight":{"Latitude":48.89607,"Longitude":8.67641}},"Address":{"Label":"Kurze Steig, 75179 Pforzheim, Deutschland","Country":"DEU","State":"Baden-Württemberg","County":"Pforzheim","City":"Pforzheim","District":"Pforzheim","Street":"Kurze Steig","PostalCode":"75179","AdditionalData":[{"value":"Deutschland","key":"CountryName"},{"value":"Baden-Württemberg","key":"StateName"},{"value":"Pforzheim","key":"CountyName"}]},"MapReference":{"CountryId":"20147700","StateId":"20171489","CountyId":"20173975","CityId":"20173976","DistrictId":"20173980","PlaceId":"50612445"}}},{"Relevance":1.0,"Distance":0.0,"Direction":0.0,"MatchLevel":"district","MatchQuality":{"Country":1.0,"State":1.0,"County":1.0,"City":1.0,"District":1.0,"PostalCode":1.0},"Location":{"LocationId":"NT_ne8tggf5dUoPgVmZORDl3B","LocationType":"point","DisplayPosition":{"Latitude":48.8979409,"Longitude":8.6725514},"MapView":{"TopLeft":{"Latitude":48.92142,"Longitude":8.6442},"BottomRight":{"Latitude":48.86424,"Longitude":8.7453}},"Address":{"Label":"Pforzheim, Baden-Württemberg, Deutschland","Country":"DEU","State":"Baden-Württemberg","County":"Pforzheim","City":"Pforzheim","District":"Pforzheim","PostalCode":"75172","AdditionalData":[{"value":"Deutschland","key":"CountryName"},{"value":"Baden-Württemberg","key":"StateName"},{"value":"Pforzheim","key":"CountyName"}]},"MapReference":{"ReferenceId":"878252826","SideOfStreet":"neither","CountryId":"20147700","StateId":"20171489","CountyId":"20173975","CityId":"20173976","DistrictId":"20173980"}}},{"Relevance":1.0,"Distance":0.1,"MatchLevel":"street","MatchQuality":{"Country":1.0,"State":1.0,"County":1.0,"City":1.0,"District":1.0,"Street":[1.0],"PostalCode":1.0},"Location":{"LocationId":"NT_wYqzVqwv6qr0APuQwrYJhA_l_53152910_L","LocationType":"point","DisplayPosition":{"Latitude":48.897942,"Longitude":8.6725515},"MapView":{"TopLeft":{"Latitude":48.89795,"Longitude":8.67244},"BottomRight":{"Latitude":48.89794,"Longitude":8.67258}},"Address":{"Label":"Wilferdinger Straße, 75179 Pforzheim, Deutschland","Country":"DEU","State":"Baden-Württemberg","County":"Pforzheim","City":"Pforzheim","District":"Pforzheim","Street":"Wilferdinger Straße","PostalCode":"75179","AdditionalData":[{"value":"Deutschland","key":"CountryName"},{"value":"Baden-Württemberg","key":"StateName"},{"value":"Pforzheim","key":"CountyName"}]},"MapReference":{"ReferenceId":"53152910","Spot":0.2,"SideOfStreet":"neither","CountryId":"20147700","StateId":"20171489","CountyId":"20173975","CityId":"20173976","DistrictId":"20173980"}}},{"Relevance":1.0,"Distance":2.1,"MatchLevel":"street","MatchQuality":{"Country":1.0,"State":1.0,"County":1.0,"City":1.0,"District":1.0,"Street":[1.0],"PostalCode":1.0},"Location":{"LocationId":"NT_wYqzVqwv6qr0APuQwrYJhA_l_53152909_L","LocationType":"point","DisplayPosition":{"Latitude":48.89794,"Longitude":8.67258},"MapView":{"TopLeft":{"Latitude":48.89816,"Longitude":8.67258},"BottomRight":{"Latitude":48.89794,"Longitude":8.67301}},"Address":{"Label":"Wilferdinger Straße, 75179 Pforzheim, Deutschland","Country":"DEU","State":"Baden-Württemberg","County":"Pforzheim","City":"Pforzheim","District":"Pforzheim","Street":"Wilferdinger Straße","PostalCode":"75179","AdditionalData":[{"value":"Deutschland","key":"CountryName"},{"value":"Baden-Württemberg","key":"StateName"},{"value":"Pforzheim","key":"CountyName"}]},"MapReference":{"ReferenceId":"53152909","Spot":0.0,"SideOfStreet":"neither","CountryId":"20147700","StateId":"20171489","CountyId":"20173975","CityId":"20173976","DistrictId":"20173980"}}},{"Relevance":1.0,"Distance":2.1,"MatchLevel":"street","MatchQuality":{"Country":1.0,"State":1.0,"County":1.0,"City":1.0,"District":1.0,"PostalCode":1.0},"Location":{"LocationId":"NT_H1znOxB4OhKS1JADY0whzD_l_993627414_L","LocationType":"point","DisplayPosition":{"Latitude":48.89794,"Longitude":8.67258},"MapView":{"TopLeft":{"Latitude":48.89851,"Longitude":8.67258},"BottomRight":{"Latitude":48.89794,"Longitude":8.67302}},"Address":{"Label":"75179 Pforzheim, Deutschland","Country":"DEU","State":"Baden-Württemberg","County":"Pforzheim","City":"Pforzheim","District":"Pforzheim","PostalCode":"75179","AdditionalData":[{"value":"Deutschland","key":"CountryName"},{"value":"Baden-Württemberg","key":"StateName"},{"value":"Pforzheim","key":"CountyName"}]},"MapReference":{"ReferenceId":"993627414","Spot":0.0,"SideOfStreet":"neither","CountryId":"20147700","StateId":"20171489","CountyId":"20173975","CityId":"20173976","DistrictId":"20173980"}}},{"Relevance":1.0,"Distance":8.1,"MatchLevel":"street","MatchQuality":{"Country":1.0,"State":1.0,"County":1.0,"City":1.0,"District":1.0,"Street":[1.0],"PostalCode":1.0},"Location":{"LocationId":"NT_-21rxD9gyiDVpv6tRzN-ZC_l_53152923_R","LocationType":"point","DisplayPosition":{"Latitude":48.8979351,"Longitude":8.6724408},"MapView":{"TopLeft":{"Latitude":48.89795,"Longitude":8.67244},"BottomRight":{"Latitude":48.89776,"Longitude":8.67245}},"Address":{"Label":"Kurze Steig, 75179 Pforzheim, Deutschland","Country":"DEU","State":"Baden-Württemberg","County":"Pforzheim","City":"Pforzheim","District":"Pforzheim","Street":"Kurze Steig","PostalCode":"75179","AdditionalData":[{"value":"Deutschland","key":"CountryName"},{"value":"Baden-Württemberg","key":"StateName"},{"value":"Pforzheim","key":"CountyName"}]},"MapReference":{"ReferenceId":"53152923","Spot":0.92,"SideOfStreet":"right","CountryId":"20147700","StateId":"20171489","CountyId":"20173975","CityId":"20173976","DistrictId":"20173980"}}},{"Relevance":1.0,"Distance":8.2,"MatchLevel":"street","MatchQuality":{"Country":1.0,"State":1.0,"County":1.0,"City":1.0,"District":1.0,"Street":[1.0],"PostalCode":1.0},"Location":{"LocationId":"NT_-21rxD9gyiDVpv6tRzN-ZC_l_1083365714_R","LocationType":"point","DisplayPosition":{"Latitude":48.89795,"Longitude":8.67244},"MapView":{"TopLeft":{"Latitude":48.89816,"Longitude":8.6724},"BottomRight":{"Latitude":48.89795,"Longitude":8.67244}},"Address":{"Label":"Kurze Steig, 75179 Pforzheim, Deutschland","Country":"DEU","State":"Baden-Württemberg","County":"Pforzheim","City":"Pforzheim","District":"Pforzheim","Street":"Kurze Steig","PostalCode":"75179","AdditionalData":[{"value":"Deutschland","key":"CountryName"},{"value":"Baden-Württemberg","key":"StateName"},{"value":"Pforzheim","key":"CountyName"}]},"MapReference":{"ReferenceId":"1083365714","Spot":0.0,"SideOfStreet":"right","CountryId":"20147700","StateId":"20171489","CountyId":"20173975","CityId":"20173976","DistrictId":"20173980"}}},{"Relevance":1.0,"Distance":21.4,"MatchLevel":"street","MatchQuality":{"Country":1.0,"State":1.0,"County":1.0,"City":1.0,"District":1.0,"Street":[1.0],"PostalCode":1.0},"Location":{"LocationId":"NT_-21rxD9gyiDVpv6tRzN-ZC_l_841714583_R","LocationType":"point","DisplayPosition":{"Latitude":48.89776,"Longitude":8.67245},"MapView":{"TopLeft":{"Latitude":48.89776,"Longitude":8.67241},"BottomRight":{"Latitude":48.89738,"Longitude":8.67245}},"Address":{"Label":"Kurze Steig, 75179 Pforzheim, Deutschland","Country":"DEU","State":"Baden-Württemberg","County":"Pforzheim","City":"Pforzheim","District":"Pforzheim","Street":"Kurze Steig","PostalCode":"75179","AdditionalData":[{"value":"Deutschland","key":"CountryName"},{"value":"Baden-Württemberg","key":"StateName"},{"value":"Pforzheim","key":"CountyName"}]},"MapReference":{"ReferenceId":"841714583","Spot":1.0,"SideOfStreet":"right","CountryId":"20147700","StateId":"20171489","CountyId":"20173975","CityId":"20173976","DistrictId":"20173980"}}},{"Relevance":1.0,"Distance":26.8,"MatchLevel":"street","MatchQuality":{"Country":1.0,"State":1.0,"County":1.0,"City":1.0,"District":1.0,"Street":[1.0],"PostalCode":1.0},"Location":{"LocationId":"NT_-21rxD9gyiDVpv6tRzN-ZC_l_1083365715_R","LocationType":"point","DisplayPosition":{"Latitude":48.89816,"Longitude":8.6724},"MapView":{"TopLeft":{"Latitude":48.89849,"Longitude":8.6723},"BottomRight":{"Latitude":48.89816,"Longitude":8.6724}},"Address":{"Label":"Kurze Steig, 75179 Pforzheim, Deutschland","Country":"DEU","State":"Baden-Württemberg","County":"Pforzheim","City":"Pforzheim","District":"Pforzheim","Street":"Kurze Steig","PostalCode":"75179","AdditionalData":[{"value":"Deutschland","key":"CountryName"},{"value":"Baden-Württemberg","key":"StateName"},{"value":"Pforzheim","key":"CountyName"}]},"MapReference":{"ReferenceId":"1083365715","Spot":0.0,"SideOfStreet":"right","CountryId":"20147700","StateId":"20171489","CountyId":"20173975","CityId":"20173976","DistrictId":"20173980"}}},{"Relevance":1.0,"Distance":37.8,"MatchLevel":"street","MatchQuality":{"Country":1.0,"State":1.0,"County":1.0,"City":1.0,"District":1.0,"PostalCode":1.0},"Location":{"LocationId":"NT_H1znOxB4OhKS1JADY0whzD_l_1218959246_R","LocationType":"point","DisplayPosition":{"Latitude":48.897874,"Longitude":8.6720449},"MapView":{"TopLeft":{"Latitude":48.89829,"Longitude":8.67175},"BottomRight":{"Latitude":48.89776,"Longitude":8.67206}},"Address":{"Label":"75179 Pforzheim, Deutschland","Country":"DEU","State":"Baden-Württemberg","County":"Pforzheim","City":"Pforzheim","District":"Pforzheim","PostalCode":"75179","AdditionalData":[{"value":"Deutschland","key":"CountryName"},{"value":"Baden-Württemberg","key":"StateName"},{"value":"Pforzheim","key":"CountyName"}]},"MapReference":{"ReferenceId":"1218959246","Spot":0.15,"SideOfStreet":"right","CountryId":"20147700","StateId":"20171489","CountyId":"20173975","CityId":"20173976","DistrictId":"20173980"}}}]}]}}