{"Response":{"MetaInfo":{"Timestamp":"2020-03-28T10:06:34.075+0000","NextPageInformation":"2"},"View":[{"_type":"SearchResultsViewType","ViewId":0,"Result":[{"Relevance":1.0,"Distance":-39.6,"MatchLevel":"landmark","MatchQuality":{"Country":1.0,"State":1.0,"County":1.0,"City":1.0,"PostalCode":1.0,"Name":1.0},"Location":{"LocationId":"NT_Wbd.MkLoToaGNl9BRZfquB","LocationType":"industrialComplex","Name":"Z.A. Péribureaux","DisplayPosition":{"Latitude":48.853,"Longitude":2.48745},"MapView":{"TopLeft":{"Latitude":48.85545,"Longitude":2.48302},"BottomRight":{"Latitude":48.85054,"Longitude":2.48974}},"Address":{"Label":"94120 Fontenay-sous-Bois, France","Country":"FRA","State":"Île-de-France","County":"Val-de-Marne","City":"Fontenay-sous-Bois","PostalCode":"94120","AdditionalData":[{"value":"France","key":"CountryName"},{"value":"Île-de-France","key":"StateName"},{"value":"Val-de-Marne","key":"CountyName"}]},"MapReference":{"CountryId":"20000001","StateId":"20002126","CountyId":"20005328","CityId":"20005368","PlaceId":"1401254160"}}},{"Relevance":1.0,"Distance":0.0,"Direction":0.0,"MatchLevel":"city","MatchQuality":{"Country":1.0,"State":1.0,"County":1.0,"City":1.0,"PostalCode":1.0},"Location":{"LocationId":"NT_B1hYEeM-jYWiY2qERF5-wC","LocationType":"point","DisplayPosition":{"Latitude":48.8540441,"Longitude":2.4870877},"MapView":{"TopLeft":{"Latitude":48.86247,"Longitude":2.44715},"BottomRight":{"Latitude":48.83914,"Longitude":2.50002}},"Address":{"Label":"Fontenay-sous-Bois, Île-de-France, France","Country":"FRA","State":"Île-de-France","County":"Val-de-Marne","City":"Fontenay-sous-Bois","PostalCode":"94120","AdditionalData":[{"value":"France","key":"CountryName"},{"value":"Île-de-France","key":"StateName"},{"value":"Val-de-Marne","key":"CountyName"}]},"MapReference":{"ReferenceId":"56192515","SideOfStreet":"neither","CountryId":"20000001","StateId":"20002126","CountyId":"20005328","CityId":"20005368"}}},{"Relevance":1.0,"Distance":8.5,"MatchLevel":"street","MatchQuality":{"Country":1.0,"State":1.0,"County":1.0,"City":1.0,"Street":[1.0],"PostalCode":1.0},"Location":{"LocationId":"NT_QmaljXolfcxpCYIt20yfTC_l_718085548_L","LocationType":"point","DisplayPosition":{"Latitude":48.8539728,"Longitude":2.4871288},"MapView":{"TopLeft":{"Latitude":48.85466,"Longitude":2.48676},"BottomRight":{"Latitude":48.85376,"Longitude":2.48832}},"Address":{"Label":"Sentier du Bois de l'Aunay, 94120 Fontenay-sous-Bois, France","Country":"FRA","State":"Île-de-France","County":"Val-de-Marne","City":"Fontenay-sous-Bois","Street":"Sentier du Bois de l'Aunay","PostalCode":"94120","AdditionalData":[{"value":"France","key":"CountryName"},{"value":"Île-de-France","key":"StateName"},{"value":"Val-de-Marne","key":"CountyName"}]},"MapReference":{"ReferenceId":"718085548","Spot":0.24,"SideOfStreet":"left","CountryId":"20000001","StateId":"20002126","CountyId":"20005328","CityId":"20005368"}}},{"Relevance":1.0,"Distance":38.1,"MatchLevel":"houseNumber","MatchQuality":{"Country":1.0,"State":1.0,"County":1.0,"City":1.0,"Street":[1.0],"HouseNumber":1.0,"PostalCode":1.0},"MatchType":"interpolated","Location":{"LocationId":"NT_.any47ZfdDiflzl2x.3wNB_5A","LocationType":"point","DisplayPosition":{"Latitude":48.85357,"Longitude":2.48763},"MapView":{"TopLeft":{"Latitude":48.8546942,"Longitude":2.4859215},"BottomRight":{"Latitude":48.8524458,"Longitude":2.4893385}},"Address":{"Label":"9 Avenue du Val-de-Fontenay, 94120 Fontenay-sous-Bois, France","Country":"FRA","State":"Île-de-France","County":"Val-de-Marne","City":"Fontenay-sous-Bois","Street":"Avenue du Val-de-Fontenay","HouseNumber":"9","PostalCode":"94120","AdditionalData":[{"value":"France","key":"CountryName"},{"value":"Île-de-France","key":"StateName"},{"value":"Val-de-Marne","key":"CountyName"}]},"MapReference":{"ReferenceId":"56192231","Spot":0.35,"SideOfStreet":"left","CountryId":"20000001","StateId":"20002126","CountyId":"20005328","CityId":"20005368","AddressId":"301879483","RoadLinkId":"43572138"}}},{"Relevance":1.0,"Distance":39.7,"MatchLevel":"landmark","MatchQuality":{"Country":1.0,"State":1.0,"County":1.0,"City":1.0,"Street":[1.0],"PostalCode":1.0,"Name":1.0},"Location":{"LocationId":"NT_usEO8qqot-dnUVLK4URjSD_p_ZVLkn.Zobx5alMC3QEyOnA","LocationType":"shoppingCentre","Name":"Ctre. Ccial. Val de Fontenay","DisplayPosition":{"Latitude":48.85286,"Longitude":2.48595},"MapView":{"TopLeft":{"Latitude":48.85473,"Longitude":2.48173},"BottomRight":{"Latitude":48.85246,"Longitude":2.48676}},"Address":{"Label":"Sentier du Bois de l'Aunay, 94120 Fontenay-sous-Bois, France","Country":"FRA","State":"Île-de-France","County":"Val-de-Marne","City":"Fontenay-sous-Bois","Street":"Sentier du Bois de l'Aunay","PostalCode":"94120","AdditionalData":[{"value":"France","key":"CountryName"},{"value":"Île-de-France","key":"StateName"},{"value":"Val-de-Marne","key":"CountyName"}]},"MapReference":{"CountryId":"20000001","StateId":"20002126","CountyId":"20005328","CityId":"20005368","PlaceId":"801743122"}}},{"Relevance":1.0,"Distance":61.2,"MatchLevel":"street","MatchQuality":{"Country":1.0,"State":1.0,"County":1.0,"City":1.0,"Street":[1.0],"PostalCode":1.0},"Location":{"LocationId":"NT_Tv9JfYApr4eIWDDWkra29D_l_56192217_L","LocationType":"point","DisplayPosition":{"Latitude":48.85385,"Longitude":2.48787},"MapView":{"TopLeft":{"Latitude":48.85395,"Longitude":2.48787},"BottomRight":{"Latitude":48.85371,"Longitude":2.48795}},"Address":{"Label":"Avenue des Olympiades, 94120 Fontenay-sous-Bois, France","Country":"FRA","State":"Île-de-France","County":"Val-de-Marne","City":"Fontenay-sous-Bois","Street":"Avenue des Olympiades","PostalCode":"94120","AdditionalData":[{"value":"France","key":"CountryName"},{"value":"Île-de-France","key":"StateName"},{"value":"Val-de-Marne","key":"CountyName"}]},"MapReference":{"ReferenceId":"56192217","Spot":0.52,"SideOfStreet":"left","CountryId":"20000001","StateId":"20002126","CountyId":"20005328","CityId":"20005368"}}},{"Relevance":1.0,"Distance":64.0,"MatchLevel":"street","MatchQuality":{"Country":1.0,"State":1.0,"County":1.0,"City":1.0,"PostalCode":1.0},"Location":{"LocationId":"NT_Cy-N7kabKt0Z5TSMzWiNOA_l_56192172_L","LocationType":"point","DisplayPosition":{"Latitude":48.85395,"Longitude":2.48795},"MapView":{"TopLeft":{"Latitude":48.85403,"Longitude":2.48795},"BottomRight":{"Latitude":48.85395,"Longitude":2.48843}},"Address":{"Label":"94120 Fontenay-sous-Bois, France","Country":"FRA","State":"Île-de-France","County":"Val-de-Marne","City":"Fontenay-sous-Bois","PostalCode":"94120","AdditionalData":[{"value":"France","key":"CountryName"},{"value":"Île-de-France","key":"StateName"},{"value":"Val-de-Marne","key":"CountyName"}]},"MapReference":{"ReferenceId":"56192172","Spot":0.0,"SideOfStreet":"left","CountryId":"20000001","StateId":"20002126","CountyId":"20005328","CityId":"20005368"}}},{"Relevance":1.0,"Distance":69.5,"MatchLevel":"street","MatchQuality":{"Country":1.0,"State":1.0,"County":1.0,"City":1.0,"Street":[1.0],"PostalCode":1.0},"Location":{"LocationId":"NT_Tv9JfYApr4eIWDDWkra29D_l_1220958020_L","LocationType":"point","DisplayPosition":{"Latitude":48.85371,"Longitude":2.48789},"MapView":{"TopLeft":{"Latitude":48.85371,"Longitude":2.48789},"BottomRight":{"Latitude":48.85362,"Longitude":2.48798}},"Address":{"Label":"Avenue des Olympiades, 94120 Fontenay-sous-Bois, France","Country":"FRA","State":"Île-de-France","County":"Val-de-Marne","City":"Fontenay-sous-Bois","Street":"Avenue des Olympiades","PostalCode":"94120","AdditionalData":[{"value":"France","key":"CountryName"},{"value":"Île-de-France","key":"StateName"},{"value":"Val-de-Marne","key":"CountyName"}]},"MapReference":{"ReferenceId":"1220958020","Spot":1.0,"SideOfStreet":"left","CountryId":"20000001","StateId":"20002126","CountyId":"20005328","CityId":"20005368"}}},{"Relevance":1.0,"Distance":80.5,"MatchLevel":"street","MatchQuality":{"Country":1.0,"State":1.0,"County":1.0,"City":1.0,"Street":[1.0],"PostalCode":1.0},"Location":{"LocationId":"NT_Tv9JfYApr4eIWDDWkra29D_l_1220958019_L","LocationType":"point","DisplayPosition":{"Latitude":48.85362,"Longitude":2.48798},"MapView":{"TopLeft":{"Latitude":48.85365,"Longitude":2.48798},"BottomRight":{"Latitude":48.85359,"Longitude":2.48842}},"Address":{"Label":"Avenue des Olympiades, 94120 Fontenay-sous-Bois, France","Country":"FRA","State":"Île-de-France","County":"Val-de-Marne","City":"Fontenay-sous-Bois","Street":"Avenue des Olympiades","PostalCode":"94120","AdditionalData":[{"value":"France","key":"CountryName"},{"value":"Île-de-France","key":"StateName"},{"value":"Val-de-Marne","key":"CountyName"}]},"MapReference":{"ReferenceId":"1220958019","Spot":0.0,"SideOfStreet":"left","CountryId":"20000001","StateId":"20002126","CountyId":"20005328","CityId":"20005368"}}},{"Relevance":1.0,"Distance":80.6,"MatchLevel":"street","MatchQuality":{"Country":1.0,"State":1.0,"County":1.0,"City":1.0,"PostalCode":1.0},"Location":{"LocationId":"NT_Cy-N7kabKt0Z5TSMzWiNOA_l_710787163_R","LocationType":"point","DisplayPosition":{"Latitude":48.8541,"Longitude":2.48599},"MapView":{"TopLeft":{"Latitude":48.8541,"Longitude":2.48515},"BottomRight":{"Latitude":48.85359,"Longitude":2.48599}},"Address":{"Label":"94120 Fontenay-sous-Bois, France","Country":"FRA","State":"Île-de-France","County":"Val-de-Marne","City":"Fontenay-sous-Bois","PostalCode":"94120","AdditionalData":[{"value":"France","key":"CountryName"},{"value":"Île-de-France","key":"StateName"},{"value":"Val-de-Marne","key":"CountyName"}]},"MapReference":{"ReferenceId":"710787163","Spot":1.0,"SideOfStreet":"right","CountryId":"20000001","StateId":"20002126","CountyId":"20005328","CityId":"20005368"}}}]}]}}