{"Response":{"MetaInfo":{"Timestamp":"2020-03-28T10:17:57.686+0000","NextPageInformation":"2"},"View":[{"_type":"SearchResultsViewType","ViewId":0,"Result":[{"Relevance":1.0,"Distance":0.0,"Direction":0.0,"MatchLevel":"district","MatchQuality":{"Country":1.0,"State":1.0,"County":1.0,"City":1.0,"District":1.0,"PostalCode":1.0},"Location":{"LocationId":"NT_x6QMRIMx3rDwwC7XQJ740B","LocationType":"point","DisplayPosition":{"Latitude":48.8719975,"Longitude":10.2493447},"MapView":{"TopLeft":{"Latitude":48.87694,"Longitude":10.2269},"BottomRight":{"Latitude":48.86626,"Longitude":10.25491}},"Address":{"Label":"Lauchheim, Baden-Württemberg, Deutschland","Country":"DEU","State":"Baden-Württemberg","County":"Ostalbkreis","City":"Lauchheim","District":"Lauchheim","PostalCode":"73466","AdditionalData":[{"value":"Deutschland","key":"CountryName"},{"value":"Baden-Württemberg","key":"StateName"},{"value":"Ostalbkreis","key":"CountyName"}]},"MapReference":{"ReferenceId":"540823621","SideOfStreet":"neither","CountryId":"20147700","StateId":"20171489","CountyId":"20173009","CityId":"20173092","DistrictId":"20173095"}}},{"Relevance":1.0,"Distance":10.6,"MatchLevel":"houseNumber","MatchQuality":{"Country":1.0,"State":1.0,"County":1.0,"City":1.0,"District":1.0,"Street":[1.0],"HouseNumber":1.0,"PostalCode":1.0},"MatchType":"interpolated","Location":{"LocationId":"NT_HUv3637eu-y3YadsnFuOeB_yA","LocationType":"point","DisplayPosition":{"Latitude":48.87216,"Longitude":10.24949},"MapView":{"TopLeft":{"Latitude":48.8732842,"Longitude":10.2477809},"BottomRight":{"Latitude":48.8710358,"Longitude":10.2511991}},"Address":{"Label":"Bopfinger Straße 2, 73466 Lauchheim, Deutschland","Country":"DEU","State":"Baden-Württemberg","County":"Ostalbkreis","City":"Lauchheim","District":"Lauchheim","Street":"Bopfinger Straße","HouseNumber":"2","PostalCode":"73466","AdditionalData":[{"value":"Deutschland","key":"CountryName"},{"value":"Baden-Württemberg","key":"StateName"},{"value":"Ostalbkreis","key":"CountyName"}]},"MapReference":{"ReferenceId":"540823596","Spot":0.05,"SideOfStreet":"right","CountryId":"20147700","StateId":"20171489","CountyId":"20173009","CityId":"20173092","DistrictId":"20173095","AddressId":"180347778","RoadLinkId":"38405750"}}},{"Relevance":1.0,"Distance":18.1,"MatchLevel":"street","MatchQuality":{"Country":1.0,"State":1.0,"County":1.0,"City":1.0,"District":1.0,"Street":[1.0],"PostalCode":1.0},"Location":{"LocationId":"NT_b-Bm0d8HEfq0LHrvdtfZAD_l_540823632_R","LocationType":"point","DisplayPosition":{"Latitude":48.87216,"Longitude":10.2493447},"MapView":{"TopLeft":{"Latitude":48.87216,"Longitude":10.24912},"BottomRight":{"Latitude":48.87214,"Longitude":10.24944}},"Address":{"Label":"Hauptstraße, 73466 Lauchheim, Deutschland","Country":"DEU","State":"Baden-Württemberg","County":"Ostalbkreis","City":"Lauchheim","District":"Lauchheim","Street":"Hauptstraße","PostalCode":"73466","AdditionalData":[{"value":"Deutschland","key":"CountryName"},{"value":"Baden-Württemberg","key":"StateName"},{"value":"Ostalbkreis","key":"CountyName"}]},"MapReference":{"ReferenceId":"540823632","Spot":0.7,"SideOfStreet":"right","CountryId":"20147700","StateId":"20171489","CountyId":"20173009","CityId":"20173092","DistrictId":"20173095"}}},{"Relevance":1.0,"Distance":34.1,"MatchLevel":"houseNumber","MatchQuality":{"Country":1.0,"State":1.0,"County":1.0,"City":1.0,"District":1.0,"Street":[1.0],"HouseNumber":1.0,"PostalCode":1.0},"MatchType":"interpolated","Location":{"LocationId":"NT_b-Bm0d8HEfq0LHrvdtfZAD_xA","LocationType":"point","DisplayPosition":{"Latitude":48.87209,"Longitude":10.24884},"MapView":{"TopLeft":{"Latitude":48.8732142,"Longitude":10.2471309},"BottomRight":{"Latitude":48.8709658,"Longitude":10.2505491}},"Address":{"Label":"Hauptstraße 1, 73466 Lauchheim, Deutschland","Country":"DEU","State":"Baden-Württemberg","County":"Ostalbkreis","City":"Lauchheim","District":"Lauchheim","Street":"Hauptstraße","HouseNumber":"1","PostalCode":"73466","AdditionalData":[{"value":"Deutschland","key":"CountryName"},{"value":"Baden-Württemberg","key":"StateName"},{"value":"Ostalbkreis","key":"CountyName"}]},"MapReference":{"ReferenceId":"540905954","Spot":0.47,"SideOfStreet":"right","CountryId":"20147700","StateId":"20171489","CountyId":"20173009","CityId":"20173092","DistrictId":"20173095","AddressId":"180345725","RoadLinkId":"38283423"}}},{"Relevance":1.0,"Distance":38.2,"MatchLevel":"houseNumber","MatchQuality":{"Country":1.0,"State":1.0,"County":1.0,"City":1.0,"District":1.0,"Street":[1.0],"HouseNumber":1.0,"PostalCode":1.0},"MatchType":"interpolated","Location":{"LocationId":"NT_KdAOafVQeimjjtJSl8Wb4B_1A","LocationType":"point","DisplayPosition":{"Latitude":48.87173,"Longitude":10.24873},"MapView":{"TopLeft":{"Latitude":48.8728542,"Longitude":10.2470209},"BottomRight":{"Latitude":48.8706058,"Longitude":10.2504391}},"Address":{"Label":"Torgasse 5, 73466 Lauchheim, Deutschland","Country":"DEU","State":"Baden-Württemberg","County":"Ostalbkreis","City":"Lauchheim","District":"Lauchheim","Street":"Torgasse","HouseNumber":"5","PostalCode":"73466","AdditionalData":[{"value":"Deutschland","key":"CountryName"},{"value":"Baden-Württemberg","key":"StateName"},{"value":"Ostalbkreis","key":"CountyName"}]},"MapReference":{"ReferenceId":"540905955","Spot":0.24,"SideOfStreet":"right","CountryId":"20147700","StateId":"20171489","CountyId":"20173009","CityId":"20173092","DistrictId":"20173095","AddressId":"178748498","RoadLinkId":"38379144"}}},{"Relevance":1.0,"Distance":39.1,"MatchLevel":"houseNumber","MatchQuality":{"Country":1.0,"State":1.0,"County":1.0,"City":1.0,"District":1.0,"Street":[1.0],"HouseNumber":1.0,"PostalCode":1.0},"MatchType":"interpolated","Location":{"LocationId":"NT_EHDNluJxmVvHUS-RF-m8NA_yA","LocationType":"point","DisplayPosition":{"Latitude":48.87233,"Longitude":10.24952},"MapView":{"TopLeft":{"Latitude":48.8734542,"Longitude":10.2478109},"BottomRight":{"Latitude":48.8712058,"Longitude":10.2512291}},"Address":{"Label":"Lippacher Straße 2, 73466 Lauchheim, Deutschland","Country":"DEU","State":"Baden-Württemberg","County":"Ostalbkreis","City":"Lauchheim","District":"Lauchheim","Street":"Lippacher Straße","HouseNumber":"2","PostalCode":"73466","AdditionalData":[{"value":"Deutschland","key":"CountryName"},{"value":"Baden-Württemberg","key":"StateName"},{"value":"Ostalbkreis","key":"CountyName"}]},"MapReference":{"ReferenceId":"708196770","Spot":0.32,"SideOfStreet":"right","CountryId":"20147700","StateId":"20171489","CountyId":"20173009","CityId":"20173092","DistrictId":"20173095","AddressId":"180486872","RoadLinkId":"174351124"}}},{"Relevance":1.0,"Distance":63.1,"MatchLevel":"houseNumber","MatchQuality":{"Country":1.0,"State":1.0,"County":1.0,"City":1.0,"District":1.0,"Street":[1.0],"HouseNumber":1.0,"PostalCode":1.0},"MatchType":"interpolated","Location":{"LocationId":"NT_b-Bm0d8HEfq0LHrvdtfZAD_1A","LocationType":"point","DisplayPosition":{"Latitude":48.87202,"Longitude":10.24846},"MapView":{"TopLeft":{"Latitude":48.8731442,"Longitude":10.2467509},"BottomRight":{"Latitude":48.8708958,"Longitude":10.2501691}},"Address":{"Label":"Hauptstraße 5, 73466 Lauchheim, Deutschland","Country":"DEU","State":"Baden-Württemberg","County":"Ostalbkreis","City":"Lauchheim","District":"Lauchheim","Street":"Hauptstraße","HouseNumber":"5","PostalCode":"73466","AdditionalData":[{"value":"Deutschland","key":"CountryName"},{"value":"Baden-Württemberg","key":"StateName"},{"value":"Ostalbkreis","key":"CountyName"}]},"MapReference":{"ReferenceId":"540905953","Spot":0.7,"SideOfStreet":"right","CountryId":"20147700","StateId":"20171489","CountyId":"20173009","CityId":"20173092","DistrictId":"20173095","AddressId":"179105001","RoadLinkId":"38530989"}}},{"Relevance":1.0,"Distance":71.1,"MatchLevel":"street","MatchQuality":{"Country":1.0,"State":1.0,"County":1.0,"City":1.0,"District":1.0,"PostalCode":1.0},"Location":{"LocationId":"NT_AEnx-3pJ2J3A1-XMN4.QyC_l_708196772_L","LocationType":"point","DisplayPosition":{"Latitude":48.87254,"Longitude":10.24986},"MapView":{"TopLeft":{"Latitude":48.87284,"Longitude":10.24974},"BottomRight":{"Latitude":48.87254,"Longitude":10.24986}},"Address":{"Label":"73466 Lauchheim, Deutschland","Country":"DEU","State":"Baden-Württemberg","County":"Ostalbkreis","City":"Lauchheim","District":"Lauchheim","PostalCode":"73466","AdditionalData":[{"value":"Deutschland","key":"CountryName"},{"value":"Baden-Württemberg","key":"StateName"},{"value":"Ostalbkreis","key":"CountyName"}]},"MapReference":{"ReferenceId":"708196772","Spot":0.0,"SideOfStreet":"left","CountryId":"20147700","StateId":"20171489","CountyId":"20173009","CityId":"20173092","DistrictId":"20173095"}}},{"Relevance":1.0,"Distance":71.1,"MatchLevel":"street","MatchQuality":{"Country":1.0,"State":1.0,"County":1.0,"City":1.0,"District":1.0,"PostalCode":1.0},"Location":{"LocationId":"NT_AEnx-3pJ2J3A1-XMN4.QyC_l_708196771_R","LocationType":"point","DisplayPosition":{"Latitude":48.87254,"Longitude":10.24986},"MapView":{"TopLeft":{"Latitude":48.87343,"Longitude":10.24986},"BottomRight":{"Latitude":48.87254,"Longitude":10.25232}},"Address":{"Label":"73466 Lauchheim, Deutschland","Country":"DEU","State":"Baden-Württemberg","County":"Ostalbkreis","City":"Lauchheim","District":"Lauchheim","PostalCode":"73466","AdditionalData":[{"value":"Deutschland","key":"CountryName"},{"value":"Baden-Württemberg","key":"StateName"},{"value":"Ostalbkreis","key":"CountyName"}]},"MapReference":{"ReferenceId":"708196771","Spot":0.0,"SideOfStreet":"right","CountryId":"20147700","StateId":"20171489","CountyId":"20173009","CityId":"20173092","DistrictId":"20173095"}}},{"Relevance":1.0,"Distance":95.7,"MatchLevel":"houseNumber","MatchQuality":{"Country":1.0,"State":1.0,"County":1.0,"City":1.0,"District":1.0,"Street":[1.0],"HouseNumber":1.0,"PostalCode":1.0},"MatchType":"interpolated","Location":{"LocationId":"NT_E92dFIgDxSndIN9hoJVY0C_zA","LocationType":"point","DisplayPosition":{"Latitude":48.87114,"Longitude":10.24946},"MapView":{"TopLeft":{"Latitude":48.8722642,"Longitude":10.2477509},"BottomRight":{"Latitude":48.8700158,"Longitude":10.2511691}},"Address":{"Label":"Lindenstraße 3, 73466 Lauchheim, Deutschland","Country":"DEU","State":"Baden-Württemberg","County":"Ostalbkreis","City":"Lauchheim","District":"Lauchheim","Street":"Lindenstraße","HouseNumber":"3","PostalCode":"73466","AdditionalData":[{"value":"Deutschland","key":"CountryName"},{"value":"Baden-Württemberg","key":"StateName"},{"value":"Ostalbkreis","key":"CountyName"}]},"MapReference":{"ReferenceId":"540823557","Spot":0.16,"SideOfStreet":"right","CountryId":"20147700","StateId":"20171489","CountyId":"20173009","CityId":"20173092","DistrictId":"20173095","AddressId":"178098354","RoadLinkId":"38051043"}}}]}]}}