{"Response":{"MetaInfo":{"Timestamp":"2020-03-28T11:54:05.952+0000","NextPageInformation":"2"},"View":[{"_type":"SearchResultsViewType","ViewId":0,"Result":[{"Relevance":1.0,"Distance":0.0,"Direction":0.0,"MatchLevel":"city","MatchQuality":{"Country":1.0,"State":1.0,"County":1.0,"City":1.0,"PostalCode":1.0},"Location":{"LocationId":"NT_HBuXVOtKPebw0LYq0huUfA","LocationType":"point","DisplayPosition":{"Latitude":48.8384822,"Longitude":2.1302219},"MapView":{"TopLeft":{"Latitude":48.8644,"Longitude":2.10854},"BottomRight":{"Latitude":48.83512,"Longitude":2.15984}},"Address":{"Label":"La Celle-Saint-Cloud, Île-de-France, France","Country":"FRA","State":"Île-de-France","County":"Yvelines","City":"La Celle-Saint-Cloud","PostalCode":"78170","AdditionalData":[{"value":"France","key":"CountryName"},{"value":"Île-de-France","key":"StateName"},{"value":"Yvelines","key":"CountyName"}]},"MapReference":{"ReferenceId":"56325697","SideOfStreet":"neither","CountryId":"20000001","StateId":"20002126","CountyId":"20003702","CityId":"20003844"}}},{"Relevance":1.0,"Distance":15.9,"MatchLevel":"houseNumber","MatchQuality":{"Country":1.0,"State":1.0,"County":1.0,"City":1.0,"Street":[1.0],"HouseNumber":1.0,"PostalCode":1.0},"MatchType":"interpolated","Location":{"LocationId":"NT_EI1dgeA0odEbEduu1p4NNC_zkzQ","LocationType":"point","DisplayPosition":{"Latitude":48.83856,"Longitude":2.12996},"MapView":{"TopLeft":{"Latitude":48.8396842,"Longitude":2.128252},"BottomRight":{"Latitude":48.8374358,"Longitude":2.131668}},"Address":{"Label":"39C Avenue Lucien-René Duchesne, 78170 La Celle-Saint-Cloud, France","Country":"FRA","State":"Île-de-France","County":"Yvelines","City":"La Celle-Saint-Cloud","Street":"Avenue Lucien-René Duchesne","HouseNumber":"39C","PostalCode":"78170","AdditionalData":[{"value":"France","key":"CountryName"},{"value":"Île-de-France","key":"StateName"},{"value":"Yvelines","key":"CountyName"}]},"MapReference":{"ReferenceId":"56343439","Spot":0.58,"SideOfStreet":"right","CountryId":"20000001","StateId":"20002126","CountyId":"20003702","CityId":"20003844","AddressId":"344784148","RoadLinkId":"43320995"}}},{"Relevance":1.0,"Distance":22.8,"MatchLevel":"houseNumber","MatchQuality":{"Country":1.0,"State":1.0,"County":1.0,"City":1.0,"Street":[1.0],"HouseNumber":1.0,"PostalCode":1.0},"MatchType":"interpolated","Location":{"LocationId":"NT_FW6hPDlTjBMuyO4183N5-C_3UD","LocationType":"point","DisplayPosition":{"Latitude":48.83871,"Longitude":2.13042},"MapView":{"TopLeft":{"Latitude":48.8398342,"Longitude":2.128712},"BottomRight":{"Latitude":48.8375858,"Longitude":2.132128}},"Address":{"Label":"75 Allée La Fontaine, 78170 La Celle-Saint-Cloud, France","Country":"FRA","State":"Île-de-France","County":"Yvelines","City":"La Celle-Saint-Cloud","Street":"Allée La Fontaine","HouseNumber":"75","PostalCode":"78170","AdditionalData":[{"value":"France","key":"CountryName"},{"value":"Île-de-France","key":"StateName"},{"value":"Yvelines","key":"CountyName"}]},"MapReference":{"ReferenceId":"56326573","Spot":0.83,"SideOfStreet":"left","CountryId":"20000001","StateId":"20002126","CountyId":"20003702","CityId":"20003844","AddressId":"344750584","RoadLinkId":"43542682"}}},{"Relevance":1.0,"Distance":36.8,"MatchLevel":"street","MatchQuality":{"Country":1.0,"State":1.0,"County":1.0,"City":1.0,"Street":[1.0],"PostalCode":1.0},"Location":{"LocationId":"NT_HwdmHp45PF3b2OLTfgF.ND_l_56343440_R","LocationType":"point","DisplayPosition":{"Latitude":48.83826,"Longitude":2.12985},"MapView":{"TopLeft":{"Latitude":48.83826,"Longitude":2.12983},"BottomRight":{"Latitude":48.83814,"Longitude":2.12985}},"Address":{"Label":"Avenue Lucien-René Duchesne, 78170 La Celle-Saint-Cloud, France","Country":"FRA","State":"Île-de-France","County":"Yvelines","City":"La Celle-Saint-Cloud","Street":"Avenue Lucien-René Duchesne","PostalCode":"78170","AdditionalData":[{"value":"France","key":"CountryName"},{"value":"Île-de-France","key":"StateName"},{"value":"Yvelines","key":"CountyName"}]},"MapReference":{"ReferenceId":"56343440","Spot":1.0,"SideOfStreet":"right","CountryId":"20000001","StateId":"20002126","CountyId":"20003702","CityId":"20003844"}}},{"Relevance":1.0,"Distance":39.8,"MatchLevel":"houseNumber","MatchQuality":{"Country":1.0,"State":1.0,"County":1.0,"City":1.0,"Street":[1.0],"HouseNumber":1.0,"PostalCode":1.0},"MatchType":"interpolated","Location":{"LocationId":"NT_zOCpiEU-o2ru4lBXukd9UB_xYD","LocationType":"point","DisplayPosition":{"Latitude":48.8387,"Longitude":2.12979},"MapView":{"TopLeft":{"Latitude":48.8398242,"Longitude":2.128082},"BottomRight":{"Latitude":48.8375758,"Longitude":2.131498}},"Address":{"Label":"16 Avenue de la Furie, 78170 La Celle-Saint-Cloud, France","Country":"FRA","State":"Île-de-France","County":"Yvelines","City":"La Celle-Saint-Cloud","Street":"Avenue de la Furie","HouseNumber":"16","PostalCode":"78170","AdditionalData":[{"value":"France","key":"CountryName"},{"value":"Île-de-France","key":"StateName"},{"value":"Yvelines","key":"CountyName"}]},"MapReference":{"ReferenceId":"56326575","Spot":0.32,"SideOfStreet":"left","CountryId":"20000001","StateId":"20002126","CountyId":"20003702","CityId":"20003844","AddressId":"375625842","RoadLinkId":"43515032"}}},{"Relevance":1.0,"Distance":40.9,"MatchLevel":"houseNumber","MatchQuality":{"Country":1.0,"State":1.0,"County":1.0,"City":1.0,"Street":[1.0],"HouseNumber":1.0,"PostalCode":1.0},"MatchType":"interpolated","Location":{"LocationId":"NT_Et.B3h7ZIzoh4C92QLNJ5C_3gD","LocationType":"point","DisplayPosition":{"Latitude":48.83807,"Longitude":2.13029},"MapView":{"TopLeft":{"Latitude":48.8391942,"Longitude":2.1285821},"BottomRight":{"Latitude":48.8369458,"Longitude":2.1319979}},"Address":{"Label":"78 Avenue Molière, 78170 La Celle-Saint-Cloud, France","Country":"FRA","State":"Île-de-France","County":"Yvelines","City":"La Celle-Saint-Cloud","Street":"Avenue Molière","HouseNumber":"78","PostalCode":"78170","AdditionalData":[{"value":"France","key":"CountryName"},{"value":"Île-de-France","key":"StateName"},{"value":"Yvelines","key":"CountyName"}]},"MapReference":{"ReferenceId":"56326592","Spot":0.63,"SideOfStreet":"right","CountryId":"20000001","StateId":"20002126","CountyId":"20003702","CityId":"20003844","AddressId":"345042961","RoadLinkId":"43439946"}}},{"Relevance":1.0,"Distance":47.7,"MatchLevel":"street","MatchQuality":{"Country":1.0,"State":1.0,"County":1.0,"City":1.0,"Street":[1.0],"PostalCode":1.0},"Location":{"LocationId":"NT_.AQ1YvR74m4dR7Uu7jcSUD_l_56326598_R","LocationType":"point","DisplayPosition":{"Latitude":48.83814,"Longitude":2.12983},"MapView":{"TopLeft":{"Latitude":48.83823,"Longitude":2.12958},"BottomRight":{"Latitude":48.83814,"Longitude":2.12983}},"Address":{"Label":"Porte du Puits d'Angle, 78170 La Celle-Saint-Cloud, France","Country":"FRA","State":"Île-de-France","County":"Yvelines","City":"La Celle-Saint-Cloud","Street":"Porte du Puits d'Angle","PostalCode":"78170","AdditionalData":[{"value":"France","key":"CountryName"},{"value":"Île-de-France","key":"StateName"},{"value":"Yvelines","key":"CountyName"}]},"MapReference":{"ReferenceId":"56326598","Spot":0.0,"SideOfStreet":"right","CountryId":"20000001","StateId":"20002126","CountyId":"20003702","CityId":"20003844"}}},{"Relevance":1.0,"Distance":48.8,"MatchLevel":"houseNumber","MatchQuality":{"Country":1.0,"State":1.0,"County":1.0,"City":1.0,"Street":[1.0],"HouseNumber":1.0,"PostalCode":1.0},"MatchType":"interpolated","Location":{"LocationId":"NT_EI1dgeA0odEbEduu1p4NNC_zkTQ","LocationType":"point","DisplayPosition":{"Latitude":48.83892,"Longitude":2.13011},"MapView":{"TopLeft":{"Latitude":48.8400442,"Longitude":2.128402},"BottomRight":{"Latitude":48.8377958,"Longitude":2.131818}},"Address":{"Label":"39A Avenue Lucien-René Duchesne, 78170 La Celle-Saint-Cloud, France","Country":"FRA","State":"Île-de-France","County":"Yvelines","City":"La Celle-Saint-Cloud","Street":"Avenue Lucien-René Duchesne","HouseNumber":"39A","PostalCode":"78170","AdditionalData":[{"value":"France","key":"CountryName"},{"value":"Île-de-France","key":"StateName"},{"value":"Yvelines","key":"CountyName"}]},"MapReference":{"ReferenceId":"56326549","Spot":0.35,"SideOfStreet":"right","CountryId":"20000001","StateId":"20002126","CountyId":"20003702","CityId":"20003844","AddressId":"344835471","RoadLinkId":"43690414"}}},{"Relevance":1.0,"Distance":54.7,"MatchLevel":"street","MatchQuality":{"Country":1.0,"State":1.0,"County":1.0,"City":1.0,"Street":[1.0],"PostalCode":1.0},"Location":{"LocationId":"NT_.AQ1YvR74m4dR7Uu7jcSUD_l_56326583_R","LocationType":"point","DisplayPosition":{"Latitude":48.83823,"Longitude":2.12958},"MapView":{"TopLeft":{"Latitude":48.83828,"Longitude":2.12935},"BottomRight":{"Latitude":48.83823,"Longitude":2.12958}},"Address":{"Label":"Porte du Puits d'Angle, 78170 La Celle-Saint-Cloud, France","Country":"FRA","State":"Île-de-France","County":"Yvelines","City":"La Celle-Saint-Cloud","Street":"Porte du Puits d'Angle","PostalCode":"78170","AdditionalData":[{"value":"France","key":"CountryName"},{"value":"Île-de-France","key":"StateName"},{"value":"Yvelines","key":"CountyName"}]},"MapReference":{"ReferenceId":"56326583","Spot":0.0,"SideOfStreet":"right","CountryId":"20000001","StateId":"20002126","CountyId":"20003702","CityId":"20003844"}}},{"Relevance":1.0,"Distance":55.4,"MatchLevel":"houseNumber","MatchQuality":{"Country":1.0,"State":1.0,"County":1.0,"City":1.0,"Street":[1.0],"HouseNumber":1.0,"PostalCode":1.0},"MatchType":"interpolated","Location":{"LocationId":"NT_EI1dgeA0odEbEduu1p4NNC_2QD","LocationType":"point","DisplayPosition":{"Latitude":48.83806,"Longitude":2.12982},"MapView":{"TopLeft":{"Latitude":48.8391842,"Longitude":2.1281121},"BottomRight":{"Latitude":48.8369358,"Longitude":2.1315279}},"Address":{"Label":"64 Avenue Lucien-René Duchesne, 78170 La Celle-Saint-Cloud, France","Country":"FRA","State":"Île-de-France","County":"Yvelines","City":"La Celle-Saint-Cloud","Street":"Avenue Lucien-René Duchesne","HouseNumber":"64","PostalCode":"78170","AdditionalData":[{"value":"France","key":"CountryName"},{"value":"Île-de-France","key":"StateName"},{"value":"Yvelines","key":"CountyName"}]},"MapReference":{"ReferenceId":"56326597","Spot":0.68,"SideOfStreet":"left","CountryId":"20000001","StateId":"20002126","CountyId":"20003702","CityId":"20003844","AddressId":"572058045","RoadLinkId":"43720338"}}}]}]}}