{"Response":{"MetaInfo":{"Timestamp":"2020-03-28T10:23:24.420+0000","NextPageInformation":"2"},"View":[{"_type":"SearchResultsViewType","ViewId":0,"Result":[{"Relevance":1.0,"Distance":0.0,"Direction":0.0,"MatchLevel":"district","MatchQuality":{"Country":1.0,"State":1.0,"County":1.0,"City":1.0,"District":1.0,"PostalCode":1.0},"Location":{"LocationId":"NT_xL0EIZGP4lzMLOCuOS9UhD","LocationType":"point","DisplayPosition":{"Latitude":48.8860692,"Longitude":10.4766992},"MapView":{"TopLeft":{"Latitude":48.89425,"Longitude":10.46249},"BottomRight":{"Latitude":48.88125,"Longitude":10.48259}},"Address":{"Label":"Wallerstein, Bayern, Deutschland","Country":"DEU","State":"Bayern","County":"Donau-Ries","City":"Wallerstein","District":"Wallerstein","PostalCode":"86757","AdditionalData":[{"value":"Deutschland","key":"CountryName"},{"value":"Bayern","key":"StateName"},{"value":"Donau-Ries","key":"CountyName"}]},"MapReference":{"ReferenceId":"541994153","SideOfStreet":"neither","CountryId":"20147700","StateId":"20177250","CountyId":"20186577","CityId":"20186759","DistrictId":"20186761"}}},{"Relevance":1.0,"Distance":13.2,"MatchLevel":"houseNumber","MatchQuality":{"Country":1.0,"State":1.0,"County":1.0,"City":1.0,"District":1.0,"Street":[1.0],"HouseNumber":1.0,"PostalCode":1.0},"MatchType":"interpolated","Location":{"LocationId":"NT_Arf.hXDk6kEp.BPNdQ95aC_zA","LocationType":"point","DisplayPosition":{"Latitude":48.8861,"Longitude":10.47656},"MapView":{"TopLeft":{"Latitude":48.8872242,"Longitude":10.4748504},"BottomRight":{"Latitude":48.8849758,"Longitude":10.4782696}},"Address":{"Label":"Weinstraße 3, 86757 Wallerstein, Deutschland","Country":"DEU","State":"Bayern","County":"Donau-Ries","City":"Wallerstein","District":"Wallerstein","Street":"Weinstraße","HouseNumber":"3","PostalCode":"86757","AdditionalData":[{"value":"Deutschland","key":"CountryName"},{"value":"Bayern","key":"StateName"},{"value":"Donau-Ries","key":"CountyName"}]},"MapReference":{"ReferenceId":"541993980","Spot":0.73,"SideOfStreet":"right","CountryId":"20147700","StateId":"20177250","CountyId":"20186577","CityId":"20186759","DistrictId":"20186761","AddressId":"184190798","RoadLinkId":"33795553"}}},{"Relevance":1.0,"Distance":14.0,"MatchLevel":"houseNumber","MatchQuality":{"Country":1.0,"State":1.0,"County":1.0,"City":1.0,"District":1.0,"Street":[1.0],"HouseNumber":1.0,"PostalCode":1.0},"MatchType":"interpolated","Location":{"LocationId":"NT_Arf.hXDk6kEp.BPNdQ95aC_2A","LocationType":"point","DisplayPosition":{"Latitude":48.88606,"Longitude":10.47689},"MapView":{"TopLeft":{"Latitude":48.8871842,"Longitude":10.4751804},"BottomRight":{"Latitude":48.8849358,"Longitude":10.4785996}},"Address":{"Label":"Weinstraße 6, 86757 Wallerstein, Deutschland","Country":"DEU","State":"Bayern","County":"Donau-Ries","City":"Wallerstein","District":"Wallerstein","Street":"Weinstraße","HouseNumber":"6","PostalCode":"86757","AdditionalData":[{"value":"Deutschland","key":"CountryName"},{"value":"Bayern","key":"StateName"},{"value":"Donau-Ries","key":"CountyName"}]},"MapReference":{"ReferenceId":"558237875","Spot":0.87,"SideOfStreet":"right","CountryId":"20147700","StateId":"20177250","CountyId":"20186577","CityId":"20186759","DistrictId":"20186761","AddressId":"208631329","RoadLinkId":"33104457"}}},{"Relevance":1.0,"Distance":48.0,"MatchLevel":"houseNumber","MatchQuality":{"Country":1.0,"State":1.0,"County":1.0,"City":1.0,"District":1.0,"Street":[1.0],"HouseNumber":1.0,"PostalCode":1.0},"MatchType":"interpolated","Location":{"LocationId":"NT_Arf.hXDk6kEp.BPNdQ95aC_xMD","LocationType":"point","DisplayPosition":{"Latitude":48.88647,"Longitude":10.47697},"MapView":{"TopLeft":{"Latitude":48.8875942,"Longitude":10.4752604},"BottomRight":{"Latitude":48.8853458,"Longitude":10.4786796}},"Address":{"Label":"Weinstraße 13, 86757 Wallerstein, Deutschland","Country":"DEU","State":"Bayern","County":"Donau-Ries","City":"Wallerstein","District":"Wallerstein","Street":"Weinstraße","HouseNumber":"13","PostalCode":"86757","AdditionalData":[{"value":"Deutschland","key":"CountryName"},{"value":"Bayern","key":"StateName"},{"value":"Donau-Ries","key":"CountyName"}]},"MapReference":{"ReferenceId":"541994149","Spot":0.4,"SideOfStreet":"left","CountryId":"20147700","StateId":"20177250","CountyId":"20186577","CityId":"20186759","DistrictId":"20186761","AddressId":"184541605","RoadLinkId":"33235546"}}},{"Relevance":1.0,"Distance":79.1,"MatchLevel":"houseNumber","MatchQuality":{"Country":1.0,"State":1.0,"County":1.0,"City":1.0,"District":1.0,"Street":[1.0],"HouseNumber":1.0,"PostalCode":1.0},"MatchType":"interpolated","Location":{"LocationId":"NT_Q6gwBjHqUGUqKEMa05ZpcD_xA","LocationType":"point","DisplayPosition":{"Latitude":48.88529,"Longitude":10.47694},"MapView":{"TopLeft":{"Latitude":48.8864142,"Longitude":10.4752304},"BottomRight":{"Latitude":48.8841658,"Longitude":10.4786496}},"Address":{"Label":"Bahnhofstraße 1, 86757 Wallerstein, Deutschland","Country":"DEU","State":"Bayern","County":"Donau-Ries","City":"Wallerstein","District":"Wallerstein","Street":"Bahnhofstraße","HouseNumber":"1","PostalCode":"86757","AdditionalData":[{"value":"Deutschland","key":"CountryName"},{"value":"Bayern","key":"StateName"},{"value":"Donau-Ries","key":"CountyName"}]},"MapReference":{"ReferenceId":"541995130","Spot":0.11,"SideOfStreet":"left","CountryId":"20147700","StateId":"20177250","CountyId":"20186577","CityId":"20186759","DistrictId":"20186761","AddressId":"185944783","RoadLinkId":"32711245"}}},{"Relevance":1.0,"Distance":81.9,"MatchLevel":"houseNumber","MatchQuality":{"Country":1.0,"State":1.0,"County":1.0,"City":1.0,"District":1.0,"Street":[1.0],"HouseNumber":1.0,"PostalCode":1.0},"MatchType":"interpolated","Location":{"LocationId":"NT_cXa1j82A14AS8pkzPBki3C_4MD","LocationType":"point","DisplayPosition":{"Latitude":48.8851,"Longitude":10.47598},"MapView":{"TopLeft":{"Latitude":48.8862242,"Longitude":10.4742704},"BottomRight":{"Latitude":48.8839758,"Longitude":10.4776896}},"Address":{"Label":"Hauptstraße 83, 86757 Wallerstein, Deutschland","Country":"DEU","State":"Bayern","County":"Donau-Ries","City":"Wallerstein","District":"Wallerstein","Street":"Hauptstraße","HouseNumber":"83","PostalCode":"86757","AdditionalData":[{"value":"Deutschland","key":"CountryName"},{"value":"Bayern","key":"StateName"},{"value":"Donau-Ries","key":"CountyName"}]},"MapReference":{"ReferenceId":"547340813","Spot":0.1,"SideOfStreet":"right","CountryId":"20147700","StateId":"20177250","CountyId":"20186577","CityId":"20186759","DistrictId":"20186761","AddressId":"185260856","RoadLinkId":"33254303"}}},{"Relevance":1.0,"Distance":86.8,"MatchLevel":"houseNumber","MatchQuality":{"Country":1.0,"State":1.0,"County":1.0,"City":1.0,"District":1.0,"Street":[1.0],"HouseNumber":1.0,"PostalCode":1.0},"MatchType":"interpolated","Location":{"LocationId":"NT_TbMw8HPWhmR3IMmHRO3-cD_0A","LocationType":"point","DisplayPosition":{"Latitude":48.88657,"Longitude":10.47786},"MapView":{"TopLeft":{"Latitude":48.8876942,"Longitude":10.4761504},"BottomRight":{"Latitude":48.8854458,"Longitude":10.4795696}},"Address":{"Label":"Hahngarten 4, 86757 Wallerstein, Deutschland","Country":"DEU","State":"Bayern","County":"Donau-Ries","City":"Wallerstein","District":"Wallerstein","Street":"Hahngarten","HouseNumber":"4","PostalCode":"86757","AdditionalData":[{"value":"Deutschland","key":"CountryName"},{"value":"Bayern","key":"StateName"},{"value":"Donau-Ries","key":"CountyName"}]},"MapReference":{"ReferenceId":"541994133","Spot":0.54,"SideOfStreet":"left","CountryId":"20147700","StateId":"20177250","CountyId":"20186577","CityId":"20186759","DistrictId":"20186761","AddressId":"186028533","RoadLinkId":"33303697"}}},{"Relevance":1.0,"Distance":93.3,"MatchLevel":"street","MatchQuality":{"Country":1.0,"State":1.0,"County":1.0,"City":1.0,"District":1.0,"Street":[1.0],"PostalCode":1.0},"Location":{"LocationId":"NT_U1KjWT13ve9rFkwasn5lmA_l_541994064_L","LocationType":"point","DisplayPosition":{"Latitude":48.88523,"Longitude":10.47669},"MapView":{"TopLeft":{"Latitude":48.88523,"Longitude":10.4762},"BottomRight":{"Latitude":48.88505,"Longitude":10.47669}},"Address":{"Label":"DON12, 86757 Wallerstein, Deutschland","Country":"DEU","State":"Bayern","County":"Donau-Ries","City":"Wallerstein","District":"Wallerstein","Street":"DON12","PostalCode":"86757","AdditionalData":[{"value":"Deutschland","key":"CountryName"},{"value":"Bayern","key":"StateName"},{"value":"Donau-Ries","key":"CountyName"}]},"MapReference":{"ReferenceId":"541994064","Spot":1.0,"SideOfStreet":"left","CountryId":"20147700","StateId":"20177250","CountyId":"20186577","CityId":"20186759","DistrictId":"20186761"}}},{"Relevance":1.0,"Distance":93.3,"MatchLevel":"street","MatchQuality":{"Country":1.0,"State":1.0,"County":1.0,"City":1.0,"District":1.0,"Street":[1.0],"PostalCode":1.0},"Location":{"LocationId":"NT_LaPKz3DUT-MNpBT7Pw-G6B_l_541993966_L","LocationType":"point","DisplayPosition":{"Latitude":48.88523,"Longitude":10.47669},"MapView":{"TopLeft":{"Latitude":48.88523,"Longitude":10.47642},"BottomRight":{"Latitude":48.88483,"Longitude":10.47669}},"Address":{"Label":"Weinstraße, 86757 Wallerstein, Deutschland","Country":"DEU","State":"Bayern","County":"Donau-Ries","City":"Wallerstein","District":"Wallerstein","Street":"Weinstraße","PostalCode":"86757","AdditionalData":[{"value":"Deutschland","key":"CountryName"},{"value":"Bayern","key":"StateName"},{"value":"Donau-Ries","key":"CountyName"}]},"MapReference":{"ReferenceId":"541993966","Spot":1.0,"SideOfStreet":"left","CountryId":"20147700","StateId":"20177250","CountyId":"20186577","CityId":"20186759","DistrictId":"20186761"}}},{"Relevance":1.0,"Distance":93.6,"MatchLevel":"houseNumber","MatchQuality":{"Country":1.0,"State":1.0,"County":1.0,"City":1.0,"District":1.0,"Street":[1.0],"HouseNumber":1.0,"PostalCode":1.0},"MatchType":"interpolated","Location":{"LocationId":"NT_Arf.hXDk6kEp.BPNdQ95aC_xcD","LocationType":"point","DisplayPosition":{"Latitude":48.887,"Longitude":10.47683},"MapView":{"TopLeft":{"Latitude":48.8881242,"Longitude":10.4751204},"BottomRight":{"Latitude":48.8858758,"Longitude":10.4785396}},"Address":{"Label":"Weinstraße 17, 86757 Wallerstein, Deutschland","Country":"DEU","State":"Bayern","County":"Donau-Ries","City":"Wallerstein","District":"Wallerstein","Street":"Weinstraße","HouseNumber":"17","PostalCode":"86757","AdditionalData":[{"value":"Deutschland","key":"CountryName"},{"value":"Bayern","key":"StateName"},{"value":"Donau-Ries","key":"CountyName"}]},"MapReference":{"ReferenceId":"547340832","Spot":0.06,"SideOfStreet":"left","CountryId":"20147700","StateId":"20177250","CountyId":"20186577","CityId":"20186759","DistrictId":"20186761","AddressId":"183591178","RoadLinkId":"33060405"}}}]}]}}