{"Response":{"MetaInfo":{"Timestamp":"2020-03-28T10:29:23.800+0000","NextPageInformation":"2"},"View":[{"_type":"SearchResultsViewType","ViewId":0,"Result":[{"Relevance":1.0,"Distance":0.0,"Direction":0.0,"MatchLevel":"city","MatchQuality":{"Country":1.0,"State":1.0,"County":1.0,"City":1.0,"PostalCode":1.0},"Location":{"LocationId":"NT_lOxnWu7h7BPZiyir7rbf.C","LocationType":"point","DisplayPosition":{"Latitude":48.834974,"Longitude":0.9121622},"MapView":{"TopLeft":{"Latitude":48.88605,"Longitude":0.83519},"BottomRight":{"Latitude":48.76178,"Longitude":0.94526}},"Address":{"Label":"Breteuil, Normandie, France","Country":"FRA","State":"Normandie","County":"Eure","City":"Breteuil","PostalCode":"27160","AdditionalData":[{"value":"France","key":"CountryName"},{"value":"Normandie","key":"StateName"},{"value":"Eure","key":"CountyName"}]},"MapReference":{"ReferenceId":"762546224","SideOfStreet":"neither","CountryId":"20000001","StateId":"20057204","CountyId":"20002109","CityId":"20061649"}}},{"Relevance":1.0,"Distance":13.8,"MatchLevel":"houseNumber","MatchQuality":{"Country":1.0,"State":1.0,"County":1.0,"City":1.0,"Street":[1.0],"HouseNumber":1.0,"PostalCode":1.0},"MatchType":"interpolated","Location":{"LocationId":"NT_QQ3Zvk1MCW9awZNVEqjFcC_xITN","LocationType":"point","DisplayPosition":{"Latitude":48.83502,"Longitude":0.9124},"MapView":{"TopLeft":{"Latitude":48.8361442,"Longitude":0.9106922},"BottomRight":{"Latitude":48.8338958,"Longitude":0.9141078}},"Address":{"Label":"125 Rue du Docteur Lahaye, 27160 Breteuil, France","Country":"FRA","State":"Normandie","County":"Eure","City":"Breteuil","Street":"Rue du Docteur Lahaye","HouseNumber":"125","PostalCode":"27160","AdditionalData":[{"value":"France","key":"CountryName"},{"value":"Normandie","key":"StateName"},{"value":"Eure","key":"CountyName"}]},"MapReference":{"ReferenceId":"548965223","Spot":0.8,"SideOfStreet":"left","CountryId":"20000001","StateId":"20057204","CountyId":"20002109","CityId":"20061649","AddressId":"571117468","RoadLinkId":"46751147"}}},{"Relevance":1.0,"Distance":35.9,"MatchLevel":"street","MatchQuality":{"Country":1.0,"State":1.0,"County":1.0,"City":1.0,"Street":[1.0],"PostalCode":1.0},"Location":{"LocationId":"NT_oia51Lz5VbJh2Z28hPTTlB_l_548965283_L","LocationType":"point","DisplayPosition":{"Latitude":48.83524,"Longitude":0.91244},"MapView":{"TopLeft":{"Latitude":48.83524,"Longitude":0.91244},"BottomRight":{"Latitude":48.83521,"Longitude":0.91258}},"Address":{"Label":"Rue des Bureaux, 27160 Breteuil, France","Country":"FRA","State":"Normandie","County":"Eure","City":"Breteuil","Street":"Rue des Bureaux","PostalCode":"27160","AdditionalData":[{"value":"France","key":"CountryName"},{"value":"Normandie","key":"StateName"},{"value":"Eure","key":"CountyName"}]},"MapReference":{"ReferenceId":"548965283","Spot":1.0,"SideOfStreet":"left","CountryId":"20000001","StateId":"20057204","CountyId":"20002109","CityId":"20061649"}}},{"Relevance":1.0,"Distance":41.9,"MatchLevel":"houseNumber","MatchQuality":{"Country":1.0,"State":1.0,"County":1.0,"City":1.0,"Street":[1.0],"HouseNumber":1.0,"PostalCode":1.0},"MatchType":"interpolated","Location":{"LocationId":"NT_QQ3Zvk1MCW9awZNVEqjFcC_xQzN","LocationType":"point","DisplayPosition":{"Latitude":48.83531,"Longitude":0.91245},"MapView":{"TopLeft":{"Latitude":48.8364342,"Longitude":0.9107421},"BottomRight":{"Latitude":48.8341858,"Longitude":0.9141579}},"Address":{"Label":"147 Rue du Docteur Lahaye, 27160 Breteuil, France","Country":"FRA","State":"Normandie","County":"Eure","City":"Breteuil","Street":"Rue du Docteur Lahaye","HouseNumber":"147","PostalCode":"27160","AdditionalData":[{"value":"France","key":"CountryName"},{"value":"Normandie","key":"StateName"},{"value":"Eure","key":"CountyName"}]},"MapReference":{"ReferenceId":"548965284","Spot":0.18,"SideOfStreet":"left","CountryId":"20000001","StateId":"20057204","CountyId":"20002109","CityId":"20061649","AddressId":"571041036","RoadLinkId":"47370065"}}},{"Relevance":1.0,"Distance":59.1,"MatchLevel":"houseNumber","MatchQuality":{"Country":1.0,"State":1.0,"County":1.0,"City":1.0,"Street":[1.0],"HouseNumber":1.0,"PostalCode":1.0},"MatchType":"interpolated","Location":{"LocationId":"NT_GXMCtuw8VOKuZu5wMI9V0D_yA","LocationType":"point","DisplayPosition":{"Latitude":48.83562,"Longitude":0.91241},"MapView":{"TopLeft":{"Latitude":48.8367442,"Longitude":0.9107021},"BottomRight":{"Latitude":48.8344958,"Longitude":0.9141179}},"Address":{"Label":"2 Place Pillon de Buhorel, 27160 Breteuil, France","Country":"FRA","State":"Normandie","County":"Eure","City":"Breteuil","Street":"Place Pillon de Buhorel","HouseNumber":"2","PostalCode":"27160","AdditionalData":[{"value":"France","key":"CountryName"},{"value":"Normandie","key":"StateName"},{"value":"Eure","key":"CountyName"}]},"MapReference":{"ReferenceId":"815674684","Spot":0.0,"SideOfStreet":"right","CountryId":"20000001","StateId":"20057204","CountyId":"20002109","CityId":"20061649","AddressId":"674154041","RoadLinkId":"203038028"}}},{"Relevance":1.0,"Distance":62.4,"MatchLevel":"houseNumber","MatchQuality":{"Country":1.0,"State":1.0,"County":1.0,"City":1.0,"Street":[1.0],"HouseNumber":1.0,"PostalCode":1.0},"MatchType":"interpolated","Location":{"LocationId":"NT_f4jsMPmRmnKIKlPJV87iKD_1A","LocationType":"point","DisplayPosition":{"Latitude":48.83557,"Longitude":0.91204},"MapView":{"TopLeft":{"Latitude":48.8366942,"Longitude":0.9103321},"BottomRight":{"Latitude":48.8344458,"Longitude":0.9137479}},"Address":{"Label":"5 Rue d'Argentan, 27160 Breteuil, France","Country":"FRA","State":"Normandie","County":"Eure","City":"Breteuil","Street":"Rue d'Argentan","HouseNumber":"5","PostalCode":"27160","AdditionalData":[{"value":"France","key":"CountryName"},{"value":"Normandie","key":"StateName"},{"value":"Eure","key":"CountyName"}]},"MapReference":{"ReferenceId":"548965220","Spot":0.67,"SideOfStreet":"right","CountryId":"20000001","StateId":"20057204","CountyId":"20002109","CityId":"20061649","AddressId":"571034472","RoadLinkId":"46474113"}}},{"Relevance":1.0,"Distance":68.6,"MatchLevel":"houseNumber","MatchQuality":{"Country":1.0,"State":1.0,"County":1.0,"City":1.0,"Street":[1.0],"HouseNumber":1.0,"PostalCode":1.0},"MatchType":"interpolated","Location":{"LocationId":"NT_oia51Lz5VbJh2Z28hPTTlB_3MD","LocationType":"point","DisplayPosition":{"Latitude":48.83513,"Longitude":0.91308},"MapView":{"TopLeft":{"Latitude":48.8362542,"Longitude":0.9113722},"BottomRight":{"Latitude":48.8340058,"Longitude":0.9147878}},"Address":{"Label":"73 Rue des Bureaux, 27160 Breteuil, France","Country":"FRA","State":"Normandie","County":"Eure","City":"Breteuil","Street":"Rue des Bureaux","HouseNumber":"73","PostalCode":"27160","AdditionalData":[{"value":"France","key":"CountryName"},{"value":"Normandie","key":"StateName"},{"value":"Eure","key":"CountyName"}]},"MapReference":{"ReferenceId":"548965228","Spot":0.7,"SideOfStreet":"left","CountryId":"20000001","StateId":"20057204","CountyId":"20002109","CityId":"20061649","AddressId":"571057519","RoadLinkId":"47093911"}}},{"Relevance":1.0,"Distance":72.1,"MatchLevel":"houseNumber","MatchQuality":{"Country":1.0,"State":1.0,"County":1.0,"City":1.0,"Street":[1.0],"HouseNumber":1.0,"PostalCode":1.0},"MatchType":"interpolated","Location":{"LocationId":"NT_NaYVnSRe8CeViMK5DV5haD_zA","LocationType":"point","DisplayPosition":{"Latitude":48.83534,"Longitude":0.9113},"MapView":{"TopLeft":{"Latitude":48.8364642,"Longitude":0.9095921},"BottomRight":{"Latitude":48.8342158,"Longitude":0.9130079}},"Address":{"Label":"3 Rue du Trou de la Souris, 27160 Breteuil, France","Country":"FRA","State":"Normandie","County":"Eure","City":"Breteuil","Street":"Rue du Trou de la Souris","HouseNumber":"3","PostalCode":"27160","AdditionalData":[{"value":"France","key":"CountryName"},{"value":"Normandie","key":"StateName"},{"value":"Eure","key":"CountyName"}]},"MapReference":{"ReferenceId":"548965221","Spot":0.95,"SideOfStreet":"right","CountryId":"20000001","StateId":"20057204","CountyId":"20002109","CityId":"20061649","AddressId":"571040677","RoadLinkId":"46838545"}}},{"Relevance":1.0,"Distance":82.9,"MatchLevel":"houseNumber","MatchQuality":{"Country":1.0,"State":1.0,"County":1.0,"City":1.0,"Street":[1.0],"HouseNumber":1.0,"PostalCode":1.0},"MatchType":"interpolated","Location":{"LocationId":"NT_gRKSP7i-lk5-qICt.rTOGB_4A","LocationType":"point","DisplayPosition":{"Latitude":48.83451,"Longitude":0.91305},"MapView":{"TopLeft":{"Latitude":48.8356342,"Longitude":0.9113422},"BottomRight":{"Latitude":48.8333858,"Longitude":0.9147578}},"Address":{"Label":"8 Rue d'Amour, 27160 Breteuil, France","Country":"FRA","State":"Normandie","County":"Eure","City":"Breteuil","Street":"Rue d'Amour","HouseNumber":"8","PostalCode":"27160","AdditionalData":[{"value":"France","key":"CountryName"},{"value":"Normandie","key":"StateName"},{"value":"Eure","key":"CountyName"}]},"MapReference":{"ReferenceId":"548965230","Spot":0.2,"SideOfStreet":"left","CountryId":"20000001","StateId":"20057204","CountyId":"20002109","CityId":"20061649","AddressId":"571011957","RoadLinkId":"46521528"}}},{"Relevance":1.0,"Distance":86.6,"MatchLevel":"houseNumber","MatchQuality":{"Country":1.0,"State":1.0,"County":1.0,"City":1.0,"Street":[1.0],"HouseNumber":1.0,"PostalCode":1.0},"MatchType":"interpolated","Location":{"LocationId":"NT_GXMCtuw8VOKuZu5wMI9V0D_xQD","LocationType":"point","DisplayPosition":{"Latitude":48.83578,"Longitude":0.91253},"MapView":{"TopLeft":{"Latitude":48.8369042,"Longitude":0.9108221},"BottomRight":{"Latitude":48.8346558,"Longitude":0.9142379}},"Address":{"Label":"14 Place Pillon de Buhorel, 27160 Breteuil, France","Country":"FRA","State":"Normandie","County":"Eure","City":"Breteuil","Street":"Place Pillon de Buhorel","HouseNumber":"14","PostalCode":"27160","AdditionalData":[{"value":"France","key":"CountryName"},{"value":"Normandie","key":"StateName"},{"value":"Eure","key":"CountyName"}]},"MapReference":{"ReferenceId":"815674685","Spot":0.2,"SideOfStreet":"right","CountryId":"20000001","StateId":"20057204","CountyId":"20002109","CityId":"20061649","AddressId":"570974660","RoadLinkId":"203038029"}}}]}]}}