{"Response":{"MetaInfo":{"Timestamp":"2020-03-28T10:06:32.802+0000","NextPageInformation":"2"},"View":[{"_type":"SearchResultsViewType","ViewId":0,"Result":[{"Relevance":1.0,"Distance":0.0,"Direction":0.0,"MatchLevel":"city","MatchQuality":{"Country":1.0,"State":1.0,"County":1.0,"City":1.0,"PostalCode":1.0},"Location":{"LocationId":"NT_J0PoHSJTp4eObUdes8B-SC","LocationType":"point","DisplayPosition":{"Latitude":48.8188762,"Longitude":7.7317959},"MapView":{"TopLeft":{"Latitude":48.83686,"Longitude":7.70938},"BottomRight":{"Latitude":48.80197,"Longitude":7.76921}},"Address":{"Label":"Schweighouse-sur-Moder, Grand Est, France","Country":"FRA","State":"Grand Est","County":"Bas-Rhin","City":"Schweighouse-sur-Moder","PostalCode":"67590","AdditionalData":[{"value":"France","key":"CountryName"},{"value":"Grand Est","key":"StateName"},{"value":"Bas-Rhin","key":"CountyName"}]},"MapReference":{"ReferenceId":"557449475","SideOfStreet":"neither","CountryId":"20000001","StateId":"20002047","CountyId":"20002048","CityId":"20034066"}}},{"Relevance":1.0,"Distance":2.0,"MatchLevel":"houseNumber","MatchQuality":{"Country":1.0,"State":1.0,"County":1.0,"City":1.0,"Street":[1.0],"HouseNumber":1.0,"PostalCode":1.0},"MatchType":"interpolated","Location":{"LocationId":"NT_TiJEZrF9ABRJRu75tLVQVA_2AjQ","LocationType":"point","DisplayPosition":{"Latitude":48.81871,"Longitude":7.73187},"MapView":{"TopLeft":{"Latitude":48.8198342,"Longitude":7.7301627},"BottomRight":{"Latitude":48.8175858,"Longitude":7.7335773}},"Address":{"Label":"60B Route d'Ohlungen, 67590 Schweighouse-sur-Moder, France","Country":"FRA","State":"Grand Est","County":"Bas-Rhin","City":"Schweighouse-sur-Moder","Street":"Route d'Ohlungen","HouseNumber":"60B","PostalCode":"67590","AdditionalData":[{"value":"France","key":"CountryName"},{"value":"Grand Est","key":"StateName"},{"value":"Bas-Rhin","key":"CountyName"}]},"MapReference":{"ReferenceId":"557452046","Spot":0.51,"SideOfStreet":"left","CountryId":"20000001","StateId":"20002047","CountyId":"20002048","CityId":"20034066","AddressId":"673999520","RoadLinkId":"44563468"}}},{"Relevance":1.0,"Distance":37.2,"MatchLevel":"houseNumber","MatchQuality":{"Country":1.0,"State":1.0,"County":1.0,"City":1.0,"Street":[1.0],"HouseNumber":1.0,"PostalCode":1.0},"MatchType":"interpolated","Location":{"LocationId":"NT_EGIMOv7FtnNB-7XIs4lbGD_yED","LocationType":"point","DisplayPosition":{"Latitude":48.81891,"Longitude":7.73127},"MapView":{"TopLeft":{"Latitude":48.8200342,"Longitude":7.7295627},"BottomRight":{"Latitude":48.8177858,"Longitude":7.7329773}},"Address":{"Label":"21 Petite Rue du Breitung, 67590 Schweighouse-sur-Moder, France","Country":"FRA","State":"Grand Est","County":"Bas-Rhin","City":"Schweighouse-sur-Moder","Street":"Petite Rue du Breitung","HouseNumber":"21","PostalCode":"67590","AdditionalData":[{"value":"France","key":"CountryName"},{"value":"Grand Est","key":"StateName"},{"value":"Bas-Rhin","key":"CountyName"}]},"MapReference":{"ReferenceId":"557449676","Spot":0.23,"SideOfStreet":"right","CountryId":"20000001","StateId":"20002047","CountyId":"20002048","CityId":"20034066","AddressId":"569753749","RoadLinkId":"44757944"}}},{"Relevance":1.0,"Distance":54.5,"MatchLevel":"houseNumber","MatchQuality":{"Country":1.0,"State":1.0,"County":1.0,"City":1.0,"Street":[1.0],"HouseNumber":1.0,"PostalCode":1.0},"MatchType":"interpolated","Location":{"LocationId":"NT_TiJEZrF9ABRJRu75tLVQVA_1YD","LocationType":"point","DisplayPosition":{"Latitude":48.81888,"Longitude":7.73255},"MapView":{"TopLeft":{"Latitude":48.8200042,"Longitude":7.7308427},"BottomRight":{"Latitude":48.8177558,"Longitude":7.7342573}},"Address":{"Label":"56 Route d'Ohlungen, 67590 Schweighouse-sur-Moder, France","Country":"FRA","State":"Grand Est","County":"Bas-Rhin","City":"Schweighouse-sur-Moder","Street":"Route d'Ohlungen","HouseNumber":"56","PostalCode":"67590","AdditionalData":[{"value":"France","key":"CountryName"},{"value":"Grand Est","key":"StateName"},{"value":"Bas-Rhin","key":"CountyName"}]},"MapReference":{"ReferenceId":"557452048","Spot":0.34,"SideOfStreet":"left","CountryId":"20000001","StateId":"20002047","CountyId":"20002048","CityId":"20034066","AddressId":"569800481","RoadLinkId":"44701475"}}},{"Relevance":1.0,"Distance":61.9,"MatchLevel":"houseNumber","MatchQuality":{"Country":1.0,"State":1.0,"County":1.0,"City":1.0,"Street":[1.0],"HouseNumber":1.0,"PostalCode":1.0},"MatchType":"interpolated","Location":{"LocationId":"NT_TiJEZrF9ABRJRu75tLVQVA_2QD","LocationType":"point","DisplayPosition":{"Latitude":48.81851,"Longitude":7.73113},"MapView":{"TopLeft":{"Latitude":48.8196342,"Longitude":7.7294227},"BottomRight":{"Latitude":48.8173858,"Longitude":7.7328373}},"Address":{"Label":"64 Route d'Ohlungen, 67590 Schweighouse-sur-Moder, France","Country":"FRA","State":"Grand Est","County":"Bas-Rhin","City":"Schweighouse-sur-Moder","Street":"Route d'Ohlungen","HouseNumber":"64","PostalCode":"67590","AdditionalData":[{"value":"France","key":"CountryName"},{"value":"Grand Est","key":"StateName"},{"value":"Bas-Rhin","key":"CountyName"}]},"MapReference":{"ReferenceId":"557452051","Spot":0.2,"SideOfStreet":"left","CountryId":"20000001","StateId":"20002047","CountyId":"20002048","CityId":"20034066","AddressId":"378839536","RoadLinkId":"44186849"}}},{"Relevance":1.0,"Distance":88.0,"MatchLevel":"houseNumber","MatchQuality":{"Country":1.0,"State":1.0,"County":1.0,"City":1.0,"Street":[1.0],"HouseNumber":1.0,"PostalCode":1.0},"MatchType":"interpolated","Location":{"LocationId":"NT_n5AdqCY-Px4cb0o0VMzGbD_xA","LocationType":"point","DisplayPosition":{"Latitude":48.81935,"Longitude":7.73281},"MapView":{"TopLeft":{"Latitude":48.8204742,"Longitude":7.7311027},"BottomRight":{"Latitude":48.8182258,"Longitude":7.7345173}},"Address":{"Label":"1 Rue Neuve, 67590 Schweighouse-sur-Moder, France","Country":"FRA","State":"Grand Est","County":"Bas-Rhin","City":"Schweighouse-sur-Moder","Street":"Rue Neuve","HouseNumber":"1","PostalCode":"67590","AdditionalData":[{"value":"France","key":"CountryName"},{"value":"Grand Est","key":"StateName"},{"value":"Bas-Rhin","key":"CountyName"}]},"MapReference":{"ReferenceId":"557452047","Spot":0.3,"SideOfStreet":"left","CountryId":"20000001","StateId":"20002047","CountyId":"20002048","CityId":"20034066","AddressId":"378832350","RoadLinkId":"43948802"}}},{"Relevance":1.0,"Distance":88.4,"MatchLevel":"houseNumber","MatchQuality":{"Country":1.0,"State":1.0,"County":1.0,"City":1.0,"Street":[1.0],"HouseNumber":1.0,"PostalCode":1.0},"MatchType":"interpolated","Location":{"LocationId":"NT_nWlE45ayHH.0Q60pinpI6D_l_557449597_R_xA","LocationType":"point","DisplayPosition":{"Latitude":48.8180086,"Longitude":7.7321279},"MapView":{"TopLeft":{"Latitude":48.8191328,"Longitude":7.7304206},"BottomRight":{"Latitude":48.8168845,"Longitude":7.7338352}},"Address":{"Label":"1 Rue de la Carrière, 67590 Schweighouse-sur-Moder, France","Country":"FRA","State":"Grand Est","County":"Bas-Rhin","City":"Schweighouse-sur-Moder","Street":"Rue de la Carrière","HouseNumber":"1","PostalCode":"67590","AdditionalData":[{"value":"France","key":"CountryName"},{"value":"Grand Est","key":"StateName"},{"value":"Bas-Rhin","key":"CountyName"}]},"MapReference":{"ReferenceId":"557449597","Spot":0.53,"SideOfStreet":"right","CountryId":"20000001","StateId":"20002047","CountyId":"20002048","CityId":"20034066"}}},{"Relevance":1.0,"Distance":88.8,"MatchLevel":"houseNumber","MatchQuality":{"Country":1.0,"State":1.0,"County":1.0,"City":1.0,"Street":[1.0],"HouseNumber":1.0,"PostalCode":1.0},"MatchType":"interpolated","Location":{"LocationId":"NT_TiJEZrF9ABRJRu75tLVQVA_2YD","LocationType":"point","DisplayPosition":{"Latitude":48.81843,"Longitude":7.73079},"MapView":{"TopLeft":{"Latitude":48.8195542,"Longitude":7.7290827},"BottomRight":{"Latitude":48.8173058,"Longitude":7.7324973}},"Address":{"Label":"66 Route d'Ohlungen, 67590 Schweighouse-sur-Moder, France","Country":"FRA","State":"Grand Est","County":"Bas-Rhin","City":"Schweighouse-sur-Moder","Street":"Route d'Ohlungen","HouseNumber":"66","PostalCode":"67590","AdditionalData":[{"value":"France","key":"CountryName"},{"value":"Grand Est","key":"StateName"},{"value":"Bas-Rhin","key":"CountyName"}]},"MapReference":{"ReferenceId":"865360254","Spot":0.48,"SideOfStreet":"left","CountryId":"20000001","StateId":"20002047","CountyId":"20002048","CityId":"20034066","AddressId":"378824938","RoadLinkId":"238672301"}}},{"Relevance":1.0,"Distance":99.8,"MatchLevel":"houseNumber","MatchQuality":{"Country":1.0,"State":1.0,"County":1.0,"City":1.0,"Street":[1.0],"HouseNumber":1.0,"PostalCode":1.0},"MatchType":"interpolated","Location":{"LocationId":"NT_TiJEZrF9ABRJRu75tLVQVA_1ID","LocationType":"point","DisplayPosition":{"Latitude":48.81902,"Longitude":7.73315},"MapView":{"TopLeft":{"Latitude":48.8201442,"Longitude":7.7314427},"BottomRight":{"Latitude":48.8178958,"Longitude":7.7348573}},"Address":{"Label":"52 Route d'Ohlungen, 67590 Schweighouse-sur-Moder, France","Country":"FRA","State":"Grand Est","County":"Bas-Rhin","City":"Schweighouse-sur-Moder","Street":"Route d'Ohlungen","HouseNumber":"52","PostalCode":"67590","AdditionalData":[{"value":"France","key":"CountryName"},{"value":"Grand Est","key":"StateName"},{"value":"Bas-Rhin","key":"CountyName"}]},"MapReference":{"ReferenceId":"865360251","Spot":0.66,"SideOfStreet":"left","CountryId":"20000001","StateId":"20002047","CountyId":"20002048","CityId":"20034066","AddressId":"569825098","RoadLinkId":"238672296"}}},{"Relevance":1.0,"Distance":107.4,"MatchLevel":"houseNumber","MatchQuality":{"Country":1.0,"State":1.0,"County":1.0,"City":1.0,"Street":[1.0],"HouseNumber":1.0,"PostalCode":1.0},"MatchType":"interpolated","Location":{"LocationId":"NT_TiJEZrF9ABRJRu75tLVQVA_1EjQ","LocationType":"point","DisplayPosition":{"Latitude":48.81905,"Longitude":7.73325},"MapView":{"TopLeft":{"Latitude":48.8201742,"Longitude":7.7315427},"BottomRight":{"Latitude":48.8179258,"Longitude":7.7349573}},"Address":{"Label":"51B Route d'Ohlungen, 67590 Schweighouse-sur-Moder, France","Country":"FRA","State":"Grand Est","County":"Bas-Rhin","City":"Schweighouse-sur-Moder","Street":"Route d'Ohlungen","HouseNumber":"51B","PostalCode":"67590","AdditionalData":[{"value":"France","key":"CountryName"},{"value":"Grand Est","key":"StateName"},{"value":"Bas-Rhin","key":"CountyName"}]},"MapReference":{"ReferenceId":"865360252","Spot":0.1,"SideOfStreet":"left","CountryId":"20000001","StateId":"20002047","CountyId":"20002048","CityId":"20034066","AddressId":"569765872","RoadLinkId":"238672297"}}}]}]}}