{"Response":{"MetaInfo":{"Timestamp":"2020-03-28T10:17:59.140+0000","NextPageInformation":"2"},"View":[{"_type":"SearchResultsViewType","ViewId":0,"Result":[{"Relevance":1.0,"Distance":0.0,"Direction":0.0,"MatchLevel":"district","MatchQuality":{"Country":1.0,"State":1.0,"County":1.0,"City":1.0,"District":1.0,"PostalCode":1.0},"Location":{"LocationId":"NT_FAPoaz0zD5AjUxmi6ylmLC","LocationType":"point","DisplayPosition":{"Latitude":48.8056801,"Longitude":13.5469627},"MapView":{"TopLeft":{"Latitude":48.82031,"Longitude":13.53539},"BottomRight":{"Latitude":48.79861,"Longitude":13.55712}},"Address":{"Label":"Freyung, Bayern, Deutschland","Country":"DEU","State":"Bayern","County":"Freyung-Grafenau","City":"Freyung","District":"Freyung","PostalCode":"94078","AdditionalData":[{"value":"Deutschland","key":"CountryName"},{"value":"Bayern","key":"StateName"},{"value":"Freyung-Grafenau","key":"CountyName"}]},"MapReference":{"ReferenceId":"545092981","SideOfStreet":"neither","CountryId":"20147700","StateId":"20177250","CountyId":"20179679","CityId":"20179683","DistrictId":"20179685"}}},{"Relevance":1.0,"Distance":4.4,"MatchLevel":"houseNumber","MatchQuality":{"Country":1.0,"State":1.0,"County":1.0,"City":1.0,"District":1.0,"Street":[1.0],"HouseNumber":1.0,"PostalCode":1.0},"MatchType":"interpolated","Location":{"LocationId":"NT_jCLhI18WfIYX2gK478YK-B_xETQ","LocationType":"point","DisplayPosition":{"Latitude":48.80561,"Longitude":13.54675},"MapView":{"TopLeft":{"Latitude":48.8067342,"Longitude":13.5450432},"BottomRight":{"Latitude":48.8044858,"Longitude":13.5484568}},"Address":{"Label":"Krankenhausstraße 11A, 94078 Freyung, Deutschland","Country":"DEU","State":"Bayern","County":"Freyung-Grafenau","City":"Freyung","District":"Freyung","Street":"Krankenhausstraße","HouseNumber":"11A","PostalCode":"94078","AdditionalData":[{"value":"Deutschland","key":"CountryName"},{"value":"Bayern","key":"StateName"},{"value":"Freyung-Grafenau","key":"CountyName"}]},"MapReference":{"ReferenceId":"773360801","Spot":0.49,"SideOfStreet":"right","CountryId":"20147700","StateId":"20177250","CountyId":"20179679","CityId":"20179683","DistrictId":"20179685","AddressId":"208294898","RoadLinkId":"167173616"}}},{"Relevance":1.0,"Distance":30.1,"MatchLevel":"houseNumber","MatchQuality":{"Country":1.0,"State":1.0,"County":1.0,"City":1.0,"District":1.0,"Street":[1.0],"HouseNumber":1.0,"PostalCode":1.0},"MatchType":"interpolated","Location":{"LocationId":"NT_NBzp2FrxJX3kEaEUVGHzJC_xID","LocationType":"point","DisplayPosition":{"Latitude":48.80604,"Longitude":13.54742},"MapView":{"TopLeft":{"Latitude":48.8071642,"Longitude":13.5457131},"BottomRight":{"Latitude":48.8049158,"Longitude":13.5491269}},"Address":{"Label":"Bahnhofstraße 12, 94078 Freyung, Deutschland","Country":"DEU","State":"Bayern","County":"Freyung-Grafenau","City":"Freyung","District":"Freyung","Street":"Bahnhofstraße","HouseNumber":"12","PostalCode":"94078","AdditionalData":[{"value":"Deutschland","key":"CountryName"},{"value":"Bayern","key":"StateName"},{"value":"Freyung-Grafenau","key":"CountyName"}]},"MapReference":{"ReferenceId":"773360841","Spot":0.86,"SideOfStreet":"left","CountryId":"20147700","StateId":"20177250","CountyId":"20179679","CityId":"20179683","DistrictId":"20179685","AddressId":"183540920","RoadLinkId":"167173656"}}},{"Relevance":1.0,"Distance":51.4,"MatchLevel":"street","MatchQuality":{"Country":1.0,"State":1.0,"County":1.0,"City":1.0,"District":1.0,"Street":[1.0],"PostalCode":1.0},"Location":{"LocationId":"NT_jCLhI18WfIYX2gK478YK-B_l_547332307_R","LocationType":"point","DisplayPosition":{"Latitude":48.80525,"Longitude":13.54722},"MapView":{"TopLeft":{"Latitude":48.80525,"Longitude":13.54722},"BottomRight":{"Latitude":48.80496,"Longitude":13.54769}},"Address":{"Label":"Krankenhausstraße, 94078 Freyung, Deutschland","Country":"DEU","State":"Bayern","County":"Freyung-Grafenau","City":"Freyung","District":"Freyung","Street":"Krankenhausstraße","PostalCode":"94078","AdditionalData":[{"value":"Deutschland","key":"CountryName"},{"value":"Bayern","key":"StateName"},{"value":"Freyung-Grafenau","key":"CountyName"}]},"MapReference":{"ReferenceId":"547332307","Spot":1.0,"SideOfStreet":"right","CountryId":"20147700","StateId":"20177250","CountyId":"20179679","CityId":"20179683","DistrictId":"20179685"}}},{"Relevance":1.0,"Distance":51.4,"MatchLevel":"street","MatchQuality":{"Country":1.0,"State":1.0,"County":1.0,"City":1.0,"District":1.0,"PostalCode":1.0},"Location":{"LocationId":"NT_mzpbABe7SV8.zfa.jZSKDA_l_545092874_L","LocationType":"point","DisplayPosition":{"Latitude":48.80525,"Longitude":13.54722},"MapView":{"TopLeft":{"Latitude":48.80525,"Longitude":13.54679},"BottomRight":{"Latitude":48.80488,"Longitude":13.54722}},"Address":{"Label":"94078 Freyung, Deutschland","Country":"DEU","State":"Bayern","County":"Freyung-Grafenau","City":"Freyung","District":"Freyung","PostalCode":"94078","AdditionalData":[{"value":"Deutschland","key":"CountryName"},{"value":"Bayern","key":"StateName"},{"value":"Freyung-Grafenau","key":"CountyName"}]},"MapReference":{"ReferenceId":"545092874","Spot":1.0,"SideOfStreet":"left","CountryId":"20147700","StateId":"20177250","CountyId":"20179679","CityId":"20179683","DistrictId":"20179685"}}},{"Relevance":1.0,"Distance":61.9,"MatchLevel":"houseNumber","MatchQuality":{"Country":1.0,"State":1.0,"County":1.0,"City":1.0,"District":1.0,"Street":[1.0],"HouseNumber":1.0,"PostalCode":1.0},"MatchType":"interpolated","Location":{"LocationId":"NT_jCLhI18WfIYX2gK478YK-B_2A","LocationType":"point","DisplayPosition":{"Latitude":48.80547,"Longitude":13.54618},"MapView":{"TopLeft":{"Latitude":48.8065942,"Longitude":13.5444732},"BottomRight":{"Latitude":48.8043458,"Longitude":13.5478868}},"Address":{"Label":"Krankenhausstraße 6, 94078 Freyung, Deutschland","Country":"DEU","State":"Bayern","County":"Freyung-Grafenau","City":"Freyung","District":"Freyung","Street":"Krankenhausstraße","HouseNumber":"6","PostalCode":"94078","AdditionalData":[{"value":"Deutschland","key":"CountryName"},{"value":"Bayern","key":"StateName"},{"value":"Freyung-Grafenau","key":"CountyName"}]},"MapReference":{"ReferenceId":"773360797","Spot":0.0,"SideOfStreet":"left","CountryId":"20147700","StateId":"20177250","CountyId":"20179679","CityId":"20179683","DistrictId":"20179685","AddressId":"208341951","RoadLinkId":"167173612"}}},{"Relevance":1.0,"Distance":65.4,"MatchLevel":"street","MatchQuality":{"Country":1.0,"State":1.0,"County":1.0,"City":1.0,"District":1.0,"Street":[1.0],"PostalCode":1.0},"Location":{"LocationId":"NT_NBzp2FrxJX3kEaEUVGHzJC_l_1199212865_R","LocationType":"point","DisplayPosition":{"Latitude":48.80621,"Longitude":13.54735},"MapView":{"TopLeft":{"Latitude":48.80649,"Longitude":13.54735},"BottomRight":{"Latitude":48.80621,"Longitude":13.54759}},"Address":{"Label":"Bahnhofstraße, 94078 Freyung, Deutschland","Country":"DEU","State":"Bayern","County":"Freyung-Grafenau","City":"Freyung","District":"Freyung","Street":"Bahnhofstraße","PostalCode":"94078","AdditionalData":[{"value":"Deutschland","key":"CountryName"},{"value":"Bayern","key":"StateName"},{"value":"Freyung-Grafenau","key":"CountyName"}]},"MapReference":{"ReferenceId":"1199212865","Spot":0.0,"SideOfStreet":"right","CountryId":"20147700","StateId":"20177250","CountyId":"20179679","CityId":"20179683","DistrictId":"20179685"}}},{"Relevance":1.0,"Distance":67.9,"MatchLevel":"houseNumber","MatchQuality":{"Country":1.0,"State":1.0,"County":1.0,"City":1.0,"District":1.0,"Street":[1.0],"HouseNumber":1.0,"PostalCode":1.0},"MatchType":"interpolated","Location":{"LocationId":"NT_jCLhI18WfIYX2gK478YK-B_1A","LocationType":"point","DisplayPosition":{"Latitude":48.80601,"Longitude":13.54616},"MapView":{"TopLeft":{"Latitude":48.8071342,"Longitude":13.5444531},"BottomRight":{"Latitude":48.8048858,"Longitude":13.5478669}},"Address":{"Label":"Krankenhausstraße 5, 94078 Freyung, Deutschland","Country":"DEU","State":"Bayern","County":"Freyung-Grafenau","City":"Freyung","District":"Freyung","Street":"Krankenhausstraße","HouseNumber":"5","PostalCode":"94078","AdditionalData":[{"value":"Deutschland","key":"CountryName"},{"value":"Bayern","key":"StateName"},{"value":"Freyung-Grafenau","key":"CountyName"}]},"MapReference":{"ReferenceId":"1235761380","Spot":0.48,"SideOfStreet":"right","CountryId":"20147700","StateId":"20177250","CountyId":"20179679","CityId":"20179683","DistrictId":"20179685","AddressId":"182061095","RoadLinkId":"556318094"}}},{"Relevance":1.0,"Distance":77.2,"MatchLevel":"street","MatchQuality":{"Country":1.0,"State":1.0,"County":1.0,"City":1.0,"District":1.0,"PostalCode":1.0},"Location":{"LocationId":"NT_mzpbABe7SV8.zfa.jZSKDA_l_1235762718_L","LocationType":"point","DisplayPosition":{"Latitude":48.80599,"Longitude":13.54602},"MapView":{"TopLeft":{"Latitude":48.80616,"Longitude":13.54546},"BottomRight":{"Latitude":48.80599,"Longitude":13.54602}},"Address":{"Label":"94078 Freyung, Deutschland","Country":"DEU","State":"Bayern","County":"Freyung-Grafenau","City":"Freyung","District":"Freyung","PostalCode":"94078","AdditionalData":[{"value":"Deutschland","key":"CountryName"},{"value":"Bayern","key":"StateName"},{"value":"Freyung-Grafenau","key":"CountyName"}]},"MapReference":{"ReferenceId":"1235762718","Spot":0.0,"SideOfStreet":"left","CountryId":"20147700","StateId":"20177250","CountyId":"20179679","CityId":"20179683","DistrictId":"20179685"}}},{"Relevance":1.0,"Distance":77.2,"MatchLevel":"street","MatchQuality":{"Country":1.0,"State":1.0,"County":1.0,"City":1.0,"District":1.0,"PostalCode":1.0},"Location":{"LocationId":"NT_mzpbABe7SV8.zfa.jZSKDA_l_1235762727_R","LocationType":"point","DisplayPosition":{"Latitude":48.80599,"Longitude":13.54602},"MapView":{"TopLeft":{"Latitude":48.80599,"Longitude":13.54592},"BottomRight":{"Latitude":48.80584,"Longitude":13.54602}},"Address":{"Label":"94078 Freyung, Deutschland","Country":"DEU","State":"Bayern","County":"Freyung-Grafenau","City":"Freyung","District":"Freyung","PostalCode":"94078","AdditionalData":[{"value":"Deutschland","key":"CountryName"},{"value":"Bayern","key":"StateName"},{"value":"Freyung-Grafenau","key":"CountyName"}]},"MapReference":{"ReferenceId":"1235762727","Spot":1.0,"SideOfStreet":"right","CountryId":"20147700","StateId":"20177250","CountyId":"20179679","CityId":"20179683","DistrictId":"20179685"}}}]}]}}