{"Response":{"MetaInfo":{"Timestamp":"2020-03-28T11:07:53.893+0000","NextPageInformation":"2"},"View":[{"_type":"SearchResultsViewType","ViewId":0,"Result":[{"Relevance":1.0,"Distance":-3.5,"MatchLevel":"landmark","MatchQuality":{"Country":1.0,"State":1.0,"County":1.0,"City":1.0,"PostalCode":1.0,"Name":1.0},"Location":{"LocationId":"NT_mWZEcvskv.wiybHCipYacB","LocationType":"beach","Name":"Plage de Trestel","DisplayPosition":{"Latitude":48.82106,"Longitude":-3.35111},"MapView":{"TopLeft":{"Latitude":48.82286,"Longitude":-3.35692},"BottomRight":{"Latitude":48.81925,"Longitude":-3.3502}},"Address":{"Label":"22660 Trévou-Tréguignec, France","Country":"FRA","State":"Bretagne","County":"Côtes-d'Armor","City":"Trévou-Tréguignec","PostalCode":"22660","AdditionalData":[{"value":"France","key":"CountryName"},{"value":"Bretagne","key":"StateName"},{"value":"Côtes-d'Armor","key":"CountyName"}]},"MapReference":{"CountryId":"20000001","StateId":"20060199","CountyId":"20060200","CityId":"20061290","PlaceId":"1400323452"}}},{"Relevance":1.0,"Distance":0.0,"Direction":0.0,"MatchLevel":"city","MatchQuality":{"Country":1.0,"State":1.0,"County":1.0,"City":1.0,"PostalCode":1.0},"Location":{"LocationId":"NT_tkc9CR4x2kiJ7JAUc-JlCB","LocationType":"point","DisplayPosition":{"Latitude":48.8210384,"Longitude":-3.3506813},"MapView":{"TopLeft":{"Latitude":48.82917,"Longitude":-3.36611},"BottomRight":{"Latitude":48.79276,"Longitude":-3.32384}},"Address":{"Label":"Trévou-Tréguignec, Bretagne, France","Country":"FRA","State":"Bretagne","County":"Côtes-d'Armor","City":"Trévou-Tréguignec","PostalCode":"22660","AdditionalData":[{"value":"France","key":"CountryName"},{"value":"Bretagne","key":"StateName"},{"value":"Côtes-d'Armor","key":"CountyName"}]},"MapReference":{"ReferenceId":"986048494","SideOfStreet":"neither","CountryId":"20000001","StateId":"20060199","CountyId":"20060200","CityId":"20061290"}}},{"Relevance":1.0,"Distance":7.2,"MatchLevel":"street","MatchQuality":{"Country":1.0,"State":1.0,"County":1.0,"City":1.0,"Street":[1.0],"PostalCode":1.0},"Location":{"LocationId":"NT_addRoauFNvgH96CQ0WZZuB_l_813973077_L","LocationType":"point","DisplayPosition":{"Latitude":48.8210876,"Longitude":-3.3506181},"MapView":{"TopLeft":{"Latitude":48.82109,"Longitude":-3.35062},"BottomRight":{"Latitude":48.821,"Longitude":-3.35055}},"Address":{"Label":"Rue de Trestel, 22660 Trévou-Tréguignec, France","Country":"FRA","State":"Bretagne","County":"Côtes-d'Armor","City":"Trévou-Tréguignec","Street":"Rue de Trestel","PostalCode":"22660","AdditionalData":[{"value":"France","key":"CountryName"},{"value":"Bretagne","key":"StateName"},{"value":"Côtes-d'Armor","key":"CountyName"}]},"MapReference":{"ReferenceId":"813973077","Spot":0.97,"SideOfStreet":"left","CountryId":"20000001","StateId":"20060199","CountyId":"20060200","CityId":"20061290"}}},{"Relevance":1.0,"Distance":7.3,"MatchLevel":"street","MatchQuality":{"Country":1.0,"State":1.0,"County":1.0,"City":1.0,"PostalCode":1.0},"Location":{"LocationId":"NT_RWuVh2IAjJHmN7Zxf-ey-C_l_813290705_L","LocationType":"point","DisplayPosition":{"Latitude":48.82109,"Longitude":-3.35062},"MapView":{"TopLeft":{"Latitude":48.82181,"Longitude":-3.35065},"BottomRight":{"Latitude":48.82109,"Longitude":-3.35049}},"Address":{"Label":"22660 Trévou-Tréguignec, France","Country":"FRA","State":"Bretagne","County":"Côtes-d'Armor","City":"Trévou-Tréguignec","PostalCode":"22660","AdditionalData":[{"value":"France","key":"CountryName"},{"value":"Bretagne","key":"StateName"},{"value":"Côtes-d'Armor","key":"CountyName"}]},"MapReference":{"ReferenceId":"813290705","Spot":0.0,"SideOfStreet":"left","CountryId":"20000001","StateId":"20060199","CountyId":"20060200","CityId":"20061290"}}},{"Relevance":1.0,"Distance":8.9,"MatchLevel":"houseNumber","MatchQuality":{"Country":1.0,"State":1.0,"County":1.0,"City":1.0,"Street":[1.0],"HouseNumber":1.0,"PostalCode":1.0},"MatchType":"interpolated","Location":{"LocationId":"NT_cp4hq7n37o7lyeC4pHLRoB_l_813290700_R_0ID","LocationType":"point","DisplayPosition":{"Latitude":48.8209813,"Longitude":-3.3505967},"MapView":{"TopLeft":{"Latitude":48.8221055,"Longitude":-3.3523041},"BottomRight":{"Latitude":48.8198572,"Longitude":-3.3488893}},"Address":{"Label":"42 Rue de Trestel, 22660 Trévou-Tréguignec, France","Country":"FRA","State":"Bretagne","County":"Côtes-d'Armor","City":"Trévou-Tréguignec","Street":"Rue de Trestel","HouseNumber":"42","PostalCode":"22660","AdditionalData":[{"value":"France","key":"CountryName"},{"value":"Bretagne","key":"StateName"},{"value":"Côtes-d'Armor","key":"CountyName"}]},"MapReference":{"ReferenceId":"813290700","Spot":0.53,"SideOfStreet":"right","CountryId":"20000001","StateId":"20060199","CountyId":"20060200","CityId":"20061290"}}},{"Relevance":1.0,"Distance":9.1,"MatchLevel":"street","MatchQuality":{"Country":1.0,"State":1.0,"County":1.0,"City":1.0,"Street":[1.0],"PostalCode":1.0},"Location":{"LocationId":"NT_cp4hq7n37o7lyeC4pHLRoB_l_719334027_L","LocationType":"point","DisplayPosition":{"Latitude":48.8209589,"Longitude":-3.3506532},"MapView":{"TopLeft":{"Latitude":48.82096,"Longitude":-3.35374},"BottomRight":{"Latitude":48.8199,"Longitude":-3.35065}},"Address":{"Label":"Rue de Trestel, 22660 Trévou-Tréguignec, France","Country":"FRA","State":"Bretagne","County":"Côtes-d'Armor","City":"Trévou-Tréguignec","Street":"Rue de Trestel","PostalCode":"22660","AdditionalData":[{"value":"France","key":"CountryName"},{"value":"Bretagne","key":"StateName"},{"value":"Côtes-d'Armor","key":"CountyName"}]},"MapReference":{"ReferenceId":"719334027","Spot":1.0,"SideOfStreet":"left","CountryId":"20000001","StateId":"20060199","CountyId":"20060200","CityId":"20061290"}}},{"Relevance":1.0,"Distance":76.2,"MatchLevel":"houseNumber","MatchQuality":{"Country":1.0,"State":1.0,"County":1.0,"City":1.0,"Street":[1.0],"HouseNumber":1.0,"PostalCode":1.0},"MatchType":"interpolated","Location":{"LocationId":"NT_s120ehhQ3-Sv44oG2nxuuB_3MD","LocationType":"point","DisplayPosition":{"Latitude":48.8205,"Longitude":-3.35006},"MapView":{"TopLeft":{"Latitude":48.8216242,"Longitude":-3.3517673},"BottomRight":{"Latitude":48.8193758,"Longitude":-3.3483527}},"Address":{"Label":"73 Rue du Moulin, 22660 Trévou-Tréguignec, France","Country":"FRA","State":"Bretagne","County":"Côtes-d'Armor","City":"Trévou-Tréguignec","Street":"Rue du Moulin","HouseNumber":"73","PostalCode":"22660","AdditionalData":[{"value":"France","key":"CountryName"},{"value":"Bretagne","key":"StateName"},{"value":"Côtes-d'Armor","key":"CountyName"}]},"MapReference":{"ReferenceId":"556766176","Spot":0.23,"SideOfStreet":"left","CountryId":"20000001","StateId":"20060199","CountyId":"20060200","CityId":"20061290","AddressId":"570421341","RoadLinkId":"46763295"}}},{"Relevance":1.0,"Distance":98.6,"MatchLevel":"houseNumber","MatchQuality":{"Country":1.0,"State":1.0,"County":1.0,"City":1.0,"Street":[1.0],"HouseNumber":1.0,"PostalCode":1.0},"MatchType":"interpolated","Location":{"LocationId":"NT_addRoauFNvgH96CQ0WZZuB_xMD","LocationType":"point","DisplayPosition":{"Latitude":48.82145,"Longitude":-3.34949},"MapView":{"TopLeft":{"Latitude":48.8225742,"Longitude":-3.3511974},"BottomRight":{"Latitude":48.8203258,"Longitude":-3.3477826}},"Address":{"Label":"13 Rue de Trestel, 22660 Trévou-Tréguignec, France","Country":"FRA","State":"Bretagne","County":"Côtes-d'Armor","City":"Trévou-Tréguignec","Street":"Rue de Trestel","HouseNumber":"13","PostalCode":"22660","AdditionalData":[{"value":"France","key":"CountryName"},{"value":"Bretagne","key":"StateName"},{"value":"Côtes-d'Armor","key":"CountyName"}]},"MapReference":{"ReferenceId":"956436028","Spot":0.47,"SideOfStreet":"left","CountryId":"20000001","StateId":"20060199","CountyId":"20060200","CityId":"20061290","AddressId":"786576164","RoadLinkId":"299379921"}}},{"Relevance":1.0,"Distance":122.4,"MatchLevel":"houseNumber","MatchQuality":{"Country":1.0,"State":1.0,"County":1.0,"City":1.0,"Street":[1.0],"HouseNumber":1.0,"PostalCode":1.0},"MatchType":"interpolated","Location":{"LocationId":"NT_YatXoNjyrwizDU6DM.zbiD_xA","LocationType":"point","DisplayPosition":{"Latitude":48.82039,"Longitude":-3.34933},"MapView":{"TopLeft":{"Latitude":48.8215142,"Longitude":-3.3510373},"BottomRight":{"Latitude":48.8192658,"Longitude":-3.3476227}},"Address":{"Label":"1 Rue des Prés, 22660 Trévou-Tréguignec, France","Country":"FRA","State":"Bretagne","County":"Côtes-d'Armor","City":"Trévou-Tréguignec","Street":"Rue des Prés","HouseNumber":"1","PostalCode":"22660","AdditionalData":[{"value":"France","key":"CountryName"},{"value":"Bretagne","key":"StateName"},{"value":"Côtes-d'Armor","key":"CountyName"}]},"MapReference":{"ReferenceId":"563492477","Spot":0.29,"SideOfStreet":"left","CountryId":"20000001","StateId":"20060199","CountyId":"20060200","CityId":"20061290","AddressId":"320372028","RoadLinkId":"46659265"}}},{"Relevance":1.0,"Distance":137.3,"MatchLevel":"houseNumber","MatchQuality":{"Country":1.0,"State":1.0,"County":1.0,"City":1.0,"Street":[1.0],"HouseNumber":1.0,"PostalCode":1.0},"MatchType":"interpolated","Location":{"LocationId":"NT_s120ehhQ3-Sv44oG2nxuuB_3AD","LocationType":"point","DisplayPosition":{"Latitude":48.82009,"Longitude":-3.34948},"MapView":{"TopLeft":{"Latitude":48.8212142,"Longitude":-3.3511873},"BottomRight":{"Latitude":48.8189658,"Longitude":-3.3477727}},"Address":{"Label":"70 Rue du Moulin, 22660 Trévou-Tréguignec, France","Country":"FRA","State":"Bretagne","County":"Côtes-d'Armor","City":"Trévou-Tréguignec","Street":"Rue du Moulin","HouseNumber":"70","PostalCode":"22660","AdditionalData":[{"value":"France","key":"CountryName"},{"value":"Bretagne","key":"StateName"},{"value":"Côtes-d'Armor","key":"CountyName"}]},"MapReference":{"ReferenceId":"563492474","Spot":0.63,"SideOfStreet":"right","CountryId":"20000001","StateId":"20060199","CountyId":"20060200","CityId":"20061290","AddressId":"682189101","RoadLinkId":"46911726"}}}]}]}}