{"Response":{"MetaInfo":{"Timestamp":"2020-03-28T11:14:10.988+0000","NextPageInformation":"2"},"View":[{"_type":"SearchResultsViewType","ViewId":0,"Result":[{"Relevance":1.0,"Distance":-7.7,"MatchLevel":"landmark","MatchQuality":{"Country":1.0,"State":1.0,"County":1.0,"City":1.0,"PostalCode":1.0,"Name":1.0},"Location":{"LocationId":"NT_DsbJ75d4-kGyUcq-RPEBLB","LocationType":"hospital","Name":"Hôpital Psych de Maison Blanche","DisplayPosition":{"Latitude":48.86606,"Longitude":2.54825},"MapView":{"TopLeft":{"Latitude":48.86998,"Longitude":2.54167},"BottomRight":{"Latitude":48.86214,"Longitude":2.55542}},"Address":{"Label":"93330 Neuilly-sur-Marne, France","Country":"FRA","State":"Île-de-France","County":"Seine-Saint-Denis","City":"Neuilly-sur-Marne","PostalCode":"93330","AdditionalData":[{"value":"France","key":"CountryName"},{"value":"Île-de-France","key":"StateName"},{"value":"Seine-Saint-Denis","key":"CountyName"}]},"MapReference":{"CountryId":"20000001","StateId":"20002126","CountyId":"20005207","CityId":"20005271","PlaceId":"56179679"}}},{"Relevance":1.0,"Distance":0.0,"Direction":0.0,"MatchLevel":"city","MatchQuality":{"Country":1.0,"State":1.0,"County":1.0,"City":1.0,"PostalCode":1.0},"Location":{"LocationId":"NT_MKbuMJ0X1lb51M.aP5M-sB","LocationType":"point","DisplayPosition":{"Latitude":48.8627256,"Longitude":2.5450894},"MapView":{"TopLeft":{"Latitude":48.87672,"Longitude":2.51625},"BottomRight":{"Latitude":48.85222,"Longitude":2.56778}},"Address":{"Label":"Neuilly-sur-Marne, Île-de-France, France","Country":"FRA","State":"Île-de-France","County":"Seine-Saint-Denis","City":"Neuilly-sur-Marne","PostalCode":"93330","AdditionalData":[{"value":"France","key":"CountryName"},{"value":"Île-de-France","key":"StateName"},{"value":"Seine-Saint-Denis","key":"CountyName"}]},"MapReference":{"ReferenceId":"56221123","SideOfStreet":"neither","CountryId":"20000001","StateId":"20002126","CountyId":"20005207","CityId":"20005271"}}},{"Relevance":1.0,"Distance":4.4,"MatchLevel":"street","MatchQuality":{"Country":1.0,"State":1.0,"County":1.0,"City":1.0,"Street":[1.0],"PostalCode":1.0},"Location":{"LocationId":"NT_SbqRMXgzPA9X5SkpUUoNiA_l_1245814841_R","LocationType":"point","DisplayPosition":{"Latitude":48.8626944,"Longitude":2.5450525},"MapView":{"TopLeft":{"Latitude":48.86317,"Longitude":2.54472},"BottomRight":{"Latitude":48.86265,"Longitude":2.54509}},"Address":{"Label":"Avenue Jean Jaurès, 93330 Neuilly-sur-Marne, France","Country":"FRA","State":"Île-de-France","County":"Seine-Saint-Denis","City":"Neuilly-sur-Marne","Street":"Avenue Jean Jaurès","PostalCode":"93330","AdditionalData":[{"value":"France","key":"CountryName"},{"value":"Île-de-France","key":"StateName"},{"value":"Seine-Saint-Denis","key":"CountyName"}]},"MapReference":{"ReferenceId":"1245814841","Spot":0.09,"SideOfStreet":"right","CountryId":"20000001","StateId":"20002126","CountyId":"20005207","CityId":"20005271"}}},{"Relevance":1.0,"Distance":6.7,"MatchLevel":"houseNumber","MatchQuality":{"Country":1.0,"State":1.0,"County":1.0,"City":1.0,"Street":[1.0],"HouseNumber":1.0,"PostalCode":1.0},"MatchType":"interpolated","Location":{"LocationId":"NT_SbqRMXgzPA9X5SkpUUoNiA_zA","LocationType":"point","DisplayPosition":{"Latitude":48.86268,"Longitude":2.5452},"MapView":{"TopLeft":{"Latitude":48.8638042,"Longitude":2.5434912},"BottomRight":{"Latitude":48.8615558,"Longitude":2.5469088}},"Address":{"Label":"3 Avenue Jean Jaurès, 93330 Neuilly-sur-Marne, France","Country":"FRA","State":"Île-de-France","County":"Seine-Saint-Denis","City":"Neuilly-sur-Marne","Street":"Avenue Jean Jaurès","HouseNumber":"3","PostalCode":"93330","AdditionalData":[{"value":"France","key":"CountryName"},{"value":"Île-de-France","key":"StateName"},{"value":"Seine-Saint-Denis","key":"CountyName"}]},"MapReference":{"ReferenceId":"56189292","Spot":0.19,"SideOfStreet":"left","CountryId":"20000001","StateId":"20002126","CountyId":"20005207","CityId":"20005271","AddressId":"572289939","RoadLinkId":"43660397"}}},{"Relevance":1.0,"Distance":8.4,"MatchLevel":"street","MatchQuality":{"Country":1.0,"State":1.0,"County":1.0,"City":1.0,"Street":[1.0],"PostalCode":1.0},"Location":{"LocationId":"NT_SbqRMXgzPA9X5SkpUUoNiA_l_64912203_L","LocationType":"point","DisplayPosition":{"Latitude":48.86265,"Longitude":2.54509},"MapView":{"TopLeft":{"Latitude":48.86265,"Longitude":2.54469},"BottomRight":{"Latitude":48.86251,"Longitude":2.54509}},"Address":{"Label":"Avenue Jean Jaurès, 93330 Neuilly-sur-Marne, France","Country":"FRA","State":"Île-de-France","County":"Seine-Saint-Denis","City":"Neuilly-sur-Marne","Street":"Avenue Jean Jaurès","PostalCode":"93330","AdditionalData":[{"value":"France","key":"CountryName"},{"value":"Île-de-France","key":"StateName"},{"value":"Seine-Saint-Denis","key":"CountyName"}]},"MapReference":{"ReferenceId":"64912203","Spot":1.0,"SideOfStreet":"left","CountryId":"20000001","StateId":"20002126","CountyId":"20005207","CityId":"20005271"}}},{"Relevance":1.0,"Distance":8.4,"MatchLevel":"street","MatchQuality":{"Country":1.0,"State":1.0,"County":1.0,"City":1.0,"PostalCode":1.0},"Location":{"LocationId":"NT_0-VlfcHLyiz9pqlEeECtZB_l_68814408_R","LocationType":"point","DisplayPosition":{"Latitude":48.86265,"Longitude":2.54509},"MapView":{"TopLeft":{"Latitude":48.86265,"Longitude":2.54509},"BottomRight":{"Latitude":48.86257,"Longitude":2.54515}},"Address":{"Label":"93330 Neuilly-sur-Marne, France","Country":"FRA","State":"Île-de-France","County":"Seine-Saint-Denis","City":"Neuilly-sur-Marne","PostalCode":"93330","AdditionalData":[{"value":"France","key":"CountryName"},{"value":"Île-de-France","key":"StateName"},{"value":"Seine-Saint-Denis","key":"CountyName"}]},"MapReference":{"ReferenceId":"68814408","Spot":1.0,"SideOfStreet":"right","CountryId":"20000001","StateId":"20002126","CountyId":"20005207","CityId":"20005271"}}},{"Relevance":1.0,"Distance":17.9,"MatchLevel":"street","MatchQuality":{"Country":1.0,"State":1.0,"County":1.0,"City":1.0,"Street":[1.0],"PostalCode":1.0},"Location":{"LocationId":"NT_SbqRMXgzPA9X5SkpUUoNiA_l_59116442_L","LocationType":"point","DisplayPosition":{"Latitude":48.86257,"Longitude":2.54515},"MapView":{"TopLeft":{"Latitude":48.86275,"Longitude":2.54515},"BottomRight":{"Latitude":48.86257,"Longitude":2.54572}},"Address":{"Label":"Avenue Jean Jaurès, 93330 Neuilly-sur-Marne, France","Country":"FRA","State":"Île-de-France","County":"Seine-Saint-Denis","City":"Neuilly-sur-Marne","Street":"Avenue Jean Jaurès","PostalCode":"93330","AdditionalData":[{"value":"France","key":"CountryName"},{"value":"Île-de-France","key":"StateName"},{"value":"Seine-Saint-Denis","key":"CountyName"}]},"MapReference":{"ReferenceId":"59116442","Spot":0.0,"SideOfStreet":"left","CountryId":"20000001","StateId":"20002126","CountyId":"20005207","CityId":"20005271"}}},{"Relevance":1.0,"Distance":17.9,"MatchLevel":"street","MatchQuality":{"Country":1.0,"State":1.0,"County":1.0,"City":1.0,"Street":[1.0],"PostalCode":1.0},"Location":{"LocationId":"NT_SbqRMXgzPA9X5SkpUUoNiA_l_1197875753_R","LocationType":"point","DisplayPosition":{"Latitude":48.86257,"Longitude":2.54515},"MapView":{"TopLeft":{"Latitude":48.86257,"Longitude":2.54515},"BottomRight":{"Latitude":48.86247,"Longitude":2.54526}},"Address":{"Label":"Avenue Jean Jaurès, 93330 Neuilly-sur-Marne, France","Country":"FRA","State":"Île-de-France","County":"Seine-Saint-Denis","City":"Neuilly-sur-Marne","Street":"Avenue Jean Jaurès","PostalCode":"93330","AdditionalData":[{"value":"France","key":"CountryName"},{"value":"Île-de-France","key":"StateName"},{"value":"Seine-Saint-Denis","key":"CountyName"}]},"MapReference":{"ReferenceId":"1197875753","Spot":1.0,"SideOfStreet":"right","CountryId":"20000001","StateId":"20002126","CountyId":"20005207","CityId":"20005271"}}},{"Relevance":1.0,"Distance":20.4,"MatchLevel":"houseNumber","MatchQuality":{"Country":1.0,"State":1.0,"County":1.0,"City":1.0,"Street":[1.0],"HouseNumber":1.0,"PostalCode":1.0},"MatchType":"interpolated","Location":{"LocationId":"NT_zmScNsyrsyHpZIxeGLhrbA_l_59116441_R_yMDM","LocationType":"point","DisplayPosition":{"Latitude":48.862542,"Longitude":2.545074},"MapView":{"TopLeft":{"Latitude":48.8636662,"Longitude":2.5433652},"BottomRight":{"Latitude":48.8614179,"Longitude":2.5467828}},"Address":{"Label":"230 Avenue Jean Jaurès, 93330 Neuilly-sur-Marne, France","Country":"FRA","State":"Île-de-France","County":"Seine-Saint-Denis","City":"Neuilly-sur-Marne","Street":"Avenue Jean Jaurès","HouseNumber":"230","PostalCode":"93330","AdditionalData":[{"value":"France","key":"CountryName"},{"value":"Île-de-France","key":"StateName"},{"value":"Seine-Saint-Denis","key":"CountyName"}]},"MapReference":{"ReferenceId":"59116441","Spot":0.8,"SideOfStreet":"right","CountryId":"20000001","StateId":"20002126","CountyId":"20005207","CityId":"20005271"}}},{"Relevance":1.0,"Distance":30.2,"MatchLevel":"landmark","MatchQuality":{"Country":1.0,"State":1.0,"County":1.0,"City":1.0,"PostalCode":1.0,"Name":1.0},"Location":{"LocationId":"NT_4m67NEWQHHhe3Q1vHzmZPA","LocationType":"hospital","Name":"Hôpital Psych de Ville Évrard","DisplayPosition":{"Latitude":48.86006,"Longitude":2.54981},"MapView":{"TopLeft":{"Latitude":48.86428,"Longitude":2.54358},"BottomRight":{"Latitude":48.85583,"Longitude":2.55557}},"Address":{"Label":"93330 Neuilly-sur-Marne, France","Country":"FRA","State":"Île-de-France","County":"Seine-Saint-Denis","City":"Neuilly-sur-Marne","PostalCode":"93330","AdditionalData":[{"value":"France","key":"CountryName"},{"value":"Île-de-France","key":"StateName"},{"value":"Seine-Saint-Denis","key":"CountyName"}]},"MapReference":{"CountryId":"20000001","StateId":"20002126","CountyId":"20005207","CityId":"20005271","PlaceId":"56179681"}}}]}]}}