{"Response":{"MetaInfo":{"Timestamp":"2020-03-28T11:13:06.950+0000","NextPageInformation":"2"},"View":[{"_type":"SearchResultsViewType","ViewId":0,"Result":[{"Relevance":1.0,"Distance":0.0,"Direction":0.0,"MatchLevel":"city","MatchQuality":{"Country":1.0,"State":1.0,"County":1.0,"City":1.0,"PostalCode":1.0},"Location":{"LocationId":"NT_f7.hNs8AciEVZxY7sxlQXC","LocationType":"point","DisplayPosition":{"Latitude":48.8138495,"Longitude":6.7211484},"MapView":{"TopLeft":{"Latitude":48.82836,"Longitude":6.69011},"BottomRight":{"Latitude":48.78694,"Longitude":6.74473}},"Address":{"Label":"Dieuze, Grand Est, France","Country":"FRA","State":"Grand Est","County":"Moselle","City":"Dieuze","PostalCode":"57260","AdditionalData":[{"value":"France","key":"CountryName"},{"value":"Grand Est","key":"StateName"},{"value":"Moselle","key":"CountyName"}]},"MapReference":{"ReferenceId":"1215959421","SideOfStreet":"neither","CountryId":"20000001","StateId":"20002047","CountyId":"20023153","CityId":"20023651"}}},{"Relevance":1.0,"Distance":12.2,"MatchLevel":"street","MatchQuality":{"Country":1.0,"State":1.0,"County":1.0,"City":1.0,"Street":[1.0],"PostalCode":1.0},"Location":{"LocationId":"NT_eDQr-kIoW6YKfcnwW6YgrB_l_545284675_R","LocationType":"point","DisplayPosition":{"Latitude":48.8139578,"Longitude":6.7211213},"MapView":{"TopLeft":{"Latitude":48.81422,"Longitude":6.72101},"BottomRight":{"Latitude":48.81393,"Longitude":6.72217}},"Address":{"Label":"Promenade du Canal, 57260 Dieuze, France","Country":"FRA","State":"Grand Est","County":"Moselle","City":"Dieuze","Street":"Promenade du Canal","PostalCode":"57260","AdditionalData":[{"value":"France","key":"CountryName"},{"value":"Grand Est","key":"StateName"},{"value":"Moselle","key":"CountyName"}]},"MapReference":{"ReferenceId":"545284675","Spot":0.1,"SideOfStreet":"right","CountryId":"20000001","StateId":"20002047","CountyId":"20023153","CityId":"20023651"}}},{"Relevance":1.0,"Distance":13.5,"MatchLevel":"street","MatchQuality":{"Country":1.0,"State":1.0,"County":1.0,"City":1.0,"Street":[1.0],"PostalCode":1.0},"Location":{"LocationId":"NT_8qrKvD.ohoNIQmCUP8r-nD_l_545284676_R","LocationType":"point","DisplayPosition":{"Latitude":48.81393,"Longitude":6.72101},"MapView":{"TopLeft":{"Latitude":48.81408,"Longitude":6.72092},"BottomRight":{"Latitude":48.81393,"Longitude":6.72101}},"Address":{"Label":"Avenue de la 1ère Div. Polonaise de Grenadiers, 57260 Dieuze, France","Country":"FRA","State":"Grand Est","County":"Moselle","City":"Dieuze","Street":"Avenue de la 1ère Div. Polonaise de Grenadiers","PostalCode":"57260","AdditionalData":[{"value":"France","key":"CountryName"},{"value":"Grand Est","key":"StateName"},{"value":"Moselle","key":"CountyName"}]},"MapReference":{"ReferenceId":"545284676","Spot":0.0,"SideOfStreet":"right","CountryId":"20000001","StateId":"20002047","CountyId":"20023153","CityId":"20023651"}}},{"Relevance":1.0,"Distance":16.8,"MatchLevel":"houseNumber","MatchQuality":{"Country":1.0,"State":1.0,"County":1.0,"City":1.0,"Street":[1.0],"HouseNumber":1.0,"PostalCode":1.0},"MatchType":"interpolated","Location":{"LocationId":"NT_Oc3KXe3INCVki7BeGD37cB_l_545284999_L_xkD","LocationType":"point","DisplayPosition":{"Latitude":48.8136994,"Longitude":6.7211292},"MapView":{"TopLeft":{"Latitude":48.8148235,"Longitude":6.7194221},"BottomRight":{"Latitude":48.8125752,"Longitude":6.7228363}},"Address":{"Label":"19 Avenue de la 1ère Div. Polonaise de Grenadiers, 57260 Dieuze, France","Country":"FRA","State":"Grand Est","County":"Moselle","City":"Dieuze","Street":"Avenue de la 1ère Div. Polonaise de Grenadiers","HouseNumber":"19","PostalCode":"57260","AdditionalData":[{"value":"France","key":"CountryName"},{"value":"Grand Est","key":"StateName"},{"value":"Moselle","key":"CountyName"}]},"MapReference":{"ReferenceId":"545284999","Spot":0.5,"SideOfStreet":"left","CountryId":"20000001","StateId":"20002047","CountyId":"20023153","CityId":"20023651"}}},{"Relevance":1.0,"Distance":30.4,"MatchLevel":"street","MatchQuality":{"Country":1.0,"State":1.0,"County":1.0,"City":1.0,"Street":[1.0],"PostalCode":1.0},"Location":{"LocationId":"NT_eDQr-kIoW6YKfcnwW6YgrB_l_1068037490_R","LocationType":"point","DisplayPosition":{"Latitude":48.8141197,"Longitude":6.7210824},"MapView":{"TopLeft":{"Latitude":48.8146,"Longitude":6.72092},"BottomRight":{"Latitude":48.81408,"Longitude":6.72305}},"Address":{"Label":"Promenade du Canal, 57260 Dieuze, France","Country":"FRA","State":"Grand Est","County":"Moselle","City":"Dieuze","Street":"Promenade du Canal","PostalCode":"57260","AdditionalData":[{"value":"France","key":"CountryName"},{"value":"Grand Est","key":"StateName"},{"value":"Moselle","key":"CountyName"}]},"MapReference":{"ReferenceId":"1068037490","Spot":0.08,"SideOfStreet":"right","CountryId":"20000001","StateId":"20002047","CountyId":"20023153","CityId":"20023651"}}},{"Relevance":1.0,"Distance":30.6,"MatchLevel":"houseNumber","MatchQuality":{"Country":1.0,"State":1.0,"County":1.0,"City":1.0,"Street":[1.0],"HouseNumber":1.0,"PostalCode":1.0},"MatchType":"interpolated","Location":{"LocationId":"NT_8qrKvD.ohoNIQmCUP8r-nD_xkD","LocationType":"point","DisplayPosition":{"Latitude":48.81326,"Longitude":6.72092},"MapView":{"TopLeft":{"Latitude":48.8143842,"Longitude":6.7192129},"BottomRight":{"Latitude":48.8121358,"Longitude":6.7226271}},"Address":{"Label":"19 Avenue de la 1ère Div. Polonaise de Grenadiers, 57260 Dieuze, France","Country":"FRA","State":"Grand Est","County":"Moselle","City":"Dieuze","Street":"Avenue de la 1ère Div. Polonaise de Grenadiers","HouseNumber":"19","PostalCode":"57260","AdditionalData":[{"value":"France","key":"CountryName"},{"value":"Grand Est","key":"StateName"},{"value":"Moselle","key":"CountyName"}]},"MapReference":{"ReferenceId":"773479576","Spot":0.8,"SideOfStreet":"left","CountryId":"20000001","StateId":"20002047","CountyId":"20023153","CityId":"20023651","AddressId":"371213482","RoadLinkId":"167320280"}}},{"Relevance":1.0,"Distance":43.8,"MatchLevel":"street","MatchQuality":{"Country":1.0,"State":1.0,"County":1.0,"City":1.0,"Street":[1.0],"PostalCode":1.0},"Location":{"LocationId":"NT_gH50UhyYyBzJ3Qa3eRd8ZC_l_773479575_L","LocationType":"point","DisplayPosition":{"Latitude":48.81346,"Longitude":6.72124},"MapView":{"TopLeft":{"Latitude":48.81346,"Longitude":6.72124},"BottomRight":{"Latitude":48.81327,"Longitude":6.72124}},"Address":{"Label":"Avenue de la 1ère Div. Polonaise de Grenadiers, 57260 Dieuze, France","Country":"FRA","State":"Grand Est","County":"Moselle","City":"Dieuze","Street":"Avenue de la 1ère Div. Polonaise de Grenadiers","PostalCode":"57260","AdditionalData":[{"value":"France","key":"CountryName"},{"value":"Grand Est","key":"StateName"},{"value":"Moselle","key":"CountyName"}]},"MapReference":{"ReferenceId":"773479575","Spot":1.0,"SideOfStreet":"left","CountryId":"20000001","StateId":"20002047","CountyId":"20023153","CityId":"20023651"}}},{"Relevance":1.0,"Distance":46.7,"MatchLevel":"houseNumber","MatchQuality":{"Country":1.0,"State":1.0,"County":1.0,"City":1.0,"Street":[1.0],"HouseNumber":1.0,"PostalCode":1.0},"MatchType":"interpolated","Location":{"LocationId":"NT_8qrKvD.ohoNIQmCUP8r-nD_xAjQ","LocationType":"point","DisplayPosition":{"Latitude":48.81422,"Longitude":6.72084},"MapView":{"TopLeft":{"Latitude":48.8153442,"Longitude":6.7191329},"BottomRight":{"Latitude":48.8130958,"Longitude":6.7225471}},"Address":{"Label":"10B Avenue de la 1ère Div. Polonaise de Grenadiers, 57260 Dieuze, France","Country":"FRA","State":"Grand Est","County":"Moselle","City":"Dieuze","Street":"Avenue de la 1ère Div. Polonaise de Grenadiers","HouseNumber":"10B","PostalCode":"57260","AdditionalData":[{"value":"France","key":"CountryName"},{"value":"Grand Est","key":"StateName"},{"value":"Moselle","key":"CountyName"}]},"MapReference":{"ReferenceId":"1065249965","Spot":0.4,"SideOfStreet":"right","CountryId":"20000001","StateId":"20002047","CountyId":"20023153","CityId":"20023651","AddressId":"317533688","RoadLinkId":"387535667"}}},{"Relevance":1.0,"Distance":58.5,"MatchLevel":"houseNumber","MatchQuality":{"Country":1.0,"State":1.0,"County":1.0,"City":1.0,"Street":[1.0],"HouseNumber":1.0,"PostalCode":1.0},"MatchType":"interpolated","Location":{"LocationId":"NT_0wXsaN7KPNL0IOHe2Ib1IB_l_545284996_L_yA","LocationType":"point","DisplayPosition":{"Latitude":48.813399,"Longitude":6.7215615},"MapView":{"TopLeft":{"Latitude":48.8145232,"Longitude":6.7198544},"BottomRight":{"Latitude":48.8122749,"Longitude":6.7232686}},"Address":{"Label":"2 Route de Lindre Haute, 57260 Dieuze, France","Country":"FRA","State":"Grand Est","County":"Moselle","City":"Dieuze","Street":"Route de Lindre Haute","HouseNumber":"2","PostalCode":"57260","AdditionalData":[{"value":"France","key":"CountryName"},{"value":"Grand Est","key":"StateName"},{"value":"Moselle","key":"CountyName"}]},"MapReference":{"ReferenceId":"545284996","Spot":0.52,"SideOfStreet":"left","CountryId":"20000001","StateId":"20002047","CountyId":"20023153","CityId":"20023651"}}},{"Relevance":1.0,"Distance":64.8,"MatchLevel":"street","MatchQuality":{"Country":1.0,"State":1.0,"County":1.0,"City":1.0,"Street":[1.0],"PostalCode":1.0},"Location":{"LocationId":"NT_gH50UhyYyBzJ3Qa3eRd8ZC_l_773479574_L","LocationType":"point","DisplayPosition":{"Latitude":48.81327,"Longitude":6.72124},"MapView":{"TopLeft":{"Latitude":48.81327,"Longitude":6.72123},"BottomRight":{"Latitude":48.81321,"Longitude":6.72124}},"Address":{"Label":"Avenue de la 1ère Div. Polonaise de Grenadiers, 57260 Dieuze, France","Country":"FRA","State":"Grand Est","County":"Moselle","City":"Dieuze","Street":"Avenue de la 1ère Div. Polonaise de Grenadiers","PostalCode":"57260","AdditionalData":[{"value":"France","key":"CountryName"},{"value":"Grand Est","key":"StateName"},{"value":"Moselle","key":"CountyName"}]},"MapReference":{"ReferenceId":"773479574","Spot":1.0,"SideOfStreet":"left","CountryId":"20000001","StateId":"20002047","CountyId":"20023153","CityId":"20023651"}}}]}]}}