{"Response":{"MetaInfo":{"Timestamp":"2020-03-28T11:10:22.166+0000","NextPageInformation":"2"},"View":[{"_type":"SearchResultsViewType","ViewId":0,"Result":[{"Relevance":1.0,"Distance":0.0,"Direction":0.0,"MatchLevel":"city","MatchQuality":{"Country":1.0,"State":1.0,"County":1.0,"City":1.0,"PostalCode":1.0},"Location":{"LocationId":"NT_0sqdPNBMag7GApb247pkLB","LocationType":"point","DisplayPosition":{"Latitude":48.8784526,"Longitude":2.4517257},"MapView":{"TopLeft":{"Latitude":48.89842,"Longitude":2.42414},"BottomRight":{"Latitude":48.8713,"Longitude":2.45425}},"Address":{"Label":"Romainville, Île-de-France, France","Country":"FRA","State":"Île-de-France","County":"Seine-Saint-Denis","City":"Romainville","PostalCode":"93230","AdditionalData":[{"value":"France","key":"CountryName"},{"value":"Île-de-France","key":"StateName"},{"value":"Seine-Saint-Denis","key":"CountyName"}]},"MapReference":{"ReferenceId":"59121259","SideOfStreet":"neither","CountryId":"20000001","StateId":"20002126","CountyId":"20005207","CityId":"20005295"}}},{"Relevance":1.0,"Distance":9.0,"MatchLevel":"landmark","MatchQuality":{"Country":1.0,"State":1.0,"County":1.0,"City":1.0,"Street":[1.0],"HouseNumber":1.0,"PostalCode":1.0,"Name":1.0},"Location":{"LocationId":"NT_z2EFmcg80raW00OAud.PbD_p_PD0N9JonTxdvqifogrQD-C","LocationType":"hospital","Name":"CHI André Grégoire","DisplayPosition":{"Latitude":48.87843,"Longitude":2.45307},"MapView":{"TopLeft":{"Latitude":48.8795542,"Longitude":2.4513607},"BottomRight":{"Latitude":48.8773058,"Longitude":2.4547793}},"Address":{"Label":"56 Boulevard de la Boissière, 93100 Montreuil, France","Country":"FRA","State":"Île-de-France","County":"Seine-Saint-Denis","City":"Montreuil","Street":"Boulevard de la Boissière","HouseNumber":"56","PostalCode":"93100","AdditionalData":[{"value":"France","key":"CountryName"},{"value":"Île-de-France","key":"StateName"},{"value":"Seine-Saint-Denis","key":"CountyName"}]},"MapReference":{"CountryId":"20000001","StateId":"20002126","CountyId":"20005207","CityId":"20005265","PlaceId":"56297980"}}},{"Relevance":1.0,"Distance":11.8,"MatchLevel":"houseNumber","MatchQuality":{"Country":1.0,"State":1.0,"County":1.0,"City":1.0,"Street":[1.0],"HouseNumber":1.0,"PostalCode":1.0},"MatchType":"interpolated","Location":{"LocationId":"NT_vVVvzHd-NJLAuQDbTEsr7A_yQD","LocationType":"point","DisplayPosition":{"Latitude":48.87853,"Longitude":2.45158},"MapView":{"TopLeft":{"Latitude":48.8796542,"Longitude":2.4498707},"BottomRight":{"Latitude":48.8774058,"Longitude":2.4532893}},"Address":{"Label":"24 Boulevard de la Boissière, 93230 Romainville, France","Country":"FRA","State":"Île-de-France","County":"Seine-Saint-Denis","City":"Romainville","Street":"Boulevard de la Boissière","HouseNumber":"24","PostalCode":"93230","AdditionalData":[{"value":"France","key":"CountryName"},{"value":"Île-de-France","key":"StateName"},{"value":"Seine-Saint-Denis","key":"CountyName"}]},"MapReference":{"ReferenceId":"56186357","Spot":0.21,"SideOfStreet":"left","CountryId":"20000001","StateId":"20002126","CountyId":"20005207","CityId":"20005295","AddressId":"381201187","RoadLinkId":"43659563"}}},{"Relevance":1.0,"Distance":33.4,"MatchLevel":"houseNumber","MatchQuality":{"Country":1.0,"State":1.0,"County":1.0,"City":1.0,"Street":[1.0],"HouseNumber":1.0,"PostalCode":1.0},"MatchType":"interpolated","Location":{"LocationId":"NT_Ysn-rmOc9j8T.8atV4l-XD_1AD","LocationType":"point","DisplayPosition":{"Latitude":48.87849,"Longitude":2.45219},"MapView":{"TopLeft":{"Latitude":48.8796142,"Longitude":2.4504807},"BottomRight":{"Latitude":48.8773658,"Longitude":2.4538993}},"Address":{"Label":"50 Boulevard de la Boissière, 93100 Montreuil, France","Country":"FRA","State":"Île-de-France","County":"Seine-Saint-Denis","City":"Montreuil","Street":"Boulevard de la Boissière","HouseNumber":"50","PostalCode":"93100","AdditionalData":[{"value":"France","key":"CountryName"},{"value":"Île-de-France","key":"StateName"},{"value":"Seine-Saint-Denis","key":"CountyName"}]},"MapReference":{"ReferenceId":"780212366","Spot":0.87,"SideOfStreet":"left","CountryId":"20000001","StateId":"20002126","CountyId":"20005207","CityId":"20005265","AddressId":"321884527","RoadLinkId":"173474600"}}},{"Relevance":1.0,"Distance":86.1,"MatchLevel":"houseNumber","MatchQuality":{"Country":1.0,"State":1.0,"County":1.0,"City":1.0,"Street":[1.0],"HouseNumber":1.0,"PostalCode":1.0},"MatchType":"interpolated","Location":{"LocationId":"NT_yxAufKqigxEKdOhcYSC.tA_ygD","LocationType":"point","DisplayPosition":{"Latitude":48.87857,"Longitude":2.45049},"MapView":{"TopLeft":{"Latitude":48.8796942,"Longitude":2.4487807},"BottomRight":{"Latitude":48.8774458,"Longitude":2.4521993}},"Address":{"Label":"28 Rue Étienne Marcel, 93230 Romainville, France","Country":"FRA","State":"Île-de-France","County":"Seine-Saint-Denis","City":"Romainville","Street":"Rue Étienne Marcel","HouseNumber":"28","PostalCode":"93230","AdditionalData":[{"value":"France","key":"CountryName"},{"value":"Île-de-France","key":"StateName"},{"value":"Seine-Saint-Denis","key":"CountyName"}]},"MapReference":{"ReferenceId":"56186591","Spot":0.98,"SideOfStreet":"right","CountryId":"20000001","StateId":"20002126","CountyId":"20005207","CityId":"20005295","AddressId":"572105000","RoadLinkId":"43647518"}}},{"Relevance":1.0,"Distance":91.5,"MatchLevel":"houseNumber","MatchQuality":{"Country":1.0,"State":1.0,"County":1.0,"City":1.0,"Street":[1.0],"HouseNumber":1.0,"PostalCode":1.0},"MatchType":"interpolated","Location":{"LocationId":"NT_MvnSrOH.HUHYDU8GLCLZvB_0A","LocationType":"point","DisplayPosition":{"Latitude":48.87903,"Longitude":2.45076},"MapView":{"TopLeft":{"Latitude":48.8801542,"Longitude":2.4490507},"BottomRight":{"Latitude":48.8779058,"Longitude":2.4524693}},"Address":{"Label":"4 Villa des 3 Communes, 93130 Noisy-le-Sec, France","Country":"FRA","State":"Île-de-France","County":"Seine-Saint-Denis","City":"Noisy-le-Sec","Street":"Villa des 3 Communes","HouseNumber":"4","PostalCode":"93130","AdditionalData":[{"value":"France","key":"CountryName"},{"value":"Île-de-France","key":"StateName"},{"value":"Seine-Saint-Denis","key":"CountyName"}]},"MapReference":{"ReferenceId":"56186341","Spot":0.44,"SideOfStreet":"right","CountryId":"20000001","StateId":"20002126","CountyId":"20005207","CityId":"20005277","AddressId":"321883900","RoadLinkId":"43349332"}}},{"Relevance":1.0,"Distance":93.3,"MatchLevel":"houseNumber","MatchQuality":{"Country":1.0,"State":1.0,"County":1.0,"City":1.0,"Street":[1.0],"HouseNumber":1.0,"PostalCode":1.0},"MatchType":"interpolated","Location":{"LocationId":"NT_xbGUygVEr00ex6E0hfXYvB_yMD","LocationType":"point","DisplayPosition":{"Latitude":48.87861,"Longitude":2.45047},"MapView":{"TopLeft":{"Latitude":48.8797342,"Longitude":2.4487607},"BottomRight":{"Latitude":48.8774858,"Longitude":2.4521793}},"Address":{"Label":"23 Boulevard de la Boissière, 93130 Noisy-le-Sec, France","Country":"FRA","State":"Île-de-France","County":"Seine-Saint-Denis","City":"Noisy-le-Sec","Street":"Boulevard de la Boissière","HouseNumber":"23","PostalCode":"93130","AdditionalData":[{"value":"France","key":"CountryName"},{"value":"Île-de-France","key":"StateName"},{"value":"Seine-Saint-Denis","key":"CountyName"}]},"MapReference":{"ReferenceId":"56186342","Spot":0.05,"SideOfStreet":"right","CountryId":"20000001","StateId":"20002126","CountyId":"20005207","CityId":"20005277","AddressId":"301229150","RoadLinkId":"43687047"}}},{"Relevance":1.0,"Distance":102.1,"MatchLevel":"houseNumber","MatchQuality":{"Country":1.0,"State":1.0,"County":1.0,"City":1.0,"Street":[1.0],"HouseNumber":1.0,"PostalCode":1.0},"MatchType":"interpolated","Location":{"LocationId":"NT_ExetNssKgltTJ.CVj1..kB_yAD","LocationType":"point","DisplayPosition":{"Latitude":48.8794,"Longitude":2.45177},"MapView":{"TopLeft":{"Latitude":48.8805242,"Longitude":2.4500606},"BottomRight":{"Latitude":48.8782758,"Longitude":2.4534794}},"Address":{"Label":"20 Rue de la Chasse, 93130 Noisy-le-Sec, France","Country":"FRA","State":"Île-de-France","County":"Seine-Saint-Denis","City":"Noisy-le-Sec","Street":"Rue de la Chasse","HouseNumber":"20","PostalCode":"93130","AdditionalData":[{"value":"France","key":"CountryName"},{"value":"Île-de-France","key":"StateName"},{"value":"Seine-Saint-Denis","key":"CountyName"}]},"MapReference":{"ReferenceId":"56186202","Spot":0.85,"SideOfStreet":"left","CountryId":"20000001","StateId":"20002126","CountyId":"20005207","CityId":"20005277","AddressId":"301814831","RoadLinkId":"43505014"}}},{"Relevance":1.0,"Distance":143.1,"MatchLevel":"houseNumber","MatchQuality":{"Country":1.0,"State":1.0,"County":1.0,"City":1.0,"Street":[1.0],"HouseNumber":1.0,"PostalCode":1.0},"MatchType":"interpolated","Location":{"LocationId":"NT_ExetNssKgltTJ.CVj1..kB_4A","LocationType":"point","DisplayPosition":{"Latitude":48.87963,"Longitude":2.45084},"MapView":{"TopLeft":{"Latitude":48.8807542,"Longitude":2.4491306},"BottomRight":{"Latitude":48.8785058,"Longitude":2.4525494}},"Address":{"Label":"8 Rue de la Chasse, 93130 Noisy-le-Sec, France","Country":"FRA","State":"Île-de-France","County":"Seine-Saint-Denis","City":"Noisy-le-Sec","Street":"Rue de la Chasse","HouseNumber":"8","PostalCode":"93130","AdditionalData":[{"value":"France","key":"CountryName"},{"value":"Île-de-France","key":"StateName"},{"value":"Seine-Saint-Denis","key":"CountyName"}]},"MapReference":{"ReferenceId":"56186178","Spot":0.71,"SideOfStreet":"right","CountryId":"20000001","StateId":"20002126","CountyId":"20005207","CityId":"20005277","AddressId":"301862814","RoadLinkId":"43524974"}}},{"Relevance":1.0,"Distance":152.4,"MatchLevel":"street","MatchQuality":{"Country":1.0,"State":1.0,"County":1.0,"City":1.0,"Street":[1.0],"PostalCode":1.0},"Location":{"LocationId":"NT_WDQVoLldAExrwzds6CF16B_l_56227730_L","LocationType":"point","DisplayPosition":{"Latitude":48.8770827,"Longitude":2.4517648},"MapView":{"TopLeft":{"Latitude":48.87709,"Longitude":2.45132},"BottomRight":{"Latitude":48.87707,"Longitude":2.45202}},"Address":{"Label":"Avenue du Docteur Fernand Lamaze, 93100 Montreuil, France","Country":"FRA","State":"Île-de-France","County":"Seine-Saint-Denis","City":"Montreuil","Street":"Avenue du Docteur Fernand Lamaze","PostalCode":"93100","AdditionalData":[{"value":"France","key":"CountryName"},{"value":"Île-de-France","key":"StateName"},{"value":"Seine-Saint-Denis","key":"CountyName"}]},"MapReference":{"ReferenceId":"56227730","Spot":0.64,"SideOfStreet":"left","CountryId":"20000001","StateId":"20002126","CountyId":"20005207","CityId":"20005265"}}}]}]}}