{"Response":{"MetaInfo":{"Timestamp":"2020-03-28T11:50:20.058+0000","NextPageInformation":"2"},"View":[{"_type":"SearchResultsViewType","ViewId":0,"Result":[{"Relevance":1.0,"Distance":0.0,"Direction":0.0,"MatchLevel":"city","MatchQuality":{"Country":1.0,"State":1.0,"County":1.0,"City":1.0,"PostalCode":1.0},"Location":{"LocationId":"NT_1OwNQZQESWcbdUEhw.3duC","LocationType":"point","DisplayPosition":{"Latitude":48.855068,"Longitude":2.62741},"MapView":{"TopLeft":{"Latitude":48.8664,"Longitude":2.59941},"BottomRight":{"Latitude":48.82578,"Longitude":2.63767}},"Address":{"Label":"Noisiel, Île-de-France, France","Country":"FRA","State":"Île-de-France","County":"Seine-et-Marne","City":"Noisiel","PostalCode":"77186","AdditionalData":[{"value":"France","key":"CountryName"},{"value":"Île-de-France","key":"StateName"},{"value":"Seine-et-Marne","key":"CountyName"}]},"MapReference":{"ReferenceId":"56293535","SideOfStreet":"neither","CountryId":"20000001","StateId":"20002126","CountyId":"20002151","CityId":"20003137"}}},{"Relevance":1.0,"Distance":10.1,"MatchLevel":"houseNumber","MatchQuality":{"Country":1.0,"State":1.0,"County":1.0,"City":1.0,"Street":[1.0],"HouseNumber":1.0,"PostalCode":1.0},"MatchType":"interpolated","Location":{"LocationId":"NT_S1P6Fe1D3SmImJUX8s7-9D_yITNCB","LocationType":"point","DisplayPosition":{"Latitude":48.85497,"Longitude":2.62734},"MapView":{"TopLeft":{"Latitude":48.8560942,"Longitude":2.6256315},"BottomRight":{"Latitude":48.8538458,"Longitude":2.6290485}},"Address":{"Label":"225B Place Émile Menier, 77186 Noisiel, France","Country":"FRA","State":"Île-de-France","County":"Seine-et-Marne","City":"Noisiel","Street":"Place Émile Menier","HouseNumber":"225B","PostalCode":"77186","AdditionalData":[{"value":"France","key":"CountryName"},{"value":"Île-de-France","key":"StateName"},{"value":"Seine-et-Marne","key":"CountyName"}]},"MapReference":{"ReferenceId":"56293537","Spot":0.71,"SideOfStreet":"left","CountryId":"20000001","StateId":"20002126","CountyId":"20002151","CityId":"20003137","AddressId":"344873476","RoadLinkId":"43753276"}}},{"Relevance":1.0,"Distance":11.8,"MatchLevel":"houseNumber","MatchQuality":{"Country":1.0,"State":1.0,"County":1.0,"City":1.0,"Street":[1.0],"HouseNumber":1.0,"PostalCode":1.0},"MatchType":"interpolated","Location":{"LocationId":"NT_vBJ64QJ4JA6k17d4Bkel1B_xIDO","LocationType":"point","DisplayPosition":{"Latitude":48.85509,"Longitude":2.62761},"MapView":{"TopLeft":{"Latitude":48.8562142,"Longitude":2.6259015},"BottomRight":{"Latitude":48.8539658,"Longitude":2.6293185}},"Address":{"Label":"128 Rue Claire Ménier, 77186 Noisiel, France","Country":"FRA","State":"Île-de-France","County":"Seine-et-Marne","City":"Noisiel","Street":"Rue Claire Ménier","HouseNumber":"128","PostalCode":"77186","AdditionalData":[{"value":"France","key":"CountryName"},{"value":"Île-de-France","key":"StateName"},{"value":"Seine-et-Marne","key":"CountyName"}]},"MapReference":{"ReferenceId":"715254271","Spot":0.11,"SideOfStreet":"left","CountryId":"20000001","StateId":"20002126","CountyId":"20002151","CityId":"20003137","AddressId":"344735416","RoadLinkId":"120113407"}}},{"Relevance":1.0,"Distance":18.2,"MatchLevel":"street","MatchQuality":{"Country":1.0,"State":1.0,"County":1.0,"City":1.0,"Street":[1.0],"PostalCode":1.0},"Location":{"LocationId":"NT_vBJ64QJ4JA6k17d4Bkel1B_l_56293572_L","LocationType":"point","DisplayPosition":{"Latitude":48.85498,"Longitude":2.62762},"MapView":{"TopLeft":{"Latitude":48.85498,"Longitude":2.62762},"BottomRight":{"Latitude":48.85457,"Longitude":2.62765}},"Address":{"Label":"Place Émile Menier, 77186 Noisiel, France","Country":"FRA","State":"Île-de-France","County":"Seine-et-Marne","City":"Noisiel","Street":"Place Émile Menier","PostalCode":"77186","AdditionalData":[{"value":"France","key":"CountryName"},{"value":"Île-de-France","key":"StateName"},{"value":"Seine-et-Marne","key":"CountyName"}]},"MapReference":{"ReferenceId":"56293572","Spot":1.0,"SideOfStreet":"left","CountryId":"20000001","StateId":"20002126","CountyId":"20002151","CityId":"20003137"}}},{"Relevance":1.0,"Distance":39.0,"MatchLevel":"houseNumber","MatchQuality":{"Country":1.0,"State":1.0,"County":1.0,"City":1.0,"Street":[1.0],"HouseNumber":1.0,"PostalCode":1.0},"MatchType":"interpolated","Location":{"LocationId":"NT_6yJXTw36kqKmlaD6WH38IA_yIDM","LocationType":"point","DisplayPosition":{"Latitude":48.85531,"Longitude":2.62666},"MapView":{"TopLeft":{"Latitude":48.8564342,"Longitude":2.6249515},"BottomRight":{"Latitude":48.8541858,"Longitude":2.6283685}},"Address":{"Label":"220 Rue Henri Ménier, 77186 Noisiel, France","Country":"FRA","State":"Île-de-France","County":"Seine-et-Marne","City":"Noisiel","Street":"Rue Henri Ménier","HouseNumber":"220","PostalCode":"77186","AdditionalData":[{"value":"France","key":"CountryName"},{"value":"Île-de-France","key":"StateName"},{"value":"Seine-et-Marne","key":"CountyName"}]},"MapReference":{"ReferenceId":"56293538","Spot":0.27,"SideOfStreet":"right","CountryId":"20000001","StateId":"20002126","CountyId":"20002151","CityId":"20003137","AddressId":"321811238","RoadLinkId":"43419000"}}},{"Relevance":1.0,"Distance":50.9,"MatchLevel":"houseNumber","MatchQuality":{"Country":1.0,"State":1.0,"County":1.0,"City":1.0,"Street":[1.0],"HouseNumber":1.0,"PostalCode":1.0},"MatchType":"interpolated","Location":{"LocationId":"NT_S1P6Fe1D3SmImJUX8s7-9D_ygD","LocationType":"point","DisplayPosition":{"Latitude":48.85498,"Longitude":2.6281},"MapView":{"TopLeft":{"Latitude":48.8561042,"Longitude":2.6263915},"BottomRight":{"Latitude":48.8538558,"Longitude":2.6298085}},"Address":{"Label":"28 Place Émile Menier, 77186 Noisiel, France","Country":"FRA","State":"Île-de-France","County":"Seine-et-Marne","City":"Noisiel","Street":"Place Émile Menier","HouseNumber":"28","PostalCode":"77186","AdditionalData":[{"value":"France","key":"CountryName"},{"value":"Île-de-France","key":"StateName"},{"value":"Seine-et-Marne","key":"CountyName"}]},"MapReference":{"ReferenceId":"56293535","Spot":0.55,"SideOfStreet":"left","CountryId":"20000001","StateId":"20002126","CountyId":"20002151","CityId":"20003137","AddressId":"388811866","RoadLinkId":"43468878"}}},{"Relevance":1.0,"Distance":55.7,"MatchLevel":"street","MatchQuality":{"Country":1.0,"State":1.0,"County":1.0,"City":1.0,"Street":[1.0],"PostalCode":1.0},"Location":{"LocationId":"NT_S1P6Fe1D3SmImJUX8s7-9D_l_56293555_R","LocationType":"point","DisplayPosition":{"Latitude":48.8549451,"Longitude":2.6266725},"MapView":{"TopLeft":{"Latitude":48.85496,"Longitude":2.62667},"BottomRight":{"Latitude":48.85478,"Longitude":2.6267}},"Address":{"Label":"Place Émile Menier, 77186 Noisiel, France","Country":"FRA","State":"Île-de-France","County":"Seine-et-Marne","City":"Noisiel","Street":"Place Émile Menier","PostalCode":"77186","AdditionalData":[{"value":"France","key":"CountryName"},{"value":"Île-de-France","key":"StateName"},{"value":"Seine-et-Marne","key":"CountyName"}]},"MapReference":{"ReferenceId":"56293555","Spot":0.92,"SideOfStreet":"right","CountryId":"20000001","StateId":"20002126","CountyId":"20002151","CityId":"20003137"}}},{"Relevance":1.0,"Distance":57.1,"MatchLevel":"houseNumber","MatchQuality":{"Country":1.0,"State":1.0,"County":1.0,"City":1.0,"Street":[1.0],"HouseNumber":1.0,"PostalCode":1.0},"MatchType":"interpolated","Location":{"LocationId":"NT_S1P6Fe1D3SmImJUX8s7-9D_yIjN","LocationType":"point","DisplayPosition":{"Latitude":48.85457,"Longitude":2.62722},"MapView":{"TopLeft":{"Latitude":48.8556942,"Longitude":2.6255115},"BottomRight":{"Latitude":48.8534458,"Longitude":2.6289285}},"Address":{"Label":"226 Place Émile Menier, 77186 Noisiel, France","Country":"FRA","State":"Île-de-France","County":"Seine-et-Marne","City":"Noisiel","Street":"Place Émile Menier","HouseNumber":"226","PostalCode":"77186","AdditionalData":[{"value":"France","key":"CountryName"},{"value":"Île-de-France","key":"StateName"},{"value":"Seine-et-Marne","key":"CountyName"}]},"MapReference":{"ReferenceId":"56293577","Spot":0.54,"SideOfStreet":"right","CountryId":"20000001","StateId":"20002126","CountyId":"20002151","CityId":"20003137","AddressId":"322217289","RoadLinkId":"43616095"}}},{"Relevance":1.0,"Distance":61.0,"MatchLevel":"street","MatchQuality":{"Country":1.0,"State":1.0,"County":1.0,"City":1.0,"Street":[1.0],"PostalCode":1.0},"Location":{"LocationId":"NT_S1P6Fe1D3SmImJUX8s7-9D_l_56293578_R","LocationType":"point","DisplayPosition":{"Latitude":48.85478,"Longitude":2.6267},"MapView":{"TopLeft":{"Latitude":48.85478,"Longitude":2.6267},"BottomRight":{"Latitude":48.85457,"Longitude":2.62672}},"Address":{"Label":"Place Émile Menier, 77186 Noisiel, France","Country":"FRA","State":"Île-de-France","County":"Seine-et-Marne","City":"Noisiel","Street":"Place Émile Menier","PostalCode":"77186","AdditionalData":[{"value":"France","key":"CountryName"},{"value":"Île-de-France","key":"StateName"},{"value":"Seine-et-Marne","key":"CountyName"}]},"MapReference":{"ReferenceId":"56293578","Spot":1.0,"SideOfStreet":"right","CountryId":"20000001","StateId":"20002126","CountyId":"20002151","CityId":"20003137"}}},{"Relevance":1.0,"Distance":68.9,"MatchLevel":"houseNumber","MatchQuality":{"Country":1.0,"State":1.0,"County":1.0,"City":1.0,"Street":[1.0],"HouseNumber":1.0,"PostalCode":1.0},"MatchType":"interpolated","Location":{"LocationId":"NT_NlwmEHbmSWwtOiFpqHF-XD_xYD","LocationType":"point","DisplayPosition":{"Latitude":48.85548,"Longitude":2.62853},"MapView":{"TopLeft":{"Latitude":48.8566042,"Longitude":2.6268215},"BottomRight":{"Latitude":48.8543558,"Longitude":2.6302385}},"Address":{"Label":"16 Rue Albert Ménier, 77186 Noisiel, France","Country":"FRA","State":"Île-de-France","County":"Seine-et-Marne","City":"Noisiel","Street":"Rue Albert Ménier","HouseNumber":"16","PostalCode":"77186","AdditionalData":[{"value":"France","key":"CountryName"},{"value":"Île-de-France","key":"StateName"},{"value":"Seine-et-Marne","key":"CountyName"}]},"MapReference":{"ReferenceId":"56293531","Spot":0.43,"SideOfStreet":"left","CountryId":"20000001","StateId":"20002126","CountyId":"20002151","CityId":"20003137","AddressId":"322232779","RoadLinkId":"43437951"}}}]}]}}