{"Response":{"MetaInfo":{"Timestamp":"2020-03-28T10:56:35.155+0000","NextPageInformation":"2"},"View":[{"_type":"SearchResultsViewType","ViewId":0,"Result":[{"Relevance":1.0,"Distance":-43.0,"MatchLevel":"landmark","MatchQuality":{"Country":1.0,"State":1.0,"County":1.0,"City":1.0,"District":1.0,"Street":[1.0],"HouseNumber":1.0,"PostalCode":1.0,"Name":1.0},"Location":{"LocationId":"NT_1K7cO2040X5EplPezCE5GC_p_H-rYJOysBQh1wae139.OXD","LocationType":"hospital","Name":"Goldberg-Klinik Kelheim","DisplayPosition":{"Latitude":48.92334,"Longitude":11.88438},"MapView":{"TopLeft":{"Latitude":48.9244642,"Longitude":11.8826691},"BottomRight":{"Latitude":48.9222158,"Longitude":11.8860909}},"Address":{"Label":"Traubenweg 3, 93309 Kelheim, Deutschland","Country":"DEU","State":"Bayern","County":"Kelheim","City":"Kelheim","District":"Kelheim","Street":"Traubenweg","HouseNumber":"3","PostalCode":"93309","AdditionalData":[{"value":"Deutschland","key":"CountryName"},{"value":"Bayern","key":"StateName"},{"value":"Kelheim","key":"CountyName"}]},"MapReference":{"CountryId":"20147700","StateId":"20177250","CountyId":"20179782","CityId":"20179829","DistrictId":"20179831","PlaceId":"55775896"}}},{"Relevance":1.0,"Distance":0.0,"Direction":0.0,"MatchLevel":"district","MatchQuality":{"Country":1.0,"State":1.0,"County":1.0,"City":1.0,"District":1.0,"PostalCode":1.0},"Location":{"LocationId":"NT_nc4hcNDZoaCzhuYJe090dB","LocationType":"point","DisplayPosition":{"Latitude":48.9238082,"Longitude":11.8845835},"MapView":{"TopLeft":{"Latitude":48.92745,"Longitude":11.85733},"BottomRight":{"Latitude":48.89727,"Longitude":11.92145}},"Address":{"Label":"Kelheim, Bayern, Deutschland","Country":"DEU","State":"Bayern","County":"Kelheim","City":"Kelheim","District":"Kelheim","PostalCode":"93309","AdditionalData":[{"value":"Deutschland","key":"CountryName"},{"value":"Bayern","key":"StateName"},{"value":"Kelheim","key":"CountyName"}]},"MapReference":{"ReferenceId":"1027361871","SideOfStreet":"neither","CountryId":"20147700","StateId":"20177250","CountyId":"20179782","CityId":"20179829","DistrictId":"20179831"}}},{"Relevance":1.0,"Distance":31.3,"MatchLevel":"houseNumber","MatchQuality":{"Country":1.0,"State":1.0,"County":1.0,"City":1.0,"District":1.0,"Street":[1.0],"HouseNumber":1.0,"PostalCode":1.0},"MatchType":"interpolated","Location":{"LocationId":"NT_PRoOM-OO3TPZW-OdZkrQtD_1AD","LocationType":"point","DisplayPosition":{"Latitude":48.92439,"Longitude":11.88348},"MapView":{"TopLeft":{"Latitude":48.9255142,"Longitude":11.8817691},"BottomRight":{"Latitude":48.9232658,"Longitude":11.8851909}},"Address":{"Label":"Hemauer Straße 50, 93309 Kelheim, Deutschland","Country":"DEU","State":"Bayern","County":"Kelheim","City":"Kelheim","District":"Kelheim","Street":"Hemauer Straße","HouseNumber":"50","PostalCode":"93309","AdditionalData":[{"value":"Deutschland","key":"CountryName"},{"value":"Bayern","key":"StateName"},{"value":"Kelheim","key":"CountyName"}]},"MapReference":{"ReferenceId":"836596110","Spot":0.64,"SideOfStreet":"right","CountryId":"20147700","StateId":"20177250","CountyId":"20179782","CityId":"20179829","DistrictId":"20179831","AddressId":"185480405","RoadLinkId":"219811622"}}},{"Relevance":1.0,"Distance":43.1,"MatchLevel":"street","MatchQuality":{"Country":1.0,"State":1.0,"County":1.0,"City":1.0,"District":1.0,"PostalCode":1.0},"Location":{"LocationId":"NT_P3OHPb.eblix1FeGj40grD_l_545257533_L","LocationType":"point","DisplayPosition":{"Latitude":48.9241952,"Longitude":11.884599},"MapView":{"TopLeft":{"Latitude":48.92449,"Longitude":11.88355},"BottomRight":{"Latitude":48.92419,"Longitude":11.88473}},"Address":{"Label":"93309 Kelheim, Deutschland","Country":"DEU","State":"Bayern","County":"Kelheim","City":"Kelheim","District":"Kelheim","PostalCode":"93309","AdditionalData":[{"value":"Deutschland","key":"CountryName"},{"value":"Bayern","key":"StateName"},{"value":"Kelheim","key":"CountyName"}]},"MapReference":{"ReferenceId":"545257533","Spot":0.11,"SideOfStreet":"left","CountryId":"20147700","StateId":"20177250","CountyId":"20179782","CityId":"20179829","DistrictId":"20179831"}}},{"Relevance":1.0,"Distance":43.8,"MatchLevel":"street","MatchQuality":{"Country":1.0,"State":1.0,"County":1.0,"City":1.0,"District":1.0,"PostalCode":1.0},"Location":{"LocationId":"NT_P3OHPb.eblix1FeGj40grD_l_545257532_L","LocationType":"point","DisplayPosition":{"Latitude":48.92419,"Longitude":11.88473},"MapView":{"TopLeft":{"Latitude":48.92432,"Longitude":11.88473},"BottomRight":{"Latitude":48.92413,"Longitude":11.88684}},"Address":{"Label":"93309 Kelheim, Deutschland","Country":"DEU","State":"Bayern","County":"Kelheim","City":"Kelheim","District":"Kelheim","PostalCode":"93309","AdditionalData":[{"value":"Deutschland","key":"CountryName"},{"value":"Bayern","key":"StateName"},{"value":"Kelheim","key":"CountyName"}]},"MapReference":{"ReferenceId":"545257532","Spot":1.0,"SideOfStreet":"left","CountryId":"20147700","StateId":"20177250","CountyId":"20179782","CityId":"20179829","DistrictId":"20179831"}}},{"Relevance":1.0,"Distance":54.6,"MatchLevel":"street","MatchQuality":{"Country":1.0,"State":1.0,"County":1.0,"City":1.0,"District":1.0,"Street":[1.0],"PostalCode":1.0},"Location":{"LocationId":"NT_HB1r5oiQQyNe5gMulpyaoB_l_79585183_L","LocationType":"point","DisplayPosition":{"Latitude":48.92334,"Longitude":11.88436},"MapView":{"TopLeft":{"Latitude":48.92334,"Longitude":11.88397},"BottomRight":{"Latitude":48.92305,"Longitude":11.88436}},"Address":{"Label":"Traubenweg, 93309 Kelheim, Deutschland","Country":"DEU","State":"Bayern","County":"Kelheim","City":"Kelheim","District":"Kelheim","Street":"Traubenweg","PostalCode":"93309","AdditionalData":[{"value":"Deutschland","key":"CountryName"},{"value":"Bayern","key":"StateName"},{"value":"Kelheim","key":"CountyName"}]},"MapReference":{"ReferenceId":"79585183","Spot":1.0,"SideOfStreet":"left","CountryId":"20147700","StateId":"20177250","CountyId":"20179782","CityId":"20179829","DistrictId":"20179831"}}},{"Relevance":1.0,"Distance":57.5,"MatchLevel":"houseNumber","MatchQuality":{"Country":1.0,"State":1.0,"County":1.0,"City":1.0,"District":1.0,"Street":[1.0],"HouseNumber":1.0,"PostalCode":1.0},"MatchType":"interpolated","Location":{"LocationId":"NT_PRoOM-OO3TPZW-OdZkrQtD_0gD","LocationType":"point","DisplayPosition":{"Latitude":48.92418,"Longitude":11.88332},"MapView":{"TopLeft":{"Latitude":48.9253042,"Longitude":11.8816091},"BottomRight":{"Latitude":48.9230558,"Longitude":11.8850309}},"Address":{"Label":"Hemauer Straße 48, 93309 Kelheim, Deutschland","Country":"DEU","State":"Bayern","County":"Kelheim","City":"Kelheim","District":"Kelheim","Street":"Hemauer Straße","HouseNumber":"48","PostalCode":"93309","AdditionalData":[{"value":"Deutschland","key":"CountryName"},{"value":"Bayern","key":"StateName"},{"value":"Kelheim","key":"CountyName"}]},"MapReference":{"ReferenceId":"836596109","Spot":0.85,"SideOfStreet":"right","CountryId":"20147700","StateId":"20177250","CountyId":"20179782","CityId":"20179829","DistrictId":"20179831","AddressId":"184631284","RoadLinkId":"219811621"}}},{"Relevance":1.0,"Distance":74.7,"MatchLevel":"houseNumber","MatchQuality":{"Country":1.0,"State":1.0,"County":1.0,"City":1.0,"District":1.0,"Street":[1.0],"HouseNumber":1.0,"PostalCode":1.0},"MatchType":"interpolated","Location":{"LocationId":"NT_HRh.kmEQ5sseJJt.RZ6MEB_1A","LocationType":"point","DisplayPosition":{"Latitude":48.92301,"Longitude":11.88434},"MapView":{"TopLeft":{"Latitude":48.9241342,"Longitude":11.8826292},"BottomRight":{"Latitude":48.9218858,"Longitude":11.8860508}},"Address":{"Label":"Rebenweg 5, 93309 Kelheim, Deutschland","Country":"DEU","State":"Bayern","County":"Kelheim","City":"Kelheim","District":"Kelheim","Street":"Rebenweg","HouseNumber":"5","PostalCode":"93309","AdditionalData":[{"value":"Deutschland","key":"CountryName"},{"value":"Bayern","key":"StateName"},{"value":"Kelheim","key":"CountyName"}]},"MapReference":{"ReferenceId":"850080415","Spot":0.86,"SideOfStreet":"right","CountryId":"20147700","StateId":"20177250","CountyId":"20179782","CityId":"20179829","DistrictId":"20179831","AddressId":"181959479","RoadLinkId":"229715508"}}},{"Relevance":1.0,"Distance":95.5,"MatchLevel":"street","MatchQuality":{"Country":1.0,"State":1.0,"County":1.0,"City":1.0,"District":1.0,"Street":[1.0],"PostalCode":1.0},"Location":{"LocationId":"NT_wkRvPjY.o5OIhkEqwdtFqB_l_79585184_R","LocationType":"point","DisplayPosition":{"Latitude":48.92305,"Longitude":11.88397},"MapView":{"TopLeft":{"Latitude":48.92314,"Longitude":11.8829},"BottomRight":{"Latitude":48.92305,"Longitude":11.88397}},"Address":{"Label":"Rieslingweg, 93309 Kelheim, Deutschland","Country":"DEU","State":"Bayern","County":"Kelheim","City":"Kelheim","District":"Kelheim","Street":"Rieslingweg","PostalCode":"93309","AdditionalData":[{"value":"Deutschland","key":"CountryName"},{"value":"Bayern","key":"StateName"},{"value":"Kelheim","key":"CountyName"}]},"MapReference":{"ReferenceId":"79585184","Spot":0.0,"SideOfStreet":"right","CountryId":"20147700","StateId":"20177250","CountyId":"20179782","CityId":"20179829","DistrictId":"20179831"}}},{"Relevance":1.0,"Distance":104.7,"MatchLevel":"houseNumber","MatchQuality":{"Country":1.0,"State":1.0,"County":1.0,"City":1.0,"District":1.0,"Street":[1.0],"HouseNumber":1.0,"PostalCode":1.0},"MatchType":"interpolated","Location":{"LocationId":"NT_HB1r5oiQQyNe5gMulpyaoB_zA","LocationType":"point","DisplayPosition":{"Latitude":48.92365,"Longitude":11.88619},"MapView":{"TopLeft":{"Latitude":48.9247742,"Longitude":11.8844791},"BottomRight":{"Latitude":48.9225258,"Longitude":11.8879009}},"Address":{"Label":"Traubenweg 3, 93309 Kelheim, Deutschland","Country":"DEU","State":"Bayern","County":"Kelheim","City":"Kelheim","District":"Kelheim","Street":"Traubenweg","HouseNumber":"3","PostalCode":"93309","AdditionalData":[{"value":"Deutschland","key":"CountryName"},{"value":"Bayern","key":"StateName"},{"value":"Kelheim","key":"CountyName"}]},"MapReference":{"ReferenceId":"541655852","Spot":0.9,"SideOfStreet":"left","CountryId":"20147700","StateId":"20177250","CountyId":"20179782","CityId":"20179829","DistrictId":"20179831","AddressId":"186057307","RoadLinkId":"33799272"}}}]}]}}