{"Response":{"MetaInfo":{"Timestamp":"2020-03-28T11:08:47.378+0000","NextPageInformation":"2"},"View":[{"_type":"SearchResultsViewType","ViewId":0,"Result":[{"Relevance":1.0,"Distance":0.0,"Direction":0.0,"MatchLevel":"city","MatchQuality":{"Country":1.0,"State":1.0,"County":1.0,"City":1.0,"PostalCode":1.0},"Location":{"LocationId":"NT_F9mCyLxIrwJz2Yrebh.tiC","LocationType":"point","DisplayPosition":{"Latitude":48.9527767,"Longitude":4.3275261},"MapView":{"TopLeft":{"Latitude":48.98017,"Longitude":4.27049},"BottomRight":{"Latitude":48.91781,"Longitude":4.34466}},"Address":{"Label":"Fagnières, Grand Est, France","Country":"FRA","State":"Grand Est","County":"Marne","City":"Fagnières","PostalCode":"51510","AdditionalData":[{"value":"France","key":"CountryName"},{"value":"Grand Est","key":"StateName"},{"value":"Marne","key":"CountyName"}]},"MapReference":{"ReferenceId":"945150164","SideOfStreet":"neither","CountryId":"20000001","StateId":"20002047","CountyId":"20002120","CityId":"20017397"}}},{"Relevance":1.0,"Distance":11.7,"MatchLevel":"houseNumber","MatchQuality":{"Country":1.0,"State":1.0,"County":1.0,"City":1.0,"Street":[1.0],"HouseNumber":1.0,"PostalCode":1.0},"MatchType":"interpolated","Location":{"LocationId":"NT_qTSI6rIvoPRZpdZqq6dsED_xAD","LocationType":"point","DisplayPosition":{"Latitude":48.95287,"Longitude":4.3276},"MapView":{"TopLeft":{"Latitude":48.9539942,"Longitude":4.3258881},"BottomRight":{"Latitude":48.9517458,"Longitude":4.3293119}},"Address":{"Label":"10 Rue d'Argensol, 51510 Fagnières, France","Country":"FRA","State":"Grand Est","County":"Marne","City":"Fagnières","Street":"Rue d'Argensol","HouseNumber":"10","PostalCode":"51510","AdditionalData":[{"value":"France","key":"CountryName"},{"value":"Grand Est","key":"StateName"},{"value":"Marne","key":"CountyName"}]},"MapReference":{"ReferenceId":"567804503","Spot":0.56,"SideOfStreet":"left","CountryId":"20000001","StateId":"20002047","CountyId":"20002120","CityId":"20017397","AddressId":"316485620","RoadLinkId":"44156283"}}},{"Relevance":1.0,"Distance":81.0,"MatchLevel":"houseNumber","MatchQuality":{"Country":1.0,"State":1.0,"County":1.0,"City":1.0,"Street":[1.0],"HouseNumber":1.0,"PostalCode":1.0},"MatchType":"interpolated","Location":{"LocationId":"NT_muw9HO8f3mXYswfMM2KzrC_l_1195112056_R_xAD","LocationType":"point","DisplayPosition":{"Latitude":48.9536253,"Longitude":4.3272924},"MapView":{"TopLeft":{"Latitude":48.9547494,"Longitude":4.3255805},"BottomRight":{"Latitude":48.9525011,"Longitude":4.3290043}},"Address":{"Label":"10 Route de Montmirail, 51510 Fagnières, France","Country":"FRA","State":"Grand Est","County":"Marne","City":"Fagnières","Street":"Route de Montmirail","HouseNumber":"10","PostalCode":"51510","AdditionalData":[{"value":"France","key":"CountryName"},{"value":"Grand Est","key":"StateName"},{"value":"Marne","key":"CountyName"}]},"MapReference":{"ReferenceId":"1195112056","Spot":0.5,"SideOfStreet":"right","CountryId":"20000001","StateId":"20002047","CountyId":"20002120","CityId":"20017397"}}},{"Relevance":1.0,"Distance":86.6,"MatchLevel":"houseNumber","MatchQuality":{"Country":1.0,"State":1.0,"County":1.0,"City":1.0,"Street":[1.0],"HouseNumber":1.0,"PostalCode":1.0},"MatchType":"interpolated","Location":{"LocationId":"NT_muw9HO8f3mXYswfMM2KzrC_xQD","LocationType":"point","DisplayPosition":{"Latitude":48.95355,"Longitude":4.32656},"MapView":{"TopLeft":{"Latitude":48.9546742,"Longitude":4.3248481},"BottomRight":{"Latitude":48.9524258,"Longitude":4.3282719}},"Address":{"Label":"14 Route de Montmirail, 51510 Fagnières, France","Country":"FRA","State":"Grand Est","County":"Marne","City":"Fagnières","Street":"Route de Montmirail","HouseNumber":"14","PostalCode":"51510","AdditionalData":[{"value":"France","key":"CountryName"},{"value":"Grand Est","key":"StateName"},{"value":"Marne","key":"CountyName"}]},"MapReference":{"ReferenceId":"1195112063","Spot":1.0,"SideOfStreet":"right","CountryId":"20000001","StateId":"20002047","CountyId":"20002120","CityId":"20017397","AddressId":"316585956","RoadLinkId":"505254775"}}},{"Relevance":1.0,"Distance":98.5,"MatchLevel":"houseNumber","MatchQuality":{"Country":1.0,"State":1.0,"County":1.0,"City":1.0,"Street":[1.0],"HouseNumber":1.0,"PostalCode":1.0},"MatchType":"interpolated","Location":{"LocationId":"NT_oBJdkJeBHzzopYoglEBBMD_yA","LocationType":"point","DisplayPosition":{"Latitude":48.95319,"Longitude":4.32872},"MapView":{"TopLeft":{"Latitude":48.9543142,"Longitude":4.3270081},"BottomRight":{"Latitude":48.9520658,"Longitude":4.3304319}},"Address":{"Label":"2 Rue Robert Lecomte, 51510 Fagnières, France","Country":"FRA","State":"Grand Est","County":"Marne","City":"Fagnières","Street":"Rue Robert Lecomte","HouseNumber":"2","PostalCode":"51510","AdditionalData":[{"value":"France","key":"CountryName"},{"value":"Grand Est","key":"StateName"},{"value":"Marne","key":"CountyName"}]},"MapReference":{"ReferenceId":"567804507","Spot":0.8,"SideOfStreet":"right","CountryId":"20000001","StateId":"20002047","CountyId":"20002120","CityId":"20017397","AddressId":"570848220","RoadLinkId":"44502506"}}},{"Relevance":1.0,"Distance":102.5,"MatchLevel":"street","MatchQuality":{"Country":1.0,"State":1.0,"County":1.0,"City":1.0,"Street":[1.0],"PostalCode":1.0},"Location":{"LocationId":"NT_4oorE-tO3-2cJH7sKn9-kA_l_567804656_R","LocationType":"point","DisplayPosition":{"Latitude":48.9519411,"Longitude":4.3269327},"MapView":{"TopLeft":{"Latitude":48.95222,"Longitude":4.32654},"BottomRight":{"Latitude":48.95173,"Longitude":4.32723}},"Address":{"Label":"Rue Léo Kanner, 51510 Fagnières, France","Country":"FRA","State":"Grand Est","County":"Marne","City":"Fagnières","Street":"Rue Léo Kanner","PostalCode":"51510","AdditionalData":[{"value":"France","key":"CountryName"},{"value":"Grand Est","key":"StateName"},{"value":"Marne","key":"CountyName"}]},"MapReference":{"ReferenceId":"567804656","Spot":0.43,"SideOfStreet":"right","CountryId":"20000001","StateId":"20002047","CountyId":"20002120","CityId":"20017397"}}},{"Relevance":1.0,"Distance":111.1,"MatchLevel":"houseNumber","MatchQuality":{"Country":1.0,"State":1.0,"County":1.0,"City":1.0,"Street":[1.0],"HouseNumber":1.0,"PostalCode":1.0},"MatchType":"interpolated","Location":{"LocationId":"NT_qTSI6rIvoPRZpdZqq6dsED_yAD","LocationType":"point","DisplayPosition":{"Latitude":48.95212,"Longitude":4.32638},"MapView":{"TopLeft":{"Latitude":48.9532442,"Longitude":4.3246682},"BottomRight":{"Latitude":48.9509958,"Longitude":4.3280918}},"Address":{"Label":"20 Rue d'Argensol, 51510 Fagnières, France","Country":"FRA","State":"Grand Est","County":"Marne","City":"Fagnières","Street":"Rue d'Argensol","HouseNumber":"20","PostalCode":"51510","AdditionalData":[{"value":"France","key":"CountryName"},{"value":"Grand Est","key":"StateName"},{"value":"Marne","key":"CountyName"}]},"MapReference":{"ReferenceId":"567804654","Spot":0.76,"SideOfStreet":"left","CountryId":"20000001","StateId":"20002047","CountyId":"20002120","CityId":"20017397","AddressId":"316496927","RoadLinkId":"44177538"}}},{"Relevance":1.0,"Distance":116.8,"MatchLevel":"houseNumber","MatchQuality":{"Country":1.0,"State":1.0,"County":1.0,"City":1.0,"Street":[1.0],"HouseNumber":1.0,"PostalCode":1.0},"MatchType":"interpolated","Location":{"LocationId":"NT_qTSI6rIvoPRZpdZqq6dsED_yA","LocationType":"point","DisplayPosition":{"Latitude":48.95352,"Longitude":4.32865},"MapView":{"TopLeft":{"Latitude":48.9546442,"Longitude":4.3269381},"BottomRight":{"Latitude":48.9523958,"Longitude":4.3303619}},"Address":{"Label":"2 Rue d'Argensol, 51510 Fagnières, France","Country":"FRA","State":"Grand Est","County":"Marne","City":"Fagnières","Street":"Rue d'Argensol","HouseNumber":"2","PostalCode":"51510","AdditionalData":[{"value":"France","key":"CountryName"},{"value":"Grand Est","key":"StateName"},{"value":"Marne","key":"CountyName"}]},"MapReference":{"ReferenceId":"567804508","Spot":0.35,"SideOfStreet":"left","CountryId":"20000001","StateId":"20002047","CountyId":"20002120","CityId":"20017397","AddressId":"570861947","RoadLinkId":"44763959"}}},{"Relevance":1.0,"Distance":118.4,"MatchLevel":"street","MatchQuality":{"Country":1.0,"State":1.0,"County":1.0,"City":1.0,"Street":[1.0],"PostalCode":1.0},"Location":{"LocationId":"NT_4oorE-tO3-2cJH7sKn9-kA_l_567804509_R","LocationType":"point","DisplayPosition":{"Latitude":48.95173,"Longitude":4.32723},"MapView":{"TopLeft":{"Latitude":48.95173,"Longitude":4.32723},"BottomRight":{"Latitude":48.95133,"Longitude":4.32785}},"Address":{"Label":"Rue Léo Kanner, 51510 Fagnières, France","Country":"FRA","State":"Grand Est","County":"Marne","City":"Fagnières","Street":"Rue Léo Kanner","PostalCode":"51510","AdditionalData":[{"value":"France","key":"CountryName"},{"value":"Grand Est","key":"StateName"},{"value":"Marne","key":"CountyName"}]},"MapReference":{"ReferenceId":"567804509","Spot":1.0,"SideOfStreet":"right","CountryId":"20000001","StateId":"20002047","CountyId":"20002120","CityId":"20017397"}}},{"Relevance":1.0,"Distance":118.4,"MatchLevel":"street","MatchQuality":{"Country":1.0,"State":1.0,"County":1.0,"City":1.0,"PostalCode":1.0},"Location":{"LocationId":"NT_4wBcwWyFS7vFDZb-uMWEnA_l_567804655_L","LocationType":"point","DisplayPosition":{"Latitude":48.95173,"Longitude":4.32723},"MapView":{"TopLeft":{"Latitude":48.95173,"Longitude":4.32599},"BottomRight":{"Latitude":48.95105,"Longitude":4.32723}},"Address":{"Label":"51510 Fagnières, France","Country":"FRA","State":"Grand Est","County":"Marne","City":"Fagnières","PostalCode":"51510","AdditionalData":[{"value":"France","key":"CountryName"},{"value":"Grand Est","key":"StateName"},{"value":"Marne","key":"CountyName"}]},"MapReference":{"ReferenceId":"567804655","Spot":1.0,"SideOfStreet":"left","CountryId":"20000001","StateId":"20002047","CountyId":"20002120","CityId":"20017397"}}}]}]}}