{"Response":{"MetaInfo":{"Timestamp":"2020-03-28T11:40:57.956+0000","NextPageInformation":"2"},"View":[{"_type":"SearchResultsViewType","ViewId":0,"Result":[{"Relevance":1.0,"Distance":0.0,"Direction":0.0,"MatchLevel":"district","MatchQuality":{"Country":1.0,"State":1.0,"County":1.0,"City":1.0,"District":1.0,"PostalCode":1.0},"Location":{"LocationId":"NT_XvrTQyNa5P4YWQUT01OXxD","LocationType":"point","DisplayPosition":{"Latitude":48.937993,"Longitude":9.5008567},"MapView":{"TopLeft":{"Latitude":48.94164,"Longitude":9.49564},"BottomRight":{"Latitude":48.93451,"Longitude":9.5087}},"Address":{"Label":"Unterbrüden, Auenwald, Baden-Württemberg, Deutschland","Country":"DEU","State":"Baden-Württemberg","County":"Rems-Murr-Kreis","City":"Auenwald","District":"Unterbrüden","PostalCode":"71549","AdditionalData":[{"value":"Deutschland","key":"CountryName"},{"value":"Baden-Württemberg","key":"StateName"},{"value":"Rems-Murr-Kreis","key":"CountyName"}]},"MapReference":{"ReferenceId":"792893521","SideOfStreet":"neither","CountryId":"20147700","StateId":"20171489","CountyId":"20172131","CityId":"20172149","DistrictId":"20279713"}}},{"Relevance":1.0,"Distance":10.0,"MatchLevel":"houseNumber","MatchQuality":{"Country":1.0,"State":1.0,"County":1.0,"City":1.0,"District":1.0,"Street":[1.0],"HouseNumber":1.0,"PostalCode":1.0},"MatchType":"interpolated","Location":{"LocationId":"NT_C7zVZAU3VlURNIiQcYjIjD_48SM","LocationType":"point","DisplayPosition":{"Latitude":48.93808,"Longitude":9.50082},"MapView":{"TopLeft":{"Latitude":48.9392042,"Longitude":9.4991086},"BottomRight":{"Latitude":48.9369558,"Longitude":9.5025314}},"Address":{"Label":"Talstraße 8/1, 71549 Auenwald, Deutschland","Country":"DEU","State":"Baden-Württemberg","County":"Rems-Murr-Kreis","City":"Auenwald","District":"Unterbrüden","Street":"Talstraße","HouseNumber":"8/1","PostalCode":"71549","AdditionalData":[{"value":"Deutschland","key":"CountryName"},{"value":"Baden-Württemberg","key":"StateName"},{"value":"Rems-Murr-Kreis","key":"CountyName"}]},"MapReference":{"ReferenceId":"72875652","Spot":0.63,"SideOfStreet":"right","CountryId":"20147700","StateId":"20171489","CountyId":"20172131","CityId":"20172149","DistrictId":"20279713","AddressId":"179032798","RoadLinkId":"38529346"}}},{"Relevance":1.0,"Distance":23.9,"MatchLevel":"houseNumber","MatchQuality":{"Country":1.0,"State":1.0,"County":1.0,"City":1.0,"District":1.0,"Street":[1.0],"HouseNumber":1.0,"PostalCode":1.0},"MatchType":"interpolated","Location":{"LocationId":"NT_B-yVkH4QvTY90onQ8DubwD_xA","LocationType":"point","DisplayPosition":{"Latitude":48.9377,"Longitude":9.50077},"MapView":{"TopLeft":{"Latitude":48.9388242,"Longitude":9.4990586},"BottomRight":{"Latitude":48.9365758,"Longitude":9.5024814}},"Address":{"Label":"Holzbachweg 1, 71549 Auenwald, Deutschland","Country":"DEU","State":"Baden-Württemberg","County":"Rems-Murr-Kreis","City":"Auenwald","District":"Unterbrüden","Street":"Holzbachweg","HouseNumber":"1","PostalCode":"71549","AdditionalData":[{"value":"Deutschland","key":"CountryName"},{"value":"Baden-Württemberg","key":"StateName"},{"value":"Rems-Murr-Kreis","key":"CountyName"}]},"MapReference":{"ReferenceId":"574378440","Spot":0.74,"SideOfStreet":"right","CountryId":"20147700","StateId":"20171489","CountyId":"20172131","CityId":"20172149","DistrictId":"20279713","AddressId":"179971902","RoadLinkId":"38745743"}}},{"Relevance":1.0,"Distance":41.4,"MatchLevel":"houseNumber","MatchQuality":{"Country":1.0,"State":1.0,"County":1.0,"City":1.0,"District":1.0,"Street":[1.0],"HouseNumber":1.0,"PostalCode":1.0},"MatchType":"interpolated","Location":{"LocationId":"NT_C7zVZAU3VlURNIiQcYjIjD_xED","LocationType":"point","DisplayPosition":{"Latitude":48.93839,"Longitude":9.5007},"MapView":{"TopLeft":{"Latitude":48.9395142,"Longitude":9.4989886},"BottomRight":{"Latitude":48.9372658,"Longitude":9.5024114}},"Address":{"Label":"Talstraße 11, 71549 Auenwald, Deutschland","Country":"DEU","State":"Baden-Württemberg","County":"Rems-Murr-Kreis","City":"Auenwald","District":"Unterbrüden","Street":"Talstraße","HouseNumber":"11","PostalCode":"71549","AdditionalData":[{"value":"Deutschland","key":"CountryName"},{"value":"Baden-Württemberg","key":"StateName"},{"value":"Rems-Murr-Kreis","key":"CountyName"}]},"MapReference":{"ReferenceId":"72875569","Spot":0.57,"SideOfStreet":"left","CountryId":"20147700","StateId":"20171489","CountyId":"20172131","CityId":"20172149","DistrictId":"20279713","AddressId":"177987055","RoadLinkId":"38501785"}}},{"Relevance":1.0,"Distance":46.6,"MatchLevel":"houseNumber","MatchQuality":{"Country":1.0,"State":1.0,"County":1.0,"City":1.0,"District":1.0,"Street":[1.0],"HouseNumber":1.0,"PostalCode":1.0},"MatchType":"interpolated","Location":{"LocationId":"NT_C7zVZAU3VlURNIiQcYjIjD_xMD","LocationType":"point","DisplayPosition":{"Latitude":48.93845,"Longitude":9.50057},"MapView":{"TopLeft":{"Latitude":48.9395742,"Longitude":9.4988586},"BottomRight":{"Latitude":48.9373258,"Longitude":9.5022814}},"Address":{"Label":"Talstraße 13, 71549 Auenwald, Deutschland","Country":"DEU","State":"Baden-Württemberg","County":"Rems-Murr-Kreis","City":"Auenwald","District":"Unterbrüden","Street":"Talstraße","HouseNumber":"13","PostalCode":"71549","AdditionalData":[{"value":"Deutschland","key":"CountryName"},{"value":"Baden-Württemberg","key":"StateName"},{"value":"Rems-Murr-Kreis","key":"CountyName"}]},"MapReference":{"ReferenceId":"78586164","Spot":0.0,"SideOfStreet":"left","CountryId":"20147700","StateId":"20171489","CountyId":"20172131","CityId":"20172149","DistrictId":"20279713","AddressId":"180375289","RoadLinkId":"38168709"}}},{"Relevance":1.0,"Distance":56.2,"MatchLevel":"houseNumber","MatchQuality":{"Country":1.0,"State":1.0,"County":1.0,"City":1.0,"District":1.0,"Street":[1.0],"HouseNumber":1.0,"PostalCode":1.0},"MatchType":"interpolated","Location":{"LocationId":"NT_C7zVZAU3VlURNIiQcYjIjD_l_72875851_R_0A","LocationType":"point","DisplayPosition":{"Latitude":48.9376517,"Longitude":9.5002885},"MapView":{"TopLeft":{"Latitude":48.9387759,"Longitude":9.4985772},"BottomRight":{"Latitude":48.9365276,"Longitude":9.5019999}},"Address":{"Label":"Talstraße 4, 71549 Auenwald, Deutschland","Country":"DEU","State":"Baden-Württemberg","County":"Rems-Murr-Kreis","City":"Auenwald","District":"Unterbrüden","Street":"Talstraße","HouseNumber":"4","PostalCode":"71549","AdditionalData":[{"value":"Deutschland","key":"CountryName"},{"value":"Baden-Württemberg","key":"StateName"},{"value":"Rems-Murr-Kreis","key":"CountyName"}]},"MapReference":{"ReferenceId":"72875851","Spot":0.51,"SideOfStreet":"right","CountryId":"20147700","StateId":"20171489","CountyId":"20172131","CityId":"20172149","DistrictId":"20279713"}}},{"Relevance":1.0,"Distance":68.4,"MatchLevel":"houseNumber","MatchQuality":{"Country":1.0,"State":1.0,"County":1.0,"City":1.0,"District":1.0,"Street":[1.0],"HouseNumber":1.0,"PostalCode":1.0},"MatchType":"interpolated","Location":{"LocationId":"NT_bTdamSjnRuZ1FIh9Wnf0nA_zA","LocationType":"point","DisplayPosition":{"Latitude":48.93735,"Longitude":9.50038},"MapView":{"TopLeft":{"Latitude":48.9384742,"Longitude":9.4986687},"BottomRight":{"Latitude":48.9362258,"Longitude":9.5020913}},"Address":{"Label":"Lippoldsweilerstraße 3, 71549 Auenwald, Deutschland","Country":"DEU","State":"Baden-Württemberg","County":"Rems-Murr-Kreis","City":"Auenwald","District":"Unterbrüden","Street":"Lippoldsweilerstraße","HouseNumber":"3","PostalCode":"71549","AdditionalData":[{"value":"Deutschland","key":"CountryName"},{"value":"Baden-Württemberg","key":"StateName"},{"value":"Rems-Murr-Kreis","key":"CountyName"}]},"MapReference":{"ReferenceId":"72875499","Spot":0.57,"SideOfStreet":"right","CountryId":"20147700","StateId":"20171489","CountyId":"20172131","CityId":"20172149","DistrictId":"20279713","AddressId":"179674993","RoadLinkId":"38764098"}}},{"Relevance":1.0,"Distance":79.0,"MatchLevel":"houseNumber","MatchQuality":{"Country":1.0,"State":1.0,"County":1.0,"City":1.0,"District":1.0,"Street":[1.0],"HouseNumber":1.0,"PostalCode":1.0},"MatchType":"interpolated","Location":{"LocationId":"NT_Usj0GVOpRuYJB225MYHIRD_0A","LocationType":"point","DisplayPosition":{"Latitude":48.93874,"Longitude":9.50085},"MapView":{"TopLeft":{"Latitude":48.9398642,"Longitude":9.4991386},"BottomRight":{"Latitude":48.9376158,"Longitude":9.5025614}},"Address":{"Label":"Lugstraße 4, 71549 Auenwald, Deutschland","Country":"DEU","State":"Baden-Württemberg","County":"Rems-Murr-Kreis","City":"Auenwald","District":"Unterbrüden","Street":"Lugstraße","HouseNumber":"4","PostalCode":"71549","AdditionalData":[{"value":"Deutschland","key":"CountryName"},{"value":"Baden-Württemberg","key":"StateName"},{"value":"Rems-Murr-Kreis","key":"CountyName"}]},"MapReference":{"ReferenceId":"72875466","Spot":0.35,"SideOfStreet":"right","CountryId":"20147700","StateId":"20171489","CountyId":"20172131","CityId":"20172149","DistrictId":"20279713","AddressId":"179271869","RoadLinkId":"38427894"}}},{"Relevance":1.0,"Distance":80.7,"MatchLevel":"houseNumber","MatchQuality":{"Country":1.0,"State":1.0,"County":1.0,"City":1.0,"District":1.0,"Street":[1.0],"HouseNumber":1.0,"PostalCode":1.0},"MatchType":"interpolated","Location":{"LocationId":"NT_ujcOUxz6pKiLOiRUbfnaDD_2A","LocationType":"point","DisplayPosition":{"Latitude":48.93841,"Longitude":9.5018},"MapView":{"TopLeft":{"Latitude":48.9395342,"Longitude":9.5000886},"BottomRight":{"Latitude":48.9372858,"Longitude":9.5035114}},"Address":{"Label":"Silcherstraße 6, 71549 Auenwald, Deutschland","Country":"DEU","State":"Baden-Württemberg","County":"Rems-Murr-Kreis","City":"Auenwald","District":"Unterbrüden","Street":"Silcherstraße","HouseNumber":"6","PostalCode":"71549","AdditionalData":[{"value":"Deutschland","key":"CountryName"},{"value":"Baden-Württemberg","key":"StateName"},{"value":"Rems-Murr-Kreis","key":"CountyName"}]},"MapReference":{"ReferenceId":"72875541","Spot":0.56,"SideOfStreet":"right","CountryId":"20147700","StateId":"20171489","CountyId":"20172131","CityId":"20172149","DistrictId":"20279713","AddressId":"180393099","RoadLinkId":"38724884"}}},{"Relevance":1.0,"Distance":81.5,"MatchLevel":"houseNumber","MatchQuality":{"Country":1.0,"State":1.0,"County":1.0,"City":1.0,"District":1.0,"Street":[1.0],"HouseNumber":1.0,"PostalCode":1.0},"MatchType":"interpolated","Location":{"LocationId":"NT_bTdamSjnRuZ1FIh9Wnf0nA_xED","LocationType":"point","DisplayPosition":{"Latitude":48.9372,"Longitude":9.50086},"MapView":{"TopLeft":{"Latitude":48.9383242,"Longitude":9.4991487},"BottomRight":{"Latitude":48.9360758,"Longitude":9.5025713}},"Address":{"Label":"Lippoldsweilerstraße 11, 71549 Auenwald, Deutschland","Country":"DEU","State":"Baden-Württemberg","County":"Rems-Murr-Kreis","City":"Auenwald","District":"Unterbrüden","Street":"Lippoldsweilerstraße","HouseNumber":"11","PostalCode":"71549","AdditionalData":[{"value":"Deutschland","key":"CountryName"},{"value":"Baden-Württemberg","key":"StateName"},{"value":"Rems-Murr-Kreis","key":"CountyName"}]},"MapReference":{"ReferenceId":"792893532","Spot":0.8,"SideOfStreet":"right","CountryId":"20147700","StateId":"20171489","CountyId":"20172131","CityId":"20172149","DistrictId":"20279713","AddressId":"178957597","RoadLinkId":"185077338"}}}]}]}}