{"Response":{"MetaInfo":{"Timestamp":"2020-03-28T11:14:39.340+0000","NextPageInformation":"2"},"View":[{"_type":"SearchResultsViewType","ViewId":0,"Result":[{"Relevance":1.0,"Distance":0.0,"Direction":0.0,"MatchLevel":"city","MatchQuality":{"Country":1.0,"State":1.0,"County":1.0,"City":1.0,"PostalCode":1.0},"Location":{"LocationId":"NT_97TQniwo8ihLEHEDj-kZqA","LocationType":"point","DisplayPosition":{"Latitude":48.9505257,"Longitude":2.1531476},"MapView":{"TopLeft":{"Latitude":48.96539,"Longitude":2.12828},"BottomRight":{"Latitude":48.93513,"Longitude":2.17825}},"Address":{"Label":"Maisons-Laffitte, Île-de-France, France","Country":"FRA","State":"Île-de-France","County":"Yvelines","City":"Maisons-Laffitte","PostalCode":"78600","AdditionalData":[{"value":"France","key":"CountryName"},{"value":"Île-de-France","key":"StateName"},{"value":"Yvelines","key":"CountyName"}]},"MapReference":{"ReferenceId":"56347825","SideOfStreet":"neither","CountryId":"20000001","StateId":"20002126","CountyId":"20003702","CityId":"20004118"}}},{"Relevance":1.0,"Distance":1.3,"MatchLevel":"landmark","MatchQuality":{"Country":1.0,"State":1.0,"County":1.0,"City":1.0,"Street":[1.0],"HouseNumber":1.0,"PostalCode":1.0,"Name":1.0},"Location":{"LocationId":"NT_.TjxObJpgWBgc9KI8rFbOD_p_DTtP9hC9k1jQS8RrIRBsBB","LocationType":"hospital","Name":"CH des Courses","DisplayPosition":{"Latitude":48.95053,"Longitude":2.15195},"MapView":{"TopLeft":{"Latitude":48.9516542,"Longitude":2.1502382},"BottomRight":{"Latitude":48.9494058,"Longitude":2.1536618}},"Address":{"Label":"19 Avenue Églé, 78600 Maisons-Laffitte, France","Country":"FRA","State":"Île-de-France","County":"Yvelines","City":"Maisons-Laffitte","Street":"Avenue Églé","HouseNumber":"19","PostalCode":"78600","AdditionalData":[{"value":"France","key":"CountryName"},{"value":"Île-de-France","key":"StateName"},{"value":"Yvelines","key":"CountyName"}]},"MapReference":{"CountryId":"20000001","StateId":"20002126","CountyId":"20003702","CityId":"20004118","PlaceId":"1070631835"}}},{"Relevance":1.0,"Distance":26.8,"MatchLevel":"houseNumber","MatchQuality":{"Country":1.0,"State":1.0,"County":1.0,"City":1.0,"Street":[1.0],"HouseNumber":1.0,"PostalCode":1.0},"MatchType":"interpolated","Location":{"LocationId":"NT_2Ug55J23bkCiy32zoJq.MD_xEjQ","LocationType":"point","DisplayPosition":{"Latitude":48.95025,"Longitude":2.15351},"MapView":{"TopLeft":{"Latitude":48.9513742,"Longitude":2.1517982},"BottomRight":{"Latitude":48.9491258,"Longitude":2.1552218}},"Address":{"Label":"11B Avenue Belleforière, 78600 Maisons-Laffitte, France","Country":"FRA","State":"Île-de-France","County":"Yvelines","City":"Maisons-Laffitte","Street":"Avenue Belleforière","HouseNumber":"11B","PostalCode":"78600","AdditionalData":[{"value":"France","key":"CountryName"},{"value":"Île-de-France","key":"StateName"},{"value":"Yvelines","key":"CountyName"}]},"MapReference":{"ReferenceId":"56315233","Spot":0.14,"SideOfStreet":"left","CountryId":"20000001","StateId":"20002126","CountyId":"20003702","CityId":"20004118","AddressId":"322224033","RoadLinkId":"43703095"}}},{"Relevance":1.0,"Distance":54.5,"MatchLevel":"houseNumber","MatchQuality":{"Country":1.0,"State":1.0,"County":1.0,"City":1.0,"Street":[1.0],"HouseNumber":1.0,"PostalCode":1.0},"MatchType":"interpolated","Location":{"LocationId":"NT_2Ug55J23bkCiy32zoJq.MD_5A","LocationType":"point","DisplayPosition":{"Latitude":48.95004,"Longitude":2.15335},"MapView":{"TopLeft":{"Latitude":48.9511642,"Longitude":2.1516382},"BottomRight":{"Latitude":48.9489158,"Longitude":2.1550618}},"Address":{"Label":"9 Avenue Belleforière, 78600 Maisons-Laffitte, France","Country":"FRA","State":"Île-de-France","County":"Yvelines","City":"Maisons-Laffitte","Street":"Avenue Belleforière","HouseNumber":"9","PostalCode":"78600","AdditionalData":[{"value":"France","key":"CountryName"},{"value":"Île-de-France","key":"StateName"},{"value":"Yvelines","key":"CountyName"}]},"MapReference":{"ReferenceId":"56315367","Spot":0.98,"SideOfStreet":"left","CountryId":"20000001","StateId":"20002126","CountyId":"20003702","CityId":"20004118","AddressId":"322285517","RoadLinkId":"43498456"}}},{"Relevance":1.0,"Distance":79.6,"MatchLevel":"houseNumber","MatchQuality":{"Country":1.0,"State":1.0,"County":1.0,"City":1.0,"Street":[1.0],"HouseNumber":1.0,"PostalCode":1.0},"MatchType":"interpolated","Location":{"LocationId":"NT_iGEEgd8jzs-WkX.FjgHJbA_yA","LocationType":"point","DisplayPosition":{"Latitude":48.94989,"Longitude":2.15365},"MapView":{"TopLeft":{"Latitude":48.9510142,"Longitude":2.1519382},"BottomRight":{"Latitude":48.9487658,"Longitude":2.1553618}},"Address":{"Label":"2 Avenue Puget, 78600 Maisons-Laffitte, France","Country":"FRA","State":"Île-de-France","County":"Yvelines","City":"Maisons-Laffitte","Street":"Avenue Puget","HouseNumber":"2","PostalCode":"78600","AdditionalData":[{"value":"France","key":"CountryName"},{"value":"Île-de-France","key":"StateName"},{"value":"Yvelines","key":"CountyName"}]},"MapReference":{"ReferenceId":"56315294","Spot":0.64,"SideOfStreet":"right","CountryId":"20000001","StateId":"20002126","CountyId":"20003702","CityId":"20004118","AddressId":"322165054","RoadLinkId":"43385846"}}},{"Relevance":1.0,"Distance":81.2,"MatchLevel":"street","MatchQuality":{"Country":1.0,"State":1.0,"County":1.0,"City":1.0,"PostalCode":1.0},"Location":{"LocationId":"NT_zvuGed0BJn4U5jEZvuLW4C_l_867545974_R","LocationType":"point","DisplayPosition":{"Latitude":48.95019,"Longitude":2.15216},"MapView":{"TopLeft":{"Latitude":48.95047,"Longitude":2.15143},"BottomRight":{"Latitude":48.95019,"Longitude":2.15216}},"Address":{"Label":"78600 Maisons-Laffitte, France","Country":"FRA","State":"Île-de-France","County":"Yvelines","City":"Maisons-Laffitte","PostalCode":"78600","AdditionalData":[{"value":"France","key":"CountryName"},{"value":"Île-de-France","key":"StateName"},{"value":"Yvelines","key":"CountyName"}]},"MapReference":{"ReferenceId":"867545974","Spot":0.0,"SideOfStreet":"right","CountryId":"20000001","StateId":"20002126","CountyId":"20003702","CityId":"20004118"}}},{"Relevance":1.0,"Distance":85.4,"MatchLevel":"houseNumber","MatchQuality":{"Country":1.0,"State":1.0,"County":1.0,"City":1.0,"Street":[1.0],"HouseNumber":1.0,"PostalCode":1.0},"MatchType":"interpolated","Location":{"LocationId":"NT_4QH5uhLQVYNslEdxWqbgbC_xkjQ","LocationType":"point","DisplayPosition":{"Latitude":48.95051,"Longitude":2.15183},"MapView":{"TopLeft":{"Latitude":48.9516342,"Longitude":2.1501182},"BottomRight":{"Latitude":48.9493858,"Longitude":2.1535418}},"Address":{"Label":"19B Avenue Églé, 78600 Maisons-Laffitte, France","Country":"FRA","State":"Île-de-France","County":"Yvelines","City":"Maisons-Laffitte","Street":"Avenue Églé","HouseNumber":"19B","PostalCode":"78600","AdditionalData":[{"value":"France","key":"CountryName"},{"value":"Île-de-France","key":"StateName"},{"value":"Yvelines","key":"CountyName"}]},"MapReference":{"ReferenceId":"867545976","Spot":0.61,"SideOfStreet":"right","CountryId":"20000001","StateId":"20002126","CountyId":"20003702","CityId":"20004118","AddressId":"697053081","RoadLinkId":"240193051"}}},{"Relevance":1.0,"Distance":92.5,"MatchLevel":"houseNumber","MatchQuality":{"Country":1.0,"State":1.0,"County":1.0,"City":1.0,"Street":[1.0],"HouseNumber":1.0,"PostalCode":1.0},"MatchType":"interpolated","Location":{"LocationId":"NT_-UraYnONZAnVk5op4uO92B_0kD","LocationType":"point","DisplayPosition":{"Latitude":48.95125,"Longitude":2.15377},"MapView":{"TopLeft":{"Latitude":48.9523742,"Longitude":2.1520582},"BottomRight":{"Latitude":48.9501258,"Longitude":2.1554818}},"Address":{"Label":"49 Avenue Talma, 78600 Maisons-Laffitte, France","Country":"FRA","State":"Île-de-France","County":"Yvelines","City":"Maisons-Laffitte","Street":"Avenue Talma","HouseNumber":"49","PostalCode":"78600","AdditionalData":[{"value":"France","key":"CountryName"},{"value":"Île-de-France","key":"StateName"},{"value":"Yvelines","key":"CountyName"}]},"MapReference":{"ReferenceId":"56315120","Spot":0.34,"SideOfStreet":"left","CountryId":"20000001","StateId":"20002126","CountyId":"20003702","CityId":"20004118","AddressId":"322384856","RoadLinkId":"43740764"}}},{"Relevance":1.0,"Distance":111.4,"MatchLevel":"houseNumber","MatchQuality":{"Country":1.0,"State":1.0,"County":1.0,"City":1.0,"Street":[1.0],"HouseNumber":1.0,"PostalCode":1.0},"MatchType":"interpolated","Location":{"LocationId":"NT_x1UwUIfQa4upnXvrUgk7tD_xEE","LocationType":"point","DisplayPosition":{"Latitude":48.9512,"Longitude":2.15463},"MapView":{"TopLeft":{"Latitude":48.9523242,"Longitude":2.1529182},"BottomRight":{"Latitude":48.9500758,"Longitude":2.1563418}},"Address":{"Label":"1A Avenue Jean-Jacques Rousseau, 78600 Maisons-Laffitte, France","Country":"FRA","State":"Île-de-France","County":"Yvelines","City":"Maisons-Laffitte","Street":"Avenue Jean-Jacques Rousseau","HouseNumber":"1A","PostalCode":"78600","AdditionalData":[{"value":"France","key":"CountryName"},{"value":"Île-de-France","key":"StateName"},{"value":"Yvelines","key":"CountyName"}]},"MapReference":{"ReferenceId":"56315142","Spot":0.62,"SideOfStreet":"left","CountryId":"20000001","StateId":"20002126","CountyId":"20003702","CityId":"20004118","AddressId":"388813228","RoadLinkId":"43613478"}}},{"Relevance":1.0,"Distance":111.8,"MatchLevel":"houseNumber","MatchQuality":{"Country":1.0,"State":1.0,"County":1.0,"City":1.0,"Street":[1.0],"HouseNumber":1.0,"PostalCode":1.0},"MatchType":"interpolated","Location":{"LocationId":"NT_4QH5uhLQVYNslEdxWqbgbC_yEjQ","LocationType":"point","DisplayPosition":{"Latitude":48.95118,"Longitude":2.15191},"MapView":{"TopLeft":{"Latitude":48.9523042,"Longitude":2.1501982},"BottomRight":{"Latitude":48.9500558,"Longitude":2.1536218}},"Address":{"Label":"21B Avenue Églé, 78600 Maisons-Laffitte, France","Country":"FRA","State":"Île-de-France","County":"Yvelines","City":"Maisons-Laffitte","Street":"Avenue Églé","HouseNumber":"21B","PostalCode":"78600","AdditionalData":[{"value":"France","key":"CountryName"},{"value":"Île-de-France","key":"StateName"},{"value":"Yvelines","key":"CountyName"}]},"MapReference":{"ReferenceId":"64909728","Spot":0.65,"SideOfStreet":"right","CountryId":"20000001","StateId":"20002126","CountyId":"20003702","CityId":"20004118","AddressId":"572444608","RoadLinkId":"43377058"}}}]}]}}