{"Response":{"MetaInfo":{"Timestamp":"2020-03-28T11:51:25.172+0000","NextPageInformation":"2"},"View":[{"_type":"SearchResultsViewType","ViewId":0,"Result":[{"Relevance":1.0,"Distance":0.0,"Direction":0.0,"MatchLevel":"city","MatchQuality":{"Country":1.0,"State":1.0,"County":1.0,"City":1.0,"PostalCode":1.0},"Location":{"LocationId":"NT_pnD6biXHHK1O9OInAgzdyC","LocationType":"point","DisplayPosition":{"Latitude":48.98911,"Longitude":-1.332645},"MapView":{"TopLeft":{"Latitude":49.00101,"Longitude":-1.36598},"BottomRight":{"Latitude":48.96826,"Longitude":-1.29763}},"Address":{"Label":"Roncey, Normandie, France","Country":"FRA","State":"Normandie","County":"Manche","City":"Roncey","PostalCode":"50210","AdditionalData":[{"value":"France","key":"CountryName"},{"value":"Normandie","key":"StateName"},{"value":"Manche","key":"CountyName"}]},"MapReference":{"ReferenceId":"563521407","SideOfStreet":"neither","CountryId":"20000001","StateId":"20057204","CountyId":"20071761","CityId":"20072989"}}},{"Relevance":1.0,"Distance":3.4,"MatchLevel":"houseNumber","MatchQuality":{"Country":1.0,"State":1.0,"County":1.0,"City":1.0,"Street":[1.0],"HouseNumber":1.0,"PostalCode":1.0},"MatchType":"interpolated","Location":{"LocationId":"NT_dpFRv-TGm2P9tQFTZe6jaD_yA","LocationType":"point","DisplayPosition":{"Latitude":48.98908,"Longitude":-1.33259},"MapView":{"TopLeft":{"Latitude":48.9902042,"Longitude":-1.3343031},"BottomRight":{"Latitude":48.9879558,"Longitude":-1.3308769}},"Address":{"Label":"2 Rue de la Fontaine Saint-Côme, 50210 Roncey, France","Country":"FRA","State":"Normandie","County":"Manche","City":"Roncey","Street":"Rue de la Fontaine Saint-Côme","HouseNumber":"2","PostalCode":"50210","AdditionalData":[{"value":"France","key":"CountryName"},{"value":"Normandie","key":"StateName"},{"value":"Manche","key":"CountyName"}]},"MapReference":{"ReferenceId":"563521353","Spot":0.8,"SideOfStreet":"left","CountryId":"20000001","StateId":"20057204","CountyId":"20071761","CityId":"20072989","AddressId":"570171747","RoadLinkId":"47065513"}}},{"Relevance":1.0,"Distance":13.9,"MatchLevel":"houseNumber","MatchQuality":{"Country":1.0,"State":1.0,"County":1.0,"City":1.0,"Street":[1.0],"HouseNumber":1.0,"PostalCode":1.0},"MatchType":"interpolated","Location":{"LocationId":"NT_qjiw-SZKs8wXdzQy0vlGQB_xUD","LocationType":"point","DisplayPosition":{"Latitude":48.98927,"Longitude":-1.33269},"MapView":{"TopLeft":{"Latitude":48.9903942,"Longitude":-1.3344031},"BottomRight":{"Latitude":48.9881458,"Longitude":-1.3309769}},"Address":{"Label":"15 Rue de la Liberté, 50210 Roncey, France","Country":"FRA","State":"Normandie","County":"Manche","City":"Roncey","Street":"Rue de la Liberté","HouseNumber":"15","PostalCode":"50210","AdditionalData":[{"value":"France","key":"CountryName"},{"value":"Normandie","key":"StateName"},{"value":"Manche","key":"CountyName"}]},"MapReference":{"ReferenceId":"563521351","Spot":0.07,"SideOfStreet":"left","CountryId":"20000001","StateId":"20057204","CountyId":"20071761","CityId":"20072989","AddressId":"570105277","RoadLinkId":"151818708"}}},{"Relevance":1.0,"Distance":18.0,"MatchLevel":"houseNumber","MatchQuality":{"Country":1.0,"State":1.0,"County":1.0,"City":1.0,"Street":[1.0],"HouseNumber":1.0,"PostalCode":1.0},"MatchType":"interpolated","Location":{"LocationId":"NT_qjiw-SZKs8wXdzQy0vlGQB_xED","LocationType":"point","DisplayPosition":{"Latitude":48.98928,"Longitude":-1.33248},"MapView":{"TopLeft":{"Latitude":48.9904042,"Longitude":-1.3341931},"BottomRight":{"Latitude":48.9881558,"Longitude":-1.3307669}},"Address":{"Label":"11 Rue de la Liberté, 50210 Roncey, France","Country":"FRA","State":"Normandie","County":"Manche","City":"Roncey","Street":"Rue de la Liberté","HouseNumber":"11","PostalCode":"50210","AdditionalData":[{"value":"France","key":"CountryName"},{"value":"Normandie","key":"StateName"},{"value":"Manche","key":"CountyName"}]},"MapReference":{"ReferenceId":"563521352","Spot":0.37,"SideOfStreet":"right","CountryId":"20000001","StateId":"20057204","CountyId":"20071761","CityId":"20072989","AddressId":"570132319","RoadLinkId":"151822716"}}},{"Relevance":1.0,"Distance":48.3,"MatchLevel":"street","MatchQuality":{"Country":1.0,"State":1.0,"County":1.0,"City":1.0,"PostalCode":1.0},"Location":{"LocationId":"NT_TUnZKEEs-wsOdbkMxdiKXC_l_1039206559_R","LocationType":"point","DisplayPosition":{"Latitude":48.9893,"Longitude":-1.33324},"MapView":{"TopLeft":{"Latitude":48.98936,"Longitude":-1.33335},"BottomRight":{"Latitude":48.9893,"Longitude":-1.33324}},"Address":{"Label":"50210 Roncey, France","Country":"FRA","State":"Normandie","County":"Manche","City":"Roncey","PostalCode":"50210","AdditionalData":[{"value":"France","key":"CountryName"},{"value":"Normandie","key":"StateName"},{"value":"Manche","key":"CountyName"}]},"MapReference":{"ReferenceId":"1039206559","Spot":0.0,"SideOfStreet":"right","CountryId":"20000001","StateId":"20057204","CountyId":"20071761","CityId":"20072989"}}},{"Relevance":1.0,"Distance":48.3,"MatchLevel":"street","MatchQuality":{"Country":1.0,"State":1.0,"County":1.0,"City":1.0,"PostalCode":1.0},"Location":{"LocationId":"NT_TUnZKEEs-wsOdbkMxdiKXC_l_1039206557_R","LocationType":"point","DisplayPosition":{"Latitude":48.9893,"Longitude":-1.33324},"MapView":{"TopLeft":{"Latitude":48.9893,"Longitude":-1.33341},"BottomRight":{"Latitude":48.98925,"Longitude":-1.33324}},"Address":{"Label":"50210 Roncey, France","Country":"FRA","State":"Normandie","County":"Manche","City":"Roncey","PostalCode":"50210","AdditionalData":[{"value":"France","key":"CountryName"},{"value":"Normandie","key":"StateName"},{"value":"Manche","key":"CountyName"}]},"MapReference":{"ReferenceId":"1039206557","Spot":1.0,"SideOfStreet":"right","CountryId":"20000001","StateId":"20057204","CountyId":"20071761","CityId":"20072989"}}},{"Relevance":1.0,"Distance":48.5,"MatchLevel":"houseNumber","MatchQuality":{"Country":1.0,"State":1.0,"County":1.0,"City":1.0,"Street":[1.0],"HouseNumber":1.0,"PostalCode":1.0},"MatchType":"interpolated","Location":{"LocationId":"NT_EVTI4I3OLQnqe4f1EKAOdB_yA","LocationType":"point","DisplayPosition":{"Latitude":48.98944,"Longitude":-1.33221},"MapView":{"TopLeft":{"Latitude":48.9905642,"Longitude":-1.3339231},"BottomRight":{"Latitude":48.9883158,"Longitude":-1.3304969}},"Address":{"Label":"2 Rue de l'Église, 50210 Roncey, France","Country":"FRA","State":"Normandie","County":"Manche","City":"Roncey","Street":"Rue de l'Église","HouseNumber":"2","PostalCode":"50210","AdditionalData":[{"value":"France","key":"CountryName"},{"value":"Normandie","key":"StateName"},{"value":"Manche","key":"CountyName"}]},"MapReference":{"ReferenceId":"563521402","Spot":0.34,"SideOfStreet":"right","CountryId":"20000001","StateId":"20057204","CountyId":"20071761","CityId":"20072989","AddressId":"570124365","RoadLinkId":"47208440"}}},{"Relevance":1.0,"Distance":49.1,"MatchLevel":"houseNumber","MatchQuality":{"Country":1.0,"State":1.0,"County":1.0,"City":1.0,"Street":[1.0],"HouseNumber":1.0,"PostalCode":1.0},"MatchType":"interpolated","Location":{"LocationId":"NT_qjiw-SZKs8wXdzQy0vlGQB_yMD","LocationType":"point","DisplayPosition":{"Latitude":48.98925,"Longitude":-1.3335},"MapView":{"TopLeft":{"Latitude":48.9903742,"Longitude":-1.3352131},"BottomRight":{"Latitude":48.9881258,"Longitude":-1.3317869}},"Address":{"Label":"23 Rue de la Liberté, 50210 Roncey, France","Country":"FRA","State":"Normandie","County":"Manche","City":"Roncey","Street":"Rue de la Liberté","HouseNumber":"23","PostalCode":"50210","AdditionalData":[{"value":"France","key":"CountryName"},{"value":"Normandie","key":"StateName"},{"value":"Manche","key":"CountyName"}]},"MapReference":{"ReferenceId":"57259030","Spot":0.94,"SideOfStreet":"right","CountryId":"20000001","StateId":"20057204","CountyId":"20071761","CityId":"20072989","AddressId":"398987131","RoadLinkId":"151820610"}}},{"Relevance":1.0,"Distance":54.7,"MatchLevel":"houseNumber","MatchQuality":{"Country":1.0,"State":1.0,"County":1.0,"City":1.0,"Street":[1.0],"HouseNumber":1.0,"PostalCode":1.0},"MatchType":"interpolated","Location":{"LocationId":"NT_YY0XFg99ugv9E3VmUYGZhD_4A","LocationType":"point","DisplayPosition":{"Latitude":48.98889,"Longitude":-1.33195},"MapView":{"TopLeft":{"Latitude":48.9900142,"Longitude":-1.3336631},"BottomRight":{"Latitude":48.9877658,"Longitude":-1.3302369}},"Address":{"Label":"10 Route du Plan d'Eau, 50210 Roncey, France","Country":"FRA","State":"Normandie","County":"Manche","City":"Roncey","Street":"Route du Plan d'Eau","HouseNumber":"10","PostalCode":"50210","AdditionalData":[{"value":"France","key":"CountryName"},{"value":"Normandie","key":"StateName"},{"value":"Manche","key":"CountyName"}]},"MapReference":{"ReferenceId":"57259212","Spot":0.62,"SideOfStreet":"left","CountryId":"20000001","StateId":"20057204","CountyId":"20071761","CityId":"20072989","AddressId":"570146622","RoadLinkId":"46362654"}}},{"Relevance":1.0,"Distance":61.4,"MatchLevel":"houseNumber","MatchQuality":{"Country":1.0,"State":1.0,"County":1.0,"City":1.0,"Street":[1.0],"HouseNumber":1.0,"PostalCode":1.0},"MatchType":"interpolated","Location":{"LocationId":"NT_qjiw-SZKs8wXdzQy0vlGQB_3A","LocationType":"point","DisplayPosition":{"Latitude":48.98932,"Longitude":-1.33184},"MapView":{"TopLeft":{"Latitude":48.9904442,"Longitude":-1.3335531},"BottomRight":{"Latitude":48.9881958,"Longitude":-1.3301269}},"Address":{"Label":"7 Rue de la Liberté, 50210 Roncey, France","Country":"FRA","State":"Normandie","County":"Manche","City":"Roncey","Street":"Rue de la Liberté","HouseNumber":"7","PostalCode":"50210","AdditionalData":[{"value":"France","key":"CountryName"},{"value":"Normandie","key":"StateName"},{"value":"Manche","key":"CountyName"}]},"MapReference":{"ReferenceId":"57259031","Spot":0.37,"SideOfStreet":"right","CountryId":"20000001","StateId":"20057204","CountyId":"20071761","CityId":"20072989","AddressId":"321567036","RoadLinkId":"151819121"}}}]}]}}