{"Response":{"MetaInfo":{"Timestamp":"2020-03-28T11:15:00.197+0000","NextPageInformation":"2"},"View":[{"_type":"SearchResultsViewType","ViewId":0,"Result":[{"Relevance":1.0,"Distance":0.0,"Direction":0.0,"MatchLevel":"city","MatchQuality":{"Country":1.0,"State":1.0,"County":1.0,"City":1.0,"PostalCode":1.0},"Location":{"LocationId":"NT_eExylYHlxo1rEMn96uQywC","LocationType":"point","DisplayPosition":{"Latitude":48.962691,"Longitude":2.534757},"MapView":{"TopLeft":{"Latitude":48.97713,"Longitude":2.49594},"BottomRight":{"Latitude":48.93531,"Longitude":2.5689}},"Address":{"Label":"Villepinte, Île-de-France, France","Country":"FRA","State":"Île-de-France","County":"Seine-Saint-Denis","City":"Villepinte","PostalCode":"93420","AdditionalData":[{"value":"France","key":"CountryName"},{"value":"Île-de-France","key":"StateName"},{"value":"Seine-Saint-Denis","key":"CountyName"}]},"MapReference":{"ReferenceId":"780304818","SideOfStreet":"neither","CountryId":"20000001","StateId":"20002126","CountyId":"20005207","CityId":"20005322"}}},{"Relevance":1.0,"Distance":28.4,"MatchLevel":"houseNumber","MatchQuality":{"Country":1.0,"State":1.0,"County":1.0,"City":1.0,"Street":[1.0],"HouseNumber":1.0,"PostalCode":1.0},"MatchType":"interpolated","Location":{"LocationId":"NT_CM1yuITGubBCZAv0ud6vBA_l_762377926_R_xQDO","LocationType":"point","DisplayPosition":{"Latitude":48.9623344,"Longitude":2.5345169},"MapView":{"TopLeft":{"Latitude":48.9634585,"Longitude":2.5328047},"BottomRight":{"Latitude":48.9612102,"Longitude":2.5362291}},"Address":{"Label":"148 Avenue Paul Vaillant-Couturier, 93420 Villepinte, France","Country":"FRA","State":"Île-de-France","County":"Seine-Saint-Denis","City":"Villepinte","Street":"Avenue Paul Vaillant-Couturier","HouseNumber":"148","PostalCode":"93420","AdditionalData":[{"value":"France","key":"CountryName"},{"value":"Île-de-France","key":"StateName"},{"value":"Seine-Saint-Denis","key":"CountyName"}]},"MapReference":{"ReferenceId":"762377926","Spot":0.49,"SideOfStreet":"right","CountryId":"20000001","StateId":"20002126","CountyId":"20005207","CityId":"20005322"}}},{"Relevance":1.0,"Distance":29.2,"MatchLevel":"houseNumber","MatchQuality":{"Country":1.0,"State":1.0,"County":1.0,"City":1.0,"Street":[1.0],"HouseNumber":1.0,"PostalCode":1.0},"MatchType":"interpolated","Location":{"LocationId":"NT_CM1yuITGubBCZAv0ud6vBA_l_762377927_R_xUDM","LocationType":"point","DisplayPosition":{"Latitude":48.962472,"Longitude":2.534278},"MapView":{"TopLeft":{"Latitude":48.9635962,"Longitude":2.5325658},"BottomRight":{"Latitude":48.9613479,"Longitude":2.5359902}},"Address":{"Label":"150 Avenue Paul Vaillant-Couturier, 93420 Villepinte, France","Country":"FRA","State":"Île-de-France","County":"Seine-Saint-Denis","City":"Villepinte","Street":"Avenue Paul Vaillant-Couturier","HouseNumber":"150","PostalCode":"93420","AdditionalData":[{"value":"France","key":"CountryName"},{"value":"Île-de-France","key":"StateName"},{"value":"Seine-Saint-Denis","key":"CountyName"}]},"MapReference":{"ReferenceId":"762377927","Spot":0.54,"SideOfStreet":"right","CountryId":"20000001","StateId":"20002126","CountyId":"20005207","CityId":"20005322"}}},{"Relevance":1.0,"Distance":37.3,"MatchLevel":"street","MatchQuality":{"Country":1.0,"State":1.0,"County":1.0,"City":1.0,"Street":[1.0],"PostalCode":1.0},"Location":{"LocationId":"NT_OUzalyCm6T5fRH-J004RxB_l_56165749_R","LocationType":"point","DisplayPosition":{"Latitude":48.96273,"Longitude":2.53425},"MapView":{"TopLeft":{"Latitude":48.96273,"Longitude":2.53421},"BottomRight":{"Latitude":48.96255,"Longitude":2.53425}},"Address":{"Label":"Rue de Paris, 93420 Villepinte, France","Country":"FRA","State":"Île-de-France","County":"Seine-Saint-Denis","City":"Villepinte","Street":"Rue de Paris","PostalCode":"93420","AdditionalData":[{"value":"France","key":"CountryName"},{"value":"Île-de-France","key":"StateName"},{"value":"Seine-Saint-Denis","key":"CountyName"}]},"MapReference":{"ReferenceId":"56165749","Spot":1.0,"SideOfStreet":"right","CountryId":"20000001","StateId":"20002126","CountyId":"20005207","CityId":"20005322"}}},{"Relevance":1.0,"Distance":42.0,"MatchLevel":"houseNumber","MatchQuality":{"Country":1.0,"State":1.0,"County":1.0,"City":1.0,"Street":[1.0],"HouseNumber":1.0,"PostalCode":1.0},"MatchType":"interpolated","Location":{"LocationId":"NT_bGVd0IJ6sHfE.Lb-m2CmtC_yAD","LocationType":"point","DisplayPosition":{"Latitude":48.96297,"Longitude":2.53437},"MapView":{"TopLeft":{"Latitude":48.9640942,"Longitude":2.5326578},"BottomRight":{"Latitude":48.9618458,"Longitude":2.5360822}},"Address":{"Label":"20 Place de la Mairie, 93420 Villepinte, France","Country":"FRA","State":"Île-de-France","County":"Seine-Saint-Denis","City":"Villepinte","Street":"Place de la Mairie","HouseNumber":"20","PostalCode":"93420","AdditionalData":[{"value":"France","key":"CountryName"},{"value":"Île-de-France","key":"StateName"},{"value":"Seine-Saint-Denis","key":"CountyName"}]},"MapReference":{"ReferenceId":"56165725","Spot":0.5,"SideOfStreet":"left","CountryId":"20000001","StateId":"20002126","CountyId":"20005207","CityId":"20005322","AddressId":"321958615","RoadLinkId":"308023326"}}},{"Relevance":1.0,"Distance":42.9,"MatchLevel":"street","MatchQuality":{"Country":1.0,"State":1.0,"County":1.0,"City":1.0,"Street":[1.0],"PostalCode":1.0},"Location":{"LocationId":"NT_KpSZMT5BfaCT5YiM1LdUqC_l_1035407047_R","LocationType":"point","DisplayPosition":{"Latitude":48.96255,"Longitude":2.53421},"MapView":{"TopLeft":{"Latitude":48.96255,"Longitude":2.53411},"BottomRight":{"Latitude":48.96245,"Longitude":2.53421}},"Address":{"Label":"Chemin de Savigny, 93420 Villepinte, France","Country":"FRA","State":"Île-de-France","County":"Seine-Saint-Denis","City":"Villepinte","Street":"Chemin de Savigny","PostalCode":"93420","AdditionalData":[{"value":"France","key":"CountryName"},{"value":"Île-de-France","key":"StateName"},{"value":"Seine-Saint-Denis","key":"CountyName"}]},"MapReference":{"ReferenceId":"1035407047","Spot":1.0,"SideOfStreet":"right","CountryId":"20000001","StateId":"20002126","CountyId":"20005207","CityId":"20005322"}}},{"Relevance":1.0,"Distance":48.7,"MatchLevel":"houseNumber","MatchQuality":{"Country":1.0,"State":1.0,"County":1.0,"City":1.0,"Street":[1.0],"HouseNumber":1.0,"PostalCode":1.0},"MatchType":"interpolated","Location":{"LocationId":"NT_voC5Lg2a8LJ730CCyBoKzA_yA","LocationType":"point","DisplayPosition":{"Latitude":48.9628,"Longitude":2.53407},"MapView":{"TopLeft":{"Latitude":48.9639242,"Longitude":2.5323578},"BottomRight":{"Latitude":48.9616758,"Longitude":2.5357822}},"Address":{"Label":"2 Impasse Monconseil, 93420 Villepinte, France","Country":"FRA","State":"Île-de-France","County":"Seine-Saint-Denis","City":"Villepinte","Street":"Impasse Monconseil","HouseNumber":"2","PostalCode":"93420","AdditionalData":[{"value":"France","key":"CountryName"},{"value":"Île-de-France","key":"StateName"},{"value":"Seine-Saint-Denis","key":"CountyName"}]},"MapReference":{"ReferenceId":"56165726","Spot":0.74,"SideOfStreet":"right","CountryId":"20000001","StateId":"20002126","CountyId":"20005207","CityId":"20005322","AddressId":"301831570","RoadLinkId":"43637567"}}},{"Relevance":1.0,"Distance":57.2,"MatchLevel":"houseNumber","MatchQuality":{"Country":1.0,"State":1.0,"County":1.0,"City":1.0,"Street":[1.0],"HouseNumber":1.0,"PostalCode":1.0},"MatchType":"interpolated","Location":{"LocationId":"NT_CM1yuITGubBCZAv0ud6vBA_xQjN","LocationType":"point","DisplayPosition":{"Latitude":48.96218,"Longitude":2.53467},"MapView":{"TopLeft":{"Latitude":48.9633042,"Longitude":2.5329578},"BottomRight":{"Latitude":48.9610558,"Longitude":2.5363822}},"Address":{"Label":"146 Avenue Paul Vaillant-Couturier, 93420 Villepinte, France","Country":"FRA","State":"Île-de-France","County":"Seine-Saint-Denis","City":"Villepinte","Street":"Avenue Paul Vaillant-Couturier","HouseNumber":"146","PostalCode":"93420","AdditionalData":[{"value":"France","key":"CountryName"},{"value":"Île-de-France","key":"StateName"},{"value":"Seine-Saint-Denis","key":"CountyName"}]},"MapReference":{"ReferenceId":"762377923","Spot":0.75,"SideOfStreet":"right","CountryId":"20000001","StateId":"20002126","CountyId":"20005207","CityId":"20005322","AddressId":"572372416","RoadLinkId":"156571259"}}},{"Relevance":1.0,"Distance":65.5,"MatchLevel":"houseNumber","MatchQuality":{"Country":1.0,"State":1.0,"County":1.0,"City":1.0,"Street":[1.0],"HouseNumber":1.0,"PostalCode":1.0},"MatchType":"interpolated","Location":{"LocationId":"NT_KpSZMT5BfaCT5YiM1LdUqC_xA","LocationType":"point","DisplayPosition":{"Latitude":48.96234,"Longitude":2.534},"MapView":{"TopLeft":{"Latitude":48.9634642,"Longitude":2.5322878},"BottomRight":{"Latitude":48.9612158,"Longitude":2.5357122}},"Address":{"Label":"1 Chemin de Savigny, 93420 Villepinte, France","Country":"FRA","State":"Île-de-France","County":"Seine-Saint-Denis","City":"Villepinte","Street":"Chemin de Savigny","HouseNumber":"1","PostalCode":"93420","AdditionalData":[{"value":"France","key":"CountryName"},{"value":"Île-de-France","key":"StateName"},{"value":"Seine-Saint-Denis","key":"CountyName"}]},"MapReference":{"ReferenceId":"1035407046","Spot":0.93,"SideOfStreet":"right","CountryId":"20000001","StateId":"20002126","CountyId":"20005207","CityId":"20005322","AddressId":"301806529","RoadLinkId":"357305409"}}},{"Relevance":1.0,"Distance":72.6,"MatchLevel":"houseNumber","MatchQuality":{"Country":1.0,"State":1.0,"County":1.0,"City":1.0,"Street":[1.0],"HouseNumber":1.0,"PostalCode":1.0},"MatchType":"interpolated","Location":{"LocationId":"NT_voC5Lg2a8LJ730CCyBoKzA_1IE","LocationType":"point","DisplayPosition":{"Latitude":48.96291,"Longitude":2.5338},"MapView":{"TopLeft":{"Latitude":48.9640342,"Longitude":2.5320878},"BottomRight":{"Latitude":48.9617858,"Longitude":2.5355122}},"Address":{"Label":"5B Impasse Monconseil, 93420 Villepinte, France","Country":"FRA","State":"Île-de-France","County":"Seine-Saint-Denis","City":"Villepinte","Street":"Impasse Monconseil","HouseNumber":"5B","PostalCode":"93420","AdditionalData":[{"value":"France","key":"CountryName"},{"value":"Île-de-France","key":"StateName"},{"value":"Seine-Saint-Denis","key":"CountyName"}]},"MapReference":{"ReferenceId":"774497997","Spot":0.33,"SideOfStreet":"right","CountryId":"20000001","StateId":"20002126","CountyId":"20005207","CityId":"20005322","AddressId":"572216527","RoadLinkId":"168158253"}}}]}]}}