{"Response":{"MetaInfo":{"Timestamp":"2020-03-28T11:41:11.613+0000","NextPageInformation":"2"},"View":[{"_type":"SearchResultsViewType","ViewId":0,"Result":[{"Relevance":1.0,"Distance":0.0,"Direction":0.0,"MatchLevel":"district","MatchQuality":{"Country":1.0,"State":1.0,"County":1.0,"City":1.0,"District":1.0,"PostalCode":1.0},"Location":{"LocationId":"NT_aXRvzb4D6gT81wgEhSk65C","LocationType":"point","DisplayPosition":{"Latitude":48.9655101,"Longitude":8.3011086},"MapView":{"TopLeft":{"Latitude":48.97009,"Longitude":8.2779},"BottomRight":{"Latitude":48.95228,"Longitude":8.30937}},"Address":{"Label":"Mörsch, Rheinstetten, Baden-Württemberg, Deutschland","Country":"DEU","State":"Baden-Württemberg","County":"Karlsruhe (Landkreis)","City":"Rheinstetten","District":"Mörsch","PostalCode":"76287","AdditionalData":[{"value":"Deutschland","key":"CountryName"},{"value":"Baden-Württemberg","key":"StateName"},{"value":"Karlsruhe (Landkreis)","key":"CountyName"}]},"MapReference":{"ReferenceId":"76826686","SideOfStreet":"neither","CountryId":"20147700","StateId":"20171489","CountyId":"20173258","CityId":"20173399","DistrictId":"20173404"}}},{"Relevance":1.0,"Distance":9.7,"MatchLevel":"houseNumber","MatchQuality":{"Country":1.0,"State":1.0,"County":1.0,"City":1.0,"District":1.0,"Street":[1.0],"HouseNumber":1.0,"PostalCode":1.0},"MatchType":"interpolated","Location":{"LocationId":"NT_y1uQXm0VdwX3DlmG4cpcUB_yMD","LocationType":"point","DisplayPosition":{"Latitude":48.96544,"Longitude":8.30135},"MapView":{"TopLeft":{"Latitude":48.9665642,"Longitude":8.2996377},"BottomRight":{"Latitude":48.9643158,"Longitude":8.3030623}},"Address":{"Label":"Rappenwörthstraße 23, 76287 Rheinstetten, Deutschland","Country":"DEU","State":"Baden-Württemberg","County":"Karlsruhe (Landkreis)","City":"Rheinstetten","District":"Mörsch","Street":"Rappenwörthstraße","HouseNumber":"23","PostalCode":"76287","AdditionalData":[{"value":"Deutschland","key":"CountryName"},{"value":"Baden-Württemberg","key":"StateName"},{"value":"Karlsruhe (Landkreis)","key":"CountyName"}]},"MapReference":{"ReferenceId":"72828313","Spot":0.37,"SideOfStreet":"left","CountryId":"20147700","StateId":"20171489","CountyId":"20173258","CityId":"20173399","DistrictId":"20173404","AddressId":"178250819","RoadLinkId":"38697956"}}},{"Relevance":1.0,"Distance":14.9,"MatchLevel":"houseNumber","MatchQuality":{"Country":1.0,"State":1.0,"County":1.0,"City":1.0,"District":1.0,"Street":[1.0],"HouseNumber":1.0,"PostalCode":1.0},"MatchType":"interpolated","Location":{"LocationId":"NT_y1uQXm0VdwX3DlmG4cpcUB_yED","LocationType":"point","DisplayPosition":{"Latitude":48.96532,"Longitude":8.30118},"MapView":{"TopLeft":{"Latitude":48.9664442,"Longitude":8.2994677},"BottomRight":{"Latitude":48.9641958,"Longitude":8.3028923}},"Address":{"Label":"Rappenwörthstraße 21, 76287 Rheinstetten, Deutschland","Country":"DEU","State":"Baden-Württemberg","County":"Karlsruhe (Landkreis)","City":"Rheinstetten","District":"Mörsch","Street":"Rappenwörthstraße","HouseNumber":"21","PostalCode":"76287","AdditionalData":[{"value":"Deutschland","key":"CountryName"},{"value":"Baden-Württemberg","key":"StateName"},{"value":"Karlsruhe (Landkreis)","key":"CountyName"}]},"MapReference":{"ReferenceId":"72828411","Spot":0.98,"SideOfStreet":"left","CountryId":"20147700","StateId":"20171489","CountyId":"20173258","CityId":"20173399","DistrictId":"20173404","AddressId":"180429042","RoadLinkId":"38777044"}}},{"Relevance":1.0,"Distance":20.9,"MatchLevel":"street","MatchQuality":{"Country":1.0,"State":1.0,"County":1.0,"City":1.0,"District":1.0,"Street":[1.0],"PostalCode":1.0},"Location":{"LocationId":"NT_mqfRJqbauZ80FI-plucUZD_l_76866495_R","LocationType":"point","DisplayPosition":{"Latitude":48.96533,"Longitude":8.30119},"MapView":{"TopLeft":{"Latitude":48.96533,"Longitude":8.30119},"BottomRight":{"Latitude":48.96528,"Longitude":8.30128}},"Address":{"Label":"Gladiolenstraße, 76287 Rheinstetten, Deutschland","Country":"DEU","State":"Baden-Württemberg","County":"Karlsruhe (Landkreis)","City":"Rheinstetten","District":"Mörsch","Street":"Gladiolenstraße","PostalCode":"76287","AdditionalData":[{"value":"Deutschland","key":"CountryName"},{"value":"Baden-Württemberg","key":"StateName"},{"value":"Karlsruhe (Landkreis)","key":"CountyName"}]},"MapReference":{"ReferenceId":"76866495","Spot":1.0,"SideOfStreet":"right","CountryId":"20147700","StateId":"20171489","CountyId":"20173258","CityId":"20173399","DistrictId":"20173404"}}},{"Relevance":1.0,"Distance":27.8,"MatchLevel":"houseNumber","MatchQuality":{"Country":1.0,"State":1.0,"County":1.0,"City":1.0,"District":1.0,"Street":[1.0],"HouseNumber":1.0,"PostalCode":1.0},"MatchType":"interpolated","Location":{"LocationId":"NT_y1uQXm0VdwX3DlmG4cpcUB_0ID","LocationType":"point","DisplayPosition":{"Latitude":48.9654,"Longitude":8.30145},"MapView":{"TopLeft":{"Latitude":48.9665242,"Longitude":8.2997377},"BottomRight":{"Latitude":48.9642758,"Longitude":8.3031623}},"Address":{"Label":"Rappenwörthstraße 42, 76287 Rheinstetten, Deutschland","Country":"DEU","State":"Baden-Württemberg","County":"Karlsruhe (Landkreis)","City":"Rheinstetten","District":"Mörsch","Street":"Rappenwörthstraße","HouseNumber":"42","PostalCode":"76287","AdditionalData":[{"value":"Deutschland","key":"CountryName"},{"value":"Baden-Württemberg","key":"StateName"},{"value":"Karlsruhe (Landkreis)","key":"CountyName"}]},"MapReference":{"ReferenceId":"76866513","Spot":0.38,"SideOfStreet":"right","CountryId":"20147700","StateId":"20171489","CountyId":"20173258","CityId":"20173399","DistrictId":"20173404","AddressId":"180187155","RoadLinkId":"38072235"}}},{"Relevance":1.0,"Distance":31.3,"MatchLevel":"houseNumber","MatchQuality":{"Country":1.0,"State":1.0,"County":1.0,"City":1.0,"District":1.0,"Street":[1.0],"HouseNumber":1.0,"PostalCode":1.0},"MatchType":"interpolated","Location":{"LocationId":"NT_lUDko4KKbV0FqmsJLBCtwD_xA","LocationType":"point","DisplayPosition":{"Latitude":48.96585,"Longitude":8.30121},"MapView":{"TopLeft":{"Latitude":48.9669742,"Longitude":8.2994977},"BottomRight":{"Latitude":48.9647258,"Longitude":8.3029223}},"Address":{"Label":"Maxauer Straße 1, 76287 Rheinstetten, Deutschland","Country":"DEU","State":"Baden-Württemberg","County":"Karlsruhe (Landkreis)","City":"Rheinstetten","District":"Mörsch","Street":"Maxauer Straße","HouseNumber":"1","PostalCode":"76287","AdditionalData":[{"value":"Deutschland","key":"CountryName"},{"value":"Baden-Württemberg","key":"StateName"},{"value":"Karlsruhe (Landkreis)","key":"CountyName"}]},"MapReference":{"ReferenceId":"72828087","Spot":0.52,"SideOfStreet":"left","CountryId":"20147700","StateId":"20171489","CountyId":"20173258","CityId":"20173399","DistrictId":"20173404","AddressId":"178555873","RoadLinkId":"38272997"}}},{"Relevance":1.0,"Distance":33.9,"MatchLevel":"houseNumber","MatchQuality":{"Country":1.0,"State":1.0,"County":1.0,"City":1.0,"District":1.0,"Street":[1.0],"HouseNumber":1.0,"PostalCode":1.0},"MatchType":"interpolated","Location":{"LocationId":"NT_y1uQXm0VdwX3DlmG4cpcUB_0AD","LocationType":"point","DisplayPosition":{"Latitude":48.96521,"Longitude":8.30119},"MapView":{"TopLeft":{"Latitude":48.9663342,"Longitude":8.2994777},"BottomRight":{"Latitude":48.9640858,"Longitude":8.3029023}},"Address":{"Label":"Rappenwörthstraße 40, 76287 Rheinstetten, Deutschland","Country":"DEU","State":"Baden-Württemberg","County":"Karlsruhe (Landkreis)","City":"Rheinstetten","District":"Mörsch","Street":"Rappenwörthstraße","HouseNumber":"40","PostalCode":"76287","AdditionalData":[{"value":"Deutschland","key":"CountryName"},{"value":"Baden-Württemberg","key":"StateName"},{"value":"Karlsruhe (Landkreis)","key":"CountyName"}]},"MapReference":{"ReferenceId":"76866498","Spot":0.87,"SideOfStreet":"right","CountryId":"20147700","StateId":"20171489","CountyId":"20173258","CityId":"20173399","DistrictId":"20173404","AddressId":"178162214","RoadLinkId":"38427320"}}},{"Relevance":1.0,"Distance":40.0,"MatchLevel":"street","MatchQuality":{"Country":1.0,"State":1.0,"County":1.0,"City":1.0,"District":1.0,"Street":[1.0],"PostalCode":1.0},"Location":{"LocationId":"NT_lUDko4KKbV0FqmsJLBCtwD_l_76866515_L","LocationType":"point","DisplayPosition":{"Latitude":48.96564,"Longitude":8.30162},"MapView":{"TopLeft":{"Latitude":48.96564,"Longitude":8.30162},"BottomRight":{"Latitude":48.9656,"Longitude":8.30172}},"Address":{"Label":"Maxauer Straße, 76287 Rheinstetten, Deutschland","Country":"DEU","State":"Baden-Württemberg","County":"Karlsruhe (Landkreis)","City":"Rheinstetten","District":"Mörsch","Street":"Maxauer Straße","PostalCode":"76287","AdditionalData":[{"value":"Deutschland","key":"CountryName"},{"value":"Baden-Württemberg","key":"StateName"},{"value":"Karlsruhe (Landkreis)","key":"CountyName"}]},"MapReference":{"ReferenceId":"76866515","Spot":1.0,"SideOfStreet":"left","CountryId":"20147700","StateId":"20171489","CountyId":"20173258","CityId":"20173399","DistrictId":"20173404"}}},{"Relevance":1.0,"Distance":40.0,"MatchLevel":"street","MatchQuality":{"Country":1.0,"State":1.0,"County":1.0,"City":1.0,"District":1.0,"Street":[1.0],"PostalCode":1.0},"Location":{"LocationId":"NT_y1uQXm0VdwX3DlmG4cpcUB_l_72827992_L","LocationType":"point","DisplayPosition":{"Latitude":48.96564,"Longitude":8.30162},"MapView":{"TopLeft":{"Latitude":48.9659,"Longitude":8.30162},"BottomRight":{"Latitude":48.96564,"Longitude":8.30207}},"Address":{"Label":"Rappenwörthstraße, 76287 Rheinstetten, Deutschland","Country":"DEU","State":"Baden-Württemberg","County":"Karlsruhe (Landkreis)","City":"Rheinstetten","District":"Mörsch","Street":"Rappenwörthstraße","PostalCode":"76287","AdditionalData":[{"value":"Deutschland","key":"CountryName"},{"value":"Baden-Württemberg","key":"StateName"},{"value":"Karlsruhe (Landkreis)","key":"CountyName"}]},"MapReference":{"ReferenceId":"72827992","Spot":0.0,"SideOfStreet":"left","CountryId":"20147700","StateId":"20171489","CountyId":"20173258","CityId":"20173399","DistrictId":"20173404"}}},{"Relevance":1.0,"Distance":40.0,"MatchLevel":"street","MatchQuality":{"Country":1.0,"State":1.0,"County":1.0,"City":1.0,"District":1.0,"PostalCode":1.0},"Location":{"LocationId":"NT_Zclk9ZKA4waT5QwrWMhsDD_l_72828036_L","LocationType":"point","DisplayPosition":{"Latitude":48.96564,"Longitude":8.30162},"MapView":{"TopLeft":{"Latitude":48.96623,"Longitude":8.30162},"BottomRight":{"Latitude":48.96564,"Longitude":8.30209}},"Address":{"Label":"76287 Rheinstetten, Deutschland","Country":"DEU","State":"Baden-Württemberg","County":"Karlsruhe (Landkreis)","City":"Rheinstetten","District":"Mörsch","PostalCode":"76287","AdditionalData":[{"value":"Deutschland","key":"CountryName"},{"value":"Baden-Württemberg","key":"StateName"},{"value":"Karlsruhe (Landkreis)","key":"CountyName"}]},"MapReference":{"ReferenceId":"72828036","Spot":0.0,"SideOfStreet":"left","CountryId":"20147700","StateId":"20171489","CountyId":"20173258","CityId":"20173399","DistrictId":"20173404"}}}]}]}}