{"Response":{"MetaInfo":{"Timestamp":"2020-03-28T10:54:49.067+0000","NextPageInformation":"2"},"View":[{"_type":"SearchResultsViewType","ViewId":0,"Result":[{"Relevance":1.0,"Distance":0.0,"Direction":0.0,"MatchLevel":"district","MatchQuality":{"Country":1.0,"State":1.0,"County":1.0,"City":1.0,"District":1.0,"PostalCode":1.0},"Location":{"LocationId":"NT_RJyowW6gQJB-E0jkJeSd5B","LocationType":"point","DisplayPosition":{"Latitude":48.9333299,"Longitude":12.038881},"MapView":{"TopLeft":{"Latitude":48.9455,"Longitude":12.0312},"BottomRight":{"Latitude":48.92298,"Longitude":12.06193}},"Address":{"Label":"Bad Abbach, Bayern, Deutschland","Country":"DEU","State":"Bayern","County":"Kelheim","City":"Bad Abbach","District":"Bad Abbach","PostalCode":"93077","AdditionalData":[{"value":"Deutschland","key":"CountryName"},{"value":"Bayern","key":"StateName"},{"value":"Kelheim","key":"CountyName"}]},"MapReference":{"ReferenceId":"541805157","SideOfStreet":"neither","CountryId":"20147700","StateId":"20177250","CountyId":"20179782","CityId":"20179797","DistrictId":"20179799"}}},{"Relevance":1.0,"Distance":36.9,"MatchLevel":"houseNumber","MatchQuality":{"Country":1.0,"State":1.0,"County":1.0,"City":1.0,"District":1.0,"Street":[1.0],"HouseNumber":1.0,"PostalCode":1.0},"MatchType":"interpolated","Location":{"LocationId":"NT_0hIVR0oMknQpIvRf8LgxjB_yIE","LocationType":"point","DisplayPosition":{"Latitude":48.9337,"Longitude":12.03976},"MapView":{"TopLeft":{"Latitude":48.9348242,"Longitude":12.0380488},"BottomRight":{"Latitude":48.9325758,"Longitude":12.0414712}},"Address":{"Label":"Kochstraße 2B, 93077 Bad Abbach, Deutschland","Country":"DEU","State":"Bayern","County":"Kelheim","City":"Bad Abbach","District":"Bad Abbach","Street":"Kochstraße","HouseNumber":"2B","PostalCode":"93077","AdditionalData":[{"value":"Deutschland","key":"CountryName"},{"value":"Bayern","key":"StateName"},{"value":"Kelheim","key":"CountyName"}]},"MapReference":{"ReferenceId":"554309358","Spot":0.91,"SideOfStreet":"left","CountryId":"20147700","StateId":"20177250","CountyId":"20179782","CityId":"20179797","DistrictId":"20179799","AddressId":"621745263","RoadLinkId":"33643068"}}},{"Relevance":1.0,"Distance":64.4,"MatchLevel":"houseNumber","MatchQuality":{"Country":1.0,"State":1.0,"County":1.0,"City":1.0,"District":1.0,"Street":[1.0],"HouseNumber":1.0,"PostalCode":1.0},"MatchType":"interpolated","Location":{"LocationId":"NT_0hIVR0oMknQpIvRf8LgxjB_yEE","LocationType":"point","DisplayPosition":{"Latitude":48.93392,"Longitude":12.03975},"MapView":{"TopLeft":{"Latitude":48.9350442,"Longitude":12.0380388},"BottomRight":{"Latitude":48.9327958,"Longitude":12.0414612}},"Address":{"Label":"Kochstraße 2A, 93077 Bad Abbach, Deutschland","Country":"DEU","State":"Bayern","County":"Kelheim","City":"Bad Abbach","District":"Bad Abbach","Street":"Kochstraße","HouseNumber":"2A","PostalCode":"93077","AdditionalData":[{"value":"Deutschland","key":"CountryName"},{"value":"Bayern","key":"StateName"},{"value":"Kelheim","key":"CountyName"}]},"MapReference":{"ReferenceId":"1190496009","Spot":0.37,"SideOfStreet":"left","CountryId":"20147700","StateId":"20177250","CountyId":"20179782","CityId":"20179797","DistrictId":"20179799","AddressId":"621745264","RoadLinkId":"499866396"}}},{"Relevance":1.0,"Distance":71.5,"MatchLevel":"houseNumber","MatchQuality":{"Country":1.0,"State":1.0,"County":1.0,"City":1.0,"District":1.0,"Street":[1.0],"HouseNumber":1.0,"PostalCode":1.0},"MatchType":"interpolated","Location":{"LocationId":"NT_bjnMcw3r-5Av4LuiRqVqZC_xME","LocationType":"point","DisplayPosition":{"Latitude":48.93393,"Longitude":12.0384},"MapView":{"TopLeft":{"Latitude":48.9350542,"Longitude":12.0366888},"BottomRight":{"Latitude":48.9328058,"Longitude":12.0401112}},"Address":{"Label":"Kaiser-Karl-V.-Allee 1C, 93077 Bad Abbach, Deutschland","Country":"DEU","State":"Bayern","County":"Kelheim","City":"Bad Abbach","District":"Bad Abbach","Street":"Kaiser-Karl-V.-Allee","HouseNumber":"1C","PostalCode":"93077","AdditionalData":[{"value":"Deutschland","key":"CountryName"},{"value":"Bayern","key":"StateName"},{"value":"Kelheim","key":"CountyName"}]},"MapReference":{"ReferenceId":"554309353","Spot":0.78,"SideOfStreet":"right","CountryId":"20147700","StateId":"20177250","CountyId":"20179782","CityId":"20179797","DistrictId":"20179799","AddressId":"621745262","RoadLinkId":"33653321"}}},{"Relevance":1.0,"Distance":99.5,"MatchLevel":"street","MatchQuality":{"Country":1.0,"State":1.0,"County":1.0,"City":1.0,"District":1.0,"PostalCode":1.0},"Location":{"LocationId":"NT_6gb2NFFu7vtm3hpcyd9o8B_l_1190496007_R","LocationType":"point","DisplayPosition":{"Latitude":48.93404,"Longitude":12.03971},"MapView":{"TopLeft":{"Latitude":48.93404,"Longitude":12.03971},"BottomRight":{"Latitude":48.93404,"Longitude":12.03974}},"Address":{"Label":"93077 Bad Abbach, Deutschland","Country":"DEU","State":"Bayern","County":"Kelheim","City":"Bad Abbach","District":"Bad Abbach","PostalCode":"93077","AdditionalData":[{"value":"Deutschland","key":"CountryName"},{"value":"Bayern","key":"StateName"},{"value":"Kelheim","key":"CountyName"}]},"MapReference":{"ReferenceId":"1190496007","Spot":0.0,"SideOfStreet":"right","CountryId":"20147700","StateId":"20177250","CountyId":"20179782","CityId":"20179797","DistrictId":"20179799"}}},{"Relevance":1.0,"Distance":100.9,"MatchLevel":"street","MatchQuality":{"Country":1.0,"State":1.0,"County":1.0,"City":1.0,"District":1.0,"PostalCode":1.0},"Location":{"LocationId":"NT_6gb2NFFu7vtm3hpcyd9o8B_l_1190496008_R","LocationType":"point","DisplayPosition":{"Latitude":48.93404,"Longitude":12.03974},"MapView":{"TopLeft":{"Latitude":48.93406,"Longitude":12.03974},"BottomRight":{"Latitude":48.93404,"Longitude":12.04048}},"Address":{"Label":"93077 Bad Abbach, Deutschland","Country":"DEU","State":"Bayern","County":"Kelheim","City":"Bad Abbach","District":"Bad Abbach","PostalCode":"93077","AdditionalData":[{"value":"Deutschland","key":"CountryName"},{"value":"Bayern","key":"StateName"},{"value":"Kelheim","key":"CountyName"}]},"MapReference":{"ReferenceId":"1190496008","Spot":0.0,"SideOfStreet":"right","CountryId":"20147700","StateId":"20177250","CountyId":"20179782","CityId":"20179797","DistrictId":"20179799"}}},{"Relevance":1.0,"Distance":106.8,"MatchLevel":"houseNumber","MatchQuality":{"Country":1.0,"State":1.0,"County":1.0,"City":1.0,"District":1.0,"Street":[1.0],"HouseNumber":1.0,"PostalCode":1.0},"MatchType":"interpolated","Location":{"LocationId":"NT_5ajUCit.f17F24uybhYMbA_yA","LocationType":"point","DisplayPosition":{"Latitude":48.93388,"Longitude":12.04008},"MapView":{"TopLeft":{"Latitude":48.9350042,"Longitude":12.0383688},"BottomRight":{"Latitude":48.9327558,"Longitude":12.0417912}},"Address":{"Label":"Hafnersteig 2, 93077 Bad Abbach, Deutschland","Country":"DEU","State":"Bayern","County":"Kelheim","City":"Bad Abbach","District":"Bad Abbach","Street":"Hafnersteig","HouseNumber":"2","PostalCode":"93077","AdditionalData":[{"value":"Deutschland","key":"CountryName"},{"value":"Bayern","key":"StateName"},{"value":"Kelheim","key":"CountyName"}]},"MapReference":{"ReferenceId":"541805079","Spot":0.46,"SideOfStreet":"left","CountryId":"20147700","StateId":"20177250","CountyId":"20179782","CityId":"20179797","DistrictId":"20179799","AddressId":"185439529","RoadLinkId":"33078496"}}},{"Relevance":1.0,"Distance":110.2,"MatchLevel":"houseNumber","MatchQuality":{"Country":1.0,"State":1.0,"County":1.0,"City":1.0,"District":1.0,"Street":[1.0],"HouseNumber":1.0,"PostalCode":1.0},"MatchType":"interpolated","Location":{"LocationId":"NT_0hIVR0oMknQpIvRf8LgxjB_yA","LocationType":"point","DisplayPosition":{"Latitude":48.93425,"Longitude":12.03973},"MapView":{"TopLeft":{"Latitude":48.9353742,"Longitude":12.0380188},"BottomRight":{"Latitude":48.9331258,"Longitude":12.0414412}},"Address":{"Label":"Kochstraße 2, 93077 Bad Abbach, Deutschland","Country":"DEU","State":"Bayern","County":"Kelheim","City":"Bad Abbach","District":"Bad Abbach","Street":"Kochstraße","HouseNumber":"2","PostalCode":"93077","AdditionalData":[{"value":"Deutschland","key":"CountryName"},{"value":"Bayern","key":"StateName"},{"value":"Kelheim","key":"CountyName"}]},"MapReference":{"ReferenceId":"1190496010","Spot":0.34,"SideOfStreet":"left","CountryId":"20147700","StateId":"20177250","CountyId":"20179782","CityId":"20179797","DistrictId":"20179799","AddressId":"621715928","RoadLinkId":"499866397"}}},{"Relevance":1.0,"Distance":114.5,"MatchLevel":"houseNumber","MatchQuality":{"Country":1.0,"State":1.0,"County":1.0,"City":1.0,"District":1.0,"Street":[1.0],"HouseNumber":1.0,"PostalCode":1.0},"MatchType":"interpolated","Location":{"LocationId":"NT_r0V-878kvIWaFxMuRkXCSC_2A","LocationType":"point","DisplayPosition":{"Latitude":48.93378,"Longitude":12.0404},"MapView":{"TopLeft":{"Latitude":48.9349042,"Longitude":12.0386888},"BottomRight":{"Latitude":48.9326558,"Longitude":12.0421112}},"Address":{"Label":"Schnadergasse 6, 93077 Bad Abbach, Deutschland","Country":"DEU","State":"Bayern","County":"Kelheim","City":"Bad Abbach","District":"Bad Abbach","Street":"Schnadergasse","HouseNumber":"6","PostalCode":"93077","AdditionalData":[{"value":"Deutschland","key":"CountryName"},{"value":"Bayern","key":"StateName"},{"value":"Kelheim","key":"CountyName"}]},"MapReference":{"ReferenceId":"554309356","Spot":0.81,"SideOfStreet":"left","CountryId":"20147700","StateId":"20177250","CountyId":"20179782","CityId":"20179797","DistrictId":"20179799","AddressId":"182705196","RoadLinkId":"33703096"}}},{"Relevance":1.0,"Distance":116.8,"MatchLevel":"houseNumber","MatchQuality":{"Country":1.0,"State":1.0,"County":1.0,"City":1.0,"District":1.0,"Street":[1.0],"HouseNumber":1.0,"PostalCode":1.0},"MatchType":"interpolated","Location":{"LocationId":"NT_bjnMcw3r-5Av4LuiRqVqZC_4A","LocationType":"point","DisplayPosition":{"Latitude":48.93438,"Longitude":12.03883},"MapView":{"TopLeft":{"Latitude":48.9355042,"Longitude":12.0371188},"BottomRight":{"Latitude":48.9332558,"Longitude":12.0405412}},"Address":{"Label":"Kaiser-Karl-V.-Allee 8, 93077 Bad Abbach, Deutschland","Country":"DEU","State":"Bayern","County":"Kelheim","City":"Bad Abbach","District":"Bad Abbach","Street":"Kaiser-Karl-V.-Allee","HouseNumber":"8","PostalCode":"93077","AdditionalData":[{"value":"Deutschland","key":"CountryName"},{"value":"Bayern","key":"StateName"},{"value":"Kelheim","key":"CountyName"}]},"MapReference":{"ReferenceId":"554309354","Spot":0.01,"SideOfStreet":"left","CountryId":"20147700","StateId":"20177250","CountyId":"20179782","CityId":"20179797","DistrictId":"20179799","AddressId":"183724358","RoadLinkId":"33340959"}}}]}]}}