{"Response":{"MetaInfo":{"Timestamp":"2020-03-28T11:51:49.293+0000","NextPageInformation":"2"},"View":[{"_type":"SearchResultsViewType","ViewId":0,"Result":[{"Relevance":1.0,"Distance":-2228.1,"MatchLevel":"landmark","MatchQuality":{"Country":1.0,"State":1.0,"Name":1.0},"Location":{"LocationId":"NT_rO8YCfRs1xdLmKzZ75aU9A","LocationType":"park","Name":"P.N.R. des Vosges du Nord","DisplayPosition":{"Latitude":48.97048,"Longitude":7.55517},"MapView":{"TopLeft":{"Latitude":49.18428,"Longitude":7.11899},"BottomRight":{"Latitude":48.75668,"Longitude":7.96181}},"Address":{"Label":"France","Country":"FRA","State":"Grand Est","AdditionalData":[{"value":"France","key":"CountryName"},{"value":"Grand Est","key":"StateName"}]},"MapReference":{"CountryId":"20000001","StateId":"20002047","PlaceId":"1509876841"}}},{"Relevance":1.0,"Distance":0.0,"Direction":0.0,"MatchLevel":"city","MatchQuality":{"Country":1.0,"State":1.0,"County":1.0,"City":1.0,"PostalCode":1.0},"Location":{"LocationId":"NT_jfQ4ZKhEKLCJJk3dpVc7KB","LocationType":"point","DisplayPosition":{"Latitude":48.9933011,"Longitude":7.3050496},"MapView":{"TopLeft":{"Latitude":49.01923,"Longitude":7.26495},"BottomRight":{"Latitude":48.97392,"Longitude":7.33905}},"Address":{"Label":"Montbronn, Grand Est, France","Country":"FRA","State":"Grand Est","County":"Moselle","City":"Montbronn","PostalCode":"57415","AdditionalData":[{"value":"France","key":"CountryName"},{"value":"Grand Est","key":"StateName"},{"value":"Moselle","key":"CountyName"}]},"MapReference":{"ReferenceId":"545271144","SideOfStreet":"neither","CountryId":"20000001","StateId":"20002047","CountyId":"20023153","CityId":"20024500"}}},{"Relevance":1.0,"Distance":4.9,"MatchLevel":"houseNumber","MatchQuality":{"Country":1.0,"State":1.0,"County":1.0,"City":1.0,"Street":[1.0],"HouseNumber":1.0,"PostalCode":1.0},"MatchType":"interpolated","Location":{"LocationId":"NT_nNiKaBuS1dvN9zdgn6FbVD_xgD","LocationType":"point","DisplayPosition":{"Latitude":48.99327,"Longitude":7.30493},"MapView":{"TopLeft":{"Latitude":48.9943942,"Longitude":7.3032167},"BottomRight":{"Latitude":48.9921458,"Longitude":7.3066433}},"Address":{"Label":"18 Rue Notre-Dame, 57415 Montbronn, France","Country":"FRA","State":"Grand Est","County":"Moselle","City":"Montbronn","Street":"Rue Notre-Dame","HouseNumber":"18","PostalCode":"57415","AdditionalData":[{"value":"France","key":"CountryName"},{"value":"Grand Est","key":"StateName"},{"value":"Moselle","key":"CountyName"}]},"MapReference":{"ReferenceId":"1202162645","Spot":1.0,"SideOfStreet":"right","CountryId":"20000001","StateId":"20002047","CountyId":"20023153","CityId":"20024500","AddressId":"571431350","RoadLinkId":"514905597"}}},{"Relevance":1.0,"Distance":5.7,"MatchLevel":"street","MatchQuality":{"Country":1.0,"State":1.0,"County":1.0,"City":1.0,"PostalCode":1.0},"Location":{"LocationId":"NT_OdKkfvOhYN2Js4b8nDzg0A_l_1203459157_R","LocationType":"point","DisplayPosition":{"Latitude":48.9932505,"Longitude":7.3050407},"MapView":{"TopLeft":{"Latitude":48.99327,"Longitude":7.30493},"BottomRight":{"Latitude":48.99324,"Longitude":7.3051}},"Address":{"Label":"57415 Montbronn, France","Country":"FRA","State":"Grand Est","County":"Moselle","City":"Montbronn","PostalCode":"57415","AdditionalData":[{"value":"France","key":"CountryName"},{"value":"Grand Est","key":"StateName"},{"value":"Moselle","key":"CountyName"}]},"MapReference":{"ReferenceId":"1203459157","Spot":0.35,"SideOfStreet":"right","CountryId":"20000001","StateId":"20002047","CountyId":"20023153","CityId":"20024500"}}},{"Relevance":1.0,"Distance":28.8,"MatchLevel":"houseNumber","MatchQuality":{"Country":1.0,"State":1.0,"County":1.0,"City":1.0,"Street":[1.0],"HouseNumber":1.0,"PostalCode":1.0},"MatchType":"interpolated","Location":{"LocationId":"NT_nNiKaBuS1dvN9zdgn6FbVD_xYD","LocationType":"point","DisplayPosition":{"Latitude":48.99356,"Longitude":7.30507},"MapView":{"TopLeft":{"Latitude":48.9946842,"Longitude":7.3033567},"BottomRight":{"Latitude":48.9924358,"Longitude":7.3067833}},"Address":{"Label":"16 Rue Notre-Dame, 57415 Montbronn, France","Country":"FRA","State":"Grand Est","County":"Moselle","City":"Montbronn","Street":"Rue Notre-Dame","HouseNumber":"16","PostalCode":"57415","AdditionalData":[{"value":"France","key":"CountryName"},{"value":"Grand Est","key":"StateName"},{"value":"Moselle","key":"CountyName"}]},"MapReference":{"ReferenceId":"542340979","Spot":0.88,"SideOfStreet":"right","CountryId":"20000001","StateId":"20002047","CountyId":"20023153","CityId":"20024500","AddressId":"317550105","RoadLinkId":"44508482"}}},{"Relevance":1.0,"Distance":48.1,"MatchLevel":"houseNumber","MatchQuality":{"Country":1.0,"State":1.0,"County":1.0,"City":1.0,"Street":[1.0],"HouseNumber":1.0,"PostalCode":1.0},"MatchType":"interpolated","Location":{"LocationId":"NT_nNiKaBuS1dvN9zdgn6FbVD_xQD","LocationType":"point","DisplayPosition":{"Latitude":48.99373,"Longitude":7.30513},"MapView":{"TopLeft":{"Latitude":48.9948542,"Longitude":7.3034167},"BottomRight":{"Latitude":48.9926058,"Longitude":7.3068433}},"Address":{"Label":"14 Rue Notre-Dame, 57415 Montbronn, France","Country":"FRA","State":"Grand Est","County":"Moselle","City":"Montbronn","Street":"Rue Notre-Dame","HouseNumber":"14","PostalCode":"57415","AdditionalData":[{"value":"France","key":"CountryName"},{"value":"Grand Est","key":"StateName"},{"value":"Moselle","key":"CountyName"}]},"MapReference":{"ReferenceId":"815935766","Spot":0.35,"SideOfStreet":"right","CountryId":"20000001","StateId":"20002047","CountyId":"20023153","CityId":"20024500","AddressId":"379639816","RoadLinkId":"203313787"}}},{"Relevance":1.0,"Distance":52.7,"MatchLevel":"street","MatchQuality":{"Country":1.0,"State":1.0,"County":1.0,"City":1.0,"PostalCode":1.0},"Location":{"LocationId":"NT_OdKkfvOhYN2Js4b8nDzg0A_l_1202162643_R","LocationType":"point","DisplayPosition":{"Latitude":48.992829,"Longitude":7.3049915},"MapView":{"TopLeft":{"Latitude":48.99286,"Longitude":7.30474},"BottomRight":{"Latitude":48.99278,"Longitude":7.30539}},"Address":{"Label":"57415 Montbronn, France","Country":"FRA","State":"Grand Est","County":"Moselle","City":"Montbronn","PostalCode":"57415","AdditionalData":[{"value":"France","key":"CountryName"},{"value":"Grand Est","key":"StateName"},{"value":"Moselle","key":"CountyName"}]},"MapReference":{"ReferenceId":"1202162643","Spot":0.61,"SideOfStreet":"right","CountryId":"20000001","StateId":"20002047","CountyId":"20023153","CityId":"20024500"}}},{"Relevance":1.0,"Distance":71.5,"MatchLevel":"houseNumber","MatchQuality":{"Country":1.0,"State":1.0,"County":1.0,"City":1.0,"Street":[1.0],"HouseNumber":1.0,"PostalCode":1.0},"MatchType":"interpolated","Location":{"LocationId":"NT_nNiKaBuS1dvN9zdgn6FbVD_yID","LocationType":"point","DisplayPosition":{"Latitude":48.99266,"Longitude":7.30471},"MapView":{"TopLeft":{"Latitude":48.9937842,"Longitude":7.3029968},"BottomRight":{"Latitude":48.9915358,"Longitude":7.3064232}},"Address":{"Label":"22 Rue Notre-Dame, 57415 Montbronn, France","Country":"FRA","State":"Grand Est","County":"Moselle","City":"Montbronn","Street":"Rue Notre-Dame","HouseNumber":"22","PostalCode":"57415","AdditionalData":[{"value":"France","key":"CountryName"},{"value":"Grand Est","key":"StateName"},{"value":"Moselle","key":"CountyName"}]},"MapReference":{"ReferenceId":"1202162644","Spot":0.9,"SideOfStreet":"right","CountryId":"20000001","StateId":"20002047","CountyId":"20023153","CityId":"20024500","AddressId":"317535206","RoadLinkId":"514905596"}}},{"Relevance":1.0,"Distance":77.6,"MatchLevel":"houseNumber","MatchQuality":{"Country":1.0,"State":1.0,"County":1.0,"City":1.0,"Street":[1.0],"HouseNumber":1.0,"PostalCode":1.0},"MatchType":"interpolated","Location":{"LocationId":"NT_8NfdaeojITz33TugnN9nzA_yA","LocationType":"point","DisplayPosition":{"Latitude":48.99322,"Longitude":7.30397},"MapView":{"TopLeft":{"Latitude":48.9943442,"Longitude":7.3022567},"BottomRight":{"Latitude":48.9920958,"Longitude":7.3056833}},"Address":{"Label":"2 Rue des Verriers, 57415 Montbronn, France","Country":"FRA","State":"Grand Est","County":"Moselle","City":"Montbronn","Street":"Rue des Verriers","HouseNumber":"2","PostalCode":"57415","AdditionalData":[{"value":"France","key":"CountryName"},{"value":"Grand Est","key":"StateName"},{"value":"Moselle","key":"CountyName"}]},"MapReference":{"ReferenceId":"773563967","Spot":0.17,"SideOfStreet":"right","CountryId":"20000001","StateId":"20002047","CountyId":"20023153","CityId":"20024500","AddressId":"379651249","RoadLinkId":"167380087"}}},{"Relevance":1.0,"Distance":90.3,"MatchLevel":"houseNumber","MatchQuality":{"Country":1.0,"State":1.0,"County":1.0,"City":1.0,"Street":[1.0],"HouseNumber":1.0,"PostalCode":1.0},"MatchType":"interpolated","Location":{"LocationId":"NT_nNiKaBuS1dvN9zdgn6FbVD_3A","LocationType":"point","DisplayPosition":{"Latitude":48.99411,"Longitude":7.30521},"MapView":{"TopLeft":{"Latitude":48.9952342,"Longitude":7.3034967},"BottomRight":{"Latitude":48.9929858,"Longitude":7.3069233}},"Address":{"Label":"7 Rue Notre-Dame, 57415 Montbronn, France","Country":"FRA","State":"Grand Est","County":"Moselle","City":"Montbronn","Street":"Rue Notre-Dame","HouseNumber":"7","PostalCode":"57415","AdditionalData":[{"value":"France","key":"CountryName"},{"value":"Grand Est","key":"StateName"},{"value":"Moselle","key":"CountyName"}]},"MapReference":{"ReferenceId":"815935767","Spot":0.21,"SideOfStreet":"left","CountryId":"20000001","StateId":"20002047","CountyId":"20023153","CityId":"20024500","AddressId":"379570130","RoadLinkId":"203313788"}}}]}]}}