{"Response":{"MetaInfo":{"Timestamp":"2020-03-28T11:53:53.619+0000","NextPageInformation":"2"},"View":[{"_type":"SearchResultsViewType","ViewId":0,"Result":[{"Relevance":1.0,"Distance":0.0,"Direction":0.0,"MatchLevel":"city","MatchQuality":{"Country":1.0,"State":1.0,"County":1.0,"City":1.0,"PostalCode":1.0},"Location":{"LocationId":"NT_gdqqi3sN3qNzVRoTCyc3yA","LocationType":"point","DisplayPosition":{"Latitude":48.9886656,"Longitude":2.2602022},"MapView":{"TopLeft":{"Latitude":49.00185,"Longitude":2.24207},"BottomRight":{"Latitude":48.97631,"Longitude":2.27377}},"Address":{"Label":"Ermont, Île-de-France, France","Country":"FRA","State":"Île-de-France","County":"Val-d'Oise","City":"Ermont","PostalCode":"95120","AdditionalData":[{"value":"France","key":"CountryName"},{"value":"Île-de-France","key":"StateName"},{"value":"Val-d'Oise","key":"CountyName"}]},"MapReference":{"ReferenceId":"766066253","SideOfStreet":"neither","CountryId":"20000001","StateId":"20002126","CountyId":"20005470","CityId":"20005666"}}},{"Relevance":1.0,"Distance":5.9,"MatchLevel":"houseNumber","MatchQuality":{"Country":1.0,"State":1.0,"County":1.0,"City":1.0,"Street":[1.0],"HouseNumber":1.0,"PostalCode":1.0},"MatchType":"interpolated","Location":{"LocationId":"NT_aY8A1jEVEU9yaUvWUp.X0A_xQjQ","LocationType":"point","DisplayPosition":{"Latitude":48.98869,"Longitude":2.26033},"MapView":{"TopLeft":{"Latitude":48.9898142,"Longitude":2.2586169},"BottomRight":{"Latitude":48.9875658,"Longitude":2.2620431}},"Address":{"Label":"14B Rue de la République, 95120 Ermont, France","Country":"FRA","State":"Île-de-France","County":"Val-d'Oise","City":"Ermont","Street":"Rue de la République","HouseNumber":"14B","PostalCode":"95120","AdditionalData":[{"value":"France","key":"CountryName"},{"value":"Île-de-France","key":"StateName"},{"value":"Val-d'Oise","key":"CountyName"}]},"MapReference":{"ReferenceId":"56376020","Spot":0.98,"SideOfStreet":"left","CountryId":"20000001","StateId":"20002126","CountyId":"20005470","CityId":"20005666","AddressId":"321948678","RoadLinkId":"43357469"}}},{"Relevance":1.0,"Distance":8.1,"MatchLevel":"houseNumber","MatchQuality":{"Country":1.0,"State":1.0,"County":1.0,"City":1.0,"Street":[1.0],"HouseNumber":1.0,"PostalCode":1.0},"MatchType":"interpolated","Location":{"LocationId":"NT_aY8A1jEVEU9yaUvWUp.X0A_xQD","LocationType":"point","DisplayPosition":{"Latitude":48.98873,"Longitude":2.26015},"MapView":{"TopLeft":{"Latitude":48.9898542,"Longitude":2.2584369},"BottomRight":{"Latitude":48.9876058,"Longitude":2.2618631}},"Address":{"Label":"14 Rue de la République, 95120 Ermont, France","Country":"FRA","State":"Île-de-France","County":"Val-d'Oise","City":"Ermont","Street":"Rue de la République","HouseNumber":"14","PostalCode":"95120","AdditionalData":[{"value":"France","key":"CountryName"},{"value":"Île-de-France","key":"StateName"},{"value":"Val-d'Oise","key":"CountyName"}]},"MapReference":{"ReferenceId":"56391946","Spot":0.51,"SideOfStreet":"left","CountryId":"20000001","StateId":"20002126","CountyId":"20005470","CityId":"20005666","AddressId":"322072190","RoadLinkId":"43393044"}}},{"Relevance":1.0,"Distance":20.8,"MatchLevel":"street","MatchQuality":{"Country":1.0,"State":1.0,"County":1.0,"City":1.0,"PostalCode":1.0},"Location":{"LocationId":"NT_mXO6BiErhr53FbdJZPBIAC_l_1192495847_R","LocationType":"point","DisplayPosition":{"Latitude":48.98879,"Longitude":2.25999},"MapView":{"TopLeft":{"Latitude":48.98879,"Longitude":2.25991},"BottomRight":{"Latitude":48.98877,"Longitude":2.25999}},"Address":{"Label":"95120 Ermont, France","Country":"FRA","State":"Île-de-France","County":"Val-d'Oise","City":"Ermont","PostalCode":"95120","AdditionalData":[{"value":"France","key":"CountryName"},{"value":"Île-de-France","key":"StateName"},{"value":"Val-d'Oise","key":"CountyName"}]},"MapReference":{"ReferenceId":"1192495847","Spot":1.0,"SideOfStreet":"right","CountryId":"20000001","StateId":"20002126","CountyId":"20005470","CityId":"20005666"}}},{"Relevance":1.0,"Distance":20.9,"MatchLevel":"street","MatchQuality":{"Country":1.0,"State":1.0,"County":1.0,"City":1.0,"PostalCode":1.0},"Location":{"LocationId":"NT_mXO6BiErhr53FbdJZPBIAC_l_1192498125_R","LocationType":"point","DisplayPosition":{"Latitude":48.9887921,"Longitude":2.2599913},"MapView":{"TopLeft":{"Latitude":48.98891,"Longitude":2.25994},"BottomRight":{"Latitude":48.98879,"Longitude":2.26002}},"Address":{"Label":"95120 Ermont, France","Country":"FRA","State":"Île-de-France","County":"Val-d'Oise","City":"Ermont","PostalCode":"95120","AdditionalData":[{"value":"France","key":"CountryName"},{"value":"Île-de-France","key":"StateName"},{"value":"Val-d'Oise","key":"CountyName"}]},"MapReference":{"ReferenceId":"1192498125","Spot":0.01,"SideOfStreet":"right","CountryId":"20000001","StateId":"20002126","CountyId":"20005470","CityId":"20005666"}}},{"Relevance":1.0,"Distance":22.5,"MatchLevel":"houseNumber","MatchQuality":{"Country":1.0,"State":1.0,"County":1.0,"City":1.0,"Street":[1.0],"HouseNumber":1.0,"PostalCode":1.0},"MatchType":"interpolated","Location":{"LocationId":"NT_cGLTnjpmBU03fHFIpXma2C_1A","LocationType":"point","DisplayPosition":{"Latitude":48.9886,"Longitude":2.25985},"MapView":{"TopLeft":{"Latitude":48.9897242,"Longitude":2.2581369},"BottomRight":{"Latitude":48.9874758,"Longitude":2.2615631}},"Address":{"Label":"5 Rue Saint-Flaive, 95120 Ermont, France","Country":"FRA","State":"Île-de-France","County":"Val-d'Oise","City":"Ermont","Street":"Rue Saint-Flaive","HouseNumber":"5","PostalCode":"95120","AdditionalData":[{"value":"France","key":"CountryName"},{"value":"Île-de-France","key":"StateName"},{"value":"Val-d'Oise","key":"CountyName"}]},"MapReference":{"ReferenceId":"56376093","Spot":0.63,"SideOfStreet":"right","CountryId":"20000001","StateId":"20002126","CountyId":"20005470","CityId":"20005666","AddressId":"361417675","RoadLinkId":"43678173"}}},{"Relevance":1.0,"Distance":24.3,"MatchLevel":"street","MatchQuality":{"Country":1.0,"State":1.0,"County":1.0,"City":1.0,"PostalCode":1.0},"Location":{"LocationId":"NT_mXO6BiErhr53FbdJZPBIAC_l_1192495848_L","LocationType":"point","DisplayPosition":{"Latitude":48.98877,"Longitude":2.25991},"MapView":{"TopLeft":{"Latitude":48.98886,"Longitude":2.2598},"BottomRight":{"Latitude":48.98877,"Longitude":2.25991}},"Address":{"Label":"95120 Ermont, France","Country":"FRA","State":"Île-de-France","County":"Val-d'Oise","City":"Ermont","PostalCode":"95120","AdditionalData":[{"value":"France","key":"CountryName"},{"value":"Île-de-France","key":"StateName"},{"value":"Val-d'Oise","key":"CountyName"}]},"MapReference":{"ReferenceId":"1192495848","Spot":0.0,"SideOfStreet":"left","CountryId":"20000001","StateId":"20002126","CountyId":"20005470","CityId":"20005666"}}},{"Relevance":1.0,"Distance":33.2,"MatchLevel":"street","MatchQuality":{"Country":1.0,"State":1.0,"County":1.0,"City":1.0,"Street":[1.0],"PostalCode":1.0},"Location":{"LocationId":"NT_G2fBwCOyY1BaALsNaCiR.C_l_56375941_R","LocationType":"point","DisplayPosition":{"Latitude":48.98891,"Longitude":2.25994},"MapView":{"TopLeft":{"Latitude":48.98902,"Longitude":2.25994},"BottomRight":{"Latitude":48.98891,"Longitude":2.25996}},"Address":{"Label":"Rue Saint-Flaive, 95120 Ermont, France","Country":"FRA","State":"Île-de-France","County":"Val-d'Oise","City":"Ermont","Street":"Rue Saint-Flaive","PostalCode":"95120","AdditionalData":[{"value":"France","key":"CountryName"},{"value":"Île-de-France","key":"StateName"},{"value":"Val-d'Oise","key":"CountyName"}]},"MapReference":{"ReferenceId":"56375941","Spot":0.0,"SideOfStreet":"right","CountryId":"20000001","StateId":"20002126","CountyId":"20005470","CityId":"20005666"}}},{"Relevance":1.0,"Distance":33.2,"MatchLevel":"street","MatchQuality":{"Country":1.0,"State":1.0,"County":1.0,"City":1.0,"PostalCode":1.0},"Location":{"LocationId":"NT_mXO6BiErhr53FbdJZPBIAC_l_1192495846_R","LocationType":"point","DisplayPosition":{"Latitude":48.98891,"Longitude":2.25994},"MapView":{"TopLeft":{"Latitude":48.98891,"Longitude":2.25981},"BottomRight":{"Latitude":48.98886,"Longitude":2.25994}},"Address":{"Label":"95120 Ermont, France","Country":"FRA","State":"Île-de-France","County":"Val-d'Oise","City":"Ermont","PostalCode":"95120","AdditionalData":[{"value":"France","key":"CountryName"},{"value":"Île-de-France","key":"StateName"},{"value":"Val-d'Oise","key":"CountyName"}]},"MapReference":{"ReferenceId":"1192495846","Spot":1.0,"SideOfStreet":"right","CountryId":"20000001","StateId":"20002126","CountyId":"20005470","CityId":"20005666"}}},{"Relevance":1.0,"Distance":35.9,"MatchLevel":"houseNumber","MatchQuality":{"Country":1.0,"State":1.0,"County":1.0,"City":1.0,"Street":[1.0],"HouseNumber":1.0,"PostalCode":1.0},"MatchType":"interpolated","Location":{"LocationId":"NT_aY8A1jEVEU9yaUvWUp.X0A_xID","LocationType":"point","DisplayPosition":{"Latitude":48.98886,"Longitude":2.25981},"MapView":{"TopLeft":{"Latitude":48.9899842,"Longitude":2.2580969},"BottomRight":{"Latitude":48.9877358,"Longitude":2.2615231}},"Address":{"Label":"12 Rue de la République, 95120 Ermont, France","Country":"FRA","State":"Île-de-France","County":"Val-d'Oise","City":"Ermont","Street":"Rue de la République","HouseNumber":"12","PostalCode":"95120","AdditionalData":[{"value":"France","key":"CountryName"},{"value":"Île-de-France","key":"StateName"},{"value":"Val-d'Oise","key":"CountyName"}]},"MapReference":{"ReferenceId":"56375942","Spot":0.0,"SideOfStreet":"left","CountryId":"20000001","StateId":"20002126","CountyId":"20005470","CityId":"20005666","AddressId":"572371927","RoadLinkId":"43607765"}}}]}]}}