{"Response":{"MetaInfo":{"Timestamp":"2020-03-28T10:29:36.615+0000","NextPageInformation":"2"},"View":[{"_type":"SearchResultsViewType","ViewId":0,"Result":[{"Relevance":1.0,"Distance":0.0,"Direction":0.0,"MatchLevel":"city","MatchQuality":{"Country":1.0,"State":1.0,"County":1.0,"City":1.0,"PostalCode":1.0},"Location":{"LocationId":"NT_gdqqi3sN3qNzVRoTCyc3yA","LocationType":"point","DisplayPosition":{"Latitude":48.9885421,"Longitude":2.2618986},"MapView":{"TopLeft":{"Latitude":49.00185,"Longitude":2.24207},"BottomRight":{"Latitude":48.97631,"Longitude":2.27377}},"Address":{"Label":"Ermont, Île-de-France, France","Country":"FRA","State":"Île-de-France","County":"Val-d'Oise","City":"Ermont","PostalCode":"95120","AdditionalData":[{"value":"France","key":"CountryName"},{"value":"Île-de-France","key":"StateName"},{"value":"Val-d'Oise","key":"CountyName"}]},"MapReference":{"ReferenceId":"766066253","SideOfStreet":"neither","CountryId":"20000001","StateId":"20002126","CountyId":"20005470","CityId":"20005666"}}},{"Relevance":1.0,"Distance":12.0,"MatchLevel":"houseNumber","MatchQuality":{"Country":1.0,"State":1.0,"County":1.0,"City":1.0,"Street":[1.0],"HouseNumber":1.0,"PostalCode":1.0},"MatchType":"interpolated","Location":{"LocationId":"NT_a7BGHHUUqqlns713b7DFcC_0A","LocationType":"point","DisplayPosition":{"Latitude":48.98866,"Longitude":2.26184},"MapView":{"TopLeft":{"Latitude":48.9897842,"Longitude":2.2601269},"BottomRight":{"Latitude":48.9875358,"Longitude":2.2635531}},"Address":{"Label":"4 Rue Jean Mermoz, 95120 Ermont, France","Country":"FRA","State":"Île-de-France","County":"Val-d'Oise","City":"Ermont","Street":"Rue Jean Mermoz","HouseNumber":"4","PostalCode":"95120","AdditionalData":[{"value":"France","key":"CountryName"},{"value":"Île-de-France","key":"StateName"},{"value":"Val-d'Oise","key":"CountyName"}]},"MapReference":{"ReferenceId":"1188169623","Spot":0.61,"SideOfStreet":"right","CountryId":"20000001","StateId":"20002126","CountyId":"20005470","CityId":"20005666","AddressId":"344948643","RoadLinkId":"496994514"}}},{"Relevance":1.0,"Distance":27.1,"MatchLevel":"houseNumber","MatchQuality":{"Country":1.0,"State":1.0,"County":1.0,"City":1.0,"Street":[1.0],"HouseNumber":1.0,"PostalCode":1.0},"MatchType":"interpolated","Location":{"LocationId":"NT_UcXlGF-VVxxPrQipzhyDjD_xA","LocationType":"point","DisplayPosition":{"Latitude":48.98821,"Longitude":2.26214},"MapView":{"TopLeft":{"Latitude":48.9893342,"Longitude":2.2604269},"BottomRight":{"Latitude":48.9870858,"Longitude":2.2638531}},"Address":{"Label":"1 Rue Jean-Jacques Rousseau, 95120 Ermont, France","Country":"FRA","State":"Île-de-France","County":"Val-d'Oise","City":"Ermont","Street":"Rue Jean-Jacques Rousseau","HouseNumber":"1","PostalCode":"95120","AdditionalData":[{"value":"France","key":"CountryName"},{"value":"Île-de-France","key":"StateName"},{"value":"Val-d'Oise","key":"CountyName"}]},"MapReference":{"ReferenceId":"56376121","Spot":0.06,"SideOfStreet":"left","CountryId":"20000001","StateId":"20002126","CountyId":"20005470","CityId":"20005666","AddressId":"321784415","RoadLinkId":"43561229"}}},{"Relevance":1.0,"Distance":29.9,"MatchLevel":"houseNumber","MatchQuality":{"Country":1.0,"State":1.0,"County":1.0,"City":1.0,"Street":[1.0],"HouseNumber":1.0,"PostalCode":1.0},"MatchType":"interpolated","Location":{"LocationId":"NT_aY8A1jEVEU9yaUvWUp.X0A_yED","LocationType":"point","DisplayPosition":{"Latitude":48.98823,"Longitude":2.26178},"MapView":{"TopLeft":{"Latitude":48.9893542,"Longitude":2.2600669},"BottomRight":{"Latitude":48.9871058,"Longitude":2.2634931}},"Address":{"Label":"21 Rue de la République, 95120 Ermont, France","Country":"FRA","State":"Île-de-France","County":"Val-d'Oise","City":"Ermont","Street":"Rue de la République","HouseNumber":"21","PostalCode":"95120","AdditionalData":[{"value":"France","key":"CountryName"},{"value":"Île-de-France","key":"StateName"},{"value":"Val-d'Oise","key":"CountyName"}]},"MapReference":{"ReferenceId":"765946882","Spot":0.14,"SideOfStreet":"right","CountryId":"20000001","StateId":"20002126","CountyId":"20005470","CityId":"20005666","AddressId":"322284813","RoadLinkId":"159843003"}}},{"Relevance":1.0,"Distance":36.4,"MatchLevel":"street","MatchQuality":{"Country":1.0,"State":1.0,"County":1.0,"City":1.0,"Street":[1.0],"PostalCode":1.0},"Location":{"LocationId":"NT_aY8A1jEVEU9yaUvWUp.X0A_l_765946881_R","LocationType":"point","DisplayPosition":{"Latitude":48.98822,"Longitude":2.26181},"MapView":{"TopLeft":{"Latitude":48.98822,"Longitude":2.26181},"BottomRight":{"Latitude":48.98816,"Longitude":2.26199}},"Address":{"Label":"Rue de la République, 95120 Ermont, France","Country":"FRA","State":"Île-de-France","County":"Val-d'Oise","City":"Ermont","Street":"Rue de la République","PostalCode":"95120","AdditionalData":[{"value":"France","key":"CountryName"},{"value":"Île-de-France","key":"StateName"},{"value":"Val-d'Oise","key":"CountyName"}]},"MapReference":{"ReferenceId":"765946881","Spot":1.0,"SideOfStreet":"right","CountryId":"20000001","StateId":"20002126","CountyId":"20005470","CityId":"20005666"}}},{"Relevance":1.0,"Distance":40.5,"MatchLevel":"street","MatchQuality":{"Country":1.0,"State":1.0,"County":1.0,"City":1.0,"Street":[1.0],"PostalCode":1.0},"Location":{"LocationId":"NT_si3WMUDHH4cuDDplKCm7qC_l_1188169625_R","LocationType":"point","DisplayPosition":{"Latitude":48.9889034,"Longitude":2.2619739},"MapView":{"TopLeft":{"Latitude":48.989,"Longitude":2.26117},"BottomRight":{"Latitude":48.98844,"Longitude":2.26199}},"Address":{"Label":"Place Père Jacques Hamel, 95120 Ermont, France","Country":"FRA","State":"Île-de-France","County":"Val-d'Oise","City":"Ermont","Street":"Place Père Jacques Hamel","PostalCode":"95120","AdditionalData":[{"value":"France","key":"CountryName"},{"value":"Île-de-France","key":"StateName"},{"value":"Val-d'Oise","key":"CountyName"}]},"MapReference":{"ReferenceId":"1188169625","Spot":0.99,"SideOfStreet":"right","CountryId":"20000001","StateId":"20002126","CountyId":"20005470","CityId":"20005666"}}},{"Relevance":1.0,"Distance":42.4,"MatchLevel":"houseNumber","MatchQuality":{"Country":1.0,"State":1.0,"County":1.0,"City":1.0,"Street":[1.0],"HouseNumber":1.0,"PostalCode":1.0},"MatchType":"interpolated","Location":{"LocationId":"NT_aY8A1jEVEU9yaUvWUp.X0A_xcD","LocationType":"point","DisplayPosition":{"Latitude":48.98837,"Longitude":2.26138},"MapView":{"TopLeft":{"Latitude":48.9894942,"Longitude":2.2596669},"BottomRight":{"Latitude":48.9872458,"Longitude":2.2630931}},"Address":{"Label":"17 Rue de la République, 95120 Ermont, France","Country":"FRA","State":"Île-de-France","County":"Val-d'Oise","City":"Ermont","Street":"Rue de la République","HouseNumber":"17","PostalCode":"95120","AdditionalData":[{"value":"France","key":"CountryName"},{"value":"Île-de-France","key":"StateName"},{"value":"Val-d'Oise","key":"CountyName"}]},"MapReference":{"ReferenceId":"766388528","Spot":1.0,"SideOfStreet":"right","CountryId":"20000001","StateId":"20002126","CountyId":"20005470","CityId":"20005666","AddressId":"321937194","RoadLinkId":"160331741"}}},{"Relevance":1.0,"Distance":42.4,"MatchLevel":"street","MatchQuality":{"Country":1.0,"State":1.0,"County":1.0,"City":1.0,"Street":[1.0],"PostalCode":1.0},"Location":{"LocationId":"NT_aY8A1jEVEU9yaUvWUp.X0A_l_1188169621_R","LocationType":"point","DisplayPosition":{"Latitude":48.98837,"Longitude":2.26138},"MapView":{"TopLeft":{"Latitude":48.98844,"Longitude":2.26117},"BottomRight":{"Latitude":48.98837,"Longitude":2.26138}},"Address":{"Label":"Rue de la République, 95120 Ermont, France","Country":"FRA","State":"Île-de-France","County":"Val-d'Oise","City":"Ermont","Street":"Rue de la République","PostalCode":"95120","AdditionalData":[{"value":"France","key":"CountryName"},{"value":"Île-de-France","key":"StateName"},{"value":"Val-d'Oise","key":"CountyName"}]},"MapReference":{"ReferenceId":"1188169621","Spot":0.0,"SideOfStreet":"right","CountryId":"20000001","StateId":"20002126","CountyId":"20005470","CityId":"20005666"}}},{"Relevance":1.0,"Distance":43.0,"MatchLevel":"street","MatchQuality":{"Country":1.0,"State":1.0,"County":1.0,"City":1.0,"Street":[1.0],"PostalCode":1.0},"Location":{"LocationId":"NT_aY8A1jEVEU9yaUvWUp.X0A_l_778049209_R","LocationType":"point","DisplayPosition":{"Latitude":48.98816,"Longitude":2.26199},"MapView":{"TopLeft":{"Latitude":48.98816,"Longitude":2.26199},"BottomRight":{"Latitude":48.98806,"Longitude":2.26227}},"Address":{"Label":"Rue de la République, 95120 Ermont, France","Country":"FRA","State":"Île-de-France","County":"Val-d'Oise","City":"Ermont","Street":"Rue de la République","PostalCode":"95120","AdditionalData":[{"value":"France","key":"CountryName"},{"value":"Île-de-France","key":"StateName"},{"value":"Val-d'Oise","key":"CountyName"}]},"MapReference":{"ReferenceId":"778049209","Spot":1.0,"SideOfStreet":"right","CountryId":"20000001","StateId":"20002126","CountyId":"20005470","CityId":"20005666"}}},{"Relevance":1.0,"Distance":51.8,"MatchLevel":"houseNumber","MatchQuality":{"Country":1.0,"State":1.0,"County":1.0,"City":1.0,"Street":[1.0],"HouseNumber":1.0,"PostalCode":1.0},"MatchType":"interpolated","Location":{"LocationId":"NT_aY8A1jEVEU9yaUvWUp.X0A_xA","LocationType":"point","DisplayPosition":{"Latitude":48.98846,"Longitude":2.2611},"MapView":{"TopLeft":{"Latitude":48.9895842,"Longitude":2.2593869},"BottomRight":{"Latitude":48.9873358,"Longitude":2.2628131}},"Address":{"Label":"1 Rue de la République, 95120 Ermont, France","Country":"FRA","State":"Île-de-France","County":"Val-d'Oise","City":"Ermont","Street":"Rue de la République","HouseNumber":"1","PostalCode":"95120","AdditionalData":[{"value":"France","key":"CountryName"},{"value":"Île-de-France","key":"StateName"},{"value":"Val-d'Oise","key":"CountyName"}]},"MapReference":{"ReferenceId":"1188169622","Spot":0.17,"SideOfStreet":"right","CountryId":"20000001","StateId":"20002126","CountyId":"20005470","CityId":"20005666","AddressId":"322287196","RoadLinkId":"496994513"}}}]}]}}