{"Response":{"MetaInfo":{"Timestamp":"2020-03-28T10:19:32.997+0000","NextPageInformation":"2"},"View":[{"_type":"SearchResultsViewType","ViewId":0,"Result":[{"Relevance":1.0,"Distance":0.0,"Direction":0.0,"MatchLevel":"district","MatchQuality":{"Country":1.0,"State":1.0,"County":1.0,"City":1.0,"District":1.0,"PostalCode":1.0},"Location":{"LocationId":"NT_A4KpBFRcvM6uK8ZjsGgbOC","LocationType":"point","DisplayPosition":{"Latitude":48.9671046,"Longitude":12.3894283},"MapView":{"TopLeft":{"Latitude":48.96906,"Longitude":12.36743},"BottomRight":{"Latitude":48.95758,"Longitude":12.39548}},"Address":{"Label":"Pfatter, Bayern, Deutschland","Country":"DEU","State":"Bayern","County":"Regensburg (Landkreis)","City":"Pfatter","District":"Pfatter","PostalCode":"93102","AdditionalData":[{"value":"Deutschland","key":"CountryName"},{"value":"Bayern","key":"StateName"},{"value":"Regensburg (Landkreis)","key":"CountyName"}]},"MapReference":{"ReferenceId":"576274855","SideOfStreet":"neither","CountryId":"20147700","StateId":"20177250","CountyId":"20181414","CityId":"20181536","DistrictId":"20181538"}}},{"Relevance":1.0,"Distance":17.1,"MatchLevel":"houseNumber","MatchQuality":{"Country":1.0,"State":1.0,"County":1.0,"City":1.0,"District":1.0,"Street":[1.0],"HouseNumber":1.0,"PostalCode":1.0},"MatchType":"interpolated","Location":{"LocationId":"NT_glr51iY1DXaCRMCAQNSdPB_yID","LocationType":"point","DisplayPosition":{"Latitude":48.96724,"Longitude":12.38954},"MapView":{"TopLeft":{"Latitude":48.9683642,"Longitude":12.3878276},"BottomRight":{"Latitude":48.9661158,"Longitude":12.3912524}},"Address":{"Label":"Nikolastraße 22, 93102 Pfatter, Deutschland","Country":"DEU","State":"Bayern","County":"Regensburg (Landkreis)","City":"Pfatter","District":"Pfatter","Street":"Nikolastraße","HouseNumber":"22","PostalCode":"93102","AdditionalData":[{"value":"Deutschland","key":"CountryName"},{"value":"Bayern","key":"StateName"},{"value":"Regensburg (Landkreis)","key":"CountyName"}]},"MapReference":{"ReferenceId":"541634240","Spot":0.79,"SideOfStreet":"right","CountryId":"20147700","StateId":"20177250","CountyId":"20181414","CityId":"20181536","DistrictId":"20181538","AddressId":"569022235","RoadLinkId":"32509284"}}},{"Relevance":1.0,"Distance":37.5,"MatchLevel":"houseNumber","MatchQuality":{"Country":1.0,"State":1.0,"County":1.0,"City":1.0,"District":1.0,"Street":[1.0],"HouseNumber":1.0,"PostalCode":1.0},"MatchType":"interpolated","Location":{"LocationId":"NT_gbLMBWj9M9D-BBNuDeJzWD_xA","LocationType":"point","DisplayPosition":{"Latitude":48.96735,"Longitude":12.38974},"MapView":{"TopLeft":{"Latitude":48.9684742,"Longitude":12.3880276},"BottomRight":{"Latitude":48.9662258,"Longitude":12.3914524}},"Address":{"Label":"Zur Steinwand 1, 93102 Pfatter, Deutschland","Country":"DEU","State":"Bayern","County":"Regensburg (Landkreis)","City":"Pfatter","District":"Pfatter","Street":"Zur Steinwand","HouseNumber":"1","PostalCode":"93102","AdditionalData":[{"value":"Deutschland","key":"CountryName"},{"value":"Bayern","key":"StateName"},{"value":"Regensburg (Landkreis)","key":"CountyName"}]},"MapReference":{"ReferenceId":"541634238","Spot":0.04,"SideOfStreet":"left","CountryId":"20147700","StateId":"20177250","CountyId":"20181414","CityId":"20181536","DistrictId":"20181538","AddressId":"185340863","RoadLinkId":"33792972"}}},{"Relevance":1.0,"Distance":38.2,"MatchLevel":"houseNumber","MatchQuality":{"Country":1.0,"State":1.0,"County":1.0,"City":1.0,"District":1.0,"Street":[1.0],"HouseNumber":1.0,"PostalCode":1.0},"MatchType":"interpolated","Location":{"LocationId":"NT_L7zHfb5HIydZ1i.f3HdYRB_xA","LocationType":"point","DisplayPosition":{"Latitude":48.96665,"Longitude":12.38938},"MapView":{"TopLeft":{"Latitude":48.9677742,"Longitude":12.3876677},"BottomRight":{"Latitude":48.9655258,"Longitude":12.3910923}},"Address":{"Label":"Birkenweg 1, 93102 Pfatter, Deutschland","Country":"DEU","State":"Bayern","County":"Regensburg (Landkreis)","City":"Pfatter","District":"Pfatter","Street":"Birkenweg","HouseNumber":"1","PostalCode":"93102","AdditionalData":[{"value":"Deutschland","key":"CountryName"},{"value":"Bayern","key":"StateName"},{"value":"Regensburg (Landkreis)","key":"CountyName"}]},"MapReference":{"ReferenceId":"541634246","Spot":0.77,"SideOfStreet":"right","CountryId":"20147700","StateId":"20177250","CountyId":"20181414","CityId":"20181536","DistrictId":"20181538","AddressId":"182722441","RoadLinkId":"32778531"}}},{"Relevance":1.0,"Distance":50.5,"MatchLevel":"houseNumber","MatchQuality":{"Country":1.0,"State":1.0,"County":1.0,"City":1.0,"District":1.0,"Street":[1.0],"HouseNumber":1.0,"PostalCode":1.0},"MatchType":"interpolated","Location":{"LocationId":"NT_glr51iY1DXaCRMCAQNSdPB_yQD","LocationType":"point","DisplayPosition":{"Latitude":48.96735,"Longitude":12.39001},"MapView":{"TopLeft":{"Latitude":48.9684742,"Longitude":12.3882976},"BottomRight":{"Latitude":48.9662258,"Longitude":12.3917224}},"Address":{"Label":"Nikolastraße 24, 93102 Pfatter, Deutschland","Country":"DEU","State":"Bayern","County":"Regensburg (Landkreis)","City":"Pfatter","District":"Pfatter","Street":"Nikolastraße","HouseNumber":"24","PostalCode":"93102","AdditionalData":[{"value":"Deutschland","key":"CountryName"},{"value":"Bayern","key":"StateName"},{"value":"Regensburg (Landkreis)","key":"CountyName"}]},"MapReference":{"ReferenceId":"541634237","Spot":0.11,"SideOfStreet":"right","CountryId":"20147700","StateId":"20177250","CountyId":"20181414","CityId":"20181536","DistrictId":"20181538","AddressId":"198976621","RoadLinkId":"33326366"}}},{"Relevance":1.0,"Distance":72.9,"MatchLevel":"houseNumber","MatchQuality":{"Country":1.0,"State":1.0,"County":1.0,"City":1.0,"District":1.0,"Street":[1.0],"HouseNumber":1.0,"PostalCode":1.0},"MatchType":"interpolated","Location":{"LocationId":"NT_3wdmHidYnMnqIjJEL9laBC_0A","LocationType":"point","DisplayPosition":{"Latitude":48.9668,"Longitude":12.39038},"MapView":{"TopLeft":{"Latitude":48.9679242,"Longitude":12.3886676},"BottomRight":{"Latitude":48.9656758,"Longitude":12.3920924}},"Address":{"Label":"Rosenweg 4, 93102 Pfatter, Deutschland","Country":"DEU","State":"Bayern","County":"Regensburg (Landkreis)","City":"Pfatter","District":"Pfatter","Street":"Rosenweg","HouseNumber":"4","PostalCode":"93102","AdditionalData":[{"value":"Deutschland","key":"CountryName"},{"value":"Bayern","key":"StateName"},{"value":"Regensburg (Landkreis)","key":"CountyName"}]},"MapReference":{"ReferenceId":"541634235","Spot":0.31,"SideOfStreet":"left","CountryId":"20147700","StateId":"20177250","CountyId":"20181414","CityId":"20181536","DistrictId":"20181538","AddressId":"185842452","RoadLinkId":"33486463"}}},{"Relevance":1.0,"Distance":74.1,"MatchLevel":"houseNumber","MatchQuality":{"Country":1.0,"State":1.0,"County":1.0,"City":1.0,"District":1.0,"Street":[1.0],"HouseNumber":1.0,"PostalCode":1.0},"MatchType":"interpolated","Location":{"LocationId":"NT_glr51iY1DXaCRMCAQNSdPB_xgD","LocationType":"point","DisplayPosition":{"Latitude":48.9669,"Longitude":12.38846},"MapView":{"TopLeft":{"Latitude":48.9680242,"Longitude":12.3867476},"BottomRight":{"Latitude":48.9657758,"Longitude":12.3901724}},"Address":{"Label":"Nikolastraße 18, 93102 Pfatter, Deutschland","Country":"DEU","State":"Bayern","County":"Regensburg (Landkreis)","City":"Pfatter","District":"Pfatter","Street":"Nikolastraße","HouseNumber":"18","PostalCode":"93102","AdditionalData":[{"value":"Deutschland","key":"CountryName"},{"value":"Bayern","key":"StateName"},{"value":"Regensburg (Landkreis)","key":"CountyName"}]},"MapReference":{"ReferenceId":"541634242","Spot":0.57,"SideOfStreet":"right","CountryId":"20147700","StateId":"20177250","CountyId":"20181414","CityId":"20181536","DistrictId":"20181538","AddressId":"182328931","RoadLinkId":"33175082"}}},{"Relevance":1.0,"Distance":88.4,"MatchLevel":"houseNumber","MatchQuality":{"Country":1.0,"State":1.0,"County":1.0,"City":1.0,"District":1.0,"Street":[1.0],"HouseNumber":1.0,"PostalCode":1.0},"MatchType":"interpolated","Location":{"LocationId":"NT_1xCKuIKYwrRabONpxv4mOB_1A","LocationType":"point","DisplayPosition":{"Latitude":48.96662,"Longitude":12.38809},"MapView":{"TopLeft":{"Latitude":48.9677442,"Longitude":12.3863777},"BottomRight":{"Latitude":48.9654958,"Longitude":12.3898023}},"Address":{"Label":"Zehentstraße 5, 93102 Pfatter, Deutschland","Country":"DEU","State":"Bayern","County":"Regensburg (Landkreis)","City":"Pfatter","District":"Pfatter","Street":"Zehentstraße","HouseNumber":"5","PostalCode":"93102","AdditionalData":[{"value":"Deutschland","key":"CountryName"},{"value":"Bayern","key":"StateName"},{"value":"Regensburg (Landkreis)","key":"CountyName"}]},"MapReference":{"ReferenceId":"541634234","Spot":0.72,"SideOfStreet":"right","CountryId":"20147700","StateId":"20177250","CountyId":"20181414","CityId":"20181536","DistrictId":"20181538","AddressId":"185836753","RoadLinkId":"33776110"}}},{"Relevance":1.0,"Distance":96.8,"MatchLevel":"houseNumber","MatchQuality":{"Country":1.0,"State":1.0,"County":1.0,"City":1.0,"District":1.0,"Street":[1.0],"HouseNumber":1.0,"PostalCode":1.0},"MatchType":"interpolated","Location":{"LocationId":"NT_Ewu1pR-fD2HxBBUpkVPshC_2A","LocationType":"point","DisplayPosition":{"Latitude":48.96803,"Longitude":12.3887},"MapView":{"TopLeft":{"Latitude":48.9691542,"Longitude":12.3869876},"BottomRight":{"Latitude":48.9669058,"Longitude":12.3904124}},"Address":{"Label":"Schleusenweg 6, 93102 Pfatter, Deutschland","Country":"DEU","State":"Bayern","County":"Regensburg (Landkreis)","City":"Pfatter","District":"Pfatter","Street":"Schleusenweg","HouseNumber":"6","PostalCode":"93102","AdditionalData":[{"value":"Deutschland","key":"CountryName"},{"value":"Bayern","key":"StateName"},{"value":"Regensburg (Landkreis)","key":"CountyName"}]},"MapReference":{"ReferenceId":"1246750393","Spot":0.58,"SideOfStreet":"right","CountryId":"20147700","StateId":"20177250","CountyId":"20181414","CityId":"20181536","DistrictId":"20181538","AddressId":"183682803","RoadLinkId":"568413584"}}},{"Relevance":1.0,"Distance":104.7,"MatchLevel":"houseNumber","MatchQuality":{"Country":1.0,"State":1.0,"County":1.0,"City":1.0,"District":1.0,"Street":[1.0],"HouseNumber":1.0,"PostalCode":1.0},"MatchType":"interpolated","Location":{"LocationId":"NT_NccducHhPYwQjrzZP1a6GA_xA","LocationType":"point","DisplayPosition":{"Latitude":48.96659,"Longitude":12.39076},"MapView":{"TopLeft":{"Latitude":48.9677142,"Longitude":12.3890477},"BottomRight":{"Latitude":48.9654658,"Longitude":12.3924723}},"Address":{"Label":"Nelkenweg 1, 93102 Pfatter, Deutschland","Country":"DEU","State":"Bayern","County":"Regensburg (Landkreis)","City":"Pfatter","District":"Pfatter","Street":"Nelkenweg","HouseNumber":"1","PostalCode":"93102","AdditionalData":[{"value":"Deutschland","key":"CountryName"},{"value":"Bayern","key":"StateName"},{"value":"Regensburg (Landkreis)","key":"CountyName"}]},"MapReference":{"ReferenceId":"541634247","Spot":0.02,"SideOfStreet":"left","CountryId":"20147700","StateId":"20177250","CountyId":"20181414","CityId":"20181536","DistrictId":"20181538","AddressId":"185306000","RoadLinkId":"32781472"}}}]}]}}