{"Response":{"MetaInfo":{"Timestamp":"2020-03-28T11:40:30.596+0000","NextPageInformation":"2"},"View":[{"_type":"SearchResultsViewType","ViewId":0,"Result":[{"Relevance":1.0,"Distance":0.0,"Direction":0.0,"MatchLevel":"city","MatchQuality":{"Country":1.0,"State":1.0,"County":1.0,"City":1.0,"PostalCode":1.0},"Location":{"LocationId":"NT_0yNWPaSjiGnWRiF8gb5WIC","LocationType":"point","DisplayPosition":{"Latitude":48.9074203,"Longitude":12.4731032},"MapView":{"TopLeft":{"Latitude":48.92256,"Longitude":12.42342},"BottomRight":{"Latitude":48.86914,"Longitude":12.49097}},"Address":{"Label":"Rain, Bayern, Deutschland","Country":"DEU","State":"Bayern","County":"Straubing-Bogen","City":"Rain","PostalCode":"94369","AdditionalData":[{"value":"Deutschland","key":"CountryName"},{"value":"Bayern","key":"StateName"},{"value":"Straubing-Bogen","key":"CountyName"}]},"MapReference":{"ReferenceId":"545135199","SideOfStreet":"neither","CountryId":"20147700","StateId":"20177250","CountyId":"20180519","CityId":"20180651"}}},{"Relevance":1.0,"Distance":8.5,"MatchLevel":"houseNumber","MatchQuality":{"Country":1.0,"State":1.0,"County":1.0,"City":1.0,"Street":[1.0],"HouseNumber":1.0,"PostalCode":1.0},"MatchType":"interpolated","Location":{"LocationId":"NT_L52Hu7Dm2uzV7-8X4YYtQD_zA","LocationType":"point","DisplayPosition":{"Latitude":48.90701,"Longitude":12.47307},"MapView":{"TopLeft":{"Latitude":48.9081342,"Longitude":12.4713597},"BottomRight":{"Latitude":48.9058858,"Longitude":12.4747803}},"Address":{"Label":"Wiesengrund 3, 94369 Rain, Deutschland","Country":"DEU","State":"Bayern","County":"Straubing-Bogen","City":"Rain","Street":"Wiesengrund","HouseNumber":"3","PostalCode":"94369","AdditionalData":[{"value":"Deutschland","key":"CountryName"},{"value":"Bayern","key":"StateName"},{"value":"Straubing-Bogen","key":"CountyName"}]},"MapReference":{"ReferenceId":"1268997901","Spot":0.02,"SideOfStreet":"right","CountryId":"20147700","StateId":"20177250","CountyId":"20180519","CityId":"20180651","AddressId":"732707278","RoadLinkId":"596207677"}}},{"Relevance":1.0,"Distance":18.9,"MatchLevel":"street","MatchQuality":{"Country":1.0,"State":1.0,"County":1.0,"City":1.0,"PostalCode":1.0},"Location":{"LocationId":"NT_isWsiGiqN0KMUuFtqk4eNB_l_1160071448_L","LocationType":"point","DisplayPosition":{"Latitude":48.90728,"Longitude":12.47325},"MapView":{"TopLeft":{"Latitude":48.90728,"Longitude":12.47311},"BottomRight":{"Latitude":48.90701,"Longitude":12.47325}},"Address":{"Label":"94369 Rain, Deutschland","Country":"DEU","State":"Bayern","County":"Straubing-Bogen","City":"Rain","PostalCode":"94369","AdditionalData":[{"value":"Deutschland","key":"CountryName"},{"value":"Bayern","key":"StateName"},{"value":"Straubing-Bogen","key":"CountyName"}]},"MapReference":{"ReferenceId":"1160071448","Spot":1.0,"SideOfStreet":"left","CountryId":"20147700","StateId":"20177250","CountyId":"20180519","CityId":"20180651"}}},{"Relevance":1.0,"Distance":30.2,"MatchLevel":"street","MatchQuality":{"Country":1.0,"State":1.0,"County":1.0,"City":1.0,"PostalCode":1.0},"Location":{"LocationId":"NT_isWsiGiqN0KMUuFtqk4eNB_l_1259769227_L","LocationType":"point","DisplayPosition":{"Latitude":48.9076909,"Longitude":12.4731337},"MapView":{"TopLeft":{"Latitude":48.90788,"Longitude":12.47117},"BottomRight":{"Latitude":48.90694,"Longitude":12.47725}},"Address":{"Label":"94369 Rain, Deutschland","Country":"DEU","State":"Bayern","County":"Straubing-Bogen","City":"Rain","PostalCode":"94369","AdditionalData":[{"value":"Deutschland","key":"CountryName"},{"value":"Bayern","key":"StateName"},{"value":"Straubing-Bogen","key":"CountyName"}]},"MapReference":{"ReferenceId":"1259769227","Spot":0.65,"SideOfStreet":"left","CountryId":"20147700","StateId":"20177250","CountyId":"20180519","CityId":"20180651"}}},{"Relevance":1.0,"Distance":38.7,"MatchLevel":"street","MatchQuality":{"Country":1.0,"State":1.0,"County":1.0,"City":1.0,"Street":[1.0],"PostalCode":1.0},"Location":{"LocationId":"NT_4Uq80ctWCgd8cuQqE1EwJA_l_1074749879_L","LocationType":"point","DisplayPosition":{"Latitude":48.9077672,"Longitude":12.4731505},"MapView":{"TopLeft":{"Latitude":48.9078,"Longitude":12.47291},"BottomRight":{"Latitude":48.90774,"Longitude":12.47335}},"Address":{"Label":"B8, 94369 Rain, Deutschland","Country":"DEU","State":"Bayern","County":"Straubing-Bogen","City":"Rain","Street":"B8","PostalCode":"94369","AdditionalData":[{"value":"Deutschland","key":"CountryName"},{"value":"Bayern","key":"StateName"},{"value":"Straubing-Bogen","key":"CountyName"}]},"MapReference":{"ReferenceId":"1074749879","Spot":0.45,"SideOfStreet":"left","CountryId":"20147700","StateId":"20177250","CountyId":"20180519","CityId":"20180651"}}},{"Relevance":1.0,"Distance":39.7,"MatchLevel":"street","MatchQuality":{"Country":1.0,"State":1.0,"County":1.0,"City":1.0,"PostalCode":1.0},"Location":{"LocationId":"NT_isWsiGiqN0KMUuFtqk4eNB_l_1268781114_L","LocationType":"point","DisplayPosition":{"Latitude":48.90757,"Longitude":12.47261},"MapView":{"TopLeft":{"Latitude":48.90769,"Longitude":12.47198},"BottomRight":{"Latitude":48.90757,"Longitude":12.47261}},"Address":{"Label":"94369 Rain, Deutschland","Country":"DEU","State":"Bayern","County":"Straubing-Bogen","City":"Rain","PostalCode":"94369","AdditionalData":[{"value":"Deutschland","key":"CountryName"},{"value":"Bayern","key":"StateName"},{"value":"Straubing-Bogen","key":"CountyName"}]},"MapReference":{"ReferenceId":"1268781114","Spot":0.0,"SideOfStreet":"left","CountryId":"20147700","StateId":"20177250","CountyId":"20180519","CityId":"20180651"}}},{"Relevance":1.0,"Distance":39.9,"MatchLevel":"street","MatchQuality":{"Country":1.0,"State":1.0,"County":1.0,"City":1.0,"Street":[1.0],"PostalCode":1.0},"Location":{"LocationId":"NT_4Uq80ctWCgd8cuQqE1EwJA_l_1074749878_L","LocationType":"point","DisplayPosition":{"Latitude":48.90774,"Longitude":12.47335},"MapView":{"TopLeft":{"Latitude":48.90774,"Longitude":12.47335},"BottomRight":{"Latitude":48.90763,"Longitude":12.47407}},"Address":{"Label":"B8, 94369 Rain, Deutschland","Country":"DEU","State":"Bayern","County":"Straubing-Bogen","City":"Rain","Street":"B8","PostalCode":"94369","AdditionalData":[{"value":"Deutschland","key":"CountryName"},{"value":"Bayern","key":"StateName"},{"value":"Straubing-Bogen","key":"CountyName"}]},"MapReference":{"ReferenceId":"1074749878","Spot":1.0,"SideOfStreet":"left","CountryId":"20147700","StateId":"20177250","CountyId":"20180519","CityId":"20180651"}}},{"Relevance":1.0,"Distance":44.5,"MatchLevel":"street","MatchQuality":{"Country":1.0,"State":1.0,"County":1.0,"City":1.0,"Street":[1.0],"PostalCode":1.0},"Location":{"LocationId":"NT_4Uq80ctWCgd8cuQqE1EwJA_l_1074749880_L","LocationType":"point","DisplayPosition":{"Latitude":48.9078,"Longitude":12.47291},"MapView":{"TopLeft":{"Latitude":48.90793,"Longitude":12.47196},"BottomRight":{"Latitude":48.9078,"Longitude":12.47291}},"Address":{"Label":"B8, 94369 Rain, Deutschland","Country":"DEU","State":"Bayern","County":"Straubing-Bogen","City":"Rain","Street":"B8","PostalCode":"94369","AdditionalData":[{"value":"Deutschland","key":"CountryName"},{"value":"Bayern","key":"StateName"},{"value":"Straubing-Bogen","key":"CountyName"}]},"MapReference":{"ReferenceId":"1074749880","Spot":0.0,"SideOfStreet":"left","CountryId":"20147700","StateId":"20177250","CountyId":"20180519","CityId":"20180651"}}},{"Relevance":1.0,"Distance":74.4,"MatchLevel":"street","MatchQuality":{"Country":1.0,"State":1.0,"County":1.0,"City":1.0,"Street":[1.0],"PostalCode":1.0},"Location":{"LocationId":"NT_4Uq80ctWCgd8cuQqE1EwJA_l_1074749877_L","LocationType":"point","DisplayPosition":{"Latitude":48.90763,"Longitude":12.47407},"MapView":{"TopLeft":{"Latitude":48.90763,"Longitude":12.47407},"BottomRight":{"Latitude":48.90704,"Longitude":12.47731}},"Address":{"Label":"B8, 94369 Rain, Deutschland","Country":"DEU","State":"Bayern","County":"Straubing-Bogen","City":"Rain","Street":"B8","PostalCode":"94369","AdditionalData":[{"value":"Deutschland","key":"CountryName"},{"value":"Bayern","key":"StateName"},{"value":"Straubing-Bogen","key":"CountyName"}]},"MapReference":{"ReferenceId":"1074749877","Spot":1.0,"SideOfStreet":"left","CountryId":"20147700","StateId":"20177250","CountyId":"20180519","CityId":"20180651"}}},{"Relevance":1.0,"Distance":87.4,"MatchLevel":"street","MatchQuality":{"Country":1.0,"State":1.0,"County":1.0,"City":1.0,"PostalCode":1.0},"Location":{"LocationId":"NT_isWsiGiqN0KMUuFtqk4eNB_l_1272418277_R","LocationType":"point","DisplayPosition":{"Latitude":48.90769,"Longitude":12.47198},"MapView":{"TopLeft":{"Latitude":48.90769,"Longitude":12.47184},"BottomRight":{"Latitude":48.90742,"Longitude":12.47198}},"Address":{"Label":"94369 Rain, Deutschland","Country":"DEU","State":"Bayern","County":"Straubing-Bogen","City":"Rain","PostalCode":"94369","AdditionalData":[{"value":"Deutschland","key":"CountryName"},{"value":"Bayern","key":"StateName"},{"value":"Straubing-Bogen","key":"CountyName"}]},"MapReference":{"ReferenceId":"1272418277","Spot":1.0,"SideOfStreet":"right","CountryId":"20147700","StateId":"20177250","CountyId":"20180519","CityId":"20180651"}}}]}]}}