{"Response":{"MetaInfo":{"Timestamp":"2020-03-28T11:09:34.376+0000","NextPageInformation":"2"},"View":[{"_type":"SearchResultsViewType","ViewId":0,"Result":[{"Relevance":1.0,"Distance":0.0,"Direction":0.0,"MatchLevel":"city","MatchQuality":{"Country":1.0,"State":1.0,"County":1.0,"City":1.0,"PostalCode":1.0},"Location":{"LocationId":"NT_FDZ9jGvTJguzcwgSijfmQD","LocationType":"point","DisplayPosition":{"Latitude":48.9730152,"Longitude":4.372341},"MapView":{"TopLeft":{"Latitude":49.00115,"Longitude":4.32977},"BottomRight":{"Latitude":48.93003,"Longitude":4.43062}},"Address":{"Label":"Châlons-en-Champagne, Grand Est, France","Country":"FRA","State":"Grand Est","County":"Marne","City":"Châlons-en-Champagne","PostalCode":"51000","AdditionalData":[{"value":"France","key":"CountryName"},{"value":"Grand Est","key":"StateName"},{"value":"Marne","key":"CountyName"}]},"MapReference":{"ReferenceId":"808934135","SideOfStreet":"neither","CountryId":"20000001","StateId":"20002047","CountyId":"20002120","CityId":"20017024"}}},{"Relevance":1.0,"Distance":50.4,"MatchLevel":"landmark","MatchQuality":{"Country":1.0,"State":1.0,"County":1.0,"City":1.0,"PostalCode":1.0,"Name":1.0},"Location":{"LocationId":"NT_Xenh3npYZVhTRKcifm7X3D_p_LEDWtIEFtnlLo9vYZhTG5D","LocationType":"hospital","Name":"CH de Châlons-en-Champagne","DisplayPosition":{"Latitude":48.97085,"Longitude":4.37131},"MapView":{"TopLeft":{"Latitude":48.97351,"Longitude":4.36783},"BottomRight":{"Latitude":48.96842,"Longitude":4.37301}},"Address":{"Label":"51000 Châlons-en-Champagne, France","Country":"FRA","State":"Grand Est","County":"Marne","City":"Châlons-en-Champagne","PostalCode":"51000","AdditionalData":[{"value":"France","key":"CountryName"},{"value":"Grand Est","key":"StateName"},{"value":"Marne","key":"CountyName"}]},"MapReference":{"CountryId":"20000001","StateId":"20002047","CountyId":"20002120","CityId":"20017024","PlaceId":"557646103"}}},{"Relevance":1.0,"Distance":74.0,"MatchLevel":"houseNumber","MatchQuality":{"Country":1.0,"State":1.0,"County":1.0,"City":1.0,"Street":[1.0],"HouseNumber":1.0,"PostalCode":1.0},"MatchType":"interpolated","Location":{"LocationId":"NT_.sxYIjmCQY3GOUcgdE6xYD_1kD","LocationType":"point","DisplayPosition":{"Latitude":48.9725,"Longitude":4.37313},"MapView":{"TopLeft":{"Latitude":48.9736242,"Longitude":4.3714175},"BottomRight":{"Latitude":48.9713758,"Longitude":4.3748425}},"Address":{"Label":"59 Rue du Commandant Derrien, 51000 Châlons-en-Champagne, France","Country":"FRA","State":"Grand Est","County":"Marne","City":"Châlons-en-Champagne","Street":"Rue du Commandant Derrien","HouseNumber":"59","PostalCode":"51000","AdditionalData":[{"value":"France","key":"CountryName"},{"value":"Grand Est","key":"StateName"},{"value":"Marne","key":"CountyName"}]},"MapReference":{"ReferenceId":"851431870","Spot":0.2,"SideOfStreet":"left","CountryId":"20000001","StateId":"20002047","CountyId":"20002120","CityId":"20017024","AddressId":"316613947","RoadLinkId":"230724659"}}},{"Relevance":1.0,"Distance":79.8,"MatchLevel":"houseNumber","MatchQuality":{"Country":1.0,"State":1.0,"County":1.0,"City":1.0,"Street":[1.0],"HouseNumber":1.0,"PostalCode":1.0},"MatchType":"interpolated","Location":{"LocationId":"NT_.sxYIjmCQY3GOUcgdE6xYD_l_548602025_L_1cD","LocationType":"point","DisplayPosition":{"Latitude":48.9722519,"Longitude":4.3729117},"MapView":{"TopLeft":{"Latitude":48.973376,"Longitude":4.3711992},"BottomRight":{"Latitude":48.9711277,"Longitude":4.3746242}},"Address":{"Label":"57 Rue du Commandant Derrien, 51000 Châlons-en-Champagne, France","Country":"FRA","State":"Grand Est","County":"Marne","City":"Châlons-en-Champagne","Street":"Rue du Commandant Derrien","HouseNumber":"57","PostalCode":"51000","AdditionalData":[{"value":"France","key":"CountryName"},{"value":"Grand Est","key":"StateName"},{"value":"Marne","key":"CountyName"}]},"MapReference":{"ReferenceId":"548602025","Spot":0.51,"SideOfStreet":"left","CountryId":"20000001","StateId":"20002047","CountyId":"20002120","CityId":"20017024"}}},{"Relevance":1.0,"Distance":99.6,"MatchLevel":"houseNumber","MatchQuality":{"Country":1.0,"State":1.0,"County":1.0,"City":1.0,"Street":[1.0],"HouseNumber":1.0,"PostalCode":1.0},"MatchType":"interpolated","Location":{"LocationId":"NT_.sxYIjmCQY3GOUcgdE6xYD_2ED","LocationType":"point","DisplayPosition":{"Latitude":48.97319,"Longitude":4.37373},"MapView":{"TopLeft":{"Latitude":48.9743142,"Longitude":4.3720174},"BottomRight":{"Latitude":48.9720658,"Longitude":4.3754426}},"Address":{"Label":"61 Rue du Commandant Derrien, 51000 Châlons-en-Champagne, France","Country":"FRA","State":"Grand Est","County":"Marne","City":"Châlons-en-Champagne","Street":"Rue du Commandant Derrien","HouseNumber":"61","PostalCode":"51000","AdditionalData":[{"value":"France","key":"CountryName"},{"value":"Grand Est","key":"StateName"},{"value":"Marne","key":"CountyName"}]},"MapReference":{"ReferenceId":"1159877144","Spot":0.34,"SideOfStreet":"left","CountryId":"20000001","StateId":"20002047","CountyId":"20002120","CityId":"20017024","AddressId":"316600111","RoadLinkId":"466468512"}}},{"Relevance":1.0,"Distance":101.0,"MatchLevel":"houseNumber","MatchQuality":{"Country":1.0,"State":1.0,"County":1.0,"City":1.0,"Street":[1.0],"HouseNumber":1.0,"PostalCode":1.0},"MatchType":"interpolated","Location":{"LocationId":"NT_9nmObNqQeRbx6G62BffoJC_xA","LocationType":"point","DisplayPosition":{"Latitude":48.97247,"Longitude":4.37355},"MapView":{"TopLeft":{"Latitude":48.9735942,"Longitude":4.3718375},"BottomRight":{"Latitude":48.9713458,"Longitude":4.3752625}},"Address":{"Label":"1 Rue de la Résidence du Parc, 51000 Châlons-en-Champagne, France","Country":"FRA","State":"Grand Est","County":"Marne","City":"Châlons-en-Champagne","Street":"Rue de la Résidence du Parc","HouseNumber":"1","PostalCode":"51000","AdditionalData":[{"value":"France","key":"CountryName"},{"value":"Grand Est","key":"StateName"},{"value":"Marne","key":"CountyName"}]},"MapReference":{"ReferenceId":"591226958","Spot":0.24,"SideOfStreet":"left","CountryId":"20000001","StateId":"20002047","CountyId":"20002120","CityId":"20017024","AddressId":"371003890","RoadLinkId":"44697053"}}},{"Relevance":1.0,"Distance":114.7,"MatchLevel":"houseNumber","MatchQuality":{"Country":1.0,"State":1.0,"County":1.0,"City":1.0,"Street":[1.0],"HouseNumber":1.0,"PostalCode":1.0},"MatchType":"interpolated","Location":{"LocationId":"NT_xTqN8gbOG5hvcP35akZ.AC_zA","LocationType":"point","DisplayPosition":{"Latitude":48.97211,"Longitude":4.37325},"MapView":{"TopLeft":{"Latitude":48.9732342,"Longitude":4.3715375},"BottomRight":{"Latitude":48.9709858,"Longitude":4.3749625}},"Address":{"Label":"3 Rue du Mont de Suippes, 51000 Châlons-en-Champagne, France","Country":"FRA","State":"Grand Est","County":"Marne","City":"Châlons-en-Champagne","Street":"Rue du Mont de Suippes","HouseNumber":"3","PostalCode":"51000","AdditionalData":[{"value":"France","key":"CountryName"},{"value":"Grand Est","key":"StateName"},{"value":"Marne","key":"CountyName"}]},"MapReference":{"ReferenceId":"548602030","Spot":0.58,"SideOfStreet":"right","CountryId":"20000001","StateId":"20002047","CountyId":"20002120","CityId":"20017024","AddressId":"370996131","RoadLinkId":"44127921"}}},{"Relevance":1.0,"Distance":118.5,"MatchLevel":"houseNumber","MatchQuality":{"Country":1.0,"State":1.0,"County":1.0,"City":1.0,"Street":[1.0],"HouseNumber":1.0,"PostalCode":1.0},"MatchType":"interpolated","Location":{"LocationId":"NT_.sxYIjmCQY3GOUcgdE6xYD_1UD","LocationType":"point","DisplayPosition":{"Latitude":48.97193,"Longitude":4.37262},"MapView":{"TopLeft":{"Latitude":48.9730542,"Longitude":4.3709075},"BottomRight":{"Latitude":48.9708058,"Longitude":4.3743325}},"Address":{"Label":"55 Rue du Commandant Derrien, 51000 Châlons-en-Champagne, France","Country":"FRA","State":"Grand Est","County":"Marne","City":"Châlons-en-Champagne","Street":"Rue du Commandant Derrien","HouseNumber":"55","PostalCode":"51000","AdditionalData":[{"value":"France","key":"CountryName"},{"value":"Grand Est","key":"StateName"},{"value":"Marne","key":"CountyName"}]},"MapReference":{"ReferenceId":"923814975","Spot":0.34,"SideOfStreet":"left","CountryId":"20000001","StateId":"20002047","CountyId":"20002120","CityId":"20017024","AddressId":"570843193","RoadLinkId":"279339559"}}},{"Relevance":1.0,"Distance":133.5,"MatchLevel":"street","MatchQuality":{"Country":1.0,"State":1.0,"County":1.0,"City":1.0,"PostalCode":1.0},"Location":{"LocationId":"NT_EjM-yZmtTZucH1svN5TeMA_l_923816572_R","LocationType":"point","DisplayPosition":{"Latitude":48.97182,"Longitude":4.37252},"MapView":{"TopLeft":{"Latitude":48.97182,"Longitude":4.37252},"BottomRight":{"Latitude":48.96999,"Longitude":4.37733}},"Address":{"Label":"51000 Châlons-en-Champagne, France","Country":"FRA","State":"Grand Est","County":"Marne","City":"Châlons-en-Champagne","PostalCode":"51000","AdditionalData":[{"value":"France","key":"CountryName"},{"value":"Grand Est","key":"StateName"},{"value":"Marne","key":"CountyName"}]},"MapReference":{"ReferenceId":"923816572","Spot":1.0,"SideOfStreet":"right","CountryId":"20000001","StateId":"20002047","CountyId":"20002120","CityId":"20017024"}}},{"Relevance":1.0,"Distance":151.1,"MatchLevel":"houseNumber","MatchQuality":{"Country":1.0,"State":1.0,"County":1.0,"City":1.0,"Street":[1.0],"HouseNumber":1.0,"PostalCode":1.0},"MatchType":"interpolated","Location":{"LocationId":"NT_4eKyhAy1zT41G-M1aq6kqD_l_1159877145_L_2cD","LocationType":"point","DisplayPosition":{"Latitude":48.9736917,"Longitude":4.3741614},"MapView":{"TopLeft":{"Latitude":48.9748158,"Longitude":4.3724488},"BottomRight":{"Latitude":48.9725675,"Longitude":4.375874}},"Address":{"Label":"67 Rue du Commandant Derrien, 51000 Châlons-en-Champagne, France","Country":"FRA","State":"Grand Est","County":"Marne","City":"Châlons-en-Champagne","Street":"Rue du Commandant Derrien","HouseNumber":"67","PostalCode":"51000","AdditionalData":[{"value":"France","key":"CountryName"},{"value":"Grand Est","key":"StateName"},{"value":"Marne","key":"CountyName"}]},"MapReference":{"ReferenceId":"1159877145","Spot":0.49,"SideOfStreet":"left","CountryId":"20000001","StateId":"20002047","CountyId":"20002120","CityId":"20017024"}}}]}]}}