{"Response":{"MetaInfo":{"Timestamp":"2020-03-28T10:18:19.959+0000","NextPageInformation":"2"},"View":[{"_type":"SearchResultsViewType","ViewId":0,"Result":[{"Relevance":1.0,"Distance":0.0,"Direction":0.0,"MatchLevel":"district","MatchQuality":{"Country":1.0,"State":1.0,"County":1.0,"City":1.0,"District":1.0,"PostalCode":1.0},"Location":{"LocationId":"NT_g04vRb.7Ule6A1eGSOJMGD","LocationType":"point","DisplayPosition":{"Latitude":49.0767379,"Longitude":9.4576674},"MapView":{"TopLeft":{"Latitude":49.0884,"Longitude":9.45182},"BottomRight":{"Latitude":49.07627,"Longitude":9.47067}},"Address":{"Label":"Wüstenrot, Baden-Württemberg, Deutschland","Country":"DEU","State":"Baden-Württemberg","County":"Heilbronn (Landkreis)","City":"Wüstenrot","District":"Wüstenrot","PostalCode":"71543","AdditionalData":[{"value":"Deutschland","key":"CountryName"},{"value":"Baden-Württemberg","key":"StateName"},{"value":"Heilbronn (Landkreis)","key":"CountyName"}]},"MapReference":{"ReferenceId":"52953884","SideOfStreet":"neither","CountryId":"20147700","StateId":"20171489","CountyId":"20172304","CityId":"20172487","DistrictId":"20172492"}}},{"Relevance":1.0,"Distance":4.0,"MatchLevel":"landmark","MatchQuality":{"Country":1.0,"State":1.0,"Name":1.0},"Location":{"LocationId":"NT_vuPs6Tcw19y12wOVV0-1ED","LocationType":"woodland","Name":"Löwensteiner Berge","DisplayPosition":{"Latitude":49.05688,"Longitude":9.43561},"MapView":{"TopLeft":{"Latitude":49.13837,"Longitude":9.31899},"BottomRight":{"Latitude":48.97538,"Longitude":9.54433}},"Address":{"Label":"Deutschland","Country":"DEU","State":"Baden-Württemberg","AdditionalData":[{"value":"Deutschland","key":"CountryName"},{"value":"Baden-Württemberg","key":"StateName"}]},"MapReference":{"CountryId":"20147700","StateId":"20171489","PlaceId":"57651934"}}},{"Relevance":1.0,"Distance":9.6,"MatchLevel":"houseNumber","MatchQuality":{"Country":1.0,"State":1.0,"County":1.0,"City":1.0,"District":1.0,"Street":[1.0],"HouseNumber":1.0,"PostalCode":1.0},"MatchType":"interpolated","Location":{"LocationId":"NT_eNsJXo-rWl6RSTm6-ZPkSA_3A","LocationType":"point","DisplayPosition":{"Latitude":49.07682,"Longitude":9.45738},"MapView":{"TopLeft":{"Latitude":49.0779442,"Longitude":9.4556639},"BottomRight":{"Latitude":49.0756958,"Longitude":9.4590961}},"Address":{"Label":"Heßbergstraße 7, 71543 Wüstenrot, Deutschland","Country":"DEU","State":"Baden-Württemberg","County":"Heilbronn (Landkreis)","City":"Wüstenrot","District":"Wüstenrot","Street":"Heßbergstraße","HouseNumber":"7","PostalCode":"71543","AdditionalData":[{"value":"Deutschland","key":"CountryName"},{"value":"Baden-Württemberg","key":"StateName"},{"value":"Heilbronn (Landkreis)","key":"CountyName"}]},"MapReference":{"ReferenceId":"72780255","Spot":0.43,"SideOfStreet":"right","CountryId":"20147700","StateId":"20171489","CountyId":"20172304","CityId":"20172487","DistrictId":"20172492","AddressId":"178998819","RoadLinkId":"38871220"}}},{"Relevance":1.0,"Distance":66.9,"MatchLevel":"houseNumber","MatchQuality":{"Country":1.0,"State":1.0,"County":1.0,"City":1.0,"District":1.0,"Street":[1.0],"HouseNumber":1.0,"PostalCode":1.0},"MatchType":"interpolated","Location":{"LocationId":"NT_YiBGuM3ZOFGDU-G6WilffD_5A","LocationType":"point","DisplayPosition":{"Latitude":49.07739,"Longitude":9.45713},"MapView":{"TopLeft":{"Latitude":49.0785142,"Longitude":9.4554138},"BottomRight":{"Latitude":49.0762658,"Longitude":9.4588462}},"Address":{"Label":"Wellingtonienstraße 9, 71543 Wüstenrot, Deutschland","Country":"DEU","State":"Baden-Württemberg","County":"Heilbronn (Landkreis)","City":"Wüstenrot","District":"Wüstenrot","Street":"Wellingtonienstraße","HouseNumber":"9","PostalCode":"71543","AdditionalData":[{"value":"Deutschland","key":"CountryName"},{"value":"Baden-Württemberg","key":"StateName"},{"value":"Heilbronn (Landkreis)","key":"CountyName"}]},"MapReference":{"ReferenceId":"1262720859","Spot":0.99,"SideOfStreet":"right","CountryId":"20147700","StateId":"20171489","CountyId":"20172304","CityId":"20172487","DistrictId":"20172492","AddressId":"178621148","RoadLinkId":"588494583"}}},{"Relevance":1.0,"Distance":73.2,"MatchLevel":"houseNumber","MatchQuality":{"Country":1.0,"State":1.0,"County":1.0,"City":1.0,"District":1.0,"Street":[1.0],"HouseNumber":1.0,"PostalCode":1.0},"MatchType":"interpolated","Location":{"LocationId":"NT_YiBGuM3ZOFGDU-G6WilffD_3A","LocationType":"point","DisplayPosition":{"Latitude":49.07749,"Longitude":9.45744},"MapView":{"TopLeft":{"Latitude":49.0786142,"Longitude":9.4557238},"BottomRight":{"Latitude":49.0763658,"Longitude":9.4591562}},"Address":{"Label":"Wellingtonienstraße 7, 71543 Wüstenrot, Deutschland","Country":"DEU","State":"Baden-Württemberg","County":"Heilbronn (Landkreis)","City":"Wüstenrot","District":"Wüstenrot","Street":"Wellingtonienstraße","HouseNumber":"7","PostalCode":"71543","AdditionalData":[{"value":"Deutschland","key":"CountryName"},{"value":"Baden-Württemberg","key":"StateName"},{"value":"Heilbronn (Landkreis)","key":"CountyName"}]},"MapReference":{"ReferenceId":"1262720860","Spot":0.27,"SideOfStreet":"right","CountryId":"20147700","StateId":"20171489","CountyId":"20172304","CityId":"20172487","DistrictId":"20172492","AddressId":"179540917","RoadLinkId":"588494584"}}},{"Relevance":1.0,"Distance":82.4,"MatchLevel":"street","MatchQuality":{"Country":1.0,"State":1.0,"County":1.0,"City":1.0,"District":1.0,"Street":[1.0],"PostalCode":1.0},"Location":{"LocationId":"NT_YiBGuM3ZOFGDU-G6WilffD_l_1264814025_L","LocationType":"point","DisplayPosition":{"Latitude":49.0774,"Longitude":9.45716},"MapView":{"TopLeft":{"Latitude":49.0777,"Longitude":9.45691},"BottomRight":{"Latitude":49.0774,"Longitude":9.45716}},"Address":{"Label":"Wellingtonienstraße, 71543 Wüstenrot, Deutschland","Country":"DEU","State":"Baden-Württemberg","County":"Heilbronn (Landkreis)","City":"Wüstenrot","District":"Wüstenrot","Street":"Wellingtonienstraße","PostalCode":"71543","AdditionalData":[{"value":"Deutschland","key":"CountryName"},{"value":"Baden-Württemberg","key":"StateName"},{"value":"Heilbronn (Landkreis)","key":"CountyName"}]},"MapReference":{"ReferenceId":"1264814025","Spot":0.0,"SideOfStreet":"left","CountryId":"20147700","StateId":"20171489","CountyId":"20172304","CityId":"20172487","DistrictId":"20172492"}}},{"Relevance":1.0,"Distance":100.6,"MatchLevel":"street","MatchQuality":{"Country":1.0,"State":1.0,"County":1.0,"City":1.0,"Street":[1.0],"PostalCode":1.0},"Location":{"LocationId":"NT_.iUnn9FvEIP5xz3Idzm3wD_l_831203668_L","LocationType":"point","DisplayPosition":{"Latitude":49.0761487,"Longitude":9.4587149},"MapView":{"TopLeft":{"Latitude":49.07669,"Longitude":9.45871},"BottomRight":{"Latitude":49.07604,"Longitude":9.46382}},"Address":{"Label":"L1090, 71543 Wüstenrot, Deutschland","Country":"DEU","State":"Baden-Württemberg","County":"Heilbronn (Landkreis)","City":"Wüstenrot","Street":"L1090","PostalCode":"71543","AdditionalData":[{"value":"Deutschland","key":"CountryName"},{"value":"Baden-Württemberg","key":"StateName"},{"value":"Heilbronn (Landkreis)","key":"CountyName"}]},"MapReference":{"ReferenceId":"831203668","Spot":0.0,"SideOfStreet":"left","CountryId":"20147700","StateId":"20171489","CountyId":"20172304","CityId":"20172487"}}},{"Relevance":1.0,"Distance":107.4,"MatchLevel":"houseNumber","MatchQuality":{"Country":1.0,"State":1.0,"County":1.0,"City":1.0,"District":1.0,"Street":[1.0],"HouseNumber":1.0,"PostalCode":1.0},"MatchType":"interpolated","Location":{"LocationId":"NT_YiBGuM3ZOFGDU-G6WilffD_zA","LocationType":"point","DisplayPosition":{"Latitude":49.07769,"Longitude":9.45822},"MapView":{"TopLeft":{"Latitude":49.0788142,"Longitude":9.4565038},"BottomRight":{"Latitude":49.0765658,"Longitude":9.4599362}},"Address":{"Label":"Wellingtonienstraße 3, 71543 Wüstenrot, Deutschland","Country":"DEU","State":"Baden-Württemberg","County":"Heilbronn (Landkreis)","City":"Wüstenrot","District":"Wüstenrot","Street":"Wellingtonienstraße","HouseNumber":"3","PostalCode":"71543","AdditionalData":[{"value":"Deutschland","key":"CountryName"},{"value":"Baden-Württemberg","key":"StateName"},{"value":"Heilbronn (Landkreis)","key":"CountyName"}]},"MapReference":{"ReferenceId":"72780254","Spot":0.0,"SideOfStreet":"right","CountryId":"20147700","StateId":"20171489","CountyId":"20172304","CityId":"20172487","DistrictId":"20172492","AddressId":"178968250","RoadLinkId":"38224598"}}},{"Relevance":1.0,"Distance":112.2,"MatchLevel":"street","MatchQuality":{"Country":1.0,"State":1.0,"County":1.0,"City":1.0,"Street":[1.0],"PostalCode":1.0},"Location":{"LocationId":"NT_.iUnn9FvEIP5xz3Idzm3wD_l_831203669_L","LocationType":"point","DisplayPosition":{"Latitude":49.0757523,"Longitude":9.4580001},"MapView":{"TopLeft":{"Latitude":49.07614,"Longitude":9.44755},"BottomRight":{"Latitude":49.07013,"Longitude":9.45871}},"Address":{"Label":"L1090, 71543 Wüstenrot, Deutschland","Country":"DEU","State":"Baden-Württemberg","County":"Heilbronn (Landkreis)","City":"Wüstenrot","Street":"L1090","PostalCode":"71543","AdditionalData":[{"value":"Deutschland","key":"CountryName"},{"value":"Baden-Württemberg","key":"StateName"},{"value":"Heilbronn (Landkreis)","key":"CountyName"}]},"MapReference":{"ReferenceId":"831203669","Spot":0.95,"SideOfStreet":"left","CountryId":"20147700","StateId":"20171489","CountyId":"20172304","CityId":"20172487"}}},{"Relevance":1.0,"Distance":120.4,"MatchLevel":"street","MatchQuality":{"Country":1.0,"State":1.0,"County":1.0,"City":1.0,"District":1.0,"Street":[1.0],"PostalCode":1.0},"Location":{"LocationId":"NT_YiBGuM3ZOFGDU-G6WilffD_l_1264814019_R","LocationType":"point","DisplayPosition":{"Latitude":49.0777,"Longitude":9.45691},"MapView":{"TopLeft":{"Latitude":49.07782,"Longitude":9.45652},"BottomRight":{"Latitude":49.0777,"Longitude":9.45691}},"Address":{"Label":"Wellingtonienstraße, 71543 Wüstenrot, Deutschland","Country":"DEU","State":"Baden-Württemberg","County":"Heilbronn (Landkreis)","City":"Wüstenrot","District":"Wüstenrot","Street":"Wellingtonienstraße","PostalCode":"71543","AdditionalData":[{"value":"Deutschland","key":"CountryName"},{"value":"Baden-Württemberg","key":"StateName"},{"value":"Heilbronn (Landkreis)","key":"CountyName"}]},"MapReference":{"ReferenceId":"1264814019","Spot":0.0,"SideOfStreet":"right","CountryId":"20147700","StateId":"20171489","CountyId":"20172304","CityId":"20172487","DistrictId":"20172492"}}}]}]}}