{"Response":{"MetaInfo":{"Timestamp":"2020-03-28T11:50:40.736+0000","NextPageInformation":"2"},"View":[{"_type":"SearchResultsViewType","ViewId":0,"Result":[{"Relevance":1.0,"Distance":0.0,"Direction":0.0,"MatchLevel":"district","MatchQuality":{"Country":1.0,"State":1.0,"County":1.0,"City":1.0,"District":1.0,"PostalCode":1.0},"Location":{"LocationId":"NT_Gur5zzh0typfy-vh.XzJcC","LocationType":"point","DisplayPosition":{"Latitude":49.098306,"Longitude":1.491505},"MapView":{"TopLeft":{"Latitude":49.10897,"Longitude":1.47914},"BottomRight":{"Latitude":49.09276,"Longitude":1.50077}},"Address":{"Label":"Vernonnet, Vernon, Normandie, France","Country":"FRA","State":"Normandie","County":"Eure","City":"Vernon","District":"Vernonnet","PostalCode":"27200","AdditionalData":[{"value":"France","key":"CountryName"},{"value":"Normandie","key":"StateName"},{"value":"Eure","key":"CountyName"}]},"MapReference":{"ReferenceId":"817262971","SideOfStreet":"neither","CountryId":"20000001","StateId":"20057204","CountyId":"20002109","CityId":"20063314","DistrictId":"20423344"}}},{"Relevance":1.0,"Distance":13.5,"MatchLevel":"houseNumber","MatchQuality":{"Country":1.0,"State":1.0,"County":1.0,"City":1.0,"District":1.0,"Street":[1.0],"HouseNumber":1.0,"PostalCode":1.0},"MatchType":"interpolated","Location":{"LocationId":"NT_VGCwPsiikdDAYmkGxLaLGA_1cD","LocationType":"point","DisplayPosition":{"Latitude":49.09847,"Longitude":1.49159},"MapView":{"TopLeft":{"Latitude":49.0995942,"Longitude":1.4898731},"BottomRight":{"Latitude":49.0973458,"Longitude":1.4933069}},"Address":{"Label":"57 Route de Magny, 27200 Vernon, France","Country":"FRA","State":"Normandie","County":"Eure","City":"Vernon","District":"Vernonnet","Street":"Route de Magny","HouseNumber":"57","PostalCode":"27200","AdditionalData":[{"value":"France","key":"CountryName"},{"value":"Normandie","key":"StateName"},{"value":"Eure","key":"CountyName"}]},"MapReference":{"ReferenceId":"556729611","Spot":0.29,"SideOfStreet":"right","CountryId":"20000001","StateId":"20057204","CountyId":"20002109","CityId":"20063314","DistrictId":"20423344","AddressId":"316679949","RoadLinkId":"46700758"}}},{"Relevance":1.0,"Distance":13.7,"MatchLevel":"houseNumber","MatchQuality":{"Country":1.0,"State":1.0,"County":1.0,"City":1.0,"District":1.0,"Street":[1.0],"HouseNumber":1.0,"PostalCode":1.0},"MatchType":"interpolated","Location":{"LocationId":"NT_yqxb0Tn9wS11SdG4jPt-uD_zQD","LocationType":"point","DisplayPosition":{"Latitude":49.09831,"Longitude":1.49125},"MapView":{"TopLeft":{"Latitude":49.0994342,"Longitude":1.4895331},"BottomRight":{"Latitude":49.0971858,"Longitude":1.4929669}},"Address":{"Label":"34 Rue Jules Soret, 27200 Vernon, France","Country":"FRA","State":"Normandie","County":"Eure","City":"Vernon","District":"Vernonnet","Street":"Rue Jules Soret","HouseNumber":"34","PostalCode":"27200","AdditionalData":[{"value":"France","key":"CountryName"},{"value":"Normandie","key":"StateName"},{"value":"Eure","key":"CountyName"}]},"MapReference":{"ReferenceId":"556731204","Spot":0.34,"SideOfStreet":"right","CountryId":"20000001","StateId":"20057204","CountyId":"20002109","CityId":"20063314","DistrictId":"20423344","AddressId":"316637490","RoadLinkId":"47307332"}}},{"Relevance":1.0,"Distance":20.3,"MatchLevel":"street","MatchQuality":{"Country":1.0,"State":1.0,"County":1.0,"City":1.0,"District":1.0,"PostalCode":1.0},"Location":{"LocationId":"NT_QPL4mCEnKABiBvi8xR2L1B_l_556731205_R","LocationType":"point","DisplayPosition":{"Latitude":49.0981289,"Longitude":1.4914369},"MapView":{"TopLeft":{"Latitude":49.09822,"Longitude":1.4912},"BottomRight":{"Latitude":49.0977,"Longitude":1.49222}},"Address":{"Label":"27200 Vernon, France","Country":"FRA","State":"Normandie","County":"Eure","City":"Vernon","District":"Vernonnet","PostalCode":"27200","AdditionalData":[{"value":"France","key":"CountryName"},{"value":"Normandie","key":"StateName"},{"value":"Eure","key":"CountyName"}]},"MapReference":{"ReferenceId":"556731205","Spot":0.78,"SideOfStreet":"right","CountryId":"20000001","StateId":"20057204","CountyId":"20002109","CityId":"20063314","DistrictId":"20423344"}}},{"Relevance":1.0,"Distance":22.4,"MatchLevel":"street","MatchQuality":{"Country":1.0,"State":1.0,"County":1.0,"City":1.0,"District":1.0,"Street":[1.0],"PostalCode":1.0},"Location":{"LocationId":"NT_SEYPIBgMq-0iHb3piq3CEB_l_1041558403_L","LocationType":"point","DisplayPosition":{"Latitude":49.09848,"Longitude":1.49135},"MapView":{"TopLeft":{"Latitude":49.09856,"Longitude":1.49113},"BottomRight":{"Latitude":49.09848,"Longitude":1.49135}},"Address":{"Label":"Rue du Docteur Chanoine, 27200 Vernon, France","Country":"FRA","State":"Normandie","County":"Eure","City":"Vernon","District":"Vernonnet","Street":"Rue du Docteur Chanoine","PostalCode":"27200","AdditionalData":[{"value":"France","key":"CountryName"},{"value":"Normandie","key":"StateName"},{"value":"Eure","key":"CountyName"}]},"MapReference":{"ReferenceId":"1041558403","Spot":0.0,"SideOfStreet":"left","CountryId":"20000001","StateId":"20057204","CountyId":"20002109","CityId":"20063314","DistrictId":"20423344"}}},{"Relevance":1.0,"Distance":31.9,"MatchLevel":"houseNumber","MatchQuality":{"Country":1.0,"State":1.0,"County":1.0,"City":1.0,"District":1.0,"Street":[1.0],"HouseNumber":1.0,"PostalCode":1.0},"MatchType":"interpolated","Location":{"LocationId":"NT_yqxb0Tn9wS11SdG4jPt-uD_zID","LocationType":"point","DisplayPosition":{"Latitude":49.09813,"Longitude":1.49113},"MapView":{"TopLeft":{"Latitude":49.0992542,"Longitude":1.4894131},"BottomRight":{"Latitude":49.0970058,"Longitude":1.4928469}},"Address":{"Label":"32 Rue Jules Soret, 27200 Vernon, France","Country":"FRA","State":"Normandie","County":"Eure","City":"Vernon","District":"Vernonnet","Street":"Rue Jules Soret","HouseNumber":"32","PostalCode":"27200","AdditionalData":[{"value":"France","key":"CountryName"},{"value":"Normandie","key":"StateName"},{"value":"Eure","key":"CountyName"}]},"MapReference":{"ReferenceId":"556731203","Spot":0.77,"SideOfStreet":"right","CountryId":"20000001","StateId":"20057204","CountyId":"20002109","CityId":"20063314","DistrictId":"20423344","AddressId":"316777496","RoadLinkId":"47812320"}}},{"Relevance":1.0,"Distance":40.8,"MatchLevel":"houseNumber","MatchQuality":{"Country":1.0,"State":1.0,"County":1.0,"City":1.0,"District":1.0,"Street":[1.0],"HouseNumber":1.0,"PostalCode":1.0},"MatchType":"interpolated","Location":{"LocationId":"NT_SEYPIBgMq-0iHb3piq3CEB_xA","LocationType":"point","DisplayPosition":{"Latitude":49.09856,"Longitude":1.4911},"MapView":{"TopLeft":{"Latitude":49.0996842,"Longitude":1.4893831},"BottomRight":{"Latitude":49.0974358,"Longitude":1.4928169}},"Address":{"Label":"1 Rue du Docteur Chanoine, 27200 Vernon, France","Country":"FRA","State":"Normandie","County":"Eure","City":"Vernon","District":"Vernonnet","Street":"Rue du Docteur Chanoine","HouseNumber":"1","PostalCode":"27200","AdditionalData":[{"value":"France","key":"CountryName"},{"value":"Normandie","key":"StateName"},{"value":"Eure","key":"CountyName"}]},"MapReference":{"ReferenceId":"1041558404","Spot":0.04,"SideOfStreet":"left","CountryId":"20000001","StateId":"20057204","CountyId":"20002109","CityId":"20063314","DistrictId":"20423344","AddressId":"375596538","RoadLinkId":"363472155"}}},{"Relevance":1.0,"Distance":41.7,"MatchLevel":"houseNumber","MatchQuality":{"Country":1.0,"State":1.0,"County":1.0,"City":1.0,"District":1.0,"Street":[1.0],"HouseNumber":1.0,"PostalCode":1.0},"MatchType":"interpolated","Location":{"LocationId":"NT_aSjUXUcEdrlYAWSI3XUrLC_0A","LocationType":"point","DisplayPosition":{"Latitude":49.09868,"Longitude":1.49155},"MapView":{"TopLeft":{"Latitude":49.0998042,"Longitude":1.4898331},"BottomRight":{"Latitude":49.0975558,"Longitude":1.4932669}},"Address":{"Label":"4 Place Julie Charpentier, 27200 Vernon, France","Country":"FRA","State":"Normandie","County":"Eure","City":"Vernon","District":"Vernonnet","Street":"Place Julie Charpentier","HouseNumber":"4","PostalCode":"27200","AdditionalData":[{"value":"France","key":"CountryName"},{"value":"Normandie","key":"StateName"},{"value":"Eure","key":"CountyName"}]},"MapReference":{"ReferenceId":"844977377","Spot":0.82,"SideOfStreet":"left","CountryId":"20000001","StateId":"20057204","CountyId":"20002109","CityId":"20063314","DistrictId":"20423344","AddressId":"571131165","RoadLinkId":"226407772"}}},{"Relevance":1.0,"Distance":48.5,"MatchLevel":"houseNumber","MatchQuality":{"Country":1.0,"State":1.0,"County":1.0,"City":1.0,"District":1.0,"Street":[1.0],"HouseNumber":1.0,"PostalCode":1.0},"MatchType":"interpolated","Location":{"LocationId":"NT_h2Fl2ZeGkiYyYpKg8bMT2A_1A","LocationType":"point","DisplayPosition":{"Latitude":49.0981,"Longitude":1.4922},"MapView":{"TopLeft":{"Latitude":49.0992242,"Longitude":1.4904831},"BottomRight":{"Latitude":49.0969758,"Longitude":1.4939169}},"Address":{"Label":"5 Rue des 8 Portes, 27200 Vernon, France","Country":"FRA","State":"Normandie","County":"Eure","City":"Vernon","District":"Vernonnet","Street":"Rue des 8 Portes","HouseNumber":"5","PostalCode":"27200","AdditionalData":[{"value":"France","key":"CountryName"},{"value":"Normandie","key":"StateName"},{"value":"Eure","key":"CountyName"}]},"MapReference":{"ReferenceId":"1044790769","Spot":0.39,"SideOfStreet":"left","CountryId":"20000001","StateId":"20057204","CountyId":"20002109","CityId":"20063314","DistrictId":"20423344","AddressId":"316700942","RoadLinkId":"365009555"}}},{"Relevance":1.0,"Distance":59.0,"MatchLevel":"houseNumber","MatchQuality":{"Country":1.0,"State":1.0,"County":1.0,"City":1.0,"District":1.0,"Street":[1.0],"HouseNumber":1.0,"PostalCode":1.0},"MatchType":"interpolated","Location":{"LocationId":"NT_HtWvGL8a-W1IBvd-ESwjJD_0cD","LocationType":"point","DisplayPosition":{"Latitude":49.09853,"Longitude":1.49227},"MapView":{"TopLeft":{"Latitude":49.0996542,"Longitude":1.4905531},"BottomRight":{"Latitude":49.0974058,"Longitude":1.4939869}},"Address":{"Label":"47 D313, 27200 Vernon, France","Country":"FRA","State":"Normandie","County":"Eure","City":"Vernon","District":"Vernonnet","Street":"D313","HouseNumber":"47","PostalCode":"27200","AdditionalData":[{"value":"France","key":"CountryName"},{"value":"Normandie","key":"StateName"},{"value":"Eure","key":"CountyName"}]},"MapReference":{"ReferenceId":"762413331","Spot":0.25,"SideOfStreet":"right","CountryId":"20000001","StateId":"20057204","CountyId":"20002109","CityId":"20063314","DistrictId":"20423344","AddressId":"316659395","RoadLinkId":"156602821"}}}]}]}}