{"Response":{"MetaInfo":{"Timestamp":"2020-03-28T11:47:30.120+0000","NextPageInformation":"2"},"View":[{"_type":"SearchResultsViewType","ViewId":0,"Result":[{"Relevance":1.0,"Distance":0.0,"Direction":0.0,"MatchLevel":"city","MatchQuality":{"Country":1.0,"State":1.0,"County":1.0,"City":1.0,"PostalCode":1.0},"Location":{"LocationId":"NT_jv2iZy28tPP2QnLQZegSgB","LocationType":"point","DisplayPosition":{"Latitude":49.003463,"Longitude":2.514797},"MapView":{"TopLeft":{"Latitude":49.0287,"Longitude":2.48383},"BottomRight":{"Latitude":48.97879,"Longitude":2.55338}},"Address":{"Label":"Roissy-en-France, Île-de-France, France","Country":"FRA","State":"Île-de-France","County":"Val-d'Oise","City":"Roissy-en-France","PostalCode":"95700","AdditionalData":[{"value":"France","key":"CountryName"},{"value":"Île-de-France","key":"StateName"},{"value":"Val-d'Oise","key":"CountyName"}]},"MapReference":{"ReferenceId":"1054104557","SideOfStreet":"neither","CountryId":"20000001","StateId":"20002126","CountyId":"20005470","CityId":"20005906"}}},{"Relevance":1.0,"Distance":10.0,"MatchLevel":"houseNumber","MatchQuality":{"Country":1.0,"State":1.0,"County":1.0,"City":1.0,"Street":[1.0],"HouseNumber":1.0,"PostalCode":1.0},"MatchType":"interpolated","Location":{"LocationId":"NT_z3RcCCr.jKE1amKHiiTXWC_ycD","LocationType":"point","DisplayPosition":{"Latitude":49.00351,"Longitude":2.51504},"MapView":{"TopLeft":{"Latitude":49.0046342,"Longitude":2.5133264},"BottomRight":{"Latitude":49.0023858,"Longitude":2.5167536}},"Address":{"Label":"27 Rue Houdart, 95700 Roissy-en-France, France","Country":"FRA","State":"Île-de-France","County":"Val-d'Oise","City":"Roissy-en-France","Street":"Rue Houdart","HouseNumber":"27","PostalCode":"95700","AdditionalData":[{"value":"France","key":"CountryName"},{"value":"Île-de-France","key":"StateName"},{"value":"Val-d'Oise","key":"CountyName"}]},"MapReference":{"ReferenceId":"1067461404","Spot":0.25,"SideOfStreet":"left","CountryId":"20000001","StateId":"20002126","CountyId":"20005470","CityId":"20005906","AddressId":"321823050","RoadLinkId":"389764043"}}},{"Relevance":1.0,"Distance":18.1,"MatchLevel":"houseNumber","MatchQuality":{"Country":1.0,"State":1.0,"County":1.0,"City":1.0,"Street":[1.0],"HouseNumber":1.0,"PostalCode":1.0},"MatchType":"interpolated","Location":{"LocationId":"NT_z3RcCCr.jKE1amKHiiTXWC_yMD","LocationType":"point","DisplayPosition":{"Latitude":49.00332,"Longitude":2.51497},"MapView":{"TopLeft":{"Latitude":49.0044442,"Longitude":2.5132564},"BottomRight":{"Latitude":49.0021958,"Longitude":2.5166836}},"Address":{"Label":"23 Rue Houdart, 95700 Roissy-en-France, France","Country":"FRA","State":"Île-de-France","County":"Val-d'Oise","City":"Roissy-en-France","Street":"Rue Houdart","HouseNumber":"23","PostalCode":"95700","AdditionalData":[{"value":"France","key":"CountryName"},{"value":"Île-de-France","key":"StateName"},{"value":"Val-d'Oise","key":"CountyName"}]},"MapReference":{"ReferenceId":"1067461403","Spot":0.3,"SideOfStreet":"left","CountryId":"20000001","StateId":"20002126","CountyId":"20005470","CityId":"20005906","AddressId":"321823052","RoadLinkId":"389764042"}}},{"Relevance":1.0,"Distance":23.4,"MatchLevel":"houseNumber","MatchQuality":{"Country":1.0,"State":1.0,"County":1.0,"City":1.0,"Street":[1.0],"HouseNumber":1.0,"PostalCode":1.0},"MatchType":"interpolated","Location":{"LocationId":"NT_z3RcCCr.jKE1amKHiiTXWC_ykD","LocationType":"point","DisplayPosition":{"Latitude":49.00361,"Longitude":2.51507},"MapView":{"TopLeft":{"Latitude":49.0047342,"Longitude":2.5133564},"BottomRight":{"Latitude":49.0024858,"Longitude":2.5167836}},"Address":{"Label":"29 Rue Houdart, 95700 Roissy-en-France, France","Country":"FRA","State":"Île-de-France","County":"Val-d'Oise","City":"Roissy-en-France","Street":"Rue Houdart","HouseNumber":"29","PostalCode":"95700","AdditionalData":[{"value":"France","key":"CountryName"},{"value":"Île-de-France","key":"StateName"},{"value":"Val-d'Oise","key":"CountyName"}]},"MapReference":{"ReferenceId":"1067461402","Spot":0.05,"SideOfStreet":"left","CountryId":"20000001","StateId":"20002126","CountyId":"20005470","CityId":"20005906","AddressId":"321823048","RoadLinkId":"389764041"}}},{"Relevance":1.0,"Distance":35.2,"MatchLevel":"houseNumber","MatchQuality":{"Country":1.0,"State":1.0,"County":1.0,"City":1.0,"Street":[1.0],"HouseNumber":1.0,"PostalCode":1.0},"MatchType":"interpolated","Location":{"LocationId":"NT_z3RcCCr.jKE1amKHiiTXWC_yED","LocationType":"point","DisplayPosition":{"Latitude":49.00314,"Longitude":2.51491},"MapView":{"TopLeft":{"Latitude":49.0042642,"Longitude":2.5131964},"BottomRight":{"Latitude":49.0020158,"Longitude":2.5166236}},"Address":{"Label":"21 Rue Houdart, 95700 Roissy-en-France, France","Country":"FRA","State":"Île-de-France","County":"Val-d'Oise","City":"Roissy-en-France","Street":"Rue Houdart","HouseNumber":"21","PostalCode":"95700","AdditionalData":[{"value":"France","key":"CountryName"},{"value":"Île-de-France","key":"StateName"},{"value":"Val-d'Oise","key":"CountyName"}]},"MapReference":{"ReferenceId":"765900212","Spot":0.85,"SideOfStreet":"left","CountryId":"20000001","StateId":"20002126","CountyId":"20005470","CityId":"20005906","AddressId":"322356139","RoadLinkId":"159784082"}}},{"Relevance":1.0,"Distance":48.4,"MatchLevel":"houseNumber","MatchQuality":{"Country":1.0,"State":1.0,"County":1.0,"City":1.0,"Street":[1.0],"HouseNumber":1.0,"PostalCode":1.0},"MatchType":"interpolated","Location":{"LocationId":"NT_z3RcCCr.jKE1amKHiiTXWC_zUD","LocationType":"point","DisplayPosition":{"Latitude":49.00383,"Longitude":2.51515},"MapView":{"TopLeft":{"Latitude":49.0049542,"Longitude":2.5134364},"BottomRight":{"Latitude":49.0027058,"Longitude":2.5168636}},"Address":{"Label":"35 Rue Houdart, 95700 Roissy-en-France, France","Country":"FRA","State":"Île-de-France","County":"Val-d'Oise","City":"Roissy-en-France","Street":"Rue Houdart","HouseNumber":"35","PostalCode":"95700","AdditionalData":[{"value":"France","key":"CountryName"},{"value":"Île-de-France","key":"StateName"},{"value":"Val-d'Oise","key":"CountyName"}]},"MapReference":{"ReferenceId":"765813880","Spot":0.16,"SideOfStreet":"left","CountryId":"20000001","StateId":"20002126","CountyId":"20005470","CityId":"20005906","AddressId":"321845136","RoadLinkId":"159689776"}}},{"Relevance":1.0,"Distance":69.8,"MatchLevel":"houseNumber","MatchQuality":{"Country":1.0,"State":1.0,"County":1.0,"City":1.0,"Street":[1.0],"HouseNumber":1.0,"PostalCode":1.0},"MatchType":"interpolated","Location":{"LocationId":"NT_W5RA60kHxjsSfQJqJbu1MB_0A","LocationType":"point","DisplayPosition":{"Latitude":49.00409,"Longitude":2.51476},"MapView":{"TopLeft":{"Latitude":49.0052142,"Longitude":2.5130464},"BottomRight":{"Latitude":49.0029658,"Longitude":2.5164736}},"Address":{"Label":"4 Rue Jean Moulin, 95700 Roissy-en-France, France","Country":"FRA","State":"Île-de-France","County":"Val-d'Oise","City":"Roissy-en-France","Street":"Rue Jean Moulin","HouseNumber":"4","PostalCode":"95700","AdditionalData":[{"value":"France","key":"CountryName"},{"value":"Île-de-France","key":"StateName"},{"value":"Val-d'Oise","key":"CountyName"}]},"MapReference":{"ReferenceId":"765883441","Spot":0.56,"SideOfStreet":"left","CountryId":"20000001","StateId":"20002126","CountyId":"20005470","CityId":"20005906","AddressId":"322086462","RoadLinkId":"159761752"}}},{"Relevance":1.0,"Distance":80.5,"MatchLevel":"houseNumber","MatchQuality":{"Country":1.0,"State":1.0,"County":1.0,"City":1.0,"Street":[1.0],"HouseNumber":1.0,"PostalCode":1.0},"MatchType":"interpolated","Location":{"LocationId":"NT_pr6smHUqtCUx-a5nklO8PC_xED","LocationType":"point","DisplayPosition":{"Latitude":49.00404,"Longitude":2.51575},"MapView":{"TopLeft":{"Latitude":49.0051642,"Longitude":2.5140364},"BottomRight":{"Latitude":49.0029158,"Longitude":2.5174636}},"Address":{"Label":"11 Rue Dorval, 95700 Roissy-en-France, France","Country":"FRA","State":"Île-de-France","County":"Val-d'Oise","City":"Roissy-en-France","Street":"Rue Dorval","HouseNumber":"11","PostalCode":"95700","AdditionalData":[{"value":"France","key":"CountryName"},{"value":"Île-de-France","key":"StateName"},{"value":"Val-d'Oise","key":"CountyName"}]},"MapReference":{"ReferenceId":"1054104555","Spot":0.36,"SideOfStreet":"left","CountryId":"20000001","StateId":"20002126","CountyId":"20005470","CityId":"20005906","AddressId":"322278051","RoadLinkId":"373723270"}}},{"Relevance":1.0,"Distance":87.7,"MatchLevel":"houseNumber","MatchQuality":{"Country":1.0,"State":1.0,"County":1.0,"City":1.0,"Street":[1.0],"HouseNumber":1.0,"PostalCode":1.0},"MatchType":"interpolated","Location":{"LocationId":"NT_W5RA60kHxjsSfQJqJbu1MB_xA","LocationType":"point","DisplayPosition":{"Latitude":49.00406,"Longitude":2.51393},"MapView":{"TopLeft":{"Latitude":49.0051842,"Longitude":2.5122164},"BottomRight":{"Latitude":49.0029358,"Longitude":2.5156436}},"Address":{"Label":"1 Rue Jean Moulin, 95700 Roissy-en-France, France","Country":"FRA","State":"Île-de-France","County":"Val-d'Oise","City":"Roissy-en-France","Street":"Rue Jean Moulin","HouseNumber":"1","PostalCode":"95700","AdditionalData":[{"value":"France","key":"CountryName"},{"value":"Île-de-France","key":"StateName"},{"value":"Val-d'Oise","key":"CountyName"}]},"MapReference":{"ReferenceId":"765883440","Spot":0.43,"SideOfStreet":"right","CountryId":"20000001","StateId":"20002126","CountyId":"20005470","CityId":"20005906","AddressId":"322273575","RoadLinkId":"159761751"}}},{"Relevance":1.0,"Distance":88.9,"MatchLevel":"houseNumber","MatchQuality":{"Country":1.0,"State":1.0,"County":1.0,"City":1.0,"Street":[1.0],"HouseNumber":1.0,"PostalCode":1.0},"MatchType":"interpolated","Location":{"LocationId":"NT_xsp6Q4n1FukFFMT1wZutuC_0A","LocationType":"point","DisplayPosition":{"Latitude":49.00266,"Longitude":2.51425},"MapView":{"TopLeft":{"Latitude":49.0037842,"Longitude":2.5125364},"BottomRight":{"Latitude":49.0015358,"Longitude":2.5159636}},"Address":{"Label":"4 Rue de l'Europe, 95700 Roissy-en-France, France","Country":"FRA","State":"Île-de-France","County":"Val-d'Oise","City":"Roissy-en-France","Street":"Rue de l'Europe","HouseNumber":"4","PostalCode":"95700","AdditionalData":[{"value":"France","key":"CountryName"},{"value":"Île-de-France","key":"StateName"},{"value":"Val-d'Oise","key":"CountyName"}]},"MapReference":{"ReferenceId":"56234048","Spot":0.75,"SideOfStreet":"left","CountryId":"20000001","StateId":"20002126","CountyId":"20005470","CityId":"20005906","AddressId":"321945247","RoadLinkId":"43510809"}}}]}]}}